[
    {
        "id": "2509109271874904962",
        "title": "公共厕所",
        "address": "广东省梅州市五华县华兴南路与华新路交叉口西南方向26米左右",
        "tel": "",
        "category": "基础设施:公共设施:公共厕所",
        "type": 0,
        "location": {
            "lat": 23.921684,
            "lng": 115.776354
        },
        "ad_info": {
            "adcode": 441424,
            "province": "广东省",
            "city": "梅州市",
            "district": "五华县"
        }
    },
    {
        "id": "16188473340282381052",
        "title": "公共厕所",
        "address": "广东省梅州市五华县公园路与大存纪念桥交叉口正南方向284米左右",
        "tel": "",
        "category": "基础设施:公共设施:公共厕所",
        "type": 0,
        "location": {
            "lat": 23.916122,
            "lng": 115.778545
        },
        "ad_info": {
            "adcode": 441424,
            "province": "广东省",
            "city": "梅州市",
            "district": "五华县"
        }
    },
    {
        "id": "3243119178668877814",
        "title": "公共厕所",
        "address": "广东省梅州市蕉岭县东门路与环东路交叉口东南方向31米左右",
        "tel": "",
        "category": "基础设施:公共设施:公共厕所",
        "type": 0,
        "location": {
            "lat": 24.656075,
            "lng": 116.173427
        },
        "ad_info": {
            "adcode": 441427,
            "province": "广东省",
            "city": "梅州市",
            "district": "蕉岭县"
        }
    },
    {
        "id": "5525313232659135414",
        "title": "公共厕所",
        "address": "广东省梅州市丰顺县河滨路与沿江东路交叉口正东方向35米左右",
        "tel": "",
        "category": "基础设施:公共设施:公共厕所",
        "type": 0,
        "location": {
            "lat": 23.748251,
            "lng": 116.183443
        },
        "ad_info": {
            "adcode": 441423,
            "province": "广东省",
            "city": "梅州市",
            "district": "丰顺县"
        }
    },
    {
        "id": "13452718167499291321",
        "title": "公共厕所",
        "address": "广东省梅州市五华县华兴南路与宏达路交叉口正西方向215米左右",
        "tel": "",
        "category": "基础设施:公共设施:公共厕所",
        "type": 0,
        "location": {
            "lat": 23.922934,
            "lng": 115.769544
        },
        "ad_info": {
            "adcode": 441424,
            "province": "广东省",
            "city": "梅州市",
            "district": "五华县"
        }
    },
    {
        "id": "17084866887590802029",
        "title": "公共厕所",
        "address": "广东省梅州市五华县华城大道与金桥路交叉口西北方向50米左右",
        "tel": "",
        "category": "基础设施:公共设施:公共厕所",
        "type": 0,
        "location": {
            "lat": 24.069431,
            "lng": 115.610778
        },
        "ad_info": {
            "adcode": 441424,
            "province": "广东省",
            "city": "梅州市",
            "district": "五华县"
        }
    },
    {
        "id": "11015263224473568034",
        "title": "公共厕所",
        "address": "广东省梅州市丰顺县东山路与汤坑路交叉口西北方向71米左右",
        "tel": "",
        "category": "基础设施:公共设施:公共厕所",
        "type": 0,
        "location": {
            "lat": 23.760553,
            "lng": 116.181042
        },
        "ad_info": {
            "adcode": 441423,
            "province": "广东省",
            "city": "梅州市",
            "district": "丰顺县"
        }
    },
    {
        "id": "17988017886249323595",
        "title": "公共厕所",
        "address": "广东省梅州市五华县",
        "tel": "",
        "category": "基础设施:公共设施:公共厕所",
        "type": 0,
        "location": {
            "lat": 23.481469,
            "lng": 115.607188
        },
        "ad_info": {
            "adcode": 441424,
            "province": "广东省",
            "city": "梅州市",
            "district": "五华县"
        }
    },
    {
        "id": "7156981566195363206",
        "title": "公共厕所",
        "address": "广东省梅州市五华县广东电网充电站(黄龙汉光超顺基地)西北侧",
        "tel": "",
        "category": "基础设施:公共设施:公共厕所",
        "type": 0,
        "location": {
            "lat": 23.97416,
            "lng": 115.699489
        },
        "ad_info": {
            "adcode": 441424,
            "province": "广东省",
            "city": "梅州市",
            "district": "五华县"
        }
    },
    {
        "id": "6575091758083912444",
        "title": "公共厕所",
        "address": "广东省梅州市丰顺县潭江镇大胜田背文化广场",
        "tel": "",
        "category": "基础设施:公共设施:公共厕所",
        "type": 0,
        "location": {
            "lat": 24.033548,
            "lng": 116.549797
        },
        "ad_info": {
            "adcode": 441423,
            "province": "广东省",
            "city": "梅州市",
            "district": "丰顺县"
        }
    },
    {
        "id": "3761945797557849524",
        "title": "公共厕所",
        "address": "广东省梅州市丰顺县Y161与Y167交叉口正东方向1725米左右",
        "tel": "",
        "category": "基础设施:公共设施:公共厕所",
        "type": 0,
        "location": {
            "lat": 24.063117,
            "lng": 116.501698
        },
        "ad_info": {
            "adcode": 441423,
            "province": "广东省",
            "city": "梅州市",
            "district": "丰顺县"
        }
    },
    {
        "id": "8074374564073083872",
        "title": "公共厕所",
        "address": "广东省梅州市丰顺县G206与汕昆高速交叉口正北方向269米左右",
        "tel": "",
        "category": "基础设施:公共设施:公共厕所",
        "type": 0,
        "location": {
            "lat": 23.802495,
            "lng": 116.136564
        },
        "ad_info": {
            "adcode": 441423,
            "province": "广东省",
            "city": "梅州市",
            "district": "丰顺县"
        }
    },
    {
        "id": "2465157021640402337",
        "title": "公共厕所",
        "address": "广东省梅州市丰顺县北社街与汤尾街交叉口东北方向83米左右",
        "tel": "",
        "category": "基础设施:公共设施:公共厕所",
        "type": 0,
        "location": {
            "lat": 23.760504,
            "lng": 116.179313
        },
        "ad_info": {
            "adcode": 441423,
            "province": "广东省",
            "city": "梅州市",
            "district": "丰顺县"
        }
    },
    {
        "id": "15760557073604246627",
        "title": "公共厕所",
        "address": "广东省梅州市兴宁市和山河西路与贵华路交叉口东北方向50米左右",
        "tel": "",
        "category": "基础设施:公共设施:公共厕所",
        "type": 0,
        "location": {
            "lat": 24.131707,
            "lng": 115.746117
        },
        "ad_info": {
            "adcode": 441481,
            "province": "广东省",
            "city": "梅州市",
            "district": "兴宁市"
        }
    },
    {
        "id": "15532925335804420034",
        "title": "公共厕所",
        "address": "广东省梅州市蕉岭县长潭风景区环保公园旁",
        "tel": "",
        "category": "基础设施:公共设施:公共厕所",
        "type": 0,
        "location": {
            "lat": 24.674623,
            "lng": 116.146592
        },
        "ad_info": {
            "adcode": 441427,
            "province": "广东省",
            "city": "梅州市",
            "district": "蕉岭县"
        }
    },
    {
        "id": "9682187189225708585",
        "title": "公共厕所",
        "address": "广东省梅州市丰顺县东山西路与东山路交叉口西北方向231米左右",
        "tel": "",
        "category": "基础设施:公共设施:公共厕所",
        "type": 0,
        "location": {
            "lat": 23.763766,
            "lng": 116.182592
        },
        "ad_info": {
            "adcode": 441423,
            "province": "广东省",
            "city": "梅州市",
            "district": "丰顺县"
        }
    },
    {
        "id": "8662834514896232093",
        "title": "公共厕所",
        "address": "广东省梅州市梅江区强民路1号",
        "tel": "",
        "category": "基础设施:公共设施:公共厕所",
        "type": 0,
        "location": {
            "lat": 24.288364,
            "lng": 116.114661
        },
        "ad_info": {
            "adcode": 441402,
            "province": "广东省",
            "city": "梅州市",
            "district": "梅江区"
        }
    },
    {
        "id": "5498556243103475712",
        "title": "公共厕所",
        "address": "广东省梅州市蕉岭县G205与X046交叉口正南方向59米左右",
        "tel": "",
        "category": "基础设施:公共设施:公共厕所",
        "type": 0,
        "location": {
            "lat": 24.686923,
            "lng": 116.184055
        },
        "ad_info": {
            "adcode": 441427,
            "province": "广东省",
            "city": "梅州市",
            "district": "蕉岭县"
        }
    },
    {
        "id": "1504351721845415347",
        "title": "公共厕所",
        "address": "广东省梅州市梅江区凤尾苑一巷与新凤巷交叉口正南方向38米左右",
        "tel": "",
        "category": "基础设施:公共设施:公共厕所",
        "type": 0,
        "location": {
            "lat": 24.299238,
            "lng": 116.120689
        },
        "ad_info": {
            "adcode": 441402,
            "province": "广东省",
            "city": "梅州市",
            "district": "梅江区"
        }
    },
    {
        "id": "9891039554809750731",
        "title": "公共厕所",
        "address": "广东省梅州市丰顺县G206与Y051交叉口西北方向235米左右",
        "tel": "",
        "category": "基础设施:公共设施:公共厕所",
        "type": 0,
        "location": {
            "lat": 23.791086,
            "lng": 116.145571
        },
        "ad_info": {
            "adcode": 441423,
            "province": "广东省",
            "city": "梅州市",
            "district": "丰顺县"
        }
    },
    {
        "id": "13390027501396454256",
        "title": "公共厕所",
        "address": "广东省梅州市兴宁市中山东路与环城东路交叉口正北方向72米左右",
        "tel": "",
        "category": "基础设施:公共设施:公共厕所",
        "type": 0,
        "location": {
            "lat": 24.137929,
            "lng": 115.733956
        },
        "ad_info": {
            "adcode": 441481,
            "province": "广东省",
            "city": "梅州市",
            "district": "兴宁市"
        }
    },
    {
        "id": "2010023173202843420",
        "title": "公共厕所",
        "address": "广东省梅州市梅江区月梅莲塘巷与月梅路交叉口东北方向27米左右",
        "tel": "",
        "category": "基础设施:公共设施:公共厕所",
        "type": 0,
        "location": {
            "lat": 24.332891,
            "lng": 116.125858
        },
        "ad_info": {
            "adcode": 441402,
            "province": "广东省",
            "city": "梅州市",
            "district": "梅江区"
        }
    },
    {
        "id": "11091788193498701172",
        "title": "公共厕所",
        "address": "广东省梅州市丰顺县G206与韩山隧道交叉口东北方向701米左右",
        "tel": "",
        "category": "基础设施:公共设施:公共厕所",
        "type": 0,
        "location": {
            "lat": 23.860679,
            "lng": 116.167386
        },
        "ad_info": {
            "adcode": 441423,
            "province": "广东省",
            "city": "梅州市",
            "district": "丰顺县"
        }
    },
    {
        "id": "4574609970855394717",
        "title": "公共厕所",
        "address": "广东省梅州市平远县G206与进城大道交叉口东南方向424米左右",
        "tel": "",
        "category": "基础设施:公共设施:公共厕所",
        "type": 0,
        "location": {
            "lat": 24.514373,
            "lng": 115.912645
        },
        "ad_info": {
            "adcode": 441426,
            "province": "广东省",
            "city": "梅州市",
            "district": "平远县"
        }
    },
    {
        "id": "2531247752482431508",
        "title": "公共厕所",
        "address": "广东省梅州市兴宁市兴叶路与塘南街交叉口东北方向13米左右",
        "tel": "",
        "category": "基础设施:公共设施:公共厕所",
        "type": 0,
        "location": {
            "lat": 24.194397,
            "lng": 115.665511
        },
        "ad_info": {
            "adcode": 441481,
            "province": "广东省",
            "city": "梅州市",
            "district": "兴宁市"
        }
    },
    {
        "id": "16838572305533900593",
        "title": "公共厕所",
        "address": "广东省梅州市梅江区梅南路与梅江一路交叉口正西方向129米左右",
        "tel": "",
        "category": "基础设施:公共设施:公共厕所",
        "type": 0,
        "location": {
            "lat": 24.305841,
            "lng": 116.12035
        },
        "ad_info": {
            "adcode": 441402,
            "province": "广东省",
            "city": "梅州市",
            "district": "梅江区"
        }
    },
    {
        "id": "6708853647210922145",
        "title": "公共厕所",
        "address": "广东省梅州市梅江区彬芳大道与彬芳大道南交叉口正南方向176米左右",
        "tel": "",
        "category": "基础设施:公共设施:公共厕所",
        "type": 0,
        "location": {
            "lat": 24.258696,
            "lng": 116.130409
        },
        "ad_info": {
            "adcode": 441402,
            "province": "广东省",
            "city": "梅州市",
            "district": "梅江区"
        }
    },
    {
        "id": "1683151515954434107",
        "title": "公共厕所",
        "address": "广东省梅州市兴宁市公园路110号(垃圾处理站二楼)",
        "tel": "",
        "category": "基础设施:公共设施:公共厕所",
        "type": 0,
        "location": {
            "lat": 24.143491,
            "lng": 115.724282
        },
        "ad_info": {
            "adcode": 441481,
            "province": "广东省",
            "city": "梅州市",
            "district": "兴宁市"
        }
    },
    {
        "id": "2573095151584276068",
        "title": "公共厕所",
        "address": "广东省梅州市蕉岭县Y125与Y228交叉口正东方向407米左右",
        "tel": "",
        "category": "基础设施:公共设施:公共厕所",
        "type": 0,
        "location": {
            "lat": 24.637832,
            "lng": 116.157868
        },
        "ad_info": {
            "adcode": 441427,
            "province": "广东省",
            "city": "梅州市",
            "district": "蕉岭县"
        }
    },
    {
        "id": "4108694747175871199",
        "title": "公共厕所",
        "address": "广东省梅州市蕉岭县溪峰东路78-15号新希望幼儿园侧",
        "tel": "",
        "category": "基础设施:公共设施:公共厕所",
        "type": 0,
        "location": {
            "lat": 24.651764,
            "lng": 116.177685
        },
        "ad_info": {
            "adcode": 441427,
            "province": "广东省",
            "city": "梅州市",
            "district": "蕉岭县"
        }
    },
    {
        "id": "17708230728736785380",
        "title": "公共厕所",
        "address": "广东省梅州市梅江区梅新路与白马五巷交叉口正西方向122米左右",
        "tel": "",
        "category": "基础设施:公共设施:公共厕所",
        "type": 0,
        "location": {
            "lat": 24.290387,
            "lng": 116.119571
        },
        "ad_info": {
            "adcode": 441402,
            "province": "广东省",
            "city": "梅州市",
            "district": "梅江区"
        }
    },
    {
        "id": "11181689269385552195",
        "title": "公共厕所",
        "address": "广东省梅州市大埔县古城一街与环城大道交叉口东北方向66米左右",
        "tel": "",
        "category": "基础设施:公共设施:公共厕所",
        "type": 0,
        "location": {
            "lat": 24.36408,
            "lng": 116.694999
        },
        "ad_info": {
            "adcode": 441422,
            "province": "广东省",
            "city": "梅州市",
            "district": "大埔县"
        }
    },
    {
        "id": "4506229865426570115",
        "title": "公共厕所",
        "address": "广东省梅州市蕉岭县Y129与桃源西路交叉口东南方向191米左右",
        "tel": "",
        "category": "基础设施:公共设施:公共厕所",
        "type": 0,
        "location": {
            "lat": 24.651343,
            "lng": 116.155672
        },
        "ad_info": {
            "adcode": 441427,
            "province": "广东省",
            "city": "梅州市",
            "district": "蕉岭县"
        }
    },
    {
        "id": "1418894011739396420",
        "title": "公共厕所",
        "address": "广东省梅州市梅江区S333与开发区中路交叉口西北方向45米左右",
        "tel": "",
        "category": "基础设施:公共设施:公共厕所",
        "type": 0,
        "location": {
            "lat": 24.273589,
            "lng": 116.168117
        },
        "ad_info": {
            "adcode": 441402,
            "province": "广东省",
            "city": "梅州市",
            "district": "梅江区"
        }
    },
    {
        "id": "15750084748345825610",
        "title": "公共厕所",
        "address": "广东省梅州市平远县工业大道与平城北路交叉口西南方向57米左右",
        "tel": "",
        "category": "基础设施:公共设施:公共厕所",
        "type": 0,
        "location": {
            "lat": 24.585594,
            "lng": 115.908684
        },
        "ad_info": {
            "adcode": 441426,
            "province": "广东省",
            "city": "梅州市",
            "district": "平远县"
        }
    },
    {
        "id": "6732766085212592891",
        "title": "公共厕所",
        "address": "广东省梅州市兴宁市东沿江南路与学前路交叉口西南方向113米左右",
        "tel": "",
        "category": "基础设施:公共设施:公共厕所",
        "type": 0,
        "location": {
            "lat": 24.134022,
            "lng": 115.727769
        },
        "ad_info": {
            "adcode": 441481,
            "province": "广东省",
            "city": "梅州市",
            "district": "兴宁市"
        }
    },
    {
        "id": "1009678288188804832",
        "title": "公共厕所",
        "address": "广东省梅州市兴宁市人民大道与兴福路交叉口正西方向264米左右",
        "tel": "",
        "category": "基础设施:公共设施:公共厕所",
        "type": 0,
        "location": {
            "lat": 24.128929,
            "lng": 115.721222
        },
        "ad_info": {
            "adcode": 441481,
            "province": "广东省",
            "city": "梅州市",
            "district": "兴宁市"
        }
    },
    {
        "id": "7392173623599432803",
        "title": "长乐戏院公共厕所",
        "address": "广东省梅州市五华县水梅路与长乐街交叉口西南方向79米左右",
        "tel": "",
        "category": "基础设施:公共设施:公共厕所",
        "type": 0,
        "location": {
            "lat": 23.922277,
            "lng": 115.783445
        },
        "ad_info": {
            "adcode": 441424,
            "province": "广东省",
            "city": "梅州市",
            "district": "五华县"
        }
    },
    {
        "id": "5854350234056439814",
        "title": "公共厕所",
        "address": "广东省梅州市梅江区百花路与金利来大街交叉口西南方向71米左右",
        "tel": "",
        "category": "基础设施:公共设施:公共厕所",
        "type": 0,
        "location": {
            "lat": 24.305227,
            "lng": 116.109874
        },
        "ad_info": {
            "adcode": 441402,
            "province": "广东省",
            "city": "梅州市",
            "district": "梅江区"
        }
    },
    {
        "id": "12656332386245080844",
        "title": "洗手间",
        "address": "广东省梅州市兴宁市兴南大道兴宁站",
        "tel": "",
        "category": "基础设施:公共设施:公共厕所",
        "type": 0,
        "location": {
            "lat": 24.102226,
            "lng": 115.728275
        },
        "ad_info": {
            "adcode": 441481,
            "province": "广东省",
            "city": "梅州市",
            "district": "兴宁市"
        }
    },
    {
        "id": "15970518519706295742",
        "title": "公共厕所",
        "address": "广东省梅州市梅江区华苑路与梅江四路交叉口东北方向99米左右",
        "tel": "",
        "category": "基础设施:公共设施:公共厕所",
        "type": 0,
        "location": {
            "lat": 24.284113,
            "lng": 116.124306
        },
        "ad_info": {
            "adcode": 441402,
            "province": "广东省",
            "city": "梅州市",
            "district": "梅江区"
        }
    },
    {
        "id": "4017703985761929877",
        "title": "公共厕所",
        "address": "广东省梅州市梅江区富都路与正顺路交叉口正东方向31米左右",
        "tel": "",
        "category": "基础设施:公共设施:公共厕所",
        "type": 0,
        "location": {
            "lat": 24.281521,
            "lng": 116.113821
        },
        "ad_info": {
            "adcode": 441402,
            "province": "广东省",
            "city": "梅州市",
            "district": "梅江区"
        }
    },
    {
        "id": "11424719847646292157",
        "title": "公共厕所",
        "address": "广东省梅州市兴宁市Y487与墨池路交叉口东南方向586米左右",
        "tel": "",
        "category": "基础设施:公共设施:公共厕所",
        "type": 0,
        "location": {
            "lat": 24.090444,
            "lng": 115.736279
        },
        "ad_info": {
            "adcode": 441481,
            "province": "广东省",
            "city": "梅州市",
            "district": "兴宁市"
        }
    },
    {
        "id": "8218614991440552176",
        "title": "公共厕所",
        "address": "广东省梅州市梅江区梅州大道与梅正路交叉口西南方向147米左右",
        "tel": "",
        "category": "基础设施:公共设施:公共厕所",
        "type": 0,
        "location": {
            "lat": 24.313665,
            "lng": 116.107341
        },
        "ad_info": {
            "adcode": 441402,
            "province": "广东省",
            "city": "梅州市",
            "district": "梅江区"
        }
    },
    {
        "id": "14041591927966876302",
        "title": "公共厕所",
        "address": "广东省梅州市兴宁市南民路与新南一街交叉口正北方向21米左右",
        "tel": "",
        "category": "基础设施:公共设施:公共厕所",
        "type": 0,
        "location": {
            "lat": 24.129767,
            "lng": 115.734948
        },
        "ad_info": {
            "adcode": 441481,
            "province": "广东省",
            "city": "梅州市",
            "district": "兴宁市"
        }
    },
    {
        "id": "12977102553083922835",
        "title": "公共厕所",
        "address": "广东省梅州市梅江区豆子脉二巷与豆子脉路交叉口正北方向100米左右",
        "tel": "",
        "category": "基础设施:公共设施:公共厕所",
        "type": 0,
        "location": {
            "lat": 24.291909,
            "lng": 116.135845
        },
        "ad_info": {
            "adcode": 441402,
            "province": "广东省",
            "city": "梅州市",
            "district": "梅江区"
        }
    },
    {
        "id": "15560392937683187284",
        "title": "公共厕所",
        "address": "广东省梅州市梅江区圣山北路与客天下东路交叉口东南方向530米左右",
        "tel": "",
        "category": "基础设施:公共设施:公共厕所",
        "type": 0,
        "location": {
            "lat": 24.265264,
            "lng": 116.155917
        },
        "ad_info": {
            "adcode": 441402,
            "province": "广东省",
            "city": "梅州市",
            "district": "梅江区"
        }
    },
    {
        "id": "6546701361240592792",
        "title": "公共厕所",
        "address": "广东省梅州市梅江区X018与Y123交叉口正东方向223米左右",
        "tel": "",
        "category": "基础设施:公共设施:公共厕所",
        "type": 0,
        "location": {
            "lat": 24.342781,
            "lng": 116.114103
        },
        "ad_info": {
            "adcode": 441402,
            "province": "广东省",
            "city": "梅州市",
            "district": "梅江区"
        }
    },
    {
        "id": "5031707567636930398",
        "title": "公共厕所",
        "address": "广东省梅州市兴宁市S226与Y175交叉口西南方向640米左右",
        "tel": "",
        "category": "基础设施:公共设施:公共厕所",
        "type": 0,
        "location": {
            "lat": 24.384356,
            "lng": 115.606569
        },
        "ad_info": {
            "adcode": 441481,
            "province": "广东省",
            "city": "梅州市",
            "district": "兴宁市"
        }
    },
    {
        "id": "8934115270151805488",
        "title": "公共厕所",
        "address": "广东省梅州市兴宁市Y363与南山路交叉口正南方向484米左右",
        "tel": "",
        "category": "基础设施:公共设施:公共厕所",
        "type": 0,
        "location": {
            "lat": 24.100598,
            "lng": 115.707689
        },
        "ad_info": {
            "adcode": 441481,
            "province": "广东省",
            "city": "梅州市",
            "district": "兴宁市"
        }
    },
    {
        "id": "13851001502681638654",
        "title": "公共厕所",
        "address": "广东省梅州市梅江区丽都东路与金燕大道交叉口西北方向68米左右",
        "tel": "",
        "category": "基础设施:公共设施:公共厕所",
        "type": 0,
        "location": {
            "lat": 24.280293,
            "lng": 116.133829
        },
        "ad_info": {
            "adcode": 441402,
            "province": "广东省",
            "city": "梅州市",
            "district": "梅江区"
        }
    },
    {
        "id": "9865897303504202063",
        "title": "公共厕所",
        "address": "广东省梅州市梅江区月梅月塘村道与月梅路交叉口西南方向189米左右",
        "tel": "",
        "category": "基础设施:公共设施:公共厕所",
        "type": 0,
        "location": {
            "lat": 24.329475,
            "lng": 116.124173
        },
        "ad_info": {
            "adcode": 441402,
            "province": "广东省",
            "city": "梅州市",
            "district": "梅江区"
        }
    },
    {
        "id": "15369472828606937014",
        "title": "公共厕所",
        "address": "广东省梅州市梅江区梅松路与赤岃一路交叉口东南方向104米左右",
        "tel": "",
        "category": "基础设施:公共设施:公共厕所",
        "type": 0,
        "location": {
            "lat": 24.315447,
            "lng": 116.119847
        },
        "ad_info": {
            "adcode": 441402,
            "province": "广东省",
            "city": "梅州市",
            "district": "梅江区"
        }
    },
    {
        "id": "18194156935679055565",
        "title": "公共厕所",
        "address": "广东省梅州市梅江区三板桥路与教育路交叉口东北方向58米左右",
        "tel": "",
        "category": "基础设施:公共设施:公共厕所",
        "type": 0,
        "location": {
            "lat": 24.296916,
            "lng": 116.127378
        },
        "ad_info": {
            "adcode": 441402,
            "province": "广东省",
            "city": "梅州市",
            "district": "梅江区"
        }
    },
    {
        "id": "14989665678362425048",
        "title": "公共厕所",
        "address": "广东省梅州市大埔县Y189与西环路交叉口西南方向117米左右",
        "tel": "",
        "category": "基础设施:公共设施:公共厕所",
        "type": 0,
        "location": {
            "lat": 24.345327,
            "lng": 116.6778
        },
        "ad_info": {
            "adcode": 441422,
            "province": "广东省",
            "city": "梅州市",
            "district": "大埔县"
        }
    },
    {
        "id": "11794914501183804618",
        "title": "公共厕所",
        "address": "广东省梅州市梅江区仲元西路与元城路交叉口正南方向54米左右",
        "tel": "",
        "category": "基础设施:公共设施:公共厕所",
        "type": 0,
        "location": {
            "lat": 24.309895,
            "lng": 116.114536
        },
        "ad_info": {
            "adcode": 441402,
            "province": "广东省",
            "city": "梅州市",
            "district": "梅江区"
        }
    },
    {
        "id": "7124391356961047459",
        "title": "公共厕所",
        "address": "广东省梅州市梅江区客天下观光路与金燕大道交叉口正北方向81米左右",
        "tel": "",
        "category": "基础设施:公共设施:公共厕所",
        "type": 0,
        "location": {
            "lat": 24.269623,
            "lng": 116.142187
        },
        "ad_info": {
            "adcode": 441402,
            "province": "广东省",
            "city": "梅州市",
            "district": "梅江区"
        }
    },
    {
        "id": "6885919675859564718",
        "title": "公共厕所",
        "address": "广东省梅州市梅江区金山街道东山大道黄遵宪纪念馆",
        "tel": "",
        "category": "基础设施:公共设施:公共厕所",
        "type": 0,
        "location": {
            "lat": 24.310811,
            "lng": 116.130296
        },
        "ad_info": {
            "adcode": 441402,
            "province": "广东省",
            "city": "梅州市",
            "district": "梅江区"
        }
    },
    {
        "id": "5866900772430997812",
        "title": "公共厕所",
        "address": "广东省梅州市梅江区华南大道8号",
        "tel": "",
        "category": "基础设施:公共设施:公共厕所",
        "type": 0,
        "location": {
            "lat": 24.276695,
            "lng": 116.121487
        },
        "ad_info": {
            "adcode": 441402,
            "province": "广东省",
            "city": "梅州市",
            "district": "梅江区"
        }
    },
    {
        "id": "9818529883328024849",
        "title": "公共厕所",
        "address": "广东省梅州市大埔县S224与银江隧道交叉口东南方向33米左右",
        "tel": "",
        "category": "基础设施:公共设施:公共厕所",
        "type": 0,
        "location": {
            "lat": 24.261891,
            "lng": 116.350054
        },
        "ad_info": {
            "adcode": 441422,
            "province": "广东省",
            "city": "梅州市",
            "district": "大埔县"
        }
    },
    {
        "id": "11252033185446212341",
        "title": "公共厕所",
        "address": "广东省梅州市梅江区G206与湾下二路交叉口西北方向73米左右",
        "tel": "",
        "category": "基础设施:公共设施:公共厕所",
        "type": 0,
        "location": {
            "lat": 24.256217,
            "lng": 116.111605
        },
        "ad_info": {
            "adcode": 441402,
            "province": "广东省",
            "city": "梅州市",
            "district": "梅江区"
        }
    },
    {
        "id": "11036668530575961863",
        "title": "公共厕所",
        "address": "广东省梅州市梅江区东山大道与学院路交叉口西南方向78米左右",
        "tel": "",
        "category": "基础设施:公共设施:公共厕所",
        "type": 0,
        "location": {
            "lat": 24.317129,
            "lng": 116.12913
        },
        "ad_info": {
            "adcode": 441402,
            "province": "广东省",
            "city": "梅州市",
            "district": "梅江区"
        }
    },
    {
        "id": "5762958899704715606",
        "title": "公共厕所",
        "address": "广东省梅州市大埔县玉瓷路与陶润路交叉口正北方向506米左右",
        "tel": "",
        "category": "基础设施:公共设施:公共厕所",
        "type": 0,
        "location": {
            "lat": 24.185254,
            "lng": 116.64048
        },
        "ad_info": {
            "adcode": 441422,
            "province": "广东省",
            "city": "梅州市",
            "district": "大埔县"
        }
    },
    {
        "id": "17473556903202380560",
        "title": "公共厕所",
        "address": "广东省梅州市梅江区圣山中路与客天下东路交叉口西北方向83米左右",
        "tel": "",
        "category": "基础设施:公共设施:公共厕所",
        "type": 0,
        "location": {
            "lat": 24.264595,
            "lng": 116.148932
        },
        "ad_info": {
            "adcode": 441402,
            "province": "广东省",
            "city": "梅州市",
            "district": "梅江区"
        }
    },
    {
        "id": "10720287064631144477",
        "title": "公共厕所",
        "address": "广东省梅州市梅县区国商二街与水厂一巷交叉口正东方向126米左右",
        "tel": "",
        "category": "基础设施:公共设施:公共厕所",
        "type": 0,
        "location": {
            "lat": 24.29408,
            "lng": 116.113214
        },
        "ad_info": {
            "adcode": 441403,
            "province": "广东省",
            "city": "梅州市",
            "district": "梅县区"
        }
    },
    {
        "id": "2789949154061769094",
        "title": "公共厕所",
        "address": "广东省梅州市大埔县黄堂村黄堂小学东南方向60米",
        "tel": "",
        "category": "基础设施:公共设施:公共厕所",
        "type": 0,
        "location": {
            "lat": 24.46248,
            "lng": 116.72684
        },
        "ad_info": {
            "adcode": 441422,
            "province": "广东省",
            "city": "梅州市",
            "district": "大埔县"
        }
    },
    {
        "id": "3212472801476355712",
        "title": "公共厕所",
        "address": "广东省梅州市梅江区学艺路与文化路交叉口正北方向63米左右",
        "tel": "",
        "category": "基础设施:公共设施:公共厕所",
        "type": 0,
        "location": {
            "lat": 24.297201,
            "lng": 116.125483
        },
        "ad_info": {
            "adcode": 441402,
            "province": "广东省",
            "city": "梅州市",
            "district": "梅江区"
        }
    },
    {
        "id": "12294870522485664925",
        "title": "公共厕所",
        "address": "广东省梅州市梅江区圣山南路与圣山西路交叉口东南方向573米左右",
        "tel": "",
        "category": "基础设施:公共设施:公共厕所",
        "type": 0,
        "location": {
            "lat": 24.257194,
            "lng": 116.153004
        },
        "ad_info": {
            "adcode": 441402,
            "province": "广东省",
            "city": "梅州市",
            "district": "梅江区"
        }
    },
    {
        "id": "15357621522024930218",
        "title": "公共厕所",
        "address": "广东省梅州市梅江区东湖路与泰康路交叉口西南方向17米左右",
        "tel": "",
        "category": "基础设施:公共设施:公共厕所",
        "type": 0,
        "location": {
            "lat": 24.309813,
            "lng": 116.11879
        },
        "ad_info": {
            "adcode": 441402,
            "province": "广东省",
            "city": "梅州市",
            "district": "梅江区"
        }
    },
    {
        "id": "3063005009253326368",
        "title": "公共厕所",
        "address": "广东省梅州市兴宁市X014与X015交叉口正东方向18米左右",
        "tel": "",
        "category": "基础设施:公共设施:公共厕所",
        "type": 0,
        "location": {
            "lat": 24.388107,
            "lng": 115.681681
        },
        "ad_info": {
            "adcode": 441481,
            "province": "广东省",
            "city": "梅州市",
            "district": "兴宁市"
        }
    },
    {
        "id": "8314464084869177938",
        "title": "公共厕所",
        "address": "广东省梅州市兴宁市永兴路与泰宁路交叉口正北方向29米左右",
        "tel": "",
        "category": "基础设施:公共设施:公共厕所",
        "type": 0,
        "location": {
            "lat": 24.127754,
            "lng": 115.728147
        },
        "ad_info": {
            "adcode": 441481,
            "province": "广东省",
            "city": "梅州市",
            "district": "兴宁市"
        }
    },
    {
        "id": "3606365964594775478",
        "title": "公共厕所",
        "address": "广东省梅州市兴宁市人民大道与兴将路交叉口正西方向231米左右",
        "tel": "",
        "category": "基础设施:公共设施:公共厕所",
        "type": 0,
        "location": {
            "lat": 24.129799,
            "lng": 115.715649
        },
        "ad_info": {
            "adcode": 441481,
            "province": "广东省",
            "city": "梅州市",
            "district": "兴宁市"
        }
    },
    {
        "id": "17598047263921060758",
        "title": "公共厕所",
        "address": "广东省梅州市梅县区五横街中路与跃进路交叉口正南方向21米左右",
        "tel": "",
        "category": "基础设施:公共设施:公共厕所",
        "type": 0,
        "location": {
            "lat": 24.036688,
            "lng": 115.983183
        },
        "ad_info": {
            "adcode": 441403,
            "province": "广东省",
            "city": "梅州市",
            "district": "梅县区"
        }
    },
    {
        "id": "620750321204467316",
        "title": "公共厕所",
        "address": "广东省梅州市梅江区G206与干才桥交叉口东南方向177米左右",
        "tel": "",
        "category": "基础设施:公共设施:公共厕所",
        "type": 0,
        "location": {
            "lat": 24.369429,
            "lng": 116.051126
        },
        "ad_info": {
            "adcode": 441402,
            "province": "广东省",
            "city": "梅州市",
            "district": "梅江区"
        }
    },
    {
        "id": "7572600568755660253",
        "title": "公共厕所",
        "address": "广东省梅州市兴宁市和平路与德昌街交叉口正西方向38米左右",
        "tel": "",
        "category": "基础设施:公共设施:公共厕所",
        "type": 0,
        "location": {
            "lat": 24.135613,
            "lng": 115.739176
        },
        "ad_info": {
            "adcode": 441481,
            "province": "广东省",
            "city": "梅州市",
            "district": "兴宁市"
        }
    },
    {
        "id": "3423259339824672671",
        "title": "公共厕所",
        "address": "广东省梅州市梅县区大新路与新钱街交叉口东南100米",
        "tel": "",
        "category": "基础设施:公共设施:公共厕所",
        "type": 0,
        "location": {
            "lat": 24.277473,
            "lng": 116.089693
        },
        "ad_info": {
            "adcode": 441403,
            "province": "广东省",
            "city": "梅州市",
            "district": "梅县区"
        }
    },
    {
        "id": "2177379819061633781",
        "title": "公共厕所",
        "address": "广东省梅州市梅县区G206与汕昆高速交叉口正西方向1252米左右",
        "tel": "",
        "category": "基础设施:公共设施:公共厕所",
        "type": 0,
        "location": {
            "lat": 23.939988,
            "lng": 116.029594
        },
        "ad_info": {
            "adcode": 441403,
            "province": "广东省",
            "city": "梅州市",
            "district": "梅县区"
        }
    },
    {
        "id": "12353381817988248310",
        "title": "公共厕所",
        "address": "广东省梅州市梅江区S223与黄坑宫中桥交叉口正北方向1603米左右",
        "tel": "",
        "category": "基础设施:公共设施:公共厕所",
        "type": 0,
        "location": {
            "lat": 24.308603,
            "lng": 116.161048
        },
        "ad_info": {
            "adcode": 441402,
            "province": "广东省",
            "city": "梅州市",
            "district": "梅江区"
        }
    },
    {
        "id": "1353190385207159203",
        "title": "公共厕所",
        "address": "广东省梅州市大埔县油菜花海西侧280米",
        "tel": "",
        "category": "基础设施:公共设施:公共厕所",
        "type": 0,
        "location": {
            "lat": 24.324882,
            "lng": 116.877753
        },
        "ad_info": {
            "adcode": 441422,
            "province": "广东省",
            "city": "梅州市",
            "district": "大埔县"
        }
    },
    {
        "id": "15462162999413050548",
        "title": "公共厕所",
        "address": "广东省梅州市梅县区府前大道梅县区人民广场(东南角)",
        "tel": "",
        "category": "基础设施:公共设施:公共厕所",
        "type": 0,
        "location": {
            "lat": 24.276554,
            "lng": 116.080333
        },
        "ad_info": {
            "adcode": 441403,
            "province": "广东省",
            "city": "梅州市",
            "district": "梅县区"
        }
    },
    {
        "id": "18094752728186110108",
        "title": "公共厕所",
        "address": "广东省梅州市梅县区广梅中路与西山巷交叉口东南方向155米左右",
        "tel": "",
        "category": "基础设施:公共设施:公共厕所",
        "type": 0,
        "location": {
            "lat": 24.288731,
            "lng": 116.080731
        },
        "ad_info": {
            "adcode": 441403,
            "province": "广东省",
            "city": "梅州市",
            "district": "梅县区"
        }
    },
    {
        "id": "10400266063715215746",
        "title": "公共厕所",
        "address": "广东省梅州市丰顺县米街与西市路交叉口正西方向23米左右",
        "tel": "",
        "category": "基础设施:公共设施:公共厕所",
        "type": 0,
        "location": {
            "lat": 23.757844,
            "lng": 116.180312
        },
        "ad_info": {
            "adcode": 441423,
            "province": "广东省",
            "city": "梅州市",
            "district": "丰顺县"
        }
    },
    {
        "id": "11896151708532617291",
        "title": "公共厕所",
        "address": "广东省梅州市梅县区沿江北路与沿江半岛大道交叉口正西方向34米左右",
        "tel": "",
        "category": "基础设施:公共设施:公共厕所",
        "type": 0,
        "location": {
            "lat": 24.302754,
            "lng": 116.113424
        },
        "ad_info": {
            "adcode": 441403,
            "province": "广东省",
            "city": "梅州市",
            "district": "梅县区"
        }
    },
    {
        "id": "9919050840369496551",
        "title": "公共厕所",
        "address": "广东省梅州市梅县区府前街与府南路交叉口正北方向22米左右",
        "tel": "",
        "category": "基础设施:公共设施:公共厕所",
        "type": 0,
        "location": {
            "lat": 24.443896,
            "lng": 116.093632
        },
        "ad_info": {
            "adcode": 441403,
            "province": "广东省",
            "city": "梅州市",
            "district": "梅县区"
        }
    },
    {
        "id": "12597483414775330551",
        "title": "公共厕所",
        "address": "广东省梅州市梅江区市政府鸿苑路新苑平安小区",
        "tel": "",
        "category": "基础设施:公共设施:公共厕所",
        "type": 0,
        "location": {
            "lat": 24.290488,
            "lng": 116.123976
        },
        "ad_info": {
            "adcode": 441402,
            "province": "广东省",
            "city": "梅州市",
            "district": "梅江区"
        }
    },
    {
        "id": "11973246087046983935",
        "title": "公共厕所",
        "address": "广东省梅州市梅县区G205与S332交叉口正北方向520米左右",
        "tel": "",
        "category": "基础设施:公共设施:公共厕所",
        "type": 0,
        "location": {
            "lat": 24.507191,
            "lng": 116.179779
        },
        "ad_info": {
            "adcode": 441403,
            "province": "广东省",
            "city": "梅州市",
            "district": "梅县区"
        }
    },
    {
        "id": "11427588685480608993",
        "title": "公共厕所",
        "address": "广东省梅州市梅县区吉隆街与新满街交叉口西南方向63米左右",
        "tel": "",
        "category": "基础设施:公共设施:公共厕所",
        "type": 0,
        "location": {
            "lat": 24.271242,
            "lng": 116.08618
        },
        "ad_info": {
            "adcode": 441403,
            "province": "广东省",
            "city": "梅州市",
            "district": "梅县区"
        }
    },
    {
        "id": "11491393020309888938",
        "title": "公共厕所",
        "address": "广东省梅州市丰顺县太平北路与新生路交叉口正南方向108米左右",
        "tel": "",
        "category": "基础设施:公共设施:公共厕所",
        "type": 0,
        "location": {
            "lat": 23.764185,
            "lng": 116.171074
        },
        "ad_info": {
            "adcode": 441423,
            "province": "广东省",
            "city": "梅州市",
            "district": "丰顺县"
        }
    },
    {
        "id": "17644406333360374340",
        "title": "公共厕所",
        "address": "广东省梅州市梅江区八一大道与古洲路交叉口正南方向77米左右",
        "tel": "",
        "category": "基础设施:公共设施:公共厕所",
        "type": 0,
        "location": {
            "lat": 24.319041,
            "lng": 116.11229
        },
        "ad_info": {
            "adcode": 441402,
            "province": "广东省",
            "city": "梅州市",
            "district": "梅江区"
        }
    },
    {
        "id": "10203464992739376234",
        "title": "老市场公共厕所",
        "address": "广东省梅州市平远县振兴街与松塘街交叉口东南方向16米左右",
        "tel": "",
        "category": "基础设施:公共设施:公共厕所",
        "type": 0,
        "location": {
            "lat": 24.570549,
            "lng": 115.897419
        },
        "ad_info": {
            "adcode": 441426,
            "province": "广东省",
            "city": "梅州市",
            "district": "平远县"
        }
    },
    {
        "id": "13854789630885719097",
        "title": "公共厕所",
        "address": "广东省梅州市梅县区X023与广梅南路交叉口西南方向181米左右",
        "tel": "",
        "category": "基础设施:公共设施:公共厕所",
        "type": 0,
        "location": {
            "lat": 24.28043,
            "lng": 116.062859
        },
        "ad_info": {
            "adcode": 441403,
            "province": "广东省",
            "city": "梅州市",
            "district": "梅县区"
        }
    },
    {
        "id": "13655389768996067116",
        "title": "公共厕所",
        "address": "广东省梅州市梅县区Y081与国泰西路交叉口正东方向103米左右",
        "tel": "",
        "category": "基础设施:公共设施:公共厕所",
        "type": 0,
        "location": {
            "lat": 24.367526,
            "lng": 115.963926
        },
        "ad_info": {
            "adcode": 441403,
            "province": "广东省",
            "city": "梅州市",
            "district": "梅县区"
        }
    },
    {
        "id": "3112385078754018288",
        "title": "公共厕所",
        "address": "广东省梅州市梅江区皇业苑(华南大道西)",
        "tel": "",
        "category": "基础设施:公共设施:公共厕所",
        "type": 0,
        "location": {
            "lat": 24.266447,
            "lng": 116.112251
        },
        "ad_info": {
            "adcode": 441402,
            "province": "广东省",
            "city": "梅州市",
            "district": "梅江区"
        }
    },
    {
        "id": "10823889589066015393",
        "title": "院士广场公共厕所",
        "address": "广东省梅州市梅江区书山路院士广场内",
        "tel": "",
        "category": "基础设施:公共设施:公共厕所",
        "type": 0,
        "location": {
            "lat": 24.301048,
            "lng": 116.137732
        },
        "ad_info": {
            "adcode": 441402,
            "province": "广东省",
            "city": "梅州市",
            "district": "梅江区"
        }
    },
    {
        "id": "1718447796863871225",
        "title": "无障碍公共厕所",
        "address": "广东省梅州市梅县区一横路与广场二街交叉口正北方向37米左右",
        "tel": "",
        "category": "基础设施:公共设施:公共厕所",
        "type": 0,
        "location": {
            "lat": 24.287281,
            "lng": 116.104834
        },
        "ad_info": {
            "adcode": 441403,
            "province": "广东省",
            "city": "梅州市",
            "district": "梅县区"
        }
    },
    {
        "id": "5488582423427981588",
        "title": "公共厕所",
        "address": "广东省梅州市梅江区三板桥路与怡华路交叉口东北方向25米左右",
        "tel": "",
        "category": "基础设施:公共设施:公共厕所",
        "type": 0,
        "location": {
            "lat": 24.299209,
            "lng": 116.127787
        },
        "ad_info": {
            "adcode": 441402,
            "province": "广东省",
            "city": "梅州市",
            "district": "梅江区"
        }
    },
    {
        "id": "8244921050696812954",
        "title": "公共厕所",
        "address": "广东省梅州市梅县区G206与X020交叉口西北方向87米左右",
        "tel": "",
        "category": "基础设施:公共设施:公共厕所",
        "type": 0,
        "location": {
            "lat": 24.401487,
            "lng": 115.995723
        },
        "ad_info": {
            "adcode": 441403,
            "province": "广东省",
            "city": "梅州市",
            "district": "梅县区"
        }
    },
    {
        "id": "204298059528871829",
        "title": "公共厕所",
        "address": "广东省梅州市梅江区剑英公园大道辅路与约亭路交叉口西北260米",
        "tel": "",
        "category": "基础设施:公共设施:公共厕所",
        "type": 0,
        "location": {
            "lat": 24.258082,
            "lng": 116.119751
        },
        "ad_info": {
            "adcode": 441402,
            "province": "广东省",
            "city": "梅州市",
            "district": "梅江区"
        }
    },
    {
        "id": "17757710067754134372",
        "title": "公共厕所",
        "address": "广东省梅州市梅江区彬芳大道与彬芳大道南交叉口正东方向149米左右",
        "tel": "",
        "category": "基础设施:公共设施:公共厕所",
        "type": 0,
        "location": {
            "lat": 24.260163,
            "lng": 116.132472
        },
        "ad_info": {
            "adcode": 441402,
            "province": "广东省",
            "city": "梅州市",
            "district": "梅江区"
        }
    },
    {
        "id": "577468345649130939",
        "title": "公共厕所",
        "address": "广东省梅州市兴宁市兴新一路与环城北路交叉口正东方向27米左右",
        "tel": "",
        "category": "基础设施:公共设施:公共厕所",
        "type": 0,
        "location": {
            "lat": 24.143368,
            "lng": 115.730659
        },
        "ad_info": {
            "adcode": 441481,
            "province": "广东省",
            "city": "梅州市",
            "district": "兴宁市"
        }
    },
    {
        "id": "7942635385197210317",
        "title": "公共厕所",
        "address": "广东省梅州市大埔县人民东路与城东路交叉口东南方向106米左右",
        "tel": "",
        "category": "基础设施:公共设施:公共厕所",
        "type": 0,
        "location": {
            "lat": 24.353048,
            "lng": 116.698299
        },
        "ad_info": {
            "adcode": 441422,
            "province": "广东省",
            "city": "梅州市",
            "district": "大埔县"
        }
    },
    {
        "id": "7856344175691669916",
        "title": "旅游厕所",
        "address": "广东省梅州市平远县Y151与槐花路交叉口西北方向447米左右",
        "tel": "",
        "category": "基础设施:公共设施:公共厕所",
        "type": 0,
        "location": {
            "lat": 24.516041,
            "lng": 115.815743
        },
        "ad_info": {
            "adcode": 441426,
            "province": "广东省",
            "city": "梅州市",
            "district": "平远县"
        }
    },
    {
        "id": "1601017229062591751",
        "title": "公共厕所",
        "address": "广东省梅州市梅县区沿江南路3号",
        "tel": "",
        "category": "基础设施:公共设施:公共厕所",
        "type": 0,
        "location": {
            "lat": 24.275072,
            "lng": 116.100233
        },
        "ad_info": {
            "adcode": 441403,
            "province": "广东省",
            "city": "梅州市",
            "district": "梅县区"
        }
    },
    {
        "id": "7869699932860004105",
        "title": "公共厕所",
        "address": "广东省梅州市大埔县文化中路与文化路交叉口正东方向103米左右",
        "tel": "",
        "category": "基础设施:公共设施:公共厕所",
        "type": 0,
        "location": {
            "lat": 24.349583,
            "lng": 116.694659
        },
        "ad_info": {
            "adcode": 441422,
            "province": "广东省",
            "city": "梅州市",
            "district": "大埔县"
        }
    },
    {
        "id": "15142301971783095604",
        "title": "蕉岭服务区第二公共厕所",
        "address": "广东省梅州市蕉岭县G205与Y139交叉口正北方向1596米左右",
        "tel": "",
        "category": "基础设施:公共设施:公共厕所",
        "type": 0,
        "location": {
            "lat": 24.567573,
            "lng": 116.159004
        },
        "ad_info": {
            "adcode": 441427,
            "province": "广东省",
            "city": "梅州市",
            "district": "蕉岭县"
        }
    },
    {
        "id": "17666984982146456936",
        "title": "兴宁服务区公共厕所",
        "address": "广东省梅州市兴宁市G205与Y556交叉口正东方向880米左右",
        "tel": "",
        "category": "基础设施:公共设施:公共厕所",
        "type": 0,
        "location": {
            "lat": 24.14109,
            "lng": 115.822623
        },
        "ad_info": {
            "adcode": 441481,
            "province": "广东省",
            "city": "梅州市",
            "district": "兴宁市"
        }
    },
    {
        "id": "12535590652291174716",
        "title": "公共厕所",
        "address": "广东省梅州市兴宁市兴华路37号",
        "tel": "",
        "category": "基础设施:公共设施:公共厕所",
        "type": 0,
        "location": {
            "lat": 24.141121,
            "lng": 115.72532
        },
        "ad_info": {
            "adcode": 441481,
            "province": "广东省",
            "city": "梅州市",
            "district": "兴宁市"
        }
    },
    {
        "id": "15380050521765093168",
        "title": "蕉岭服务区第一公共厕所",
        "address": "广东省梅州市蕉岭县G205与Y139交叉口正北方向1404米左右",
        "tel": "",
        "category": "基础设施:公共设施:公共厕所",
        "type": 0,
        "location": {
            "lat": 24.565662,
            "lng": 116.15737
        },
        "ad_info": {
            "adcode": 441427,
            "province": "广东省",
            "city": "梅州市",
            "district": "蕉岭县"
        }
    },
    {
        "id": "8316194690151496434",
        "title": "南湖公共厕所",
        "address": "广东省梅州市平远县桃源居东南侧100米",
        "tel": "",
        "category": "基础设施:公共设施:公共厕所",
        "type": 0,
        "location": {
            "lat": 24.563094,
            "lng": 115.896669
        },
        "ad_info": {
            "adcode": 441426,
            "province": "广东省",
            "city": "梅州市",
            "district": "平远县"
        }
    },
    {
        "id": "4052302669940114708",
        "title": "茶阳服务区公共厕所",
        "address": "广东省梅州市大埔县S12梅龙高速与茶阳服务区交叉口西南360米",
        "tel": "",
        "category": "基础设施:公共设施:公共厕所",
        "type": 0,
        "location": {
            "lat": 24.467336,
            "lng": 116.658977
        },
        "ad_info": {
            "adcode": 441422,
            "province": "广东省",
            "city": "梅州市",
            "district": "大埔县"
        }
    },
    {
        "id": "14652045670431734433",
        "title": "老车站公共厕所",
        "address": "广东省梅州市平远县平城中路与站前路交叉口正南方向29米左右",
        "tel": "",
        "category": "基础设施:公共设施:公共厕所",
        "type": 0,
        "location": {
            "lat": 24.571976,
            "lng": 115.897823
        },
        "ad_info": {
            "adcode": 441426,
            "province": "广东省",
            "city": "梅州市",
            "district": "平远县"
        }
    },
    {
        "id": "325189286162772975",
        "title": "客天下国际大酒店-洗手间",
        "address": "广东省梅州市梅江区圣山中路客天下旅游产业园客天下深航国际酒店内",
        "tel": "",
        "category": "基础设施:公共设施:公共厕所",
        "type": 0,
        "location": {
            "lat": 24.26036,
            "lng": 116.15151
        },
        "ad_info": {
            "adcode": 441402,
            "province": "广东省",
            "city": "梅州市",
            "district": "梅江区"
        }
    },
    {
        "id": "2483167130027314185",
        "title": "坭陂服务区公共厕所",
        "address": "广东省梅州市兴宁市S226与Y385交叉口东北方向142米左右",
        "tel": "",
        "category": "基础设施:公共设施:公共厕所",
        "type": 0,
        "location": {
            "lat": 24.079127,
            "lng": 115.854007
        },
        "ad_info": {
            "adcode": 441481,
            "province": "广东省",
            "city": "梅州市",
            "district": "兴宁市"
        }
    },
    {
        "id": "18096064258069980184",
        "title": "无障碍公共厕所",
        "address": "广东省梅州市梅县区嘉应西路辅路与金秋街交叉口正东方向30米左右",
        "tel": "",
        "category": "基础设施:公共设施:公共厕所",
        "type": 0,
        "location": {
            "lat": 24.298457,
            "lng": 116.106368
        },
        "ad_info": {
            "adcode": 441403,
            "province": "广东省",
            "city": "梅州市",
            "district": "梅县区"
        }
    },
    {
        "id": "17855535509039261222",
        "title": "西阳服务区公共厕所",
        "address": "广东省梅州市梅江区西阳服务区(梅龙高速公路东)",
        "tel": "",
        "category": "基础设施:公共设施:公共厕所",
        "type": 0,
        "location": {
            "lat": 24.298449,
            "lng": 116.226312
        },
        "ad_info": {
            "adcode": 441402,
            "province": "广东省",
            "city": "梅州市",
            "district": "梅江区"
        }
    },
    {
        "id": "16108751907094943958",
        "title": "西阳服务区公共厕所",
        "address": "广东省梅州市梅江区S12梅龙高速与西阳服务区交叉口南380米",
        "tel": "",
        "category": "基础设施:公共设施:公共厕所",
        "type": 0,
        "location": {
            "lat": 24.298387,
            "lng": 116.224788
        },
        "ad_info": {
            "adcode": 441402,
            "province": "广东省",
            "city": "梅州市",
            "district": "梅江区"
        }
    },
    {
        "id": "4324526829427764225",
        "title": "第三卫生间",
        "address": "广东省梅州市大埔县城东路与新城路交叉口正东方向138米左右",
        "tel": "",
        "category": "基础设施:公共设施:公共厕所",
        "type": 0,
        "location": {
            "lat": 24.350118,
            "lng": 116.701185
        },
        "ad_info": {
            "adcode": 441422,
            "province": "广东省",
            "city": "梅州市",
            "district": "大埔县"
        }
    },
    {
        "id": "16058150544007138308",
        "title": "肯德基(兴田餐厅)-洗手间",
        "address": "广东省梅州市兴宁市兴田一路388-422号1楼",
        "tel": "",
        "category": "基础设施:公共设施:公共厕所",
        "type": 0,
        "location": {
            "lat": 24.147599,
            "lng": 115.725944
        },
        "ad_info": {
            "adcode": 441481,
            "province": "广东省",
            "city": "梅州市",
            "district": "兴宁市"
        }
    },
    {
        "id": "5193244027972034889",
        "title": "男洗手间(梅州梅江万达广场)",
        "address": "广东省梅州市梅江区金燕大道109号梅州梅江万达广场3F",
        "tel": "",
        "category": "基础设施:公共设施:男洗手间",
        "type": 0,
        "location": {
            "lat": 24.270896,
            "lng": 116.136666
        },
        "ad_info": {
            "adcode": 441402,
            "province": "广东省",
            "city": "梅州市",
            "district": "梅江区"
        }
    },
    {
        "id": "15988586853536532303",
        "title": "客都汇商业文化广场-女洗手间",
        "address": "广东省梅州市梅江区梅水路16号客都汇商业文化广场F4",
        "tel": "",
        "category": "基础设施:公共设施:女洗手间",
        "type": 0,
        "location": {
            "lat": 24.299104,
            "lng": 116.132969
        },
        "ad_info": {
            "adcode": 441402,
            "province": "广东省",
            "city": "梅州市",
            "district": "梅江区"
        }
    },
    {
        "id": "8669468006960821208",
        "title": "公共厕所",
        "address": "广东省梅州市大埔县G235与Y201交叉口正西方向843米左右",
        "tel": "",
        "category": "基础设施:公共设施:公共厕所",
        "type": 0,
        "location": {
            "lat": 24.281925,
            "lng": 116.507784
        },
        "ad_info": {
            "adcode": 441422,
            "province": "广东省",
            "city": "梅州市",
            "district": "大埔县"
        }
    },
    {
        "id": "12840640161356228989",
        "title": "公共厕所",
        "address": "广东省梅州市丰顺县北社街与米街交叉口西南方向99米左右",
        "tel": "",
        "category": "基础设施:公共设施:公共厕所",
        "type": 0,
        "location": {
            "lat": 23.758575,
            "lng": 116.17914
        },
        "ad_info": {
            "adcode": 441423,
            "province": "广东省",
            "city": "梅州市",
            "district": "丰顺县"
        }
    },
    {
        "id": "2937701546837455224",
        "title": "公共卫生间",
        "address": "广东省梅州市梅江区义化路与凌风东路交叉口正西方向53米左右",
        "tel": "",
        "category": "基础设施:公共设施:公共厕所",
        "type": 0,
        "location": {
            "lat": 24.308308,
            "lng": 116.116263
        },
        "ad_info": {
            "adcode": 441402,
            "province": "广东省",
            "city": "梅州市",
            "district": "梅江区"
        }
    },
    {
        "id": "8186569607958951466",
        "title": "公共厕所",
        "address": "广东省梅州市梅江区东山大道与学院路交叉口东北方向296米左右",
        "tel": "",
        "category": "基础设施:公共设施:公共厕所",
        "type": 0,
        "location": {
            "lat": 24.319752,
            "lng": 116.131351
        },
        "ad_info": {
            "adcode": 441402,
            "province": "广东省",
            "city": "梅州市",
            "district": "梅江区"
        }
    },
    {
        "id": "16311607673441731519",
        "title": "公共厕所",
        "address": "广东省梅州市梅县区G205与城东互通交叉口西南方向139米左右",
        "tel": "",
        "category": "基础设施:公共设施:公共厕所",
        "type": 0,
        "location": {
            "lat": 24.372841,
            "lng": 116.140645
        },
        "ad_info": {
            "adcode": 441403,
            "province": "广东省",
            "city": "梅州市",
            "district": "梅县区"
        }
    },
    {
        "id": "11302826267665949187",
        "title": "公共厕所",
        "address": "广东省梅州市蕉岭县X957(桃园东路)45号侧",
        "tel": "",
        "category": "基础设施:公共设施:公共厕所",
        "type": 0,
        "location": {
            "lat": 24.648145,
            "lng": 116.161302
        },
        "ad_info": {
            "adcode": 441427,
            "province": "广东省",
            "city": "梅州市",
            "district": "蕉岭县"
        }
    },
    {
        "id": "3438051747740653820",
        "title": "公共厕所",
        "address": "广东省梅州市平远县长热路与长田大道交叉口西北方向64米左右",
        "tel": "",
        "category": "基础设施:公共设施:公共厕所",
        "type": 0,
        "location": {
            "lat": 24.469098,
            "lng": 115.963288
        },
        "ad_info": {
            "adcode": 441426,
            "province": "广东省",
            "city": "梅州市",
            "district": "平远县"
        }
    },
    {
        "id": "18380200520051332156",
        "title": "206国道公共厕所",
        "address": "广东省梅州市平远县岭下河东路与环北路交叉口正南方向108米左右",
        "tel": "",
        "category": "基础设施:公共设施:公共厕所",
        "type": 0,
        "location": {
            "lat": 24.573223,
            "lng": 115.884908
        },
        "ad_info": {
            "adcode": 441426,
            "province": "广东省",
            "city": "梅州市",
            "district": "平远县"
        }
    },
    {
        "id": "13983664986798226426",
        "title": "公共厕所",
        "address": "广东省梅州市梅县区S223与Y328交叉口西北方向39米左右",
        "tel": "",
        "category": "基础设施:公共设施:公共厕所",
        "type": 0,
        "location": {
            "lat": 24.733419,
            "lng": 116.376421
        },
        "ad_info": {
            "adcode": 441403,
            "province": "广东省",
            "city": "梅州市",
            "district": "梅县区"
        }
    },
    {
        "id": "7839109774219101168",
        "title": "公共厕所",
        "address": "广东省梅州市五华县工业二横路与工业二路交叉口东北方向33米左右",
        "tel": "",
        "category": "基础设施:公共设施:公共厕所",
        "type": 0,
        "location": {
            "lat": 23.925425,
            "lng": 115.7538
        },
        "ad_info": {
            "adcode": 441424,
            "province": "广东省",
            "city": "梅州市",
            "district": "五华县"
        }
    },
    {
        "id": "16104890126525832952",
        "title": "公共厕所",
        "address": "广东省梅州市梅江区东仓巷与仲元东路交叉口正北方向89米左右",
        "tel": "",
        "category": "基础设施:公共设施:公共厕所",
        "type": 0,
        "location": {
            "lat": 24.310655,
            "lng": 116.117541
        },
        "ad_info": {
            "adcode": 441402,
            "province": "广东省",
            "city": "梅州市",
            "district": "梅江区"
        }
    },
    {
        "id": "3580726783255587267",
        "title": "客天下-公共厕所",
        "address": "广东省梅州市梅江区客天下东路与普育路交叉口西南方向146米左右",
        "tel": "",
        "category": "基础设施:公共设施:公共厕所",
        "type": 0,
        "location": {
            "lat": 24.265853,
            "lng": 116.150097
        },
        "ad_info": {
            "adcode": 441402,
            "province": "广东省",
            "city": "梅州市",
            "district": "梅江区"
        }
    },
    {
        "id": "3424259365808529866",
        "title": "公共厕所",
        "address": "广东省梅州市梅江区榕树塘一巷与法政路交叉口正西方向104米左右",
        "tel": "",
        "category": "基础设施:公共设施:公共厕所",
        "type": 0,
        "location": {
            "lat": 24.303077,
            "lng": 116.122267
        },
        "ad_info": {
            "adcode": 441402,
            "province": "广东省",
            "city": "梅州市",
            "district": "梅江区"
        }
    },
    {
        "id": "4811209596864782969",
        "title": "华美达酒店-洗手间",
        "address": "广东省梅州市梅江区彬芳大道107号华美达酒店1层",
        "tel": "",
        "category": "基础设施:公共设施:公共厕所",
        "type": 0,
        "location": {
            "lat": 24.2749,
            "lng": 116.13038
        },
        "ad_info": {
            "adcode": 441402,
            "province": "广东省",
            "city": "梅州市",
            "district": "梅江区"
        }
    },
    {
        "id": "10882176288519880369",
        "title": "公共厕所",
        "address": "广东省梅州市梅县区沿江南路与车上路交叉口正南方向32米左右",
        "tel": "",
        "category": "基础设施:公共设施:公共厕所",
        "type": 0,
        "location": {
            "lat": 24.261282,
            "lng": 116.089306
        },
        "ad_info": {
            "adcode": 441403,
            "province": "广东省",
            "city": "梅州市",
            "district": "梅县区"
        }
    },
    {
        "id": "639944925935217224",
        "title": "公共厕所",
        "address": "广东省梅州市平远县兴石路与平石路交叉口正西方向65米左右",
        "tel": "",
        "category": "基础设施:公共设施:公共厕所",
        "type": 0,
        "location": {
            "lat": 24.51124,
            "lng": 115.828308
        },
        "ad_info": {
            "adcode": 441426,
            "province": "广东省",
            "city": "梅州市",
            "district": "平远县"
        }
    },
    {
        "id": "4821717272975064813",
        "title": "公共厕所",
        "address": "广东省梅州市兴宁市G205与洋里横街交叉口正西方向156米左右",
        "tel": "",
        "category": "基础设施:公共设施:公共厕所",
        "type": 0,
        "location": {
            "lat": 24.127621,
            "lng": 115.779484
        },
        "ad_info": {
            "adcode": 441481,
            "province": "广东省",
            "city": "梅州市",
            "district": "兴宁市"
        }
    },
    {
        "id": "2495979777456398780",
        "title": "公共厕所",
        "address": "广东省梅州市梅江区圣山北路与客天下东路交叉口正东方向250米左右",
        "tel": "",
        "category": "基础设施:公共设施:公共厕所",
        "type": 0,
        "location": {
            "lat": 24.267753,
            "lng": 116.154157
        },
        "ad_info": {
            "adcode": 441402,
            "province": "广东省",
            "city": "梅州市",
            "district": "梅江区"
        }
    },
    {
        "id": "15555181200062178592",
        "title": "公共厕所",
        "address": "广东省梅州市大埔县X005与秀贤路交叉口正西方向1018米左右",
        "tel": "",
        "category": "基础设施:公共设施:公共厕所",
        "type": 0,
        "location": {
            "lat": 24.476943,
            "lng": 116.740925
        },
        "ad_info": {
            "adcode": 441422,
            "province": "广东省",
            "city": "梅州市",
            "district": "大埔县"
        }
    },
    {
        "id": "5203830175715456510",
        "title": "公共厕所",
        "address": "广东省梅州市梅江区仲元西路与道前街交叉口西北方向59米左右",
        "tel": "",
        "category": "基础设施:公共设施:公共厕所",
        "type": 0,
        "location": {
            "lat": 24.310387,
            "lng": 116.115455
        },
        "ad_info": {
            "adcode": 441402,
            "province": "广东省",
            "city": "梅州市",
            "district": "梅江区"
        }
    },
    {
        "id": "16696173959360856271",
        "title": "公共厕所",
        "address": "广东省梅州市梅江区五洲驾校训练场东侧260米",
        "tel": "",
        "category": "基础设施:公共设施:公共厕所",
        "type": 0,
        "location": {
            "lat": 24.297245,
            "lng": 116.083263
        },
        "ad_info": {
            "adcode": 441402,
            "province": "广东省",
            "city": "梅州市",
            "district": "梅江区"
        }
    },
    {
        "id": "10264189210439210489",
        "title": "公共厕所",
        "address": "广东省梅州市梅江区圣山中路与客天下东路交叉口正东方向522米左右",
        "tel": "",
        "category": "基础设施:公共设施:公共厕所",
        "type": 0,
        "location": {
            "lat": 24.263616,
            "lng": 116.154769
        },
        "ad_info": {
            "adcode": 441402,
            "province": "广东省",
            "city": "梅州市",
            "district": "梅江区"
        }
    },
    {
        "id": "12744830474239670094",
        "title": "公共厕所",
        "address": "广东省梅州市五华县S239与城西路交叉口正东方向98米左右",
        "tel": "",
        "category": "基础设施:公共设施:公共厕所",
        "type": 0,
        "location": {
            "lat": 23.933262,
            "lng": 115.758043
        },
        "ad_info": {
            "adcode": 441424,
            "province": "广东省",
            "city": "梅州市",
            "district": "五华县"
        }
    },
    {
        "id": "16392198949474309219",
        "title": "公共厕所",
        "address": "广东省梅州市梅江区圣山北路与客天下东路交叉口东南方向444米左右",
        "tel": "",
        "category": "基础设施:公共设施:公共厕所",
        "type": 0,
        "location": {
            "lat": 24.265356,
            "lng": 116.154897
        },
        "ad_info": {
            "adcode": 441402,
            "province": "广东省",
            "city": "梅州市",
            "district": "梅江区"
        }
    },
    {
        "id": "14861230245151539575",
        "title": "公共厕所",
        "address": "广东省梅州市蕉岭县大南街与福西街交叉口西北方向65米左右",
        "tel": "",
        "category": "基础设施:公共设施:公共厕所",
        "type": 0,
        "location": {
            "lat": 24.828002,
            "lng": 116.180761
        },
        "ad_info": {
            "adcode": 441427,
            "province": "广东省",
            "city": "梅州市",
            "district": "蕉岭县"
        }
    },
    {
        "id": "8707793265313502280",
        "title": "洗手间",
        "address": "广东省梅州市五华县五华双龙山旅游景区售票处东侧70米",
        "tel": "",
        "category": "基础设施:公共设施:公共厕所",
        "type": 0,
        "location": {
            "lat": 23.814415,
            "lng": 115.710755
        },
        "ad_info": {
            "adcode": 441424,
            "province": "广东省",
            "city": "梅州市",
            "district": "五华县"
        }
    },
    {
        "id": "7951520115232697617",
        "title": "公共厕所",
        "address": "广东省梅州市梅县区206国道与S19梅汕高速入口交叉口北120米",
        "tel": "",
        "category": "基础设施:公共设施:公共厕所",
        "type": 0,
        "location": {
            "lat": 24.139005,
            "lng": 116.079258
        },
        "ad_info": {
            "adcode": 441403,
            "province": "广东省",
            "city": "梅州市",
            "district": "梅县区"
        }
    },
    {
        "id": "1922402387049473992",
        "title": "公共厕所",
        "address": "广东省梅州市梅县区X025中新源石油加油站",
        "tel": "",
        "category": "基础设施:公共设施:公共厕所",
        "type": 0,
        "location": {
            "lat": 24.49457,
            "lng": 116.417741
        },
        "ad_info": {
            "adcode": 441403,
            "province": "广东省",
            "city": "梅州市",
            "district": "梅县区"
        }
    },
    {
        "id": "15832459317926881124",
        "title": "金苑公共厕所",
        "address": "广东省梅州市梅江区瓜园路与秋苑路交叉口正东方向180米左右",
        "tel": "",
        "category": "基础设施:公共设施:公共厕所",
        "type": 0,
        "location": {
            "lat": 24.300808,
            "lng": 116.108034
        },
        "ad_info": {
            "adcode": 441402,
            "province": "广东省",
            "city": "梅州市",
            "district": "梅江区"
        }
    },
    {
        "id": "6112484740644079790",
        "title": "公共厕所",
        "address": "广东省梅州市兴宁市东安街与中山东路交叉口正西方向82米左右",
        "tel": "",
        "category": "基础设施:公共设施:公共厕所",
        "type": 0,
        "location": {
            "lat": 24.137705,
            "lng": 115.735007
        },
        "ad_info": {
            "adcode": 441481,
            "province": "广东省",
            "city": "梅州市",
            "district": "兴宁市"
        }
    },
    {
        "id": "15973904387861451553",
        "title": "公共厕所",
        "address": "广东省梅州市蕉岭县Y219与桂岭大道交叉口正北方向351米左右",
        "tel": "",
        "category": "基础设施:公共设施:公共厕所",
        "type": 0,
        "location": {
            "lat": 24.632172,
            "lng": 116.167072
        },
        "ad_info": {
            "adcode": 441427,
            "province": "广东省",
            "city": "梅州市",
            "district": "蕉岭县"
        }
    },
    {
        "id": "15956172596456300699",
        "title": "新沙公共厕所",
        "address": "广东省梅州市梅江区新沙二巷与梅新路交叉口正南方向22米左右",
        "tel": "",
        "category": "基础设施:公共设施:公共厕所",
        "type": 0,
        "location": {
            "lat": 24.3015,
            "lng": 116.120182
        },
        "ad_info": {
            "adcode": 441402,
            "province": "广东省",
            "city": "梅州市",
            "district": "梅江区"
        }
    },
    {
        "id": "12531325978842070136",
        "title": "公共厕所",
        "address": "广东省梅州市梅县区S224与Y157交叉口正东方向235米左右",
        "tel": "",
        "category": "基础设施:公共设施:公共厕所",
        "type": 0,
        "location": {
            "lat": 24.369064,
            "lng": 116.259842
        },
        "ad_info": {
            "adcode": 441403,
            "province": "广东省",
            "city": "梅州市",
            "district": "梅县区"
        }
    },
    {
        "id": "14199340087041438780",
        "title": "公共厕所",
        "address": "广东省梅州市五华县横陂琴江大桥与琴江公路交叉口东340米",
        "tel": "",
        "category": "基础设施:公共设施:公共厕所",
        "type": 0,
        "location": {
            "lat": 23.870876,
            "lng": 115.75084
        },
        "ad_info": {
            "adcode": 441424,
            "province": "广东省",
            "city": "梅州市",
            "district": "五华县"
        }
    },
    {
        "id": "13809291478518349804",
        "title": "无障碍-洗手间",
        "address": "广东省梅州市梅江区金燕大道109号梅州梅江万达广场2F",
        "tel": "",
        "category": "基础设施:公共设施:无障碍洗手间",
        "type": 0,
        "location": {
            "lat": 24.270962,
            "lng": 116.135368
        },
        "ad_info": {
            "adcode": 441402,
            "province": "广东省",
            "city": "梅州市",
            "district": "梅江区"
        }
    },
    {
        "id": "2951996653850275258",
        "title": "公共厕所",
        "address": "广东省梅州市兴宁市兴南大道兴宁站停车场",
        "tel": "",
        "category": "基础设施:公共设施:公共厕所",
        "type": 0,
        "location": {
            "lat": 24.102888,
            "lng": 115.728507
        },
        "ad_info": {
            "adcode": 441481,
            "province": "广东省",
            "city": "梅州市",
            "district": "兴宁市"
        }
    },
    {
        "id": "13314678858784798853",
        "title": "公共厕所",
        "address": "广东省梅州市梅江区沙子墩路梅州市人民医院",
        "tel": "",
        "category": "基础设施:公共设施:公共厕所",
        "type": 0,
        "location": {
            "lat": 24.31105,
            "lng": 116.101572
        },
        "ad_info": {
            "adcode": 441402,
            "province": "广东省",
            "city": "梅州市",
            "district": "梅江区"
        }
    },
    {
        "id": "11584068657877236112",
        "title": "公共厕所",
        "address": "广东省梅州市梅江区客天下东路与普育路交叉口正南方向70米左右",
        "tel": "",
        "category": "基础设施:公共设施:公共厕所",
        "type": 0,
        "location": {
            "lat": 24.266351,
            "lng": 116.150974
        },
        "ad_info": {
            "adcode": 441402,
            "province": "广东省",
            "city": "梅州市",
            "district": "梅江区"
        }
    },
    {
        "id": "620167510087102177",
        "title": "男洗手间",
        "address": "广东省梅州市梅江区梅水路16号客都汇商业文化广场F5",
        "tel": "",
        "category": "基础设施:公共设施:男洗手间",
        "type": 0,
        "location": {
            "lat": 24.299079,
            "lng": 116.133006
        },
        "ad_info": {
            "adcode": 441402,
            "province": "广东省",
            "city": "梅州市",
            "district": "梅江区"
        }
    },
    {
        "id": "17483894855108583154",
        "title": "男洗手间",
        "address": "广东省梅州市梅江区梅水路16号客都汇商业文化广场F3",
        "tel": "",
        "category": "基础设施:公共设施:男洗手间",
        "type": 0,
        "location": {
            "lat": 24.299363,
            "lng": 116.132739
        },
        "ad_info": {
            "adcode": 441402,
            "province": "广东省",
            "city": "梅州市",
            "district": "梅江区"
        }
    },
    {
        "id": "10898829530939143926",
        "title": "男洗手间",
        "address": "广东省梅州市梅江区金燕大道109号梅州梅江万达广场4F",
        "tel": "",
        "category": "基础设施:公共设施:男洗手间",
        "type": 0,
        "location": {
            "lat": 24.270966,
            "lng": 116.1353
        },
        "ad_info": {
            "adcode": 441402,
            "province": "广东省",
            "city": "梅州市",
            "district": "梅江区"
        }
    },
    {
        "id": "7064420657811069753",
        "title": "男洗手间",
        "address": "广东省梅州市梅江区梅水路16号客都汇商业文化广场F1",
        "tel": "",
        "category": "基础设施:公共设施:男洗手间",
        "type": 0,
        "location": {
            "lat": 24.298777,
            "lng": 116.132464
        },
        "ad_info": {
            "adcode": 441402,
            "province": "广东省",
            "city": "梅州市",
            "district": "梅江区"
        }
    },
    {
        "id": "10432803597325812343",
        "title": "横陂服务区公共厕所",
        "address": "广东省梅州市五华县Y214与Y215交叉口东南方向1135米左右",
        "tel": "",
        "category": "基础设施:公共设施:公共厕所",
        "type": 0,
        "location": {
            "lat": 23.815454,
            "lng": 115.753178
        },
        "ad_info": {
            "adcode": 441424,
            "province": "广东省",
            "city": "梅州市",
            "district": "五华县"
        }
    },
    {
        "id": "2358073796814319251",
        "title": "无障碍公共厕所",
        "address": "广东省梅州市大埔县城东路与沿河东路交叉口东北方向128米左右",
        "tel": "",
        "category": "基础设施:公共设施:公共厕所",
        "type": 0,
        "location": {
            "lat": 24.350029,
            "lng": 116.701087
        },
        "ad_info": {
            "adcode": 441422,
            "province": "广东省",
            "city": "梅州市",
            "district": "大埔县"
        }
    },
    {
        "id": "17029530248428486676",
        "title": "无障碍-洗手间",
        "address": "广东省梅州市梅江区金燕大道109号梅州梅江万达广场2F",
        "tel": "",
        "category": "基础设施:公共设施:无障碍洗手间",
        "type": 0,
        "location": {
            "lat": 24.270971,
            "lng": 116.136656
        },
        "ad_info": {
            "adcode": 441402,
            "province": "广东省",
            "city": "梅州市",
            "district": "梅江区"
        }
    },
    {
        "id": "4089791299831618714",
        "title": "公共厕所(GD-MZ-0680)",
        "address": "广东省梅州市蕉岭县G205与长隆桥交叉口东南方向908米左右",
        "tel": "",
        "category": "基础设施:公共设施:公共厕所",
        "type": 0,
        "location": {
            "lat": 24.743428,
            "lng": 116.208587
        },
        "ad_info": {
            "adcode": 441427,
            "province": "广东省",
            "city": "梅州市",
            "district": "蕉岭县"
        }
    },
    {
        "id": "819336620071701979",
        "title": "公共卫生间",
        "address": "广东省梅州市梅县区Y254",
        "tel": "",
        "category": "基础设施:公共设施:公共厕所",
        "type": 0,
        "location": {
            "lat": 24.46131,
            "lng": 115.893175
        },
        "ad_info": {
            "adcode": 441403,
            "province": "广东省",
            "city": "梅州市",
            "district": "梅县区"
        }
    },
    {
        "id": "15085435427955010020",
        "title": "平远服务区公共厕所",
        "address": "广东省梅州市平远县天河路与朝龙路交叉口西北方向797米左右",
        "tel": "",
        "category": "基础设施:公共设施:公共厕所",
        "type": 0,
        "location": {
            "lat": 24.545007,
            "lng": 115.877202
        },
        "ad_info": {
            "adcode": 441426,
            "province": "广东省",
            "city": "梅州市",
            "district": "平远县"
        }
    },
    {
        "id": "9754765008412863725",
        "title": "公共卫生间",
        "address": "广东省梅州市丰顺县启智路与温泉路交叉口正东方向21米左右",
        "tel": "",
        "category": "基础设施:公共设施:公共厕所",
        "type": 0,
        "location": {
            "lat": 23.737918,
            "lng": 116.189587
        },
        "ad_info": {
            "adcode": 441423,
            "province": "广东省",
            "city": "梅州市",
            "district": "丰顺县"
        }
    },
    {
        "id": "16070186174438511220",
        "title": "公共厕所",
        "address": "广东省梅州市丰顺县Y152与Y156交叉口西南方向1093米左右",
        "tel": "",
        "category": "基础设施:公共设施:公共厕所",
        "type": 0,
        "location": {
            "lat": 24.08125,
            "lng": 116.239498
        },
        "ad_info": {
            "adcode": 441423,
            "province": "广东省",
            "city": "梅州市",
            "district": "丰顺县"
        }
    },
    {
        "id": "16077033866363312142",
        "title": "女洗手间",
        "address": "广东省梅州市梅江区梅水路16号客都汇商业文化广场F2",
        "tel": "",
        "category": "基础设施:公共设施:女洗手间",
        "type": 0,
        "location": {
            "lat": 24.298878,
            "lng": 116.132934
        },
        "ad_info": {
            "adcode": 441402,
            "province": "广东省",
            "city": "梅州市",
            "district": "梅江区"
        }
    },
    {
        "id": "17543708349977125358",
        "title": "公共厕所",
        "address": "广东省梅州市梅江区Y121与Y132交叉口东北方向717米左右",
        "tel": "",
        "category": "基础设施:公共设施:公共厕所",
        "type": 0,
        "location": {
            "lat": 24.348697,
            "lng": 116.048935
        },
        "ad_info": {
            "adcode": 441402,
            "province": "广东省",
            "city": "梅州市",
            "district": "梅江区"
        }
    },
    {
        "id": "6688395982145934859",
        "title": "男洗手间(梅州万达广场)",
        "address": "广东省梅州市梅江区金燕大道109号梅州梅江万达广场2F",
        "tel": "",
        "category": "基础设施:公共设施:男洗手间",
        "type": 0,
        "location": {
            "lat": 24.270927,
            "lng": 116.135281
        },
        "ad_info": {
            "adcode": 441402,
            "province": "广东省",
            "city": "梅州市",
            "district": "梅江区"
        }
    },
    {
        "id": "7934260522442980661",
        "title": "城北停车区公共厕所",
        "address": "广东省梅州市梅江区粤运能源城北停车区加油站西侧70米",
        "tel": "",
        "category": "基础设施:公共设施:公共厕所",
        "type": 0,
        "location": {
            "lat": 24.372118,
            "lng": 116.060417
        },
        "ad_info": {
            "adcode": 441402,
            "province": "广东省",
            "city": "梅州市",
            "district": "梅江区"
        }
    },
    {
        "id": "6006207619300554794",
        "title": "男洗手间",
        "address": "广东省梅州市梅江区梅水路16号客都汇商业文化广场F2",
        "tel": "",
        "category": "基础设施:公共设施:男洗手间",
        "type": 0,
        "location": {
            "lat": 24.298851,
            "lng": 116.132961
        },
        "ad_info": {
            "adcode": 441402,
            "province": "广东省",
            "city": "梅州市",
            "district": "梅江区"
        }
    },
    {
        "id": "16550186162299815597",
        "title": "女洗手间",
        "address": "广东省梅州市梅江区金燕大道109号梅州梅江万达广场3F",
        "tel": "",
        "category": "基础设施:公共设施:女洗手间",
        "type": 0,
        "location": {
            "lat": 24.270932,
            "lng": 116.1367
        },
        "ad_info": {
            "adcode": 441402,
            "province": "广东省",
            "city": "梅州市",
            "district": "梅江区"
        }
    },
    {
        "id": "10142692958267887533",
        "title": "新塘村莲塘公共厕所",
        "address": "广东省梅州市梅县区G206与梅南中桥交叉口正西方向288米左右",
        "tel": "",
        "category": "基础设施:公共设施:公共厕所",
        "type": 0,
        "location": {
            "lat": 24.140578,
            "lng": 116.076649
        },
        "ad_info": {
            "adcode": 441403,
            "province": "广东省",
            "city": "梅州市",
            "district": "梅县区"
        }
    },
    {
        "id": "13853245706465976014",
        "title": "移动厕所",
        "address": "广东省梅州市梅江区东郊工业大楼东北侧50米",
        "tel": "",
        "category": "基础设施:公共设施:公共厕所",
        "type": 0,
        "location": {
            "lat": 24.326707,
            "lng": 116.120762
        },
        "ad_info": {
            "adcode": 441402,
            "province": "广东省",
            "city": "梅州市",
            "district": "梅江区"
        }
    },
    {
        "id": "11477927097860192117",
        "title": "无障碍-洗手间",
        "address": "广东省梅州市梅江区金燕大道109号梅州梅江万达广场3F",
        "tel": "",
        "category": "基础设施:公共设施:无障碍洗手间",
        "type": 0,
        "location": {
            "lat": 24.27097,
            "lng": 116.136657
        },
        "ad_info": {
            "adcode": 441402,
            "province": "广东省",
            "city": "梅州市",
            "district": "梅江区"
        }
    },
    {
        "id": "6911124388440208180",
        "title": "女洗手间",
        "address": "广东省梅州市梅江区梅水路16号客都汇商业文化广场F3",
        "tel": "",
        "category": "基础设施:公共设施:女洗手间",
        "type": 0,
        "location": {
            "lat": 24.299389,
            "lng": 116.132706
        },
        "ad_info": {
            "adcode": 441402,
            "province": "广东省",
            "city": "梅州市",
            "district": "梅江区"
        }
    },
    {
        "id": "4329240973802999146",
        "title": "公共厕所",
        "address": "广东省梅州市丰顺县汤坑镇迎宾路丰顺会展中心",
        "tel": "",
        "category": "基础设施:公共设施:公共厕所",
        "type": 0,
        "location": {
            "lat": 23.738438,
            "lng": 116.183498
        },
        "ad_info": {
            "adcode": 441423,
            "province": "广东省",
            "city": "梅州市",
            "district": "丰顺县"
        }
    },
    {
        "id": "2202633447164748170",
        "title": "客都汇商业文化广场-男洗手间",
        "address": "广东省梅州市梅江区梅水路16号客都汇商业文化广场F4",
        "tel": "",
        "category": "基础设施:公共设施:男洗手间",
        "type": 0,
        "location": {
            "lat": 24.29907,
            "lng": 116.133033
        },
        "ad_info": {
            "adcode": 441402,
            "province": "广东省",
            "city": "梅州市",
            "district": "梅江区"
        }
    },
    {
        "id": "8139788881935981328",
        "title": "公共厕所",
        "address": "广东省梅州市兴宁市S225与黄槐1桥交叉口西南方向29米左右",
        "tel": "",
        "category": "基础设施:公共设施:公共厕所",
        "type": 0,
        "location": {
            "lat": 24.470609,
            "lng": 115.781786
        },
        "ad_info": {
            "adcode": 441481,
            "province": "广东省",
            "city": "梅州市",
            "district": "兴宁市"
        }
    },
    {
        "id": "3151164241804113077",
        "title": "公共厕所",
        "address": "广东省梅州市梅县区阳光城文澜府西侧100米",
        "tel": "",
        "category": "基础设施:公共设施:公共厕所",
        "type": 0,
        "location": {
            "lat": 24.258405,
            "lng": 116.063606
        },
        "ad_info": {
            "adcode": 441403,
            "province": "广东省",
            "city": "梅州市",
            "district": "梅县区"
        }
    },
    {
        "id": "16552940717877964841",
        "title": "公共厕所",
        "address": "广东省梅州市梅县区X026与车上路交叉口西北方向36米左右",
        "tel": "",
        "category": "基础设施:公共设施:公共厕所",
        "type": 0,
        "location": {
            "lat": 24.262249,
            "lng": 116.087034
        },
        "ad_info": {
            "adcode": 441403,
            "province": "广东省",
            "city": "梅州市",
            "district": "梅县区"
        }
    },
    {
        "id": "7742453321804823050",
        "title": "叶塘服务区公共厕所",
        "address": "广东省梅州市兴宁市中国石化叶塘东加油站南侧110米",
        "tel": "",
        "category": "基础设施:公共设施:公共厕所",
        "type": 0,
        "location": {
            "lat": 24.23386,
            "lng": 115.647415
        },
        "ad_info": {
            "adcode": 441481,
            "province": "广东省",
            "city": "梅州市",
            "district": "兴宁市"
        }
    },
    {
        "id": "704939236590424700",
        "title": "男洗手间(梅州万达广场)",
        "address": "广东省梅州市梅江区金燕大道109号梅州梅江万达广场2F",
        "tel": "",
        "category": "基础设施:公共设施:男洗手间",
        "type": 0,
        "location": {
            "lat": 24.270896,
            "lng": 116.136668
        },
        "ad_info": {
            "adcode": 441402,
            "province": "广东省",
            "city": "梅州市",
            "district": "梅江区"
        }
    },
    {
        "id": "6858233363054795203",
        "title": "公共厕所",
        "address": "广东省梅州市梅县区尧塘街与新民街交叉口东北方向33米左右",
        "tel": "",
        "category": "基础设施:公共设施:公共厕所",
        "type": 0,
        "location": {
            "lat": 24.632746,
            "lng": 116.442829
        },
        "ad_info": {
            "adcode": 441403,
            "province": "广东省",
            "city": "梅州市",
            "district": "梅县区"
        }
    },
    {
        "id": "10987710784388957210",
        "title": "公共厕所",
        "address": "广东省梅州市兴宁市G205与人民大道西交叉口西南方向763米左右",
        "tel": "",
        "category": "基础设施:公共设施:公共厕所",
        "type": 0,
        "location": {
            "lat": 24.121698,
            "lng": 115.673004
        },
        "ad_info": {
            "adcode": 441481,
            "province": "广东省",
            "city": "梅州市",
            "district": "兴宁市"
        }
    },
    {
        "id": "5904845434839038020",
        "title": "公共厕所",
        "address": "广东省梅州市蕉岭县中华大桥与中华大道交叉口正东方向39米左右",
        "tel": "",
        "category": "基础设施:公共设施:公共厕所",
        "type": 0,
        "location": {
            "lat": 24.657419,
            "lng": 116.154666
        },
        "ad_info": {
            "adcode": 441427,
            "province": "广东省",
            "city": "梅州市",
            "district": "蕉岭县"
        }
    },
    {
        "id": "2464178314771395962",
        "title": "水南村公共厕所",
        "address": "广东省梅州市五华县水南村",
        "tel": "",
        "category": "基础设施:公共设施:公共厕所",
        "type": 0,
        "location": {
            "lat": 23.496449,
            "lng": 115.547404
        },
        "ad_info": {
            "adcode": 441424,
            "province": "广东省",
            "city": "梅州市",
            "district": "五华县"
        }
    },
    {
        "id": "6109889805667951807",
        "title": "女洗手间(梅州万达广场)",
        "address": "广东省梅州市梅江区金燕大道109号梅州梅江万达广场2F",
        "tel": "",
        "category": "基础设施:公共设施:女洗手间",
        "type": 0,
        "location": {
            "lat": 24.270932,
            "lng": 116.136699
        },
        "ad_info": {
            "adcode": 441402,
            "province": "广东省",
            "city": "梅州市",
            "district": "梅江区"
        }
    },
    {
        "id": "17927929942221972477",
        "title": "女洗手间(梅州万达广场)",
        "address": "广东省梅州市梅江区金燕大道109号梅州梅江万达广场1F",
        "tel": "",
        "category": "基础设施:公共设施:女洗手间",
        "type": 0,
        "location": {
            "lat": 24.2709,
            "lng": 116.135321
        },
        "ad_info": {
            "adcode": 441402,
            "province": "广东省",
            "city": "梅州市",
            "district": "梅江区"
        }
    },
    {
        "id": "11523882255017018753",
        "title": "公共厕所",
        "address": "广东省梅州市平远县G206与长田径1号桥交叉口正南方向663米左右",
        "tel": "",
        "category": "基础设施:公共设施:公共厕所",
        "type": 0,
        "location": {
            "lat": 24.490045,
            "lng": 115.934619
        },
        "ad_info": {
            "adcode": 441426,
            "province": "广东省",
            "city": "梅州市",
            "district": "平远县"
        }
    },
    {
        "id": "11625341997725395827",
        "title": "公共厕所",
        "address": "广东省梅州市梅江区东风路与学子大道交叉口东380米",
        "tel": "",
        "category": "基础设施:公共设施:公共厕所",
        "type": 0,
        "location": {
            "lat": 24.308372,
            "lng": 116.141845
        },
        "ad_info": {
            "adcode": 441402,
            "province": "广东省",
            "city": "梅州市",
            "district": "梅江区"
        }
    },
    {
        "id": "5397817612009557884",
        "title": "公共厕所",
        "address": "广东省梅州市平远县兔子岗五路与平远大道南交叉口东北240米",
        "tel": "",
        "category": "基础设施:公共设施:公共厕所",
        "type": 0,
        "location": {
            "lat": 24.554867,
            "lng": 115.898897
        },
        "ad_info": {
            "adcode": 441426,
            "province": "广东省",
            "city": "梅州市",
            "district": "平远县"
        }
    },
    {
        "id": "13168161288646027342",
        "title": "女洗手间",
        "address": "广东省梅州市梅江区梅水路16号客都汇商业文化广场F5",
        "tel": "",
        "category": "基础设施:公共设施:女洗手间",
        "type": 0,
        "location": {
            "lat": 24.2991,
            "lng": 116.132971
        },
        "ad_info": {
            "adcode": 441402,
            "province": "广东省",
            "city": "梅州市",
            "district": "梅江区"
        }
    },
    {
        "id": "4865904082002206191",
        "title": "专业疏通厕所",
        "address": "广东省梅州市丰顺县S226与广湖上路交叉口西北方向120米左右",
        "tel": "",
        "category": "基础设施:公共设施:公共厕所",
        "type": 0,
        "location": {
            "lat": 23.765468,
            "lng": 116.151393
        },
        "ad_info": {
            "adcode": 441423,
            "province": "广东省",
            "city": "梅州市",
            "district": "丰顺县"
        }
    },
    {
        "id": "3902416826172901674",
        "title": "公共厕所",
        "address": "广东省梅州市丰顺县S242与X950交叉口正东方向98米左右",
        "tel": "",
        "category": "基础设施:公共设施:公共厕所",
        "type": 0,
        "location": {
            "lat": 24.059781,
            "lng": 116.320038
        },
        "ad_info": {
            "adcode": 441423,
            "province": "广东省",
            "city": "梅州市",
            "district": "丰顺县"
        }
    },
    {
        "id": "12434902337150219196",
        "title": "公共厕所",
        "address": "广东省梅州市大埔县大埔大道与西环路交叉口西南方向23米左右",
        "tel": "",
        "category": "基础设施:公共设施:公共厕所",
        "type": 0,
        "location": {
            "lat": 24.345797,
            "lng": 116.685241
        },
        "ad_info": {
            "adcode": 441422,
            "province": "广东省",
            "city": "梅州市",
            "district": "大埔县"
        }
    },
    {
        "id": "4329240973802999146",
        "title": "公共厕所",
        "address": "广东省梅州市丰顺县汤坑镇迎宾路丰顺会展中心",
        "tel": "",
        "category": "基础设施:公共设施:公共厕所",
        "type": 0,
        "location": {
            "lat": 23.738438,
            "lng": 116.183498
        },
        "ad_info": {
            "adcode": 441423,
            "province": "广东省",
            "city": "梅州市",
            "district": "丰顺县"
        }
    },
    {
        "id": "2202633447164748170",
        "title": "客都汇商业文化广场-男洗手间",
        "address": "广东省梅州市梅江区梅水路16号客都汇商业文化广场F4",
        "tel": "",
        "category": "基础设施:公共设施:男洗手间",
        "type": 0,
        "location": {
            "lat": 24.29907,
            "lng": 116.133033
        },
        "ad_info": {
            "adcode": 441402,
            "province": "广东省",
            "city": "梅州市",
            "district": "梅江区"
        }
    },
    {
        "id": "8139788881935981328",
        "title": "公共厕所",
        "address": "广东省梅州市兴宁市S225与黄槐1桥交叉口西南方向29米左右",
        "tel": "",
        "category": "基础设施:公共设施:公共厕所",
        "type": 0,
        "location": {
            "lat": 24.470609,
            "lng": 115.781786
        },
        "ad_info": {
            "adcode": 441481,
            "province": "广东省",
            "city": "梅州市",
            "district": "兴宁市"
        }
    },
    {
        "id": "3151164241804113077",
        "title": "公共厕所",
        "address": "广东省梅州市梅县区阳光城文澜府西侧100米",
        "tel": "",
        "category": "基础设施:公共设施:公共厕所",
        "type": 0,
        "location": {
            "lat": 24.258405,
            "lng": 116.063606
        },
        "ad_info": {
            "adcode": 441403,
            "province": "广东省",
            "city": "梅州市",
            "district": "梅县区"
        }
    },
    {
        "id": "16552940717877964841",
        "title": "公共厕所",
        "address": "广东省梅州市梅县区X026与车上路交叉口西北方向36米左右",
        "tel": "",
        "category": "基础设施:公共设施:公共厕所",
        "type": 0,
        "location": {
            "lat": 24.262249,
            "lng": 116.087034
        },
        "ad_info": {
            "adcode": 441403,
            "province": "广东省",
            "city": "梅州市",
            "district": "梅县区"
        }
    },
    {
        "id": "7742453321804823050",
        "title": "叶塘服务区公共厕所",
        "address": "广东省梅州市兴宁市中国石化叶塘东加油站南侧110米",
        "tel": "",
        "category": "基础设施:公共设施:公共厕所",
        "type": 0,
        "location": {
            "lat": 24.23386,
            "lng": 115.647415
        },
        "ad_info": {
            "adcode": 441481,
            "province": "广东省",
            "city": "梅州市",
            "district": "兴宁市"
        }
    },
    {
        "id": "704939236590424700",
        "title": "男洗手间(梅州万达广场)",
        "address": "广东省梅州市梅江区金燕大道109号梅州梅江万达广场2F",
        "tel": "",
        "category": "基础设施:公共设施:男洗手间",
        "type": 0,
        "location": {
            "lat": 24.270896,
            "lng": 116.136668
        },
        "ad_info": {
            "adcode": 441402,
            "province": "广东省",
            "city": "梅州市",
            "district": "梅江区"
        }
    },
    {
        "id": "6858233363054795203",
        "title": "公共厕所",
        "address": "广东省梅州市梅县区尧塘街与新民街交叉口东北方向33米左右",
        "tel": "",
        "category": "基础设施:公共设施:公共厕所",
        "type": 0,
        "location": {
            "lat": 24.632746,
            "lng": 116.442829
        },
        "ad_info": {
            "adcode": 441403,
            "province": "广东省",
            "city": "梅州市",
            "district": "梅县区"
        }
    },
    {
        "id": "10987710784388957210",
        "title": "公共厕所",
        "address": "广东省梅州市兴宁市G205与人民大道西交叉口西南方向763米左右",
        "tel": "",
        "category": "基础设施:公共设施:公共厕所",
        "type": 0,
        "location": {
            "lat": 24.121698,
            "lng": 115.673004
        },
        "ad_info": {
            "adcode": 441481,
            "province": "广东省",
            "city": "梅州市",
            "district": "兴宁市"
        }
    },
    {
        "id": "5904845434839038020",
        "title": "公共厕所",
        "address": "广东省梅州市蕉岭县中华大桥与中华大道交叉口正东方向39米左右",
        "tel": "",
        "category": "基础设施:公共设施:公共厕所",
        "type": 0,
        "location": {
            "lat": 24.657419,
            "lng": 116.154666
        },
        "ad_info": {
            "adcode": 441427,
            "province": "广东省",
            "city": "梅州市",
            "district": "蕉岭县"
        }
    },
    {
        "id": "2464178314771395962",
        "title": "水南村公共厕所",
        "address": "广东省梅州市五华县水南村",
        "tel": "",
        "category": "基础设施:公共设施:公共厕所",
        "type": 0,
        "location": {
            "lat": 23.496449,
            "lng": 115.547404
        },
        "ad_info": {
            "adcode": 441424,
            "province": "广东省",
            "city": "梅州市",
            "district": "五华县"
        }
    },
    {
        "id": "6109889805667951807",
        "title": "女洗手间(梅州万达广场)",
        "address": "广东省梅州市梅江区金燕大道109号梅州梅江万达广场2F",
        "tel": "",
        "category": "基础设施:公共设施:女洗手间",
        "type": 0,
        "location": {
            "lat": 24.270932,
            "lng": 116.136699
        },
        "ad_info": {
            "adcode": 441402,
            "province": "广东省",
            "city": "梅州市",
            "district": "梅江区"
        }
    },
    {
        "id": "17927929942221972477",
        "title": "女洗手间(梅州万达广场)",
        "address": "广东省梅州市梅江区金燕大道109号梅州梅江万达广场1F",
        "tel": "",
        "category": "基础设施:公共设施:女洗手间",
        "type": 0,
        "location": {
            "lat": 24.2709,
            "lng": 116.135321
        },
        "ad_info": {
            "adcode": 441402,
            "province": "广东省",
            "city": "梅州市",
            "district": "梅江区"
        }
    },
    {
        "id": "11523882255017018753",
        "title": "公共厕所",
        "address": "广东省梅州市平远县G206与长田径1号桥交叉口正南方向663米左右",
        "tel": "",
        "category": "基础设施:公共设施:公共厕所",
        "type": 0,
        "location": {
            "lat": 24.490045,
            "lng": 115.934619
        },
        "ad_info": {
            "adcode": 441426,
            "province": "广东省",
            "city": "梅州市",
            "district": "平远县"
        }
    },
    {
        "id": "11625341997725395827",
        "title": "公共厕所",
        "address": "广东省梅州市梅江区东风路与学子大道交叉口东380米",
        "tel": "",
        "category": "基础设施:公共设施:公共厕所",
        "type": 0,
        "location": {
            "lat": 24.308372,
            "lng": 116.141845
        },
        "ad_info": {
            "adcode": 441402,
            "province": "广东省",
            "city": "梅州市",
            "district": "梅江区"
        }
    },
    {
        "id": "5397817612009557884",
        "title": "公共厕所",
        "address": "广东省梅州市平远县兔子岗五路与平远大道南交叉口东北240米",
        "tel": "",
        "category": "基础设施:公共设施:公共厕所",
        "type": 0,
        "location": {
            "lat": 24.554867,
            "lng": 115.898897
        },
        "ad_info": {
            "adcode": 441426,
            "province": "广东省",
            "city": "梅州市",
            "district": "平远县"
        }
    },
    {
        "id": "13168161288646027342",
        "title": "女洗手间",
        "address": "广东省梅州市梅江区梅水路16号客都汇商业文化广场F5",
        "tel": "",
        "category": "基础设施:公共设施:女洗手间",
        "type": 0,
        "location": {
            "lat": 24.2991,
            "lng": 116.132971
        },
        "ad_info": {
            "adcode": 441402,
            "province": "广东省",
            "city": "梅州市",
            "district": "梅江区"
        }
    },
    {
        "id": "4865904082002206191",
        "title": "专业疏通厕所",
        "address": "广东省梅州市丰顺县S226与广湖上路交叉口西北方向120米左右",
        "tel": "",
        "category": "基础设施:公共设施:公共厕所",
        "type": 0,
        "location": {
            "lat": 23.765468,
            "lng": 116.151393
        },
        "ad_info": {
            "adcode": 441423,
            "province": "广东省",
            "city": "梅州市",
            "district": "丰顺县"
        }
    },
    {
        "id": "3902416826172901674",
        "title": "公共厕所",
        "address": "广东省梅州市丰顺县S242与X950交叉口正东方向98米左右",
        "tel": "",
        "category": "基础设施:公共设施:公共厕所",
        "type": 0,
        "location": {
            "lat": 24.059781,
            "lng": 116.320038
        },
        "ad_info": {
            "adcode": 441423,
            "province": "广东省",
            "city": "梅州市",
            "district": "丰顺县"
        }
    },
    {
        "id": "12434902337150219196",
        "title": "公共厕所",
        "address": "广东省梅州市大埔县大埔大道与西环路交叉口西南方向23米左右",
        "tel": "",
        "category": "基础设施:公共设施:公共厕所",
        "type": 0,
        "location": {
            "lat": 24.345797,
            "lng": 116.685241
        },
        "ad_info": {
            "adcode": 441422,
            "province": "广东省",
            "city": "梅州市",
            "district": "大埔县"
        }
    },
    {
        "id": "4329240973802999146",
        "title": "公共厕所",
        "address": "广东省梅州市丰顺县汤坑镇迎宾路丰顺会展中心",
        "tel": "",
        "category": "基础设施:公共设施:公共厕所",
        "type": 0,
        "location": {
            "lat": 23.738438,
            "lng": 116.183498
        },
        "ad_info": {
            "adcode": 441423,
            "province": "广东省",
            "city": "梅州市",
            "district": "丰顺县"
        }
    },
    {
        "id": "2202633447164748170",
        "title": "客都汇商业文化广场-男洗手间",
        "address": "广东省梅州市梅江区梅水路16号客都汇商业文化广场F4",
        "tel": "",
        "category": "基础设施:公共设施:男洗手间",
        "type": 0,
        "location": {
            "lat": 24.29907,
            "lng": 116.133033
        },
        "ad_info": {
            "adcode": 441402,
            "province": "广东省",
            "city": "梅州市",
            "district": "梅江区"
        }
    },
    {
        "id": "8139788881935981328",
        "title": "公共厕所",
        "address": "广东省梅州市兴宁市S225与黄槐1桥交叉口西南方向29米左右",
        "tel": "",
        "category": "基础设施:公共设施:公共厕所",
        "type": 0,
        "location": {
            "lat": 24.470609,
            "lng": 115.781786
        },
        "ad_info": {
            "adcode": 441481,
            "province": "广东省",
            "city": "梅州市",
            "district": "兴宁市"
        }
    },
    {
        "id": "3151164241804113077",
        "title": "公共厕所",
        "address": "广东省梅州市梅县区阳光城文澜府西侧100米",
        "tel": "",
        "category": "基础设施:公共设施:公共厕所",
        "type": 0,
        "location": {
            "lat": 24.258405,
            "lng": 116.063606
        },
        "ad_info": {
            "adcode": 441403,
            "province": "广东省",
            "city": "梅州市",
            "district": "梅县区"
        }
    },
    {
        "id": "16552940717877964841",
        "title": "公共厕所",
        "address": "广东省梅州市梅县区X026与车上路交叉口西北方向36米左右",
        "tel": "",
        "category": "基础设施:公共设施:公共厕所",
        "type": 0,
        "location": {
            "lat": 24.262249,
            "lng": 116.087034
        },
        "ad_info": {
            "adcode": 441403,
            "province": "广东省",
            "city": "梅州市",
            "district": "梅县区"
        }
    },
    {
        "id": "7742453321804823050",
        "title": "叶塘服务区公共厕所",
        "address": "广东省梅州市兴宁市中国石化叶塘东加油站南侧110米",
        "tel": "",
        "category": "基础设施:公共设施:公共厕所",
        "type": 0,
        "location": {
            "lat": 24.23386,
            "lng": 115.647415
        },
        "ad_info": {
            "adcode": 441481,
            "province": "广东省",
            "city": "梅州市",
            "district": "兴宁市"
        }
    },
    {
        "id": "704939236590424700",
        "title": "男洗手间(梅州万达广场)",
        "address": "广东省梅州市梅江区金燕大道109号梅州梅江万达广场2F",
        "tel": "",
        "category": "基础设施:公共设施:男洗手间",
        "type": 0,
        "location": {
            "lat": 24.270896,
            "lng": 116.136668
        },
        "ad_info": {
            "adcode": 441402,
            "province": "广东省",
            "city": "梅州市",
            "district": "梅江区"
        }
    },
    {
        "id": "6858233363054795203",
        "title": "公共厕所",
        "address": "广东省梅州市梅县区尧塘街与新民街交叉口东北方向33米左右",
        "tel": "",
        "category": "基础设施:公共设施:公共厕所",
        "type": 0,
        "location": {
            "lat": 24.632746,
            "lng": 116.442829
        },
        "ad_info": {
            "adcode": 441403,
            "province": "广东省",
            "city": "梅州市",
            "district": "梅县区"
        }
    },
    {
        "id": "10987710784388957210",
        "title": "公共厕所",
        "address": "广东省梅州市兴宁市G205与人民大道西交叉口西南方向763米左右",
        "tel": "",
        "category": "基础设施:公共设施:公共厕所",
        "type": 0,
        "location": {
            "lat": 24.121698,
            "lng": 115.673004
        },
        "ad_info": {
            "adcode": 441481,
            "province": "广东省",
            "city": "梅州市",
            "district": "兴宁市"
        }
    },
    {
        "id": "5904845434839038020",
        "title": "公共厕所",
        "address": "广东省梅州市蕉岭县中华大桥与中华大道交叉口正东方向39米左右",
        "tel": "",
        "category": "基础设施:公共设施:公共厕所",
        "type": 0,
        "location": {
            "lat": 24.657419,
            "lng": 116.154666
        },
        "ad_info": {
            "adcode": 441427,
            "province": "广东省",
            "city": "梅州市",
            "district": "蕉岭县"
        }
    },
    {
        "id": "2464178314771395962",
        "title": "水南村公共厕所",
        "address": "广东省梅州市五华县水南村",
        "tel": "",
        "category": "基础设施:公共设施:公共厕所",
        "type": 0,
        "location": {
            "lat": 23.496449,
            "lng": 115.547404
        },
        "ad_info": {
            "adcode": 441424,
            "province": "广东省",
            "city": "梅州市",
            "district": "五华县"
        }
    },
    {
        "id": "6109889805667951807",
        "title": "女洗手间(梅州万达广场)",
        "address": "广东省梅州市梅江区金燕大道109号梅州梅江万达广场2F",
        "tel": "",
        "category": "基础设施:公共设施:女洗手间",
        "type": 0,
        "location": {
            "lat": 24.270932,
            "lng": 116.136699
        },
        "ad_info": {
            "adcode": 441402,
            "province": "广东省",
            "city": "梅州市",
            "district": "梅江区"
        }
    },
    {
        "id": "17927929942221972477",
        "title": "女洗手间(梅州万达广场)",
        "address": "广东省梅州市梅江区金燕大道109号梅州梅江万达广场1F",
        "tel": "",
        "category": "基础设施:公共设施:女洗手间",
        "type": 0,
        "location": {
            "lat": 24.2709,
            "lng": 116.135321
        },
        "ad_info": {
            "adcode": 441402,
            "province": "广东省",
            "city": "梅州市",
            "district": "梅江区"
        }
    },
    {
        "id": "11523882255017018753",
        "title": "公共厕所",
        "address": "广东省梅州市平远县G206与长田径1号桥交叉口正南方向663米左右",
        "tel": "",
        "category": "基础设施:公共设施:公共厕所",
        "type": 0,
        "location": {
            "lat": 24.490045,
            "lng": 115.934619
        },
        "ad_info": {
            "adcode": 441426,
            "province": "广东省",
            "city": "梅州市",
            "district": "平远县"
        }
    },
    {
        "id": "11625341997725395827",
        "title": "公共厕所",
        "address": "广东省梅州市梅江区东风路与学子大道交叉口东380米",
        "tel": "",
        "category": "基础设施:公共设施:公共厕所",
        "type": 0,
        "location": {
            "lat": 24.308372,
            "lng": 116.141845
        },
        "ad_info": {
            "adcode": 441402,
            "province": "广东省",
            "city": "梅州市",
            "district": "梅江区"
        }
    },
    {
        "id": "5397817612009557884",
        "title": "公共厕所",
        "address": "广东省梅州市平远县兔子岗五路与平远大道南交叉口东北240米",
        "tel": "",
        "category": "基础设施:公共设施:公共厕所",
        "type": 0,
        "location": {
            "lat": 24.554867,
            "lng": 115.898897
        },
        "ad_info": {
            "adcode": 441426,
            "province": "广东省",
            "city": "梅州市",
            "district": "平远县"
        }
    },
    {
        "id": "13168161288646027342",
        "title": "女洗手间",
        "address": "广东省梅州市梅江区梅水路16号客都汇商业文化广场F5",
        "tel": "",
        "category": "基础设施:公共设施:女洗手间",
        "type": 0,
        "location": {
            "lat": 24.2991,
            "lng": 116.132971
        },
        "ad_info": {
            "adcode": 441402,
            "province": "广东省",
            "city": "梅州市",
            "district": "梅江区"
        }
    },
    {
        "id": "4865904082002206191",
        "title": "专业疏通厕所",
        "address": "广东省梅州市丰顺县S226与广湖上路交叉口西北方向120米左右",
        "tel": "",
        "category": "基础设施:公共设施:公共厕所",
        "type": 0,
        "location": {
            "lat": 23.765468,
            "lng": 116.151393
        },
        "ad_info": {
            "adcode": 441423,
            "province": "广东省",
            "city": "梅州市",
            "district": "丰顺县"
        }
    },
    {
        "id": "3902416826172901674",
        "title": "公共厕所",
        "address": "广东省梅州市丰顺县S242与X950交叉口正东方向98米左右",
        "tel": "",
        "category": "基础设施:公共设施:公共厕所",
        "type": 0,
        "location": {
            "lat": 24.059781,
            "lng": 116.320038
        },
        "ad_info": {
            "adcode": 441423,
            "province": "广东省",
            "city": "梅州市",
            "district": "丰顺县"
        }
    },
    {
        "id": "12434902337150219196",
        "title": "公共厕所",
        "address": "广东省梅州市大埔县大埔大道与西环路交叉口西南方向23米左右",
        "tel": "",
        "category": "基础设施:公共设施:公共厕所",
        "type": 0,
        "location": {
            "lat": 24.345797,
            "lng": 116.685241
        },
        "ad_info": {
            "adcode": 441422,
            "province": "广东省",
            "city": "梅州市",
            "district": "大埔县"
        }
    },
    {
        "id": "4329240973802999146",
        "title": "公共厕所",
        "address": "广东省梅州市丰顺县汤坑镇迎宾路丰顺会展中心",
        "tel": "",
        "category": "基础设施:公共设施:公共厕所",
        "type": 0,
        "location": {
            "lat": 23.738438,
            "lng": 116.183498
        },
        "ad_info": {
            "adcode": 441423,
            "province": "广东省",
            "city": "梅州市",
            "district": "丰顺县"
        }
    },
    {
        "id": "2202633447164748170",
        "title": "客都汇商业文化广场-男洗手间",
        "address": "广东省梅州市梅江区梅水路16号客都汇商业文化广场F4",
        "tel": "",
        "category": "基础设施:公共设施:男洗手间",
        "type": 0,
        "location": {
            "lat": 24.29907,
            "lng": 116.133033
        },
        "ad_info": {
            "adcode": 441402,
            "province": "广东省",
            "city": "梅州市",
            "district": "梅江区"
        }
    },
    {
        "id": "8139788881935981328",
        "title": "公共厕所",
        "address": "广东省梅州市兴宁市S225与黄槐1桥交叉口西南方向29米左右",
        "tel": "",
        "category": "基础设施:公共设施:公共厕所",
        "type": 0,
        "location": {
            "lat": 24.470609,
            "lng": 115.781786
        },
        "ad_info": {
            "adcode": 441481,
            "province": "广东省",
            "city": "梅州市",
            "district": "兴宁市"
        }
    },
    {
        "id": "3151164241804113077",
        "title": "公共厕所",
        "address": "广东省梅州市梅县区阳光城文澜府西侧100米",
        "tel": "",
        "category": "基础设施:公共设施:公共厕所",
        "type": 0,
        "location": {
            "lat": 24.258405,
            "lng": 116.063606
        },
        "ad_info": {
            "adcode": 441403,
            "province": "广东省",
            "city": "梅州市",
            "district": "梅县区"
        }
    },
    {
        "id": "16552940717877964841",
        "title": "公共厕所",
        "address": "广东省梅州市梅县区X026与车上路交叉口西北方向36米左右",
        "tel": "",
        "category": "基础设施:公共设施:公共厕所",
        "type": 0,
        "location": {
            "lat": 24.262249,
            "lng": 116.087034
        },
        "ad_info": {
            "adcode": 441403,
            "province": "广东省",
            "city": "梅州市",
            "district": "梅县区"
        }
    },
    {
        "id": "7742453321804823050",
        "title": "叶塘服务区公共厕所",
        "address": "广东省梅州市兴宁市中国石化叶塘东加油站南侧110米",
        "tel": "",
        "category": "基础设施:公共设施:公共厕所",
        "type": 0,
        "location": {
            "lat": 24.23386,
            "lng": 115.647415
        },
        "ad_info": {
            "adcode": 441481,
            "province": "广东省",
            "city": "梅州市",
            "district": "兴宁市"
        }
    },
    {
        "id": "704939236590424700",
        "title": "男洗手间(梅州万达广场)",
        "address": "广东省梅州市梅江区金燕大道109号梅州梅江万达广场2F",
        "tel": "",
        "category": "基础设施:公共设施:男洗手间",
        "type": 0,
        "location": {
            "lat": 24.270896,
            "lng": 116.136668
        },
        "ad_info": {
            "adcode": 441402,
            "province": "广东省",
            "city": "梅州市",
            "district": "梅江区"
        }
    },
    {
        "id": "6858233363054795203",
        "title": "公共厕所",
        "address": "广东省梅州市梅县区尧塘街与新民街交叉口东北方向33米左右",
        "tel": "",
        "category": "基础设施:公共设施:公共厕所",
        "type": 0,
        "location": {
            "lat": 24.632746,
            "lng": 116.442829
        },
        "ad_info": {
            "adcode": 441403,
            "province": "广东省",
            "city": "梅州市",
            "district": "梅县区"
        }
    },
    {
        "id": "10987710784388957210",
        "title": "公共厕所",
        "address": "广东省梅州市兴宁市G205与人民大道西交叉口西南方向763米左右",
        "tel": "",
        "category": "基础设施:公共设施:公共厕所",
        "type": 0,
        "location": {
            "lat": 24.121698,
            "lng": 115.673004
        },
        "ad_info": {
            "adcode": 441481,
            "province": "广东省",
            "city": "梅州市",
            "district": "兴宁市"
        }
    },
    {
        "id": "5904845434839038020",
        "title": "公共厕所",
        "address": "广东省梅州市蕉岭县中华大桥与中华大道交叉口正东方向39米左右",
        "tel": "",
        "category": "基础设施:公共设施:公共厕所",
        "type": 0,
        "location": {
            "lat": 24.657419,
            "lng": 116.154666
        },
        "ad_info": {
            "adcode": 441427,
            "province": "广东省",
            "city": "梅州市",
            "district": "蕉岭县"
        }
    },
    {
        "id": "2464178314771395962",
        "title": "水南村公共厕所",
        "address": "广东省梅州市五华县水南村",
        "tel": "",
        "category": "基础设施:公共设施:公共厕所",
        "type": 0,
        "location": {
            "lat": 23.496449,
            "lng": 115.547404
        },
        "ad_info": {
            "adcode": 441424,
            "province": "广东省",
            "city": "梅州市",
            "district": "五华县"
        }
    },
    {
        "id": "6109889805667951807",
        "title": "女洗手间(梅州万达广场)",
        "address": "广东省梅州市梅江区金燕大道109号梅州梅江万达广场2F",
        "tel": "",
        "category": "基础设施:公共设施:女洗手间",
        "type": 0,
        "location": {
            "lat": 24.270932,
            "lng": 116.136699
        },
        "ad_info": {
            "adcode": 441402,
            "province": "广东省",
            "city": "梅州市",
            "district": "梅江区"
        }
    },
    {
        "id": "17927929942221972477",
        "title": "女洗手间(梅州万达广场)",
        "address": "广东省梅州市梅江区金燕大道109号梅州梅江万达广场1F",
        "tel": "",
        "category": "基础设施:公共设施:女洗手间",
        "type": 0,
        "location": {
            "lat": 24.2709,
            "lng": 116.135321
        },
        "ad_info": {
            "adcode": 441402,
            "province": "广东省",
            "city": "梅州市",
            "district": "梅江区"
        }
    },
    {
        "id": "11523882255017018753",
        "title": "公共厕所",
        "address": "广东省梅州市平远县G206与长田径1号桥交叉口正南方向663米左右",
        "tel": "",
        "category": "基础设施:公共设施:公共厕所",
        "type": 0,
        "location": {
            "lat": 24.490045,
            "lng": 115.934619
        },
        "ad_info": {
            "adcode": 441426,
            "province": "广东省",
            "city": "梅州市",
            "district": "平远县"
        }
    },
    {
        "id": "11625341997725395827",
        "title": "公共厕所",
        "address": "广东省梅州市梅江区东风路与学子大道交叉口东380米",
        "tel": "",
        "category": "基础设施:公共设施:公共厕所",
        "type": 0,
        "location": {
            "lat": 24.308372,
            "lng": 116.141845
        },
        "ad_info": {
            "adcode": 441402,
            "province": "广东省",
            "city": "梅州市",
            "district": "梅江区"
        }
    },
    {
        "id": "5397817612009557884",
        "title": "公共厕所",
        "address": "广东省梅州市平远县兔子岗五路与平远大道南交叉口东北240米",
        "tel": "",
        "category": "基础设施:公共设施:公共厕所",
        "type": 0,
        "location": {
            "lat": 24.554867,
            "lng": 115.898897
        },
        "ad_info": {
            "adcode": 441426,
            "province": "广东省",
            "city": "梅州市",
            "district": "平远县"
        }
    },
    {
        "id": "13168161288646027342",
        "title": "女洗手间",
        "address": "广东省梅州市梅江区梅水路16号客都汇商业文化广场F5",
        "tel": "",
        "category": "基础设施:公共设施:女洗手间",
        "type": 0,
        "location": {
            "lat": 24.2991,
            "lng": 116.132971
        },
        "ad_info": {
            "adcode": 441402,
            "province": "广东省",
            "city": "梅州市",
            "district": "梅江区"
        }
    },
    {
        "id": "4865904082002206191",
        "title": "专业疏通厕所",
        "address": "广东省梅州市丰顺县S226与广湖上路交叉口西北方向120米左右",
        "tel": "",
        "category": "基础设施:公共设施:公共厕所",
        "type": 0,
        "location": {
            "lat": 23.765468,
            "lng": 116.151393
        },
        "ad_info": {
            "adcode": 441423,
            "province": "广东省",
            "city": "梅州市",
            "district": "丰顺县"
        }
    },
    {
        "id": "3902416826172901674",
        "title": "公共厕所",
        "address": "广东省梅州市丰顺县S242与X950交叉口正东方向98米左右",
        "tel": "",
        "category": "基础设施:公共设施:公共厕所",
        "type": 0,
        "location": {
            "lat": 24.059781,
            "lng": 116.320038
        },
        "ad_info": {
            "adcode": 441423,
            "province": "广东省",
            "city": "梅州市",
            "district": "丰顺县"
        }
    },
    {
        "id": "12434902337150219196",
        "title": "公共厕所",
        "address": "广东省梅州市大埔县大埔大道与西环路交叉口西南方向23米左右",
        "tel": "",
        "category": "基础设施:公共设施:公共厕所",
        "type": 0,
        "location": {
            "lat": 24.345797,
            "lng": 116.685241
        },
        "ad_info": {
            "adcode": 441422,
            "province": "广东省",
            "city": "梅州市",
            "district": "大埔县"
        }
    },
    {
        "id": "4329240973802999146",
        "title": "公共厕所",
        "address": "广东省梅州市丰顺县汤坑镇迎宾路丰顺会展中心",
        "tel": "",
        "category": "基础设施:公共设施:公共厕所",
        "type": 0,
        "location": {
            "lat": 23.738438,
            "lng": 116.183498
        },
        "ad_info": {
            "adcode": 441423,
            "province": "广东省",
            "city": "梅州市",
            "district": "丰顺县"
        }
    },
    {
        "id": "2202633447164748170",
        "title": "客都汇商业文化广场-男洗手间",
        "address": "广东省梅州市梅江区梅水路16号客都汇商业文化广场F4",
        "tel": "",
        "category": "基础设施:公共设施:男洗手间",
        "type": 0,
        "location": {
            "lat": 24.29907,
            "lng": 116.133033
        },
        "ad_info": {
            "adcode": 441402,
            "province": "广东省",
            "city": "梅州市",
            "district": "梅江区"
        }
    },
    {
        "id": "8139788881935981328",
        "title": "公共厕所",
        "address": "广东省梅州市兴宁市S225与黄槐1桥交叉口西南方向29米左右",
        "tel": "",
        "category": "基础设施:公共设施:公共厕所",
        "type": 0,
        "location": {
            "lat": 24.470609,
            "lng": 115.781786
        },
        "ad_info": {
            "adcode": 441481,
            "province": "广东省",
            "city": "梅州市",
            "district": "兴宁市"
        }
    },
    {
        "id": "3151164241804113077",
        "title": "公共厕所",
        "address": "广东省梅州市梅县区阳光城文澜府西侧100米",
        "tel": "",
        "category": "基础设施:公共设施:公共厕所",
        "type": 0,
        "location": {
            "lat": 24.258405,
            "lng": 116.063606
        },
        "ad_info": {
            "adcode": 441403,
            "province": "广东省",
            "city": "梅州市",
            "district": "梅县区"
        }
    },
    {
        "id": "16552940717877964841",
        "title": "公共厕所",
        "address": "广东省梅州市梅县区X026与车上路交叉口西北方向36米左右",
        "tel": "",
        "category": "基础设施:公共设施:公共厕所",
        "type": 0,
        "location": {
            "lat": 24.262249,
            "lng": 116.087034
        },
        "ad_info": {
            "adcode": 441403,
            "province": "广东省",
            "city": "梅州市",
            "district": "梅县区"
        }
    },
    {
        "id": "7742453321804823050",
        "title": "叶塘服务区公共厕所",
        "address": "广东省梅州市兴宁市中国石化叶塘东加油站南侧110米",
        "tel": "",
        "category": "基础设施:公共设施:公共厕所",
        "type": 0,
        "location": {
            "lat": 24.23386,
            "lng": 115.647415
        },
        "ad_info": {
            "adcode": 441481,
            "province": "广东省",
            "city": "梅州市",
            "district": "兴宁市"
        }
    },
    {
        "id": "704939236590424700",
        "title": "男洗手间(梅州万达广场)",
        "address": "广东省梅州市梅江区金燕大道109号梅州梅江万达广场2F",
        "tel": "",
        "category": "基础设施:公共设施:男洗手间",
        "type": 0,
        "location": {
            "lat": 24.270896,
            "lng": 116.136668
        },
        "ad_info": {
            "adcode": 441402,
            "province": "广东省",
            "city": "梅州市",
            "district": "梅江区"
        }
    },
    {
        "id": "6858233363054795203",
        "title": "公共厕所",
        "address": "广东省梅州市梅县区尧塘街与新民街交叉口东北方向33米左右",
        "tel": "",
        "category": "基础设施:公共设施:公共厕所",
        "type": 0,
        "location": {
            "lat": 24.632746,
            "lng": 116.442829
        },
        "ad_info": {
            "adcode": 441403,
            "province": "广东省",
            "city": "梅州市",
            "district": "梅县区"
        }
    },
    {
        "id": "10987710784388957210",
        "title": "公共厕所",
        "address": "广东省梅州市兴宁市G205与人民大道西交叉口西南方向763米左右",
        "tel": "",
        "category": "基础设施:公共设施:公共厕所",
        "type": 0,
        "location": {
            "lat": 24.121698,
            "lng": 115.673004
        },
        "ad_info": {
            "adcode": 441481,
            "province": "广东省",
            "city": "梅州市",
            "district": "兴宁市"
        }
    },
    {
        "id": "5904845434839038020",
        "title": "公共厕所",
        "address": "广东省梅州市蕉岭县中华大桥与中华大道交叉口正东方向39米左右",
        "tel": "",
        "category": "基础设施:公共设施:公共厕所",
        "type": 0,
        "location": {
            "lat": 24.657419,
            "lng": 116.154666
        },
        "ad_info": {
            "adcode": 441427,
            "province": "广东省",
            "city": "梅州市",
            "district": "蕉岭县"
        }
    },
    {
        "id": "2464178314771395962",
        "title": "水南村公共厕所",
        "address": "广东省梅州市五华县水南村",
        "tel": "",
        "category": "基础设施:公共设施:公共厕所",
        "type": 0,
        "location": {
            "lat": 23.496449,
            "lng": 115.547404
        },
        "ad_info": {
            "adcode": 441424,
            "province": "广东省",
            "city": "梅州市",
            "district": "五华县"
        }
    },
    {
        "id": "6109889805667951807",
        "title": "女洗手间(梅州万达广场)",
        "address": "广东省梅州市梅江区金燕大道109号梅州梅江万达广场2F",
        "tel": "",
        "category": "基础设施:公共设施:女洗手间",
        "type": 0,
        "location": {
            "lat": 24.270932,
            "lng": 116.136699
        },
        "ad_info": {
            "adcode": 441402,
            "province": "广东省",
            "city": "梅州市",
            "district": "梅江区"
        }
    },
    {
        "id": "17927929942221972477",
        "title": "女洗手间(梅州万达广场)",
        "address": "广东省梅州市梅江区金燕大道109号梅州梅江万达广场1F",
        "tel": "",
        "category": "基础设施:公共设施:女洗手间",
        "type": 0,
        "location": {
            "lat": 24.2709,
            "lng": 116.135321
        },
        "ad_info": {
            "adcode": 441402,
            "province": "广东省",
            "city": "梅州市",
            "district": "梅江区"
        }
    },
    {
        "id": "11523882255017018753",
        "title": "公共厕所",
        "address": "广东省梅州市平远县G206与长田径1号桥交叉口正南方向663米左右",
        "tel": "",
        "category": "基础设施:公共设施:公共厕所",
        "type": 0,
        "location": {
            "lat": 24.490045,
            "lng": 115.934619
        },
        "ad_info": {
            "adcode": 441426,
            "province": "广东省",
            "city": "梅州市",
            "district": "平远县"
        }
    },
    {
        "id": "11625341997725395827",
        "title": "公共厕所",
        "address": "广东省梅州市梅江区东风路与学子大道交叉口东380米",
        "tel": "",
        "category": "基础设施:公共设施:公共厕所",
        "type": 0,
        "location": {
            "lat": 24.308372,
            "lng": 116.141845
        },
        "ad_info": {
            "adcode": 441402,
            "province": "广东省",
            "city": "梅州市",
            "district": "梅江区"
        }
    },
    {
        "id": "5397817612009557884",
        "title": "公共厕所",
        "address": "广东省梅州市平远县兔子岗五路与平远大道南交叉口东北240米",
        "tel": "",
        "category": "基础设施:公共设施:公共厕所",
        "type": 0,
        "location": {
            "lat": 24.554867,
            "lng": 115.898897
        },
        "ad_info": {
            "adcode": 441426,
            "province": "广东省",
            "city": "梅州市",
            "district": "平远县"
        }
    },
    {
        "id": "13168161288646027342",
        "title": "女洗手间",
        "address": "广东省梅州市梅江区梅水路16号客都汇商业文化广场F5",
        "tel": "",
        "category": "基础设施:公共设施:女洗手间",
        "type": 0,
        "location": {
            "lat": 24.2991,
            "lng": 116.132971
        },
        "ad_info": {
            "adcode": 441402,
            "province": "广东省",
            "city": "梅州市",
            "district": "梅江区"
        }
    },
    {
        "id": "4865904082002206191",
        "title": "专业疏通厕所",
        "address": "广东省梅州市丰顺县S226与广湖上路交叉口西北方向120米左右",
        "tel": "",
        "category": "基础设施:公共设施:公共厕所",
        "type": 0,
        "location": {
            "lat": 23.765468,
            "lng": 116.151393
        },
        "ad_info": {
            "adcode": 441423,
            "province": "广东省",
            "city": "梅州市",
            "district": "丰顺县"
        }
    },
    {
        "id": "3902416826172901674",
        "title": "公共厕所",
        "address": "广东省梅州市丰顺县S242与X950交叉口正东方向98米左右",
        "tel": "",
        "category": "基础设施:公共设施:公共厕所",
        "type": 0,
        "location": {
            "lat": 24.059781,
            "lng": 116.320038
        },
        "ad_info": {
            "adcode": 441423,
            "province": "广东省",
            "city": "梅州市",
            "district": "丰顺县"
        }
    },
    {
        "id": "12434902337150219196",
        "title": "公共厕所",
        "address": "广东省梅州市大埔县大埔大道与西环路交叉口西南方向23米左右",
        "tel": "",
        "category": "基础设施:公共设施:公共厕所",
        "type": 0,
        "location": {
            "lat": 24.345797,
            "lng": 116.685241
        },
        "ad_info": {
            "adcode": 441422,
            "province": "广东省",
            "city": "梅州市",
            "district": "大埔县"
        }
    },
    {
        "id": "4329240973802999146",
        "title": "公共厕所",
        "address": "广东省梅州市丰顺县汤坑镇迎宾路丰顺会展中心",
        "tel": "",
        "category": "基础设施:公共设施:公共厕所",
        "type": 0,
        "location": {
            "lat": 23.738438,
            "lng": 116.183498
        },
        "ad_info": {
            "adcode": 441423,
            "province": "广东省",
            "city": "梅州市",
            "district": "丰顺县"
        }
    },
    {
        "id": "2202633447164748170",
        "title": "客都汇商业文化广场-男洗手间",
        "address": "广东省梅州市梅江区梅水路16号客都汇商业文化广场F4",
        "tel": "",
        "category": "基础设施:公共设施:男洗手间",
        "type": 0,
        "location": {
            "lat": 24.29907,
            "lng": 116.133033
        },
        "ad_info": {
            "adcode": 441402,
            "province": "广东省",
            "city": "梅州市",
            "district": "梅江区"
        }
    },
    {
        "id": "8139788881935981328",
        "title": "公共厕所",
        "address": "广东省梅州市兴宁市S225与黄槐1桥交叉口西南方向29米左右",
        "tel": "",
        "category": "基础设施:公共设施:公共厕所",
        "type": 0,
        "location": {
            "lat": 24.470609,
            "lng": 115.781786
        },
        "ad_info": {
            "adcode": 441481,
            "province": "广东省",
            "city": "梅州市",
            "district": "兴宁市"
        }
    },
    {
        "id": "3151164241804113077",
        "title": "公共厕所",
        "address": "广东省梅州市梅县区阳光城文澜府西侧100米",
        "tel": "",
        "category": "基础设施:公共设施:公共厕所",
        "type": 0,
        "location": {
            "lat": 24.258405,
            "lng": 116.063606
        },
        "ad_info": {
            "adcode": 441403,
            "province": "广东省",
            "city": "梅州市",
            "district": "梅县区"
        }
    },
    {
        "id": "16552940717877964841",
        "title": "公共厕所",
        "address": "广东省梅州市梅县区X026与车上路交叉口西北方向36米左右",
        "tel": "",
        "category": "基础设施:公共设施:公共厕所",
        "type": 0,
        "location": {
            "lat": 24.262249,
            "lng": 116.087034
        },
        "ad_info": {
            "adcode": 441403,
            "province": "广东省",
            "city": "梅州市",
            "district": "梅县区"
        }
    },
    {
        "id": "7742453321804823050",
        "title": "叶塘服务区公共厕所",
        "address": "广东省梅州市兴宁市中国石化叶塘东加油站南侧110米",
        "tel": "",
        "category": "基础设施:公共设施:公共厕所",
        "type": 0,
        "location": {
            "lat": 24.23386,
            "lng": 115.647415
        },
        "ad_info": {
            "adcode": 441481,
            "province": "广东省",
            "city": "梅州市",
            "district": "兴宁市"
        }
    },
    {
        "id": "704939236590424700",
        "title": "男洗手间(梅州万达广场)",
        "address": "广东省梅州市梅江区金燕大道109号梅州梅江万达广场2F",
        "tel": "",
        "category": "基础设施:公共设施:男洗手间",
        "type": 0,
        "location": {
            "lat": 24.270896,
            "lng": 116.136668
        },
        "ad_info": {
            "adcode": 441402,
            "province": "广东省",
            "city": "梅州市",
            "district": "梅江区"
        }
    },
    {
        "id": "6858233363054795203",
        "title": "公共厕所",
        "address": "广东省梅州市梅县区尧塘街与新民街交叉口东北方向33米左右",
        "tel": "",
        "category": "基础设施:公共设施:公共厕所",
        "type": 0,
        "location": {
            "lat": 24.632746,
            "lng": 116.442829
        },
        "ad_info": {
            "adcode": 441403,
            "province": "广东省",
            "city": "梅州市",
            "district": "梅县区"
        }
    },
    {
        "id": "10987710784388957210",
        "title": "公共厕所",
        "address": "广东省梅州市兴宁市G205与人民大道西交叉口西南方向763米左右",
        "tel": "",
        "category": "基础设施:公共设施:公共厕所",
        "type": 0,
        "location": {
            "lat": 24.121698,
            "lng": 115.673004
        },
        "ad_info": {
            "adcode": 441481,
            "province": "广东省",
            "city": "梅州市",
            "district": "兴宁市"
        }
    },
    {
        "id": "5904845434839038020",
        "title": "公共厕所",
        "address": "广东省梅州市蕉岭县中华大桥与中华大道交叉口正东方向39米左右",
        "tel": "",
        "category": "基础设施:公共设施:公共厕所",
        "type": 0,
        "location": {
            "lat": 24.657419,
            "lng": 116.154666
        },
        "ad_info": {
            "adcode": 441427,
            "province": "广东省",
            "city": "梅州市",
            "district": "蕉岭县"
        }
    },
    {
        "id": "2464178314771395962",
        "title": "水南村公共厕所",
        "address": "广东省梅州市五华县水南村",
        "tel": "",
        "category": "基础设施:公共设施:公共厕所",
        "type": 0,
        "location": {
            "lat": 23.496449,
            "lng": 115.547404
        },
        "ad_info": {
            "adcode": 441424,
            "province": "广东省",
            "city": "梅州市",
            "district": "五华县"
        }
    },
    {
        "id": "6109889805667951807",
        "title": "女洗手间(梅州万达广场)",
        "address": "广东省梅州市梅江区金燕大道109号梅州梅江万达广场2F",
        "tel": "",
        "category": "基础设施:公共设施:女洗手间",
        "type": 0,
        "location": {
            "lat": 24.270932,
            "lng": 116.136699
        },
        "ad_info": {
            "adcode": 441402,
            "province": "广东省",
            "city": "梅州市",
            "district": "梅江区"
        }
    },
    {
        "id": "17927929942221972477",
        "title": "女洗手间(梅州万达广场)",
        "address": "广东省梅州市梅江区金燕大道109号梅州梅江万达广场1F",
        "tel": "",
        "category": "基础设施:公共设施:女洗手间",
        "type": 0,
        "location": {
            "lat": 24.2709,
            "lng": 116.135321
        },
        "ad_info": {
            "adcode": 441402,
            "province": "广东省",
            "city": "梅州市",
            "district": "梅江区"
        }
    },
    {
        "id": "11523882255017018753",
        "title": "公共厕所",
        "address": "广东省梅州市平远县G206与长田径1号桥交叉口正南方向663米左右",
        "tel": "",
        "category": "基础设施:公共设施:公共厕所",
        "type": 0,
        "location": {
            "lat": 24.490045,
            "lng": 115.934619
        },
        "ad_info": {
            "adcode": 441426,
            "province": "广东省",
            "city": "梅州市",
            "district": "平远县"
        }
    },
    {
        "id": "11625341997725395827",
        "title": "公共厕所",
        "address": "广东省梅州市梅江区东风路与学子大道交叉口东380米",
        "tel": "",
        "category": "基础设施:公共设施:公共厕所",
        "type": 0,
        "location": {
            "lat": 24.308372,
            "lng": 116.141845
        },
        "ad_info": {
            "adcode": 441402,
            "province": "广东省",
            "city": "梅州市",
            "district": "梅江区"
        }
    },
    {
        "id": "5397817612009557884",
        "title": "公共厕所",
        "address": "广东省梅州市平远县兔子岗五路与平远大道南交叉口东北240米",
        "tel": "",
        "category": "基础设施:公共设施:公共厕所",
        "type": 0,
        "location": {
            "lat": 24.554867,
            "lng": 115.898897
        },
        "ad_info": {
            "adcode": 441426,
            "province": "广东省",
            "city": "梅州市",
            "district": "平远县"
        }
    },
    {
        "id": "13168161288646027342",
        "title": "女洗手间",
        "address": "广东省梅州市梅江区梅水路16号客都汇商业文化广场F5",
        "tel": "",
        "category": "基础设施:公共设施:女洗手间",
        "type": 0,
        "location": {
            "lat": 24.2991,
            "lng": 116.132971
        },
        "ad_info": {
            "adcode": 441402,
            "province": "广东省",
            "city": "梅州市",
            "district": "梅江区"
        }
    },
    {
        "id": "4865904082002206191",
        "title": "专业疏通厕所",
        "address": "广东省梅州市丰顺县S226与广湖上路交叉口西北方向120米左右",
        "tel": "",
        "category": "基础设施:公共设施:公共厕所",
        "type": 0,
        "location": {
            "lat": 23.765468,
            "lng": 116.151393
        },
        "ad_info": {
            "adcode": 441423,
            "province": "广东省",
            "city": "梅州市",
            "district": "丰顺县"
        }
    },
    {
        "id": "3902416826172901674",
        "title": "公共厕所",
        "address": "广东省梅州市丰顺县S242与X950交叉口正东方向98米左右",
        "tel": "",
        "category": "基础设施:公共设施:公共厕所",
        "type": 0,
        "location": {
            "lat": 24.059781,
            "lng": 116.320038
        },
        "ad_info": {
            "adcode": 441423,
            "province": "广东省",
            "city": "梅州市",
            "district": "丰顺县"
        }
    },
    {
        "id": "12434902337150219196",
        "title": "公共厕所",
        "address": "广东省梅州市大埔县大埔大道与西环路交叉口西南方向23米左右",
        "tel": "",
        "category": "基础设施:公共设施:公共厕所",
        "type": 0,
        "location": {
            "lat": 24.345797,
            "lng": 116.685241
        },
        "ad_info": {
            "adcode": 441422,
            "province": "广东省",
            "city": "梅州市",
            "district": "大埔县"
        }
    },
    {
        "id": "4329240973802999146",
        "title": "公共厕所",
        "address": "广东省梅州市丰顺县汤坑镇迎宾路丰顺会展中心",
        "tel": "",
        "category": "基础设施:公共设施:公共厕所",
        "type": 0,
        "location": {
            "lat": 23.738438,
            "lng": 116.183498
        },
        "ad_info": {
            "adcode": 441423,
            "province": "广东省",
            "city": "梅州市",
            "district": "丰顺县"
        }
    },
    {
        "id": "2202633447164748170",
        "title": "客都汇商业文化广场-男洗手间",
        "address": "广东省梅州市梅江区梅水路16号客都汇商业文化广场F4",
        "tel": "",
        "category": "基础设施:公共设施:男洗手间",
        "type": 0,
        "location": {
            "lat": 24.29907,
            "lng": 116.133033
        },
        "ad_info": {
            "adcode": 441402,
            "province": "广东省",
            "city": "梅州市",
            "district": "梅江区"
        }
    },
    {
        "id": "8139788881935981328",
        "title": "公共厕所",
        "address": "广东省梅州市兴宁市S225与黄槐1桥交叉口西南方向29米左右",
        "tel": "",
        "category": "基础设施:公共设施:公共厕所",
        "type": 0,
        "location": {
            "lat": 24.470609,
            "lng": 115.781786
        },
        "ad_info": {
            "adcode": 441481,
            "province": "广东省",
            "city": "梅州市",
            "district": "兴宁市"
        }
    },
    {
        "id": "3151164241804113077",
        "title": "公共厕所",
        "address": "广东省梅州市梅县区阳光城文澜府西侧100米",
        "tel": "",
        "category": "基础设施:公共设施:公共厕所",
        "type": 0,
        "location": {
            "lat": 24.258405,
            "lng": 116.063606
        },
        "ad_info": {
            "adcode": 441403,
            "province": "广东省",
            "city": "梅州市",
            "district": "梅县区"
        }
    },
    {
        "id": "16552940717877964841",
        "title": "公共厕所",
        "address": "广东省梅州市梅县区X026与车上路交叉口西北方向36米左右",
        "tel": "",
        "category": "基础设施:公共设施:公共厕所",
        "type": 0,
        "location": {
            "lat": 24.262249,
            "lng": 116.087034
        },
        "ad_info": {
            "adcode": 441403,
            "province": "广东省",
            "city": "梅州市",
            "district": "梅县区"
        }
    },
    {
        "id": "7742453321804823050",
        "title": "叶塘服务区公共厕所",
        "address": "广东省梅州市兴宁市中国石化叶塘东加油站南侧110米",
        "tel": "",
        "category": "基础设施:公共设施:公共厕所",
        "type": 0,
        "location": {
            "lat": 24.23386,
            "lng": 115.647415
        },
        "ad_info": {
            "adcode": 441481,
            "province": "广东省",
            "city": "梅州市",
            "district": "兴宁市"
        }
    },
    {
        "id": "704939236590424700",
        "title": "男洗手间(梅州万达广场)",
        "address": "广东省梅州市梅江区金燕大道109号梅州梅江万达广场2F",
        "tel": "",
        "category": "基础设施:公共设施:男洗手间",
        "type": 0,
        "location": {
            "lat": 24.270896,
            "lng": 116.136668
        },
        "ad_info": {
            "adcode": 441402,
            "province": "广东省",
            "city": "梅州市",
            "district": "梅江区"
        }
    },
    {
        "id": "6858233363054795203",
        "title": "公共厕所",
        "address": "广东省梅州市梅县区尧塘街与新民街交叉口东北方向33米左右",
        "tel": "",
        "category": "基础设施:公共设施:公共厕所",
        "type": 0,
        "location": {
            "lat": 24.632746,
            "lng": 116.442829
        },
        "ad_info": {
            "adcode": 441403,
            "province": "广东省",
            "city": "梅州市",
            "district": "梅县区"
        }
    },
    {
        "id": "10987710784388957210",
        "title": "公共厕所",
        "address": "广东省梅州市兴宁市G205与人民大道西交叉口西南方向763米左右",
        "tel": "",
        "category": "基础设施:公共设施:公共厕所",
        "type": 0,
        "location": {
            "lat": 24.121698,
            "lng": 115.673004
        },
        "ad_info": {
            "adcode": 441481,
            "province": "广东省",
            "city": "梅州市",
            "district": "兴宁市"
        }
    },
    {
        "id": "5904845434839038020",
        "title": "公共厕所",
        "address": "广东省梅州市蕉岭县中华大桥与中华大道交叉口正东方向39米左右",
        "tel": "",
        "category": "基础设施:公共设施:公共厕所",
        "type": 0,
        "location": {
            "lat": 24.657419,
            "lng": 116.154666
        },
        "ad_info": {
            "adcode": 441427,
            "province": "广东省",
            "city": "梅州市",
            "district": "蕉岭县"
        }
    },
    {
        "id": "2464178314771395962",
        "title": "水南村公共厕所",
        "address": "广东省梅州市五华县水南村",
        "tel": "",
        "category": "基础设施:公共设施:公共厕所",
        "type": 0,
        "location": {
            "lat": 23.496449,
            "lng": 115.547404
        },
        "ad_info": {
            "adcode": 441424,
            "province": "广东省",
            "city": "梅州市",
            "district": "五华县"
        }
    },
    {
        "id": "6109889805667951807",
        "title": "女洗手间(梅州万达广场)",
        "address": "广东省梅州市梅江区金燕大道109号梅州梅江万达广场2F",
        "tel": "",
        "category": "基础设施:公共设施:女洗手间",
        "type": 0,
        "location": {
            "lat": 24.270932,
            "lng": 116.136699
        },
        "ad_info": {
            "adcode": 441402,
            "province": "广东省",
            "city": "梅州市",
            "district": "梅江区"
        }
    },
    {
        "id": "17927929942221972477",
        "title": "女洗手间(梅州万达广场)",
        "address": "广东省梅州市梅江区金燕大道109号梅州梅江万达广场1F",
        "tel": "",
        "category": "基础设施:公共设施:女洗手间",
        "type": 0,
        "location": {
            "lat": 24.2709,
            "lng": 116.135321
        },
        "ad_info": {
            "adcode": 441402,
            "province": "广东省",
            "city": "梅州市",
            "district": "梅江区"
        }
    },
    {
        "id": "11523882255017018753",
        "title": "公共厕所",
        "address": "广东省梅州市平远县G206与长田径1号桥交叉口正南方向663米左右",
        "tel": "",
        "category": "基础设施:公共设施:公共厕所",
        "type": 0,
        "location": {
            "lat": 24.490045,
            "lng": 115.934619
        },
        "ad_info": {
            "adcode": 441426,
            "province": "广东省",
            "city": "梅州市",
            "district": "平远县"
        }
    },
    {
        "id": "11625341997725395827",
        "title": "公共厕所",
        "address": "广东省梅州市梅江区东风路与学子大道交叉口东380米",
        "tel": "",
        "category": "基础设施:公共设施:公共厕所",
        "type": 0,
        "location": {
            "lat": 24.308372,
            "lng": 116.141845
        },
        "ad_info": {
            "adcode": 441402,
            "province": "广东省",
            "city": "梅州市",
            "district": "梅江区"
        }
    },
    {
        "id": "5397817612009557884",
        "title": "公共厕所",
        "address": "广东省梅州市平远县兔子岗五路与平远大道南交叉口东北240米",
        "tel": "",
        "category": "基础设施:公共设施:公共厕所",
        "type": 0,
        "location": {
            "lat": 24.554867,
            "lng": 115.898897
        },
        "ad_info": {
            "adcode": 441426,
            "province": "广东省",
            "city": "梅州市",
            "district": "平远县"
        }
    },
    {
        "id": "13168161288646027342",
        "title": "女洗手间",
        "address": "广东省梅州市梅江区梅水路16号客都汇商业文化广场F5",
        "tel": "",
        "category": "基础设施:公共设施:女洗手间",
        "type": 0,
        "location": {
            "lat": 24.2991,
            "lng": 116.132971
        },
        "ad_info": {
            "adcode": 441402,
            "province": "广东省",
            "city": "梅州市",
            "district": "梅江区"
        }
    },
    {
        "id": "4865904082002206191",
        "title": "专业疏通厕所",
        "address": "广东省梅州市丰顺县S226与广湖上路交叉口西北方向120米左右",
        "tel": "",
        "category": "基础设施:公共设施:公共厕所",
        "type": 0,
        "location": {
            "lat": 23.765468,
            "lng": 116.151393
        },
        "ad_info": {
            "adcode": 441423,
            "province": "广东省",
            "city": "梅州市",
            "district": "丰顺县"
        }
    },
    {
        "id": "3902416826172901674",
        "title": "公共厕所",
        "address": "广东省梅州市丰顺县S242与X950交叉口正东方向98米左右",
        "tel": "",
        "category": "基础设施:公共设施:公共厕所",
        "type": 0,
        "location": {
            "lat": 24.059781,
            "lng": 116.320038
        },
        "ad_info": {
            "adcode": 441423,
            "province": "广东省",
            "city": "梅州市",
            "district": "丰顺县"
        }
    },
    {
        "id": "12434902337150219196",
        "title": "公共厕所",
        "address": "广东省梅州市大埔县大埔大道与西环路交叉口西南方向23米左右",
        "tel": "",
        "category": "基础设施:公共设施:公共厕所",
        "type": 0,
        "location": {
            "lat": 24.345797,
            "lng": 116.685241
        },
        "ad_info": {
            "adcode": 441422,
            "province": "广东省",
            "city": "梅州市",
            "district": "大埔县"
        }
    }
]