[
    {
        "id": "10118542853816555179",
        "title": "公共厕所",
        "address": "广西壮族自治区梧州市藤县津南二街与螺山二街交叉口正东方向8米左右",
        "tel": "",
        "category": "基础设施:公共设施:公共厕所",
        "type": 0,
        "location": {
            "lat": 23.371193,
            "lng": 110.927739
        },
        "ad_info": {
            "adcode": 450422,
            "province": "广西壮族自治区",
            "city": "梧州市",
            "district": "藤县"
        }
    },
    {
        "id": "6032654324633447562",
        "title": "公共厕所",
        "address": "广西壮族自治区梧州市龙圩区广场西路与站前北路交叉口正东方向237米左右",
        "tel": "",
        "category": "基础设施:公共设施:公共厕所",
        "type": 0,
        "location": {
            "lat": 23.39508,
            "lng": 111.222829
        },
        "ad_info": {
            "adcode": 450406,
            "province": "广西壮族自治区",
            "city": "梧州市",
            "district": "龙圩区"
        }
    },
    {
        "id": "12759254035786484827",
        "title": "公共厕所",
        "address": "广西壮族自治区梧州市龙圩区沿江路与龙华街交叉口西北方向35米左右",
        "tel": "",
        "category": "基础设施:公共设施:公共厕所",
        "type": 0,
        "location": {
            "lat": 23.423378,
            "lng": 111.24565
        },
        "ad_info": {
            "adcode": 450406,
            "province": "广西壮族自治区",
            "city": "梧州市",
            "district": "龙圩区"
        }
    },
    {
        "id": "9649187154348499163",
        "title": "公共厕所",
        "address": "广西壮族自治区梧州市龙圩区X184与苍海大道交叉口正北方向49米左右",
        "tel": "",
        "category": "基础设施:公共设施:公共厕所",
        "type": 0,
        "location": {
            "lat": 23.404715,
            "lng": 111.242942
        },
        "ad_info": {
            "adcode": 450406,
            "province": "广西壮族自治区",
            "city": "梧州市",
            "district": "龙圩区"
        }
    },
    {
        "id": "7417163532404853840",
        "title": "公共厕所",
        "address": "广西壮族自治区梧州市长洲区兴安路与湖滨路交叉口正西方向191米左右",
        "tel": "18777435219",
        "category": "基础设施:公共设施:公共厕所",
        "type": 0,
        "location": {
            "lat": 23.481172,
            "lng": 111.248779
        },
        "ad_info": {
            "adcode": 450405,
            "province": "广西壮族自治区",
            "city": "梧州市",
            "district": "长洲区"
        }
    },
    {
        "id": "9002617320576246524",
        "title": "公共厕所",
        "address": "广西壮族自治区梧州市藤县荔枝塘一街与荔枝塘二街交叉口正北方向190米左右",
        "tel": "",
        "category": "基础设施:公共设施:公共厕所",
        "type": 0,
        "location": {
            "lat": 23.375004,
            "lng": 110.925333
        },
        "ad_info": {
            "adcode": 450422,
            "province": "广西壮族自治区",
            "city": "梧州市",
            "district": "藤县"
        }
    },
    {
        "id": "11935691347067326512",
        "title": "公共厕所",
        "address": "广西壮族自治区梧州市龙圩区念社线与苍海大道交叉口正北方向703米左右",
        "tel": "",
        "category": "基础设施:公共设施:公共厕所",
        "type": 0,
        "location": {
            "lat": 23.440291,
            "lng": 111.266264
        },
        "ad_info": {
            "adcode": 450406,
            "province": "广西壮族自治区",
            "city": "梧州市",
            "district": "龙圩区"
        }
    },
    {
        "id": "14337765526705841705",
        "title": "公共厕所",
        "address": "广西壮族自治区梧州市龙圩区凤岭街与校园路交叉口正南方向19米左右",
        "tel": "",
        "category": "基础设施:公共设施:公共厕所",
        "type": 0,
        "location": {
            "lat": 23.417363,
            "lng": 111.246259
        },
        "ad_info": {
            "adcode": 450406,
            "province": "广西壮族自治区",
            "city": "梧州市",
            "district": "龙圩区"
        }
    },
    {
        "id": "8959590786462832644",
        "title": "公共厕所",
        "address": "广西壮族自治区梧州市藤县大社巷与西江路交叉口东北方向76米左右",
        "tel": "",
        "category": "基础设施:公共设施:公共厕所",
        "type": 0,
        "location": {
            "lat": 23.376392,
            "lng": 110.910605
        },
        "ad_info": {
            "adcode": 450422,
            "province": "广西壮族自治区",
            "city": "梧州市",
            "district": "藤县"
        }
    },
    {
        "id": "6889090630954407761",
        "title": "公共厕所(家电维修)",
        "address": "广西壮族自治区梧州市藤县毅杰水电五金电器(塘步镇人民政府北)",
        "tel": "",
        "category": "基础设施:公共设施:公共厕所",
        "type": 0,
        "location": {
            "lat": 23.35393,
            "lng": 111.04554
        },
        "ad_info": {
            "adcode": 450422,
            "province": "广西壮族自治区",
            "city": "梧州市",
            "district": "藤县"
        }
    },
    {
        "id": "17914334915080831593",
        "title": "公共厕所",
        "address": "广西壮族自治区梧州市藤县东山路与民安路交叉口西北方向578米左右",
        "tel": "",
        "category": "基础设施:公共设施:公共厕所",
        "type": 0,
        "location": {
            "lat": 23.382589,
            "lng": 110.931404
        },
        "ad_info": {
            "adcode": 450422,
            "province": "广西壮族自治区",
            "city": "梧州市",
            "district": "藤县"
        }
    },
    {
        "id": "10403874158532513797",
        "title": "公共厕所",
        "address": "广西壮族自治区梧州市万秀区华光巷与西环路交叉口西北方向65米左右",
        "tel": "",
        "category": "基础设施:公共设施:公共厕所",
        "type": 0,
        "location": {
            "lat": 23.48305,
            "lng": 111.309518
        },
        "ad_info": {
            "adcode": 450403,
            "province": "广西壮族自治区",
            "city": "梧州市",
            "district": "万秀区"
        }
    },
    {
        "id": "1890527926361976421",
        "title": "公共厕所",
        "address": "广西壮族自治区梧州市万秀区南中路25号",
        "tel": "",
        "category": "基础设施:公共设施:公共厕所",
        "type": 0,
        "location": {
            "lat": 23.472354,
            "lng": 111.317299
        },
        "ad_info": {
            "adcode": 450403,
            "province": "广西壮族自治区",
            "city": "梧州市",
            "district": "万秀区"
        }
    },
    {
        "id": "12560246615159495612",
        "title": "公共厕所",
        "address": "广西壮族自治区梧州市龙圩区广场西路与站前北路交叉口东南方向295米左右",
        "tel": "",
        "category": "基础设施:公共设施:公共厕所",
        "type": 0,
        "location": {
            "lat": 23.393381,
            "lng": 111.222417
        },
        "ad_info": {
            "adcode": 450406,
            "province": "广西壮族自治区",
            "city": "梧州市",
            "district": "龙圩区"
        }
    },
    {
        "id": "17466765607412541601",
        "title": "公共厕所",
        "address": "广西壮族自治区梧州市万秀区白云路与阜民路交叉口正东方向52米左右",
        "tel": "",
        "category": "基础设施:公共设施:公共厕所",
        "type": 0,
        "location": {
            "lat": 23.473199,
            "lng": 111.321542
        },
        "ad_info": {
            "adcode": 450403,
            "province": "广西壮族自治区",
            "city": "梧州市",
            "district": "万秀区"
        }
    },
    {
        "id": "9900539103826798866",
        "title": "公共厕所",
        "address": "广西壮族自治区梧州市万秀区下三云路与蝶山一路交叉口正南方向263米左右",
        "tel": "",
        "category": "基础设施:公共设施:公共厕所",
        "type": 0,
        "location": {
            "lat": 23.478103,
            "lng": 111.306239
        },
        "ad_info": {
            "adcode": 450403,
            "province": "广西壮族自治区",
            "city": "梧州市",
            "district": "万秀区"
        }
    },
    {
        "id": "3473490479776457123",
        "title": "公共厕所",
        "address": "广西壮族自治区梧州市万秀区新华路与西堤二路交叉口西南方向82米左右",
        "tel": "",
        "category": "基础设施:公共设施:公共厕所",
        "type": 0,
        "location": {
            "lat": 23.470413,
            "lng": 111.297126
        },
        "ad_info": {
            "adcode": 450403,
            "province": "广西壮族自治区",
            "city": "梧州市",
            "district": "万秀区"
        }
    },
    {
        "id": "4807090951314093648",
        "title": "公共厕所",
        "address": "广西壮族自治区梧州市龙圩区苍海路与龙湖大道交叉口东南方向218米左右",
        "tel": "",
        "category": "基础设施:公共设施:公共厕所",
        "type": 0,
        "location": {
            "lat": 23.413069,
            "lng": 111.258407
        },
        "ad_info": {
            "adcode": 450406,
            "province": "广西壮族自治区",
            "city": "梧州市",
            "district": "龙圩区"
        }
    },
    {
        "id": "1893322714503986674",
        "title": "公共厕所",
        "address": "广西壮族自治区梧州市万秀区桂林路20号",
        "tel": "",
        "category": "基础设施:公共设施:公共厕所",
        "type": 0,
        "location": {
            "lat": 23.480614,
            "lng": 111.314562
        },
        "ad_info": {
            "adcode": 450403,
            "province": "广西壮族自治区",
            "city": "梧州市",
            "district": "万秀区"
        }
    },
    {
        "id": "8765643021031030411",
        "title": "公共厕所",
        "address": "广西壮族自治区梧州市万秀区工厂一路山地里西巷与新兴一路交叉口东北方向252米左右",
        "tel": "",
        "category": "基础设施:公共设施:公共厕所",
        "type": 0,
        "location": {
            "lat": 23.476748,
            "lng": 111.294874
        },
        "ad_info": {
            "adcode": 450403,
            "province": "广西壮族自治区",
            "city": "梧州市",
            "district": "万秀区"
        }
    },
    {
        "id": "1243082942966040106",
        "title": "公共厕所",
        "address": "广西壮族自治区梧州市万秀区大东上路与阜民路交叉口东北方向54米左右",
        "tel": "",
        "category": "基础设施:公共设施:公共厕所",
        "type": 0,
        "location": {
            "lat": 23.471544,
            "lng": 111.322142
        },
        "ad_info": {
            "adcode": 450403,
            "province": "广西壮族自治区",
            "city": "梧州市",
            "district": "万秀区"
        }
    },
    {
        "id": "16697110581916324548",
        "title": "公共厕所",
        "address": "广西壮族自治区梧州市苍梧县207国道西50米",
        "tel": "",
        "category": "基础设施:公共设施:公共厕所",
        "type": 0,
        "location": {
            "lat": 23.594048,
            "lng": 111.368511
        },
        "ad_info": {
            "adcode": 450421,
            "province": "广西壮族自治区",
            "city": "梧州市",
            "district": "苍梧县"
        }
    },
    {
        "id": "13838189450560479275",
        "title": "公共厕所",
        "address": "广西壮族自治区梧州市万秀区富民三路与富民三路鲤鱼里交叉口东南方向188米左右",
        "tel": "",
        "category": "基础设施:公共设施:公共厕所",
        "type": 0,
        "location": {
            "lat": 23.489559,
            "lng": 111.315086
        },
        "ad_info": {
            "adcode": 450403,
            "province": "广西壮族自治区",
            "city": "梧州市",
            "district": "万秀区"
        }
    },
    {
        "id": "3127113842348004111",
        "title": "公共厕所",
        "address": "广西壮族自治区梧州市蒙山县永安街与湄江中路交叉口正北方向50米左右",
        "tel": "",
        "category": "基础设施:公共设施:公共厕所",
        "type": 0,
        "location": {
            "lat": 24.200599,
            "lng": 110.519051
        },
        "ad_info": {
            "adcode": 450423,
            "province": "广西壮族自治区",
            "city": "梧州市",
            "district": "蒙山县"
        }
    },
    {
        "id": "5469957048371765986",
        "title": "公共厕所",
        "address": "广西壮族自治区梧州市苍梧县新旺路与灵珠三路交叉口正北方向151米左右",
        "tel": "",
        "category": "基础设施:公共设施:公共厕所",
        "type": 0,
        "location": {
            "lat": 23.555165,
            "lng": 111.356562
        },
        "ad_info": {
            "adcode": 450421,
            "province": "广西壮族自治区",
            "city": "梧州市",
            "district": "苍梧县"
        }
    },
    {
        "id": "18406753456067259948",
        "title": "公共厕所",
        "address": "广西壮族自治区梧州市藤县藤州大道中国石化加油站(河东站)",
        "tel": "",
        "category": "基础设施:公共设施:公共厕所",
        "type": 0,
        "location": {
            "lat": 23.373285,
            "lng": 110.926406
        },
        "ad_info": {
            "adcode": 450422,
            "province": "广西壮族自治区",
            "city": "梧州市",
            "district": "藤县"
        }
    },
    {
        "id": "10642549321164442490",
        "title": "公共厕所",
        "address": "广西壮族自治区梧州市万秀区大学路与文澜路交叉口正北方向181米左右",
        "tel": "",
        "category": "基础设施:公共设施:公共厕所",
        "type": 0,
        "location": {
            "lat": 23.476389,
            "lng": 111.30542
        },
        "ad_info": {
            "adcode": 450403,
            "province": "广西壮族自治区",
            "city": "梧州市",
            "district": "万秀区"
        }
    },
    {
        "id": "9527985971772539130",
        "title": "公共厕所",
        "address": "广西壮族自治区梧州市蒙山县S204附近",
        "tel": "",
        "category": "基础设施:公共设施:公共厕所",
        "type": 0,
        "location": {
            "lat": 24.076014,
            "lng": 110.42154
        },
        "ad_info": {
            "adcode": 450423,
            "province": "广西壮族自治区",
            "city": "梧州市",
            "district": "蒙山县"
        }
    },
    {
        "id": "4583776007214933954",
        "title": "公共厕所",
        "address": "广西壮族自治区梧州市藤县碧水明珠西北侧230米",
        "tel": "",
        "category": "基础设施:公共设施:公共厕所",
        "type": 0,
        "location": {
            "lat": 23.401756,
            "lng": 110.91257
        },
        "ad_info": {
            "adcode": 450422,
            "province": "广西壮族自治区",
            "city": "梧州市",
            "district": "藤县"
        }
    },
    {
        "id": "17596736350842616941",
        "title": "公共厕所",
        "address": "广西壮族自治区梧州市苍梧县G207与龙安街交叉口西南方向240米左右",
        "tel": "",
        "category": "基础设施:公共设施:公共厕所",
        "type": 0,
        "location": {
            "lat": 23.845079,
            "lng": 111.542071
        },
        "ad_info": {
            "adcode": 450421,
            "province": "广西壮族自治区",
            "city": "梧州市",
            "district": "苍梧县"
        }
    },
    {
        "id": "1096322482126448358",
        "title": "公共厕所",
        "address": "广西壮族自治区梧州市岑溪市育才路与育才路东段交叉口正东方向160米左右",
        "tel": "",
        "category": "基础设施:公共设施:公共厕所",
        "type": 0,
        "location": {
            "lat": 22.927452,
            "lng": 111.001983
        },
        "ad_info": {
            "adcode": 450481,
            "province": "广西壮族自治区",
            "city": "梧州市",
            "district": "岑溪市"
        }
    },
    {
        "id": "17995272321487640742",
        "title": "公共厕所",
        "address": "广西壮族自治区梧州市万秀区西堤三路35号",
        "tel": "",
        "category": "基础设施:公共设施:公共厕所",
        "type": 0,
        "location": {
            "lat": 23.470663,
            "lng": 111.292798
        },
        "ad_info": {
            "adcode": 450403,
            "province": "广西壮族自治区",
            "city": "梧州市",
            "district": "万秀区"
        }
    },
    {
        "id": "399504471418185128",
        "title": "公共厕所",
        "address": "广西壮族自治区梧州市藤县G358与天平街交叉口西北方向615米左右",
        "tel": "",
        "category": "基础设施:公共设施:公共厕所",
        "type": 0,
        "location": {
            "lat": 23.383419,
            "lng": 110.715639
        },
        "ad_info": {
            "adcode": 450422,
            "province": "广西壮族自治区",
            "city": "梧州市",
            "district": "藤县"
        }
    },
    {
        "id": "17651264677956094444",
        "title": "公共厕所",
        "address": "广西壮族自治区梧州市藤县中国信合(塘步信用社)西侧190米",
        "tel": "",
        "category": "基础设施:公共设施:公共厕所",
        "type": 0,
        "location": {
            "lat": 23.353877,
            "lng": 111.042916
        },
        "ad_info": {
            "adcode": 450422,
            "province": "广西壮族自治区",
            "city": "梧州市",
            "district": "藤县"
        }
    },
    {
        "id": "12708855901735147619",
        "title": "公共厕所",
        "address": "广西壮族自治区梧州市万秀区钱鉴路三树里与钱鉴路交叉口西南方向89米左右",
        "tel": "",
        "category": "基础设施:公共设施:公共厕所",
        "type": 0,
        "location": {
            "lat": 23.498314,
            "lng": 111.327059
        },
        "ad_info": {
            "adcode": 450403,
            "province": "广西壮族自治区",
            "city": "梧州市",
            "district": "万秀区"
        }
    },
    {
        "id": "15551406907041110829",
        "title": "公共厕所",
        "address": "广西壮族自治区梧州市苍梧县",
        "tel": "",
        "category": "基础设施:公共设施:公共厕所",
        "type": 0,
        "location": {
            "lat": 23.852144,
            "lng": 111.369811
        },
        "ad_info": {
            "adcode": 450421,
            "province": "广西壮族自治区",
            "city": "梧州市",
            "district": "苍梧县"
        }
    },
    {
        "id": "16242238755696045057",
        "title": "公共厕所",
        "address": "广西壮族自治区梧州市蒙山县洲头路与滨江北路交叉口西北方向237米左右",
        "tel": "",
        "category": "基础设施:公共设施:公共厕所",
        "type": 0,
        "location": {
            "lat": 24.20934,
            "lng": 110.516331
        },
        "ad_info": {
            "adcode": 450423,
            "province": "广西壮族自治区",
            "city": "梧州市",
            "district": "蒙山县"
        }
    },
    {
        "id": "1299411994252308256",
        "title": "公共厕所",
        "address": "广西壮族自治区梧州市万秀区步埠路与西环路交叉口东南方向180米左右",
        "tel": "",
        "category": "基础设施:公共设施:公共厕所",
        "type": 0,
        "location": {
            "lat": 23.483186,
            "lng": 111.298938
        },
        "ad_info": {
            "adcode": 450403,
            "province": "广西壮族自治区",
            "city": "梧州市",
            "district": "万秀区"
        }
    },
    {
        "id": "11365806282724744671",
        "title": "公共卫生间",
        "address": "广西壮族自治区梧州市万秀区大学路与桂江一桥交叉口西北方向119米左右",
        "tel": "",
        "category": "基础设施:公共设施:公共厕所",
        "type": 0,
        "location": {
            "lat": 23.47324,
            "lng": 111.309144
        },
        "ad_info": {
            "adcode": 450403,
            "province": "广西壮族自治区",
            "city": "梧州市",
            "district": "万秀区"
        }
    },
    {
        "id": "7322314534335624192",
        "title": "公共厕所",
        "address": "广西壮族自治区梧州市万秀区富民三路与富民三路鲤鱼里交叉口东北方向517米左右",
        "tel": "",
        "category": "基础设施:公共设施:公共厕所",
        "type": 0,
        "location": {
            "lat": 23.493693,
            "lng": 111.316908
        },
        "ad_info": {
            "adcode": 450403,
            "province": "广西壮族自治区",
            "city": "梧州市",
            "district": "万秀区"
        }
    },
    {
        "id": "15805244274250879663",
        "title": "公共厕所",
        "address": "广西壮族自治区梧州市长洲区三龙大道与祥湖南路交叉口东南方向219米左右",
        "tel": "",
        "category": "基础设施:公共设施:公共厕所",
        "type": 0,
        "location": {
            "lat": 23.479162,
            "lng": 111.255939
        },
        "ad_info": {
            "adcode": 450405,
            "province": "广西壮族自治区",
            "city": "梧州市",
            "district": "长洲区"
        }
    },
    {
        "id": "4338766236827250950",
        "title": "公共厕所",
        "address": "广西壮族自治区梧州市藤县S323与旺龙街交叉口正西方向400米左右",
        "tel": "",
        "category": "基础设施:公共设施:公共厕所",
        "type": 0,
        "location": {
            "lat": 23.646175,
            "lng": 110.883254
        },
        "ad_info": {
            "adcode": 450422,
            "province": "广西壮族自治区",
            "city": "梧州市",
            "district": "藤县"
        }
    },
    {
        "id": "14669086770300512778",
        "title": "公共厕所",
        "address": "广西壮族自治区梧州市万秀区富民一路与文澜路交叉口正西方向50米左右",
        "tel": "",
        "category": "基础设施:公共设施:公共厕所",
        "type": 0,
        "location": {
            "lat": 23.480976,
            "lng": 111.307581
        },
        "ad_info": {
            "adcode": 450403,
            "province": "广西壮族自治区",
            "city": "梧州市",
            "district": "万秀区"
        }
    },
    {
        "id": "7587889887507292424",
        "title": "公共厕所",
        "address": "广西壮族自治区梧州市岑溪市滨江一路7号",
        "tel": "",
        "category": "基础设施:公共设施:公共厕所",
        "type": 0,
        "location": {
            "lat": 22.920835,
            "lng": 110.990357
        },
        "ad_info": {
            "adcode": 450481,
            "province": "广西壮族自治区",
            "city": "梧州市",
            "district": "岑溪市"
        }
    },
    {
        "id": "301337692721379096",
        "title": "公共厕所",
        "address": "广西壮族自治区梧州市万秀区建设路与建设路法院里交叉口正西方向70米左右",
        "tel": "",
        "category": "基础设施:公共设施:公共厕所",
        "type": 0,
        "location": {
            "lat": 23.476526,
            "lng": 111.316084
        },
        "ad_info": {
            "adcode": 450403,
            "province": "广西壮族自治区",
            "city": "梧州市",
            "district": "万秀区"
        }
    },
    {
        "id": "15187904791445356744",
        "title": "公共厕所",
        "address": "广西壮族自治区梧州市苍梧县G207与G355交叉口西南方向1375米左右",
        "tel": "",
        "category": "基础设施:公共设施:公共厕所",
        "type": 0,
        "location": {
            "lat": 23.767941,
            "lng": 111.522732
        },
        "ad_info": {
            "adcode": 450421,
            "province": "广西壮族自治区",
            "city": "梧州市",
            "district": "苍梧县"
        }
    },
    {
        "id": "4374613432003242407",
        "title": "公共厕所",
        "address": "广西壮族自治区梧州市岑溪市广南路25-2号",
        "tel": "",
        "category": "基础设施:公共设施:公共厕所",
        "type": 0,
        "location": {
            "lat": 22.914503,
            "lng": 110.994138
        },
        "ad_info": {
            "adcode": 450481,
            "province": "广西壮族自治区",
            "city": "梧州市",
            "district": "岑溪市"
        }
    },
    {
        "id": "17023108360851271846",
        "title": "公共厕所",
        "address": "广西壮族自治区梧州市长洲区冬湖路与银湖南路交叉口正东方向37米左右",
        "tel": "",
        "category": "基础设施:公共设施:公共厕所",
        "type": 0,
        "location": {
            "lat": 23.47659,
            "lng": 111.27725
        },
        "ad_info": {
            "adcode": 450405,
            "province": "广西壮族自治区",
            "city": "梧州市",
            "district": "长洲区"
        }
    },
    {
        "id": "3439705461603957129",
        "title": "公共厕所",
        "address": "广西壮族自治区梧州市蒙山县洲头路与湄江北路交叉口东南方向279米左右",
        "tel": "",
        "category": "基础设施:公共设施:公共厕所",
        "type": 0,
        "location": {
            "lat": 24.203455,
            "lng": 110.516088
        },
        "ad_info": {
            "adcode": 450423,
            "province": "广西壮族自治区",
            "city": "梧州市",
            "district": "蒙山县"
        }
    },
    {
        "id": "11567176345249653526",
        "title": "公共厕所",
        "address": "广西壮族自治区梧州市蒙山县X200",
        "tel": "",
        "category": "基础设施:公共设施:公共厕所",
        "type": 0,
        "location": {
            "lat": 24.24823,
            "lng": 110.544773
        },
        "ad_info": {
            "adcode": 450423,
            "province": "广西壮族自治区",
            "city": "梧州市",
            "district": "蒙山县"
        }
    },
    {
        "id": "8006954725380467551",
        "title": "公共厕所",
        "address": "广西壮族自治区梧州市万秀区桂林路与白云路交叉口西南方向15米左右",
        "tel": "",
        "category": "基础设施:公共设施:公共厕所",
        "type": 0,
        "location": {
            "lat": 23.483857,
            "lng": 111.319325
        },
        "ad_info": {
            "adcode": 450403,
            "province": "广西壮族自治区",
            "city": "梧州市",
            "district": "万秀区"
        }
    },
    {
        "id": "12445293360225989834",
        "title": "公共厕所",
        "address": "广西壮族自治区梧州市蒙山县长坪水韵瑶寨东南侧",
        "tel": "",
        "category": "基础设施:公共设施:公共厕所",
        "type": 0,
        "location": {
            "lat": 24.330916,
            "lng": 110.52085
        },
        "ad_info": {
            "adcode": 450423,
            "province": "广西壮族自治区",
            "city": "梧州市",
            "district": "蒙山县"
        }
    },
    {
        "id": "3426468246154170075",
        "title": "公共厕所",
        "address": "广西壮族自治区梧州市蒙山县呼北高速与蒙山枢纽交叉口西南方向362米左右",
        "tel": "",
        "category": "基础设施:公共设施:公共厕所",
        "type": 0,
        "location": {
            "lat": 24.218826,
            "lng": 110.496432
        },
        "ad_info": {
            "adcode": 450423,
            "province": "广西壮族自治区",
            "city": "梧州市",
            "district": "蒙山县"
        }
    },
    {
        "id": "2522397180163502300",
        "title": "公共厕所",
        "address": "广西壮族自治区梧州市蒙山县甘棠村天书侠谷停车场",
        "tel": "",
        "category": "基础设施:公共设施:公共厕所",
        "type": 0,
        "location": {
            "lat": 24.213197,
            "lng": 110.557106
        },
        "ad_info": {
            "adcode": 450423,
            "province": "广西壮族自治区",
            "city": "梧州市",
            "district": "蒙山县"
        }
    },
    {
        "id": "17733330643320329851",
        "title": "公共厕所",
        "address": "广西壮族自治区梧州市长洲区菊湖路与西堤三路交叉口正西方向104米左右",
        "tel": "",
        "category": "基础设施:公共设施:公共厕所",
        "type": 0,
        "location": {
            "lat": 23.472202,
            "lng": 111.273279
        },
        "ad_info": {
            "adcode": 450405,
            "province": "广西壮族自治区",
            "city": "梧州市",
            "district": "长洲区"
        }
    },
    {
        "id": "8168141190771276472",
        "title": "公共厕所",
        "address": "广西壮族自治区梧州市蒙山县陈塘中心卫生院西北侧60米",
        "tel": "",
        "category": "基础设施:公共设施:公共厕所",
        "type": 0,
        "location": {
            "lat": 23.893833,
            "lng": 110.677891
        },
        "ad_info": {
            "adcode": 450423,
            "province": "广西壮族自治区",
            "city": "梧州市",
            "district": "蒙山县"
        }
    },
    {
        "id": "150483000770822436",
        "title": "南门公共厕所",
        "address": "广西壮族自治区梧州市岑溪市南门路与城中路交叉口正南方向28米左右",
        "tel": "",
        "category": "基础设施:公共设施:公共厕所",
        "type": 0,
        "location": {
            "lat": 22.917385,
            "lng": 110.995941
        },
        "ad_info": {
            "adcode": 450481,
            "province": "广西壮族自治区",
            "city": "梧州市",
            "district": "岑溪市"
        }
    },
    {
        "id": "10224189396751886193",
        "title": "公共厕所(太平镇政府广场)",
        "address": "广西壮族自治区梧州市藤县新政路(太平镇政府广场既小卖部后面)",
        "tel": "",
        "category": "基础设施:公共设施:公共厕所",
        "type": 0,
        "location": {
            "lat": 23.651524,
            "lng": 110.701124
        },
        "ad_info": {
            "adcode": 450422,
            "province": "广西壮族自治区",
            "city": "梧州市",
            "district": "藤县"
        }
    },
    {
        "id": "13473254339274962393",
        "title": "公共厕所",
        "address": "广西壮族自治区梧州市岑溪市X203与南渡大桥交叉口西南方向949米左右",
        "tel": "",
        "category": "基础设施:公共设施:公共厕所",
        "type": 0,
        "location": {
            "lat": 22.846552,
            "lng": 110.828451
        },
        "ad_info": {
            "adcode": 450481,
            "province": "广西壮族自治区",
            "city": "梧州市",
            "district": "岑溪市"
        }
    },
    {
        "id": "7297729516984617898",
        "title": "公共厕所",
        "address": "广西壮族自治区梧州市长洲区广成线红岭廉租房5期",
        "tel": "",
        "category": "基础设施:公共设施:公共厕所",
        "type": 0,
        "location": {
            "lat": 23.496019,
            "lng": 111.260929
        },
        "ad_info": {
            "adcode": 450405,
            "province": "广西壮族自治区",
            "city": "梧州市",
            "district": "长洲区"
        }
    },
    {
        "id": "14362905808222665408",
        "title": "公共厕所",
        "address": "广西壮族自治区梧州市岑溪市爱情迷宫果树迷宫西南侧160米",
        "tel": "",
        "category": "基础设施:公共设施:公共厕所",
        "type": 0,
        "location": {
            "lat": 23.055579,
            "lng": 111.073067
        },
        "ad_info": {
            "adcode": 450481,
            "province": "广西壮族自治区",
            "city": "梧州市",
            "district": "岑溪市"
        }
    },
    {
        "id": "4526932128508085138",
        "title": "公共厕所",
        "address": "广西壮族自治区梧州市万秀区Y008与火山路交叉口正东方向672米左右",
        "tel": "",
        "category": "基础设施:公共设施:公共厕所",
        "type": 0,
        "location": {
            "lat": 23.463502,
            "lng": 111.326807
        },
        "ad_info": {
            "adcode": 450403,
            "province": "广西壮族自治区",
            "city": "梧州市",
            "district": "万秀区"
        }
    },
    {
        "id": "6668282885684129659",
        "title": "公共厕所",
        "address": "广西壮族自治区梧州市龙圩区广场路与苍梧大道交叉口正西方向58米左右",
        "tel": "",
        "category": "基础设施:公共设施:公共厕所",
        "type": 0,
        "location": {
            "lat": 23.417678,
            "lng": 111.248679
        },
        "ad_info": {
            "adcode": 450406,
            "province": "广西壮族自治区",
            "city": "梧州市",
            "district": "龙圩区"
        }
    },
    {
        "id": "6533296984415204396",
        "title": "公共卫生间",
        "address": "广西壮族自治区梧州市万秀区航天北斗新能源产业科技有限公司西北侧260米",
        "tel": "",
        "category": "基础设施:公共设施:公共厕所",
        "type": 0,
        "location": {
            "lat": 23.462216,
            "lng": 111.364998
        },
        "ad_info": {
            "adcode": 450403,
            "province": "广西壮族自治区",
            "city": "梧州市",
            "district": "万秀区"
        }
    },
    {
        "id": "12451800770090423724",
        "title": "公共厕所",
        "address": "广西壮族自治区梧州市长洲区机场路与锦绣路交叉口西北方向538米左右",
        "tel": "",
        "category": "基础设施:公共设施:公共厕所",
        "type": 0,
        "location": {
            "lat": 23.462875,
            "lng": 111.253908
        },
        "ad_info": {
            "adcode": 450405,
            "province": "广西壮族自治区",
            "city": "梧州市",
            "district": "长洲区"
        }
    },
    {
        "id": "17498632506569532603",
        "title": "公共厕所",
        "address": "广西壮族自治区梧州市长洲区三龙大道中国石化加油站北环站",
        "tel": "",
        "category": "基础设施:公共设施:公共厕所",
        "type": 0,
        "location": {
            "lat": 23.488497,
            "lng": 111.260027
        },
        "ad_info": {
            "adcode": 450405,
            "province": "广西壮族自治区",
            "city": "梧州市",
            "district": "长洲区"
        }
    },
    {
        "id": "7389048546755462425",
        "title": "公共厕所",
        "address": "广西壮族自治区梧州市长洲区湖滨路与龙腾路交叉口正西方向348米左右",
        "tel": "",
        "category": "基础设施:公共设施:公共厕所",
        "type": 0,
        "location": {
            "lat": 23.486205,
            "lng": 111.240338
        },
        "ad_info": {
            "adcode": 450405,
            "province": "广西壮族自治区",
            "city": "梧州市",
            "district": "长洲区"
        }
    },
    {
        "id": "7153338367635143223",
        "title": "公共厕所",
        "address": "广西壮族自治区梧州市长洲区吉祥路与西堤三路交叉口西南方向47米左右",
        "tel": "",
        "category": "基础设施:公共设施:公共厕所",
        "type": 0,
        "location": {
            "lat": 23.471322,
            "lng": 111.284901
        },
        "ad_info": {
            "adcode": 450405,
            "province": "广西壮族自治区",
            "city": "梧州市",
            "district": "长洲区"
        }
    },
    {
        "id": "17323604899159544764",
        "title": "公共厕所",
        "address": "广西壮族自治区梧州市万秀区G321与Y001交叉口正西方向1766米左右",
        "tel": "",
        "category": "基础设施:公共设施:公共厕所",
        "type": 0,
        "location": {
            "lat": 23.474817,
            "lng": 111.406741
        },
        "ad_info": {
            "adcode": 450403,
            "province": "广西壮族自治区",
            "city": "梧州市",
            "district": "万秀区"
        }
    },
    {
        "id": "11463504585753231719",
        "title": "公共厕所",
        "address": "广西壮族自治区梧州市万秀区军事体育文化园西面",
        "tel": "",
        "category": "基础设施:公共设施:公共厕所",
        "type": 0,
        "location": {
            "lat": 23.459737,
            "lng": 111.306979
        },
        "ad_info": {
            "adcode": 450403,
            "province": "广西壮族自治区",
            "city": "梧州市",
            "district": "万秀区"
        }
    },
    {
        "id": "3829216448273137943",
        "title": "公共厕所",
        "address": "广西壮族自治区梧州市万秀区云龙公园北侧50米",
        "tel": "",
        "category": "基础设施:公共设施:公共厕所",
        "type": 0,
        "location": {
            "lat": 23.476186,
            "lng": 111.340658
        },
        "ad_info": {
            "adcode": 450403,
            "province": "广西壮族自治区",
            "city": "梧州市",
            "district": "万秀区"
        }
    },
    {
        "id": "3955797212599862063",
        "title": "公共厕所",
        "address": "广西壮族自治区梧州市龙圩区政贤路与银兴二路交叉口东北方向102米左右",
        "tel": "",
        "category": "基础设施:公共设施:公共厕所",
        "type": 0,
        "location": {
            "lat": 23.416588,
            "lng": 111.24766
        },
        "ad_info": {
            "adcode": 450406,
            "province": "广西壮族自治区",
            "city": "梧州市",
            "district": "龙圩区"
        }
    },
    {
        "id": "1077070747160639255",
        "title": "公共厕所",
        "address": "广西壮族自治区梧州市岑溪市思湖一路与沿江三路交叉口正东方向27米左右",
        "tel": "",
        "category": "基础设施:公共设施:公共厕所",
        "type": 0,
        "location": {
            "lat": 22.912355,
            "lng": 110.988291
        },
        "ad_info": {
            "adcode": 450481,
            "province": "广西壮族自治区",
            "city": "梧州市",
            "district": "岑溪市"
        }
    },
    {
        "id": "15011418885460403771",
        "title": "公共厕所(大窝竹加油站)",
        "address": "广西壮族自治区梧州市藤县太平镇321国道东(大窝竹加油站内)",
        "tel": "",
        "category": "基础设施:公共设施:公共厕所",
        "type": 0,
        "location": {
            "lat": 23.630175,
            "lng": 110.70514
        },
        "ad_info": {
            "adcode": 450422,
            "province": "广西壮族自治区",
            "city": "梧州市",
            "district": "藤县"
        }
    },
    {
        "id": "8441079184406434935",
        "title": "新城市场公共厕所",
        "address": "广西壮族自治区梧州市长洲区秋湖路与金湖北路交叉口正北方向220米左右",
        "tel": "",
        "category": "基础设施:公共设施:公共厕所",
        "type": 0,
        "location": {
            "lat": 23.482795,
            "lng": 111.274686
        },
        "ad_info": {
            "adcode": 450405,
            "province": "广西壮族自治区",
            "city": "梧州市",
            "district": "长洲区"
        }
    },
    {
        "id": "13034937906474024661",
        "title": "公共厕所",
        "address": "广西壮族自治区梧州市岑溪市河木中心小学西南侧140米",
        "tel": "",
        "category": "基础设施:公共设施:公共厕所",
        "type": 0,
        "location": {
            "lat": 22.784185,
            "lng": 111.205518
        },
        "ad_info": {
            "adcode": 450481,
            "province": "广西壮族自治区",
            "city": "梧州市",
            "district": "岑溪市"
        }
    },
    {
        "id": "15997019469540106835",
        "title": "公共厕所",
        "address": "广西壮族自治区梧州市岑溪市新兴路与玉梧大道交叉口正东方向64米左右",
        "tel": "",
        "category": "基础设施:公共设施:公共厕所",
        "type": 0,
        "location": {
            "lat": 22.929506,
            "lng": 111.01122
        },
        "ad_info": {
            "adcode": 450481,
            "province": "广西壮族自治区",
            "city": "梧州市",
            "district": "岑溪市"
        }
    },
    {
        "id": "461853389163444526",
        "title": "公共厕所",
        "address": "广西壮族自治区梧州市岑溪市乐村淘商城体验店西南侧230米",
        "tel": "",
        "category": "基础设施:公共设施:公共厕所",
        "type": 0,
        "location": {
            "lat": 22.894755,
            "lng": 111.110783
        },
        "ad_info": {
            "adcode": 450481,
            "province": "广西壮族自治区",
            "city": "梧州市",
            "district": "岑溪市"
        }
    },
    {
        "id": "12141491763136194433",
        "title": "公共厕所",
        "address": "广西壮族自治区梧州市长洲区红岭路梧州市第七中学",
        "tel": "",
        "category": "基础设施:公共设施:公共厕所",
        "type": 0,
        "location": {
            "lat": 23.476865,
            "lng": 111.261742
        },
        "ad_info": {
            "adcode": 450405,
            "province": "广西壮族自治区",
            "city": "梧州市",
            "district": "长洲区"
        }
    },
    {
        "id": "15668444891083157955",
        "title": "公共厕所",
        "address": "广西壮族自治区梧州市藤县登俊路53号",
        "tel": "",
        "category": "基础设施:公共设施:公共厕所",
        "type": 0,
        "location": {
            "lat": 23.37425,
            "lng": 110.91435
        },
        "ad_info": {
            "adcode": 450422,
            "province": "广西壮族自治区",
            "city": "梧州市",
            "district": "藤县"
        }
    },
    {
        "id": "14880165023982179756",
        "title": "公共厕所",
        "address": "广西壮族自治区梧州市长洲区吉塘路与新兴二路交叉口西北方向159米左右",
        "tel": "",
        "category": "基础设施:公共设施:公共厕所",
        "type": 0,
        "location": {
            "lat": 23.477921,
            "lng": 111.282107
        },
        "ad_info": {
            "adcode": 450405,
            "province": "广西壮族自治区",
            "city": "梧州市",
            "district": "长洲区"
        }
    },
    {
        "id": "2688027560027395419",
        "title": "公共厕所",
        "address": "广西壮族自治区梧州市长洲区三龙东一路与三龙大道交叉口西北方向487米左右",
        "tel": "",
        "category": "基础设施:公共设施:公共厕所",
        "type": 0,
        "location": {
            "lat": 23.472775,
            "lng": 111.238558
        },
        "ad_info": {
            "adcode": 450405,
            "province": "广西壮族自治区",
            "city": "梧州市",
            "district": "长洲区"
        }
    },
    {
        "id": "6502852312086960153",
        "title": "公共厕所",
        "address": "广西壮族自治区梧州市藤县江滨路与绣江路交叉口正南方向230米左右",
        "tel": "",
        "category": "基础设施:公共设施:公共厕所",
        "type": 0,
        "location": {
            "lat": 23.374554,
            "lng": 110.91524
        },
        "ad_info": {
            "adcode": 450422,
            "province": "广西壮族自治区",
            "city": "梧州市",
            "district": "藤县"
        }
    },
    {
        "id": "593869400591004441",
        "title": "肯德基(中山餐厅)-洗手间",
        "address": "广西壮族自治区梧州市万秀区中山路14号海俱大厦1层",
        "tel": "",
        "category": "基础设施:公共设施:公共厕所",
        "type": 0,
        "location": {
            "lat": 23.471945,
            "lng": 111.318855
        },
        "ad_info": {
            "adcode": 450403,
            "province": "广西壮族自治区",
            "city": "梧州市",
            "district": "万秀区"
        }
    },
    {
        "id": "13597576143658411633",
        "title": "公共厕所",
        "address": "广西壮族自治区梧州市岑溪市容岑一级公路与玉梧大道西交叉口西北40米",
        "tel": "",
        "category": "基础设施:公共设施:公共厕所",
        "type": 0,
        "location": {
            "lat": 22.909064,
            "lng": 110.927583
        },
        "ad_info": {
            "adcode": 450481,
            "province": "广西壮族自治区",
            "city": "梧州市",
            "district": "岑溪市"
        }
    },
    {
        "id": "12560456875564850530",
        "title": "公共厕所",
        "address": "广西壮族自治区梧州市岑溪市324国道与S50岑筋高速入口交叉口西150米",
        "tel": "",
        "category": "基础设施:公共设施:公共厕所",
        "type": 0,
        "location": {
            "lat": 22.901147,
            "lng": 111.256391
        },
        "ad_info": {
            "adcode": 450481,
            "province": "广西壮族自治区",
            "city": "梧州市",
            "district": "岑溪市"
        }
    },
    {
        "id": "10346211331252947620",
        "title": "公共厕所",
        "address": "广西壮族自治区梧州市岑溪市207国道南50米",
        "tel": "",
        "category": "基础设施:公共设施:公共厕所",
        "type": 0,
        "location": {
            "lat": 23.104877,
            "lng": 111.091154
        },
        "ad_info": {
            "adcode": 450481,
            "province": "广西壮族自治区",
            "city": "梧州市",
            "district": "岑溪市"
        }
    },
    {
        "id": "16932325801991352024",
        "title": "公共厕所",
        "address": "广西壮族自治区梧州市岑溪市G207与光母街交叉口东北方向59米左右",
        "tel": "",
        "category": "基础设施:公共设施:公共厕所",
        "type": 0,
        "location": {
            "lat": 23.041992,
            "lng": 111.051527
        },
        "ad_info": {
            "adcode": 450481,
            "province": "广西壮族自治区",
            "city": "梧州市",
            "district": "岑溪市"
        }
    },
    {
        "id": "15068273798252186696",
        "title": "公共厕所",
        "address": "广西壮族自治区梧州市岑溪市G324与黄华河大桥交叉口正东方向386米左右",
        "tel": "",
        "category": "基础设施:公共设施:公共厕所",
        "type": 0,
        "location": {
            "lat": 22.902881,
            "lng": 110.840314
        },
        "ad_info": {
            "adcode": 450481,
            "province": "广西壮族自治区",
            "city": "梧州市",
            "district": "岑溪市"
        }
    },
    {
        "id": "16069729178404243842",
        "title": "公共卫生间",
        "address": "广西壮族自治区梧州市藤县体育西街藤县文化和体育局",
        "tel": "",
        "category": "基础设施:公共设施:公共厕所",
        "type": 0,
        "location": {
            "lat": 23.372517,
            "lng": 110.923411
        },
        "ad_info": {
            "adcode": 450422,
            "province": "广西壮族自治区",
            "city": "梧州市",
            "district": "藤县"
        }
    },
    {
        "id": "3107930072209264996",
        "title": "公共厕所",
        "address": "广西壮族自治区梧州市长洲区新兴二路与新闻路交叉口正东方向31米左右",
        "tel": "",
        "category": "基础设施:公共设施:公共厕所",
        "type": 0,
        "location": {
            "lat": 23.486341,
            "lng": 111.279013
        },
        "ad_info": {
            "adcode": 450405,
            "province": "广西壮族自治区",
            "city": "梧州市",
            "district": "长洲区"
        }
    },
    {
        "id": "11602104781381153887",
        "title": "南中公共厕所",
        "address": "广西壮族自治区梧州市万秀区南环路与文化路交叉口西南方向29米左右",
        "tel": "",
        "category": "基础设施:公共设施:公共厕所",
        "type": 0,
        "location": {
            "lat": 23.47285,
            "lng": 111.317472
        },
        "ad_info": {
            "adcode": 450403,
            "province": "广西壮族自治区",
            "city": "梧州市",
            "district": "万秀区"
        }
    },
    {
        "id": "12256276507624736808",
        "title": "新圩服务区公共厕所",
        "address": "广西壮族自治区梧州市蒙山县S30贺西高速与新圩服务区交叉口南140米",
        "tel": "",
        "category": "基础设施:公共设施:公共厕所",
        "type": 0,
        "location": {
            "lat": 24.304288,
            "lng": 110.407577
        },
        "ad_info": {
            "adcode": 450423,
            "province": "广西壮族自治区",
            "city": "梧州市",
            "district": "蒙山县"
        }
    },
    {
        "id": "15709205894506023567",
        "title": "大坡服务区公共厕所",
        "address": "广西壮族自治区梧州市龙圩区大坡服务区东北(广昆高速公路东)",
        "tel": "",
        "category": "基础设施:公共设施:公共厕所",
        "type": 0,
        "location": {
            "lat": 23.321027,
            "lng": 111.311294
        },
        "ad_info": {
            "adcode": 450406,
            "province": "广西壮族自治区",
            "city": "梧州市",
            "district": "龙圩区"
        }
    },
    {
        "id": "1220003831102483412",
        "title": "新地服务区公共厕所",
        "address": "广西壮族自治区梧州市龙圩区新地镇包茂高速公路新地服务区",
        "tel": "",
        "category": "基础设施:公共设施:公共厕所",
        "type": 0,
        "location": {
            "lat": 23.204723,
            "lng": 111.17294
        },
        "ad_info": {
            "adcode": 450406,
            "province": "广西壮族自治区",
            "city": "梧州市",
            "district": "龙圩区"
        }
    },
    {
        "id": "10044930260219094062",
        "title": "小广场公共厕所",
        "address": "广西壮族自治区梧州市岑溪市滨江二路小广场(北侧)",
        "tel": "",
        "category": "基础设施:公共设施:公共厕所",
        "type": 0,
        "location": {
            "lat": 22.917406,
            "lng": 110.994172
        },
        "ad_info": {
            "adcode": 450481,
            "province": "广西壮族自治区",
            "city": "梧州市",
            "district": "岑溪市"
        }
    },
    {
        "id": "13333699820717721929",
        "title": "藤县服务区公共厕所",
        "address": "广西壮族自治区梧州市藤县藤县服务区与S40苍硕高速交叉口南160米",
        "tel": "",
        "category": "基础设施:公共设施:公共厕所",
        "type": 0,
        "location": {
            "lat": 23.316564,
            "lng": 110.953252
        },
        "ad_info": {
            "adcode": 450422,
            "province": "广西壮族自治区",
            "city": "梧州市",
            "district": "藤县"
        }
    },
    {
        "id": "13932660739840492640",
        "title": "岭脚服务区公共厕所",
        "address": "广西壮族自治区梧州市苍梧县中国石化广西交投岭脚服务区加油站东北侧190米",
        "tel": "",
        "category": "基础设施:公共设施:公共厕所",
        "type": 0,
        "location": {
            "lat": 23.55234,
            "lng": 111.020782
        },
        "ad_info": {
            "adcode": 450421,
            "province": "广西壮族自治区",
            "city": "梧州市",
            "district": "苍梧县"
        }
    },
    {
        "id": "3661318790810950506",
        "title": "狮寨停车区公共厕所",
        "address": "广西壮族自治区梧州市苍梧县G65包茂高速附近",
        "tel": "",
        "category": "基础设施:公共设施:公共厕所",
        "type": 0,
        "location": {
            "lat": 23.783523,
            "lng": 111.129854
        },
        "ad_info": {
            "adcode": 450421,
            "province": "广西壮族自治区",
            "city": "梧州市",
            "district": "苍梧县"
        }
    },
    {
        "id": "12917918977111260096",
        "title": "藤县服务区公共厕所",
        "address": "广西壮族自治区梧州市藤县S40苍硕高速与藤县服务区交叉口北140米",
        "tel": "",
        "category": "基础设施:公共设施:公共厕所",
        "type": 0,
        "location": {
            "lat": 23.317526,
            "lng": 110.949293
        },
        "ad_info": {
            "adcode": 450422,
            "province": "广西壮族自治区",
            "city": "梧州市",
            "district": "藤县"
        }
    },
    {
        "id": "5649020014479932813",
        "title": "泡沫式节水生态环保公共厕所",
        "address": "广西壮族自治区梧州市万秀区工厂二路34号",
        "tel": "",
        "category": "基础设施:公共设施:公共厕所",
        "type": 0,
        "location": {
            "lat": 23.476905,
            "lng": 111.296644
        },
        "ad_info": {
            "adcode": 450403,
            "province": "广西壮族自治区",
            "city": "梧州市",
            "district": "万秀区"
        }
    },
    {
        "id": "11866360315583653723",
        "title": "石鼓公共厕所",
        "address": "广西壮族自治区梧州市万秀区云盖路与石鼓路交叉口正北方向214米左右",
        "tel": "",
        "category": "基础设施:公共设施:公共厕所",
        "type": 0,
        "location": {
            "lat": 23.474015,
            "lng": 111.325032
        },
        "ad_info": {
            "adcode": 450403,
            "province": "广西壮族自治区",
            "city": "梧州市",
            "district": "万秀区"
        }
    },
    {
        "id": "8003793468552127720",
        "title": "筋竹服务区公共厕所",
        "address": "广西壮族自治区梧州市岑溪市G324与进园大道交叉口东南方向1685米左右",
        "tel": "",
        "category": "基础设施:公共设施:公共厕所",
        "type": 0,
        "location": {
            "lat": 22.89488,
            "lng": 111.228929
        },
        "ad_info": {
            "adcode": 450481,
            "province": "广西壮族自治区",
            "city": "梧州市",
            "district": "岑溪市"
        }
    },
    {
        "id": "15208810915116670114",
        "title": "四坊路公共厕所",
        "address": "广西壮族自治区梧州市万秀区四坊路52号",
        "tel": "",
        "category": "基础设施:公共设施:公共厕所",
        "type": 0,
        "location": {
            "lat": 23.477064,
            "lng": 111.313796
        },
        "ad_info": {
            "adcode": 450403,
            "province": "广西壮族自治区",
            "city": "梧州市",
            "district": "万秀区"
        }
    },
    {
        "id": "15959485149053502953",
        "title": "夏郢服务区公共厕所",
        "address": "广西壮族自治区梧州市万秀区中国石油广西交投夏郢服务区加油站东侧70米",
        "tel": "",
        "category": "基础设施:公共设施:公共厕所",
        "type": 0,
        "location": {
            "lat": 23.56198,
            "lng": 111.30468
        },
        "ad_info": {
            "adcode": 450403,
            "province": "广西壮族自治区",
            "city": "梧州市",
            "district": "万秀区"
        }
    },
    {
        "id": "14138605660750545291",
        "title": "筋竹停车区公共厕所",
        "address": "广西壮族自治区梧州市岑溪市G324与进园大道交叉口东南方向1686米左右",
        "tel": "",
        "category": "基础设施:公共设施:公共厕所",
        "type": 0,
        "location": {
            "lat": 22.89487,
            "lng": 111.228938
        },
        "ad_info": {
            "adcode": 450481,
            "province": "广西壮族自治区",
            "city": "梧州市",
            "district": "岑溪市"
        }
    },
    {
        "id": "2824246916964835688",
        "title": "岑溪服务区公共厕所",
        "address": "广西壮族自治区梧州市岑溪市岑溪服务区与G65包茂高速交叉口西南380米",
        "tel": "",
        "category": "基础设施:公共设施:公共厕所",
        "type": 0,
        "location": {
            "lat": 23.008569,
            "lng": 111.041654
        },
        "ad_info": {
            "adcode": 450481,
            "province": "广西壮族自治区",
            "city": "梧州市",
            "district": "岑溪市"
        }
    },
    {
        "id": "6313811833139091314",
        "title": "岑溪服务区公共厕所",
        "address": "广西壮族自治区梧州市岑溪市岑溪服务区与G65包茂高速交叉口西南360米",
        "tel": "",
        "category": "基础设施:公共设施:公共厕所",
        "type": 0,
        "location": {
            "lat": 23.006955,
            "lng": 111.043275
        },
        "ad_info": {
            "adcode": 450481,
            "province": "广西壮族自治区",
            "city": "梧州市",
            "district": "岑溪市"
        }
    },
    {
        "id": "14839126492548589070",
        "title": "倒水服务区公共厕所",
        "address": "广西壮族自治区梧州市长洲区桂江一路与龙泉北路交叉口正北方向1281米左右",
        "tel": "",
        "category": "基础设施:公共设施:公共厕所",
        "type": 0,
        "location": {
            "lat": 23.584824,
            "lng": 111.136607
        },
        "ad_info": {
            "adcode": 450405,
            "province": "广西壮族自治区",
            "city": "梧州市",
            "district": "长洲区"
        }
    },
    {
        "id": "10518397722469393870",
        "title": "岑溪服务区第二公共厕所",
        "address": "广西壮族自治区梧州市岑溪市富民街与岑梧路交叉口西北方向603米左右",
        "tel": "",
        "category": "基础设施:公共设施:公共厕所",
        "type": 0,
        "location": {
            "lat": 23.008031,
            "lng": 111.04168
        },
        "ad_info": {
            "adcode": 450481,
            "province": "广西壮族自治区",
            "city": "梧州市",
            "district": "岑溪市"
        }
    },
    {
        "id": "4684369188251086975",
        "title": "大隆服务区公共厕所",
        "address": "广西壮族自治区梧州市岑溪市G207与X211交叉口东北方向1312米左右",
        "tel": "",
        "category": "基础设施:公共设施:公共厕所",
        "type": 0,
        "location": {
            "lat": 22.759746,
            "lng": 111.012623
        },
        "ad_info": {
            "adcode": 450481,
            "province": "广西壮族自治区",
            "city": "梧州市",
            "district": "岑溪市"
        }
    },
    {
        "id": "11285078149543179343",
        "title": "倒水服务区第二公共厕所",
        "address": "广西壮族自治区梧州市长洲区桂江一路与龙泉北路交叉口正北方向1391米左右",
        "tel": "",
        "category": "基础设施:公共设施:公共厕所",
        "type": 0,
        "location": {
            "lat": 23.585635,
            "lng": 111.13858
        },
        "ad_info": {
            "adcode": 450405,
            "province": "广西壮族自治区",
            "city": "梧州市",
            "district": "长洲区"
        }
    },
    {
        "id": "9459146710586749029",
        "title": "大隆服务区公共厕所",
        "address": "广西壮族自治区梧州市岑溪市G207与X211交叉口正东方向946米左右",
        "tel": "",
        "category": "基础设施:公共设施:公共厕所",
        "type": 0,
        "location": {
            "lat": 22.756563,
            "lng": 111.010213
        },
        "ad_info": {
            "adcode": 450481,
            "province": "广西壮族自治区",
            "city": "梧州市",
            "district": "岑溪市"
        }
    },
    {
        "id": "8278039368847179421",
        "title": "岑溪东服务区公共厕所",
        "address": "广西壮族自治区梧州市岑溪市归义镇岑筋高速公路岑溪东服务区附近",
        "tel": "",
        "category": "基础设施:公共设施:公共厕所",
        "type": 0,
        "location": {
            "lat": 22.887074,
            "lng": 111.068726
        },
        "ad_info": {
            "adcode": 450481,
            "province": "广西壮族自治区",
            "city": "梧州市",
            "district": "岑溪市"
        }
    },
    {
        "id": "17473815010258738850",
        "title": "石鼓公共厕所",
        "address": "广西壮族自治区梧州市万秀区石鼓路362号",
        "tel": "",
        "category": "基础设施:公共设施:公共厕所",
        "type": 0,
        "location": {
            "lat": 23.474295,
            "lng": 111.325383
        },
        "ad_info": {
            "adcode": 450403,
            "province": "广西壮族自治区",
            "city": "梧州市",
            "district": "万秀区"
        }
    },
    {
        "id": "10767366412925188993",
        "title": "岑溪东服务区第二公共厕所",
        "address": "广西壮族自治区梧州市岑溪市中国石油岑溪东服务区加油站东北侧",
        "tel": "",
        "category": "基础设施:公共设施:公共厕所",
        "type": 0,
        "location": {
            "lat": 22.88624,
            "lng": 111.053646
        },
        "ad_info": {
            "adcode": 450481,
            "province": "广西壮族自治区",
            "city": "梧州市",
            "district": "岑溪市"
        }
    },
    {
        "id": "14852421422523704347",
        "title": "夏郢服务区公共厕所",
        "address": "广西壮族自治区梧州市万秀区S4001梧州绕城高速与夏郢服务区交叉口西南240米",
        "tel": "",
        "category": "基础设施:公共设施:公共厕所",
        "type": 0,
        "location": {
            "lat": 23.560077,
            "lng": 111.305291
        },
        "ad_info": {
            "adcode": 450403,
            "province": "广西壮族自治区",
            "city": "梧州市",
            "district": "万秀区"
        }
    },
    {
        "id": "5387047481552142481",
        "title": "公共厕所",
        "address": "广西壮族自治区梧州市苍梧县黎埠镇六合农圃农庄",
        "tel": "",
        "category": "基础设施:公共设施:公共厕所",
        "type": 0,
        "location": {
            "lat": 23.799079,
            "lng": 111.499876
        },
        "ad_info": {
            "adcode": 450421,
            "province": "广西壮族自治区",
            "city": "梧州市",
            "district": "苍梧县"
        }
    },
    {
        "id": "10299197880484040358",
        "title": "白沙停车区第一公共厕所",
        "address": "广西壮族自治区梧州市龙圩区盘龙坳隧道与苍海大道交叉口西北方向1544米左右",
        "tel": "",
        "category": "基础设施:公共设施:公共厕所",
        "type": 0,
        "location": {
            "lat": 23.409757,
            "lng": 111.185211
        },
        "ad_info": {
            "adcode": 450406,
            "province": "广西壮族自治区",
            "city": "梧州市",
            "district": "龙圩区"
        }
    },
    {
        "id": "14165507730369940401",
        "title": "公共厕所",
        "address": "广西壮族自治区梧州市万秀区高旺路中国石化南岸加油站",
        "tel": "",
        "category": "基础设施:公共设施:公共厕所",
        "type": 0,
        "location": {
            "lat": 23.458394,
            "lng": 111.277123
        },
        "ad_info": {
            "adcode": 450403,
            "province": "广西壮族自治区",
            "city": "梧州市",
            "district": "万秀区"
        }
    },
    {
        "id": "2172453391034884797",
        "title": "公共厕所",
        "address": "广西壮族自治区梧州市蒙山县五福路与鳌山路交叉口西南方向141米左右",
        "tel": "",
        "category": "基础设施:公共设施:公共厕所",
        "type": 0,
        "location": {
            "lat": 24.197758,
            "lng": 110.530748
        },
        "ad_info": {
            "adcode": 450423,
            "province": "广西壮族自治区",
            "city": "梧州市",
            "district": "蒙山县"
        }
    },
    {
        "id": "7196862073567242159",
        "title": "公共厕所",
        "address": "广西壮族自治区梧州市岑溪市城谏镇黎垌周公山农家乐",
        "tel": "",
        "category": "基础设施:公共设施:公共厕所",
        "type": 0,
        "location": {
            "lat": 23.007062,
            "lng": 111.172489
        },
        "ad_info": {
            "adcode": 450481,
            "province": "广西壮族自治区",
            "city": "梧州市",
            "district": "岑溪市"
        }
    },
    {
        "id": "3586816333498832315",
        "title": "公共厕所",
        "address": "广西壮族自治区梧州市蒙山县文圩路与湄江南路交叉口东南方向573米左右",
        "tel": "",
        "category": "基础设施:公共设施:公共厕所",
        "type": 0,
        "location": {
            "lat": 24.180164,
            "lng": 110.528023
        },
        "ad_info": {
            "adcode": 450423,
            "province": "广西壮族自治区",
            "city": "梧州市",
            "district": "蒙山县"
        }
    },
    {
        "id": "5800656009508257030",
        "title": "公共厕所",
        "address": "广西壮族自治区梧州市万秀区九坊路与五坊路交叉口西北方向40米左右",
        "tel": "",
        "category": "基础设施:公共设施:公共厕所",
        "type": 0,
        "location": {
            "lat": 23.4728,
            "lng": 111.313528
        },
        "ad_info": {
            "adcode": 450403,
            "province": "广西壮族自治区",
            "city": "梧州市",
            "district": "万秀区"
        }
    },
    {
        "id": "6769395142676768819",
        "title": "大坡服务区公共厕所",
        "address": "广西壮族自治区梧州市龙圩区G80广昆高速与大坡服务区交叉口西北300米",
        "tel": "",
        "category": "基础设施:公共设施:公共厕所",
        "type": 0,
        "location": {
            "lat": 23.319483,
            "lng": 111.310085
        },
        "ad_info": {
            "adcode": 450406,
            "province": "广西壮族自治区",
            "city": "梧州市",
            "district": "龙圩区"
        }
    },
    {
        "id": "10706274868820155255",
        "title": "新圩服务区公共厕所",
        "address": "广西壮族自治区梧州市蒙山县S30贺西高速与新圩服务区交叉口东380米",
        "tel": "",
        "category": "基础设施:公共设施:公共厕所",
        "type": 0,
        "location": {
            "lat": 24.306234,
            "lng": 110.411183
        },
        "ad_info": {
            "adcode": 450423,
            "province": "广西壮族自治区",
            "city": "梧州市",
            "district": "蒙山县"
        }
    },
    {
        "id": "8746673183650568883",
        "title": "苍梧服务区公共厕所",
        "address": "广西壮族自治区梧州市苍梧县苍梧服务区南侧",
        "tel": "",
        "category": "基础设施:公共设施:公共厕所",
        "type": 0,
        "location": {
            "lat": 23.757586,
            "lng": 111.517812
        },
        "ad_info": {
            "adcode": 450421,
            "province": "广西壮族自治区",
            "city": "梧州市",
            "district": "苍梧县"
        }
    },
    {
        "id": "1851402829958849610",
        "title": "公共厕所",
        "address": "广西壮族自治区梧州市蒙山县G321与湄江北路交叉口东北方向689米左右",
        "tel": "",
        "category": "基础设施:公共设施:公共厕所",
        "type": 0,
        "location": {
            "lat": 24.214879,
            "lng": 110.511248
        },
        "ad_info": {
            "adcode": 450423,
            "province": "广西壮族自治区",
            "city": "梧州市",
            "district": "蒙山县"
        }
    },
    {
        "id": "8220774568059290492",
        "title": "公共厕所",
        "address": "广西壮族自治区梧州市蒙山县G241与三门大桥交叉口正北方向606米左右",
        "tel": "",
        "category": "基础设施:公共设施:公共厕所",
        "type": 0,
        "location": {
            "lat": 24.010167,
            "lng": 110.602629
        },
        "ad_info": {
            "adcode": 450423,
            "province": "广西壮族自治区",
            "city": "梧州市",
            "district": "蒙山县"
        }
    },
    {
        "id": "7970744098133344453",
        "title": "岭脚服务区卫生间",
        "address": "广西壮族自治区梧州市苍梧县岭脚服务区西南侧",
        "tel": "",
        "category": "基础设施:公共设施:公共厕所",
        "type": 0,
        "location": {
            "lat": 23.551016,
            "lng": 111.018462
        },
        "ad_info": {
            "adcode": 450421,
            "province": "广西壮族自治区",
            "city": "梧州市",
            "district": "苍梧县"
        }
    },
    {
        "id": "10700188339837878004",
        "title": "和平服务区公共厕所",
        "address": "广西壮族自治区梧州市藤县G6517梧柳高速与和平服务区交叉口东400米",
        "tel": "",
        "category": "基础设施:公共设施:公共厕所",
        "type": 0,
        "location": {
            "lat": 23.59176,
            "lng": 110.67893
        },
        "ad_info": {
            "adcode": 450422,
            "province": "广西壮族自治区",
            "city": "梧州市",
            "district": "藤县"
        }
    },
    {
        "id": "10330677480952545144",
        "title": "梧州丽港皇冠酒店-洗手间",
        "address": "广西壮族自治区梧州市万秀区西江三路鸳江丽港8号楼",
        "tel": "",
        "category": "基础设施:公共设施:公共厕所",
        "type": 0,
        "location": {
            "lat": 23.471418,
            "lng": 111.327419
        },
        "ad_info": {
            "adcode": 450403,
            "province": "广西壮族自治区",
            "city": "梧州市",
            "district": "万秀区"
        }
    },
    {
        "id": "11589195868884446069",
        "title": "苍梧服务区公共厕所",
        "address": "广西壮族自治区梧州市苍梧县苍梧服务区北侧",
        "tel": "",
        "category": "基础设施:公共设施:公共厕所",
        "type": 0,
        "location": {
            "lat": 23.759766,
            "lng": 111.519586
        },
        "ad_info": {
            "adcode": 450421,
            "province": "广西壮族自治区",
            "city": "梧州市",
            "district": "苍梧县"
        }
    },
    {
        "id": "14314529445991721462",
        "title": "筋竹服务区公共厕所",
        "address": "广西壮族自治区梧州市岑溪市筋竹停车区北50米",
        "tel": "",
        "category": "基础设施:公共设施:公共厕所",
        "type": 0,
        "location": {
            "lat": 22.896033,
            "lng": 111.234283
        },
        "ad_info": {
            "adcode": 450481,
            "province": "广西壮族自治区",
            "city": "梧州市",
            "district": "岑溪市"
        }
    },
    {
        "id": "17641973846190295608",
        "title": "公共厕所",
        "address": "广西壮族自治区梧州市龙圩区苍海路与龙湖大道交叉口正东方向197米左右",
        "tel": "",
        "category": "基础设施:公共设施:公共厕所",
        "type": 0,
        "location": {
            "lat": 23.413328,
            "lng": 111.258309
        },
        "ad_info": {
            "adcode": 450406,
            "province": "广西壮族自治区",
            "city": "梧州市",
            "district": "龙圩区"
        }
    },
    {
        "id": "6950509855354343125",
        "title": "公共厕所",
        "address": "广西壮族自治区梧州市藤县G321与G358交叉口东南方向497米左右",
        "tel": "",
        "category": "基础设施:公共设施:公共厕所",
        "type": 0,
        "location": {
            "lat": 23.348353,
            "lng": 110.980604
        },
        "ad_info": {
            "adcode": 450422,
            "province": "广西壮族自治区",
            "city": "梧州市",
            "district": "藤县"
        }
    },
    {
        "id": "8157234503108694192",
        "title": "中林停车区公共厕所",
        "address": "广西壮族自治区梧州市岑溪市中林停车区与G80广昆高速交叉口西220米",
        "tel": "",
        "category": "基础设施:公共设施:公共厕所",
        "type": 0,
        "location": {
            "lat": 22.905429,
            "lng": 110.865016
        },
        "ad_info": {
            "adcode": 450481,
            "province": "广西壮族自治区",
            "city": "梧州市",
            "district": "岑溪市"
        }
    },
    {
        "id": "16544630503483962313",
        "title": "中林停车区公共厕所",
        "address": "广西壮族自治区梧州市岑溪市马路镇中林村广昆高速公路中林停车区",
        "tel": "",
        "category": "基础设施:公共设施:公共厕所",
        "type": 0,
        "location": {
            "lat": 22.904532,
            "lng": 110.864848
        },
        "ad_info": {
            "adcode": 450481,
            "province": "广西壮族自治区",
            "city": "梧州市",
            "district": "岑溪市"
        }
    },
    {
        "id": "18354112385943985259",
        "title": "公共厕所",
        "address": "广西壮族自治区梧州市长洲区新闻路宝石园",
        "tel": "",
        "category": "基础设施:公共设施:公共厕所",
        "type": 0,
        "location": {
            "lat": 23.491649,
            "lng": 111.284565
        },
        "ad_info": {
            "adcode": 450405,
            "province": "广西壮族自治区",
            "city": "梧州市",
            "district": "长洲区"
        }
    },
    {
        "id": "14288463604040882456",
        "title": "公共厕所",
        "address": "广西壮族自治区梧州市苍梧县065乡道",
        "tel": "",
        "category": "基础设施:公共设施:公共厕所",
        "type": 0,
        "location": {
            "lat": 23.87097,
            "lng": 111.513884
        },
        "ad_info": {
            "adcode": 450421,
            "province": "广西壮族自治区",
            "city": "梧州市",
            "district": "苍梧县"
        }
    },
    {
        "id": "3157050600275370121",
        "title": "公共厕所",
        "address": "广西壮族自治区梧州市万秀区大东上路38号",
        "tel": "",
        "category": "基础设施:公共设施:公共厕所",
        "type": 0,
        "location": {
            "lat": 23.472051,
            "lng": 111.322117
        },
        "ad_info": {
            "adcode": 450403,
            "province": "广西壮族自治区",
            "city": "梧州市",
            "district": "万秀区"
        }
    },
    {
        "id": "15284373501018239439",
        "title": "公共厕所",
        "address": "广西壮族自治区梧州市蒙山县G241与S305交叉口正北方向969米左右",
        "tel": "",
        "category": "基础设施:公共设施:公共厕所",
        "type": 0,
        "location": {
            "lat": 23.904385,
            "lng": 110.676581
        },
        "ad_info": {
            "adcode": 450423,
            "province": "广西壮族自治区",
            "city": "梧州市",
            "district": "蒙山县"
        }
    },
    {
        "id": "2532086499568973797",
        "title": "公共厕所",
        "address": "广西壮族自治区梧州市藤县濛江镇河西社区河堤路冲头码头下方北侧",
        "tel": "",
        "category": "基础设施:公共设施:公共厕所",
        "type": 0,
        "location": {
            "lat": 23.467916,
            "lng": 110.746222
        },
        "ad_info": {
            "adcode": 450422,
            "province": "广西壮族自治区",
            "city": "梧州市",
            "district": "藤县"
        }
    },
    {
        "id": "14290671538149728425",
        "title": "公共厕所",
        "address": "广西壮族自治区梧州市岑溪市G207与X211交叉口正南方向176米左右",
        "tel": "",
        "category": "基础设施:公共设施:公共厕所",
        "type": 0,
        "location": {
            "lat": 22.851921,
            "lng": 110.838239
        },
        "ad_info": {
            "adcode": 450481,
            "province": "广西壮族自治区",
            "city": "梧州市",
            "district": "岑溪市"
        }
    },
    {
        "id": "9086687770131194141",
        "title": "藤县太平镇中心校-公共厕所",
        "address": "广西壮族自治区梧州市藤县太平镇正东街(藤县太平镇中心校里面)",
        "tel": "",
        "category": "基础设施:公共设施:公共厕所",
        "type": 0,
        "location": {
            "lat": 23.653537,
            "lng": 110.695802
        },
        "ad_info": {
            "adcode": 450422,
            "province": "广西壮族自治区",
            "city": "梧州市",
            "district": "藤县"
        }
    },
    {
        "id": "8517555065077100259",
        "title": "公共厕所",
        "address": "广西壮族自治区梧州市万秀区东正路与东正路新仓巷交叉口正东方向60米左右",
        "tel": "",
        "category": "基础设施:公共设施:公共厕所",
        "type": 0,
        "location": {
            "lat": 23.475844,
            "lng": 111.317553
        },
        "ad_info": {
            "adcode": 450403,
            "province": "广西壮族自治区",
            "city": "梧州市",
            "district": "万秀区"
        }
    },
    {
        "id": "11418333943196763863",
        "title": "宁康服务区公共厕所",
        "address": "广西壮族自治区梧州市藤县G59呼北高速与宁康服务区交叉口东北180米",
        "tel": "",
        "category": "基础设施:公共设施:公共厕所",
        "type": 0,
        "location": {
            "lat": 23.889017,
            "lng": 110.410852
        },
        "ad_info": {
            "adcode": 450422,
            "province": "广西壮族自治区",
            "city": "梧州市",
            "district": "藤县"
        }
    },
    {
        "id": "8742136063134117838",
        "title": "公共厕所",
        "address": "广西壮族自治区梧州市岑溪市文化二路岑溪体育中心",
        "tel": "",
        "category": "基础设施:公共设施:公共厕所",
        "type": 0,
        "location": {
            "lat": 22.93096,
            "lng": 110.999083
        },
        "ad_info": {
            "adcode": 450481,
            "province": "广西壮族自治区",
            "city": "梧州市",
            "district": "岑溪市"
        }
    },
    {
        "id": "13033739490469711691",
        "title": "狮寨停车区公共厕所",
        "address": "广西壮族自治区梧州市苍梧县狮寨停车区狮寨服务区",
        "tel": "",
        "category": "基础设施:公共设施:公共厕所",
        "type": 0,
        "location": {
            "lat": 23.779637,
            "lng": 111.126703
        },
        "ad_info": {
            "adcode": 450421,
            "province": "广西壮族自治区",
            "city": "梧州市",
            "district": "苍梧县"
        }
    },
    {
        "id": "4865165562830439235",
        "title": "公共厕所",
        "address": "广西壮族自治区梧州市苍梧县苍梧大道与迎宾大道交叉口正西方向228米左右",
        "tel": "",
        "category": "基础设施:公共设施:公共厕所",
        "type": 0,
        "location": {
            "lat": 23.865719,
            "lng": 111.546944
        },
        "ad_info": {
            "adcode": 450421,
            "province": "广西壮族自治区",
            "city": "梧州市",
            "district": "苍梧县"
        }
    },
    {
        "id": "16457332727108261048",
        "title": "公共厕所",
        "address": "广西壮族自治区梧州市藤县",
        "tel": "",
        "category": "基础设施:公共设施:公共厕所",
        "type": 0,
        "location": {
            "lat": 23.895424,
            "lng": 110.552304
        },
        "ad_info": {
            "adcode": 450422,
            "province": "广西壮族自治区",
            "city": "梧州市",
            "district": "藤县"
        }
    },
    {
        "id": "1567850074682364624",
        "title": "洗手间",
        "address": "广西壮族自治区梧州市龙圩区龙湖三路与龙湖路交叉口正北方向150米左右",
        "tel": "",
        "category": "基础设施:公共设施:公共厕所",
        "type": 0,
        "location": {
            "lat": 23.417969,
            "lng": 111.251953
        },
        "ad_info": {
            "adcode": 450406,
            "province": "广西壮族自治区",
            "city": "梧州市",
            "district": "龙圩区"
        }
    },
    {
        "id": "2014079618456040119",
        "title": "中楼村公共厕所",
        "address": "广西壮族自治区梧州市藤县健安一路与健安二路交叉口正西方向397米左右",
        "tel": "",
        "category": "基础设施:公共设施:公共厕所",
        "type": 0,
        "location": {
            "lat": 23.649681,
            "lng": 110.684309
        },
        "ad_info": {
            "adcode": 450422,
            "province": "广西壮族自治区",
            "city": "梧州市",
            "district": "藤县"
        }
    },
    {
        "id": "11312980639309030041",
        "title": "公共厕所",
        "address": "广西壮族自治区梧州市蒙山县G321与湄江南路交叉口正东方向82米左右",
        "tel": "",
        "category": "基础设施:公共设施:公共厕所",
        "type": 0,
        "location": {
            "lat": 24.17438,
            "lng": 110.528637
        },
        "ad_info": {
            "adcode": 450423,
            "province": "广西壮族自治区",
            "city": "梧州市",
            "district": "蒙山县"
        }
    },
    {
        "id": "6762026182995332267",
        "title": "泡沫式节水生态环保厕所",
        "address": "广西壮族自治区梧州市万秀区钱鉴路三树里与钱鉴路交叉口东北方向261米左右",
        "tel": "",
        "category": "基础设施:公共设施:公共厕所",
        "type": 0,
        "location": {
            "lat": 23.500313,
            "lng": 111.329723
        },
        "ad_info": {
            "adcode": 450403,
            "province": "广西壮族自治区",
            "city": "梧州市",
            "district": "万秀区"
        }
    },
    {
        "id": "10019613935723277917",
        "title": "泡沫式节水生态环保厕所",
        "address": "广西壮族自治区梧州市万秀区园区三路与工业大道交叉口正西方向101米左右",
        "tel": "",
        "category": "基础设施:公共设施:公共厕所",
        "type": 0,
        "location": {
            "lat": 23.537785,
            "lng": 111.336791
        },
        "ad_info": {
            "adcode": 450403,
            "province": "广西壮族自治区",
            "city": "梧州市",
            "district": "万秀区"
        }
    },
    {
        "id": "2043133553670597292",
        "title": "公共厕所",
        "address": "广西壮族自治区梧州市万秀区文澜路与新兴一路交叉口东南方向32米左右",
        "tel": "",
        "category": "基础设施:公共设施:公共厕所",
        "type": 0,
        "location": {
            "lat": 23.470873,
            "lng": 111.304501
        },
        "ad_info": {
            "adcode": 450403,
            "province": "广西壮族自治区",
            "city": "梧州市",
            "district": "万秀区"
        }
    },
    {
        "id": "17695458255506153588",
        "title": "公共厕所",
        "address": "广西壮族自治区梧州市万秀区蝶山一路与蝶山二路交叉口正北方向42米左右",
        "tel": "",
        "category": "基础设施:公共设施:公共厕所",
        "type": 0,
        "location": {
            "lat": 23.478879,
            "lng": 111.301544
        },
        "ad_info": {
            "adcode": 450403,
            "province": "广西壮族自治区",
            "city": "梧州市",
            "district": "万秀区"
        }
    },
    {
        "id": "6225747559416968702",
        "title": "公共厕所",
        "address": "广西壮族自治区梧州市万秀区御景名城售楼部东南侧120米",
        "tel": "",
        "category": "基础设施:公共设施:公共厕所",
        "type": 0,
        "location": {
            "lat": 23.473188,
            "lng": 111.309822
        },
        "ad_info": {
            "adcode": 450403,
            "province": "广西壮族自治区",
            "city": "梧州市",
            "district": "万秀区"
        }
    },
    {
        "id": "6816995071169237476",
        "title": "旭昇卫生间门批发",
        "address": "广西壮族自治区梧州市蒙山县东江南路与滨江南路交叉口东南方向376米左右",
        "tel": "13737808728",
        "category": "基础设施:公共设施:公共厕所",
        "type": 0,
        "location": {
            "lat": 24.187239,
            "lng": 110.528941
        },
        "ad_info": {
            "adcode": 450423,
            "province": "广西壮族自治区",
            "city": "梧州市",
            "district": "蒙山县"
        }
    },
    {
        "id": "10948623446062342949",
        "title": "公共厕所",
        "address": "广西壮族自治区梧州市藤县184乡道与187县道交叉口西150米",
        "tel": "",
        "category": "基础设施:公共设施:公共厕所",
        "type": 0,
        "location": {
            "lat": 23.26334,
            "lng": 111.094542
        },
        "ad_info": {
            "adcode": 450422,
            "province": "广西壮族自治区",
            "city": "梧州市",
            "district": "藤县"
        }
    },
    {
        "id": "5040853148644822362",
        "title": "公共厕所",
        "address": "广西壮族自治区梧州市万秀区和平路与民主路交叉口东南方向73米左右",
        "tel": "",
        "category": "基础设施:公共设施:公共厕所",
        "type": 0,
        "location": {
            "lat": 23.474624,
            "lng": 111.314081
        },
        "ad_info": {
            "adcode": 450403,
            "province": "广西壮族自治区",
            "city": "梧州市",
            "district": "万秀区"
        }
    },
    {
        "id": "3006650856734917740",
        "title": "公共厕所",
        "address": "广西壮族自治区梧州市岑溪市广昆高速与马路互通交叉口正南方向392米左右",
        "tel": "",
        "category": "基础设施:公共设施:公共厕所",
        "type": 0,
        "location": {
            "lat": 22.90274,
            "lng": 110.906755
        },
        "ad_info": {
            "adcode": 450481,
            "province": "广西壮族自治区",
            "city": "梧州市",
            "district": "岑溪市"
        }
    },
    {
        "id": "18028658079437875951",
        "title": "公共厕所",
        "address": "广西壮族自治区梧州市岑溪市G324与北环路交叉口正东方向1244米左右",
        "tel": "",
        "category": "基础设施:公共设施:公共厕所",
        "type": 0,
        "location": {
            "lat": 22.899919,
            "lng": 111.033035
        },
        "ad_info": {
            "adcode": 450481,
            "province": "广西壮族自治区",
            "city": "梧州市",
            "district": "岑溪市"
        }
    },
    {
        "id": "11670271611905164778",
        "title": "公共厕所",
        "address": "广西壮族自治区梧州市长洲区新湖一路与银湖北路交叉口东北方向18米左右",
        "tel": "",
        "category": "基础设施:公共设施:公共厕所",
        "type": 0,
        "location": {
            "lat": 23.477634,
            "lng": 111.270256
        },
        "ad_info": {
            "adcode": 450405,
            "province": "广西壮族自治区",
            "city": "梧州市",
            "district": "长洲区"
        }
    },
    {
        "id": "8801502513287754997",
        "title": "公共厕所",
        "address": "广西壮族自治区梧州市藤县G321与津北路交叉口西北方向510米左右",
        "tel": "",
        "category": "基础设施:公共设施:公共厕所",
        "type": 0,
        "location": {
            "lat": 23.402289,
            "lng": 110.912252
        },
        "ad_info": {
            "adcode": 450422,
            "province": "广西壮族自治区",
            "city": "梧州市",
            "district": "藤县"
        }
    },
    {
        "id": "3776392223829680252",
        "title": "公共厕所",
        "address": "广西壮族自治区梧州市苍梧县G355与六水线交叉口正东方向1237米左右",
        "tel": "",
        "category": "基础设施:公共设施:公共厕所",
        "type": 0,
        "location": {
            "lat": 23.810948,
            "lng": 111.378053
        },
        "ad_info": {
            "adcode": 450421,
            "province": "广西壮族自治区",
            "city": "梧州市",
            "district": "苍梧县"
        }
    },
    {
        "id": "4545904374689100493",
        "title": "公共厕所",
        "address": "广西壮族自治区梧州市长洲区梧州职业学院",
        "tel": "",
        "category": "基础设施:公共设施:公共厕所",
        "type": 0,
        "location": {
            "lat": 23.470011,
            "lng": 111.23364
        },
        "ad_info": {
            "adcode": 450405,
            "province": "广西壮族自治区",
            "city": "梧州市",
            "district": "长洲区"
        }
    },
    {
        "id": "9753062009220603443",
        "title": "公共厕所",
        "address": "广西壮族自治区梧州市岑溪市324国道北50米",
        "tel": "",
        "category": "基础设施:公共设施:公共厕所",
        "type": 0,
        "location": {
            "lat": 22.898627,
            "lng": 111.05125
        },
        "ad_info": {
            "adcode": 450481,
            "province": "广西壮族自治区",
            "city": "梧州市",
            "district": "岑溪市"
        }
    },
    {
        "id": "191036575641402178",
        "title": "岑溪东服务区公共厕所",
        "address": "广西壮族自治区梧州市岑溪市S50岑筋高速附近",
        "tel": "",
        "category": "基础设施:公共设施:公共厕所",
        "type": 0,
        "location": {
            "lat": 22.886832,
            "lng": 111.055084
        },
        "ad_info": {
            "adcode": 450481,
            "province": "广西壮族自治区",
            "city": "梧州市",
            "district": "岑溪市"
        }
    },
    {
        "id": "11945395986911872144",
        "title": "公共厕所",
        "address": "广西壮族自治区梧州市藤县体育东街与荔枝塘二街交叉口西北方向64米左右",
        "tel": "",
        "category": "基础设施:公共设施:公共厕所",
        "type": 0,
        "location": {
            "lat": 23.373247,
            "lng": 110.923477
        },
        "ad_info": {
            "adcode": 450422,
            "province": "广西壮族自治区",
            "city": "梧州市",
            "district": "藤县"
        }
    },
    {
        "id": "4174423818446344227",
        "title": "公共厕所",
        "address": "广西壮族自治区梧州市龙圩区苍梧大道与龙湖西一路交叉口西南方向121米左右",
        "tel": "",
        "category": "基础设施:公共设施:公共厕所",
        "type": 0,
        "location": {
            "lat": 23.417245,
            "lng": 111.247743
        },
        "ad_info": {
            "adcode": 450406,
            "province": "广西壮族自治区",
            "city": "梧州市",
            "district": "龙圩区"
        }
    },
    {
        "id": "5517992834670065944",
        "title": "公共厕所",
        "address": "广西壮族自治区梧州市藤县西江路131号",
        "tel": "",
        "category": "基础设施:公共设施:公共厕所",
        "type": 0,
        "location": {
            "lat": 23.377742,
            "lng": 110.915034
        },
        "ad_info": {
            "adcode": 450422,
            "province": "广西壮族自治区",
            "city": "梧州市",
            "district": "藤县"
        }
    },
    {
        "id": "14524768994069758152",
        "title": "梧州龙母庙景区-公共厕所",
        "address": "广西壮族自治区梧州市万秀区北环路与建设路交叉口正北方向30米左右",
        "tel": "",
        "category": "基础设施:公共设施:公共厕所",
        "type": 0,
        "location": {
            "lat": 23.478725,
            "lng": 111.316322
        },
        "ad_info": {
            "adcode": 450403,
            "province": "广西壮族自治区",
            "city": "梧州市",
            "district": "万秀区"
        }
    },
    {
        "id": "4013446826962806120",
        "title": "新地服务区公共厕所",
        "address": "广西壮族自治区梧州市龙圩区G207与古龙交叉口东南方向1252米左右",
        "tel": "",
        "category": "基础设施:公共设施:公共厕所",
        "type": 0,
        "location": {
            "lat": 23.203381,
            "lng": 111.174975
        },
        "ad_info": {
            "adcode": 450406,
            "province": "广西壮族自治区",
            "city": "梧州市",
            "district": "龙圩区"
        }
    },
    {
        "id": "13816263273893414857",
        "title": "国龙大酒店-洗手间",
        "address": "广西壮族自治区梧州市长洲区西堤三路18号(近梧州市政府)",
        "tel": "",
        "category": "基础设施:公共设施:公共厕所",
        "type": 0,
        "location": {
            "lat": 23.47209,
            "lng": 111.27779
        },
        "ad_info": {
            "adcode": 450405,
            "province": "广西壮族自治区",
            "city": "梧州市",
            "district": "长洲区"
        }
    },
    {
        "id": "11077594162663720327",
        "title": "公共厕所",
        "address": "广西壮族自治区梧州市蒙山县200县道西北侧",
        "tel": "",
        "category": "基础设施:公共设施:公共厕所",
        "type": 0,
        "location": {
            "lat": 24.335288,
            "lng": 110.518416
        },
        "ad_info": {
            "adcode": 450423,
            "province": "广西壮族自治区",
            "city": "梧州市",
            "district": "蒙山县"
        }
    },
    {
        "id": "15555930884350082064",
        "title": "公共厕所",
        "address": "广西壮族自治区梧州市岑溪市龙城府西南侧90米",
        "tel": "",
        "category": "基础设施:公共设施:公共厕所",
        "type": 0,
        "location": {
            "lat": 22.913985,
            "lng": 110.963586
        },
        "ad_info": {
            "adcode": 450481,
            "province": "广西壮族自治区",
            "city": "梧州市",
            "district": "岑溪市"
        }
    },
    {
        "id": "7478580989920062211",
        "title": "公共厕所",
        "address": "广西壮族自治区梧州市蒙山县胜利街286号",
        "tel": "",
        "category": "基础设施:公共设施:公共厕所",
        "type": 0,
        "location": {
            "lat": 24.198419,
            "lng": 110.526699
        },
        "ad_info": {
            "adcode": 450423,
            "province": "广西壮族自治区",
            "city": "梧州市",
            "district": "蒙山县"
        }
    },
    {
        "id": "14074880489459596421",
        "title": "公共厕所",
        "address": "广西壮族自治区梧州市蒙山县洲头路与滨江北路交叉口东南方向153米左右",
        "tel": "",
        "category": "基础设施:公共设施:公共厕所",
        "type": 0,
        "location": {
            "lat": 24.206616,
            "lng": 110.518569
        },
        "ad_info": {
            "adcode": 450423,
            "province": "广西壮族自治区",
            "city": "梧州市",
            "district": "蒙山县"
        }
    },
    {
        "id": "2558428379166270644",
        "title": "公共厕所",
        "address": "广西壮族自治区梧州市蒙山县东环路与五福路交叉口正南方向60米左右",
        "tel": "",
        "category": "基础设施:公共设施:公共厕所",
        "type": 0,
        "location": {
            "lat": 24.202307,
            "lng": 110.531383
        },
        "ad_info": {
            "adcode": 450423,
            "province": "广西壮族自治区",
            "city": "梧州市",
            "district": "蒙山县"
        }
    },
    {
        "id": "15929699201642241610",
        "title": "公共厕所(安福加油站)",
        "address": "广西壮族自治区梧州市藤县泰州南路142(安福加油站内)",
        "tel": "",
        "category": "基础设施:公共设施:公共厕所",
        "type": 0,
        "location": {
            "lat": 23.647283,
            "lng": 110.699282
        },
        "ad_info": {
            "adcode": 450422,
            "province": "广西壮族自治区",
            "city": "梧州市",
            "district": "藤县"
        }
    },
    {
        "id": "4025551423591482855",
        "title": "公共厕所",
        "address": "广西壮族自治区梧州市藤县德胜街与江口路交叉口西南方向118米左右",
        "tel": "",
        "category": "基础设施:公共设施:公共厕所",
        "type": 0,
        "location": {
            "lat": 23.653287,
            "lng": 110.689092
        },
        "ad_info": {
            "adcode": 450422,
            "province": "广西壮族自治区",
            "city": "梧州市",
            "district": "藤县"
        }
    },
    {
        "id": "1211098903106157523",
        "title": "公共厕所",
        "address": "广西壮族自治区梧州市岑溪市城北路与大中路交叉口正西方向44米左右",
        "tel": "",
        "category": "基础设施:公共设施:公共厕所",
        "type": 0,
        "location": {
            "lat": 22.920106,
            "lng": 110.99753
        },
        "ad_info": {
            "adcode": 450481,
            "province": "广西壮族自治区",
            "city": "梧州市",
            "district": "岑溪市"
        }
    },
    {
        "id": "17833214339066039864",
        "title": "公共厕所",
        "address": "广西壮族自治区梧州市蒙山县西街与西街中路交叉口东南方向40米左右",
        "tel": "",
        "category": "基础设施:公共设施:公共厕所",
        "type": 0,
        "location": {
            "lat": 24.198,
            "lng": 110.52195
        },
        "ad_info": {
            "adcode": 450423,
            "province": "广西壮族自治区",
            "city": "梧州市",
            "district": "蒙山县"
        }
    },
    {
        "id": "15400569203495174589",
        "title": "公共厕所",
        "address": "广西壮族自治区梧州市藤县G241与X194交叉口东北方向192米左右",
        "tel": "",
        "category": "基础设施:公共设施:公共厕所",
        "type": 0,
        "location": {
            "lat": 23.768512,
            "lng": 110.651318
        },
        "ad_info": {
            "adcode": 450422,
            "province": "广西壮族自治区",
            "city": "梧州市",
            "district": "藤县"
        }
    },
    {
        "id": "15461402470960748090",
        "title": "倒水服务区公共厕所",
        "address": "广西壮族自治区梧州市长洲区桂江一路与龙泉北路交叉口正北方向1318米左右",
        "tel": "",
        "category": "基础设施:公共设施:公共厕所",
        "type": 0,
        "location": {
            "lat": 23.584958,
            "lng": 111.138634
        },
        "ad_info": {
            "adcode": 450405,
            "province": "广西壮族自治区",
            "city": "梧州市",
            "district": "长洲区"
        }
    },
    {
        "id": "5364718576365943501",
        "title": "公共厕所",
        "address": "广西壮族自治区梧州市岑溪市思劳二路与玉梧大道交叉口正北方向27米左右",
        "tel": "",
        "category": "基础设施:公共设施:公共厕所",
        "type": 0,
        "location": {
            "lat": 22.917734,
            "lng": 110.983262
        },
        "ad_info": {
            "adcode": 450481,
            "province": "广西壮族自治区",
            "city": "梧州市",
            "district": "岑溪市"
        }
    },
    {
        "id": "2800478516058275152",
        "title": "和平服务区公共厕所",
        "address": "广西壮族自治区梧州市藤县G6517梧柳高速附近",
        "tel": "",
        "category": "基础设施:公共设施:公共厕所",
        "type": 0,
        "location": {
            "lat": 23.590253,
            "lng": 110.677281
        },
        "ad_info": {
            "adcode": 450422,
            "province": "广西壮族自治区",
            "city": "梧州市",
            "district": "藤县"
        }
    },
    {
        "id": "1154154026994407419",
        "title": "公共厕所",
        "address": "广西壮族自治区梧州市岑溪市G324与北环路交叉口东南方向735米左右",
        "tel": "",
        "category": "基础设施:公共设施:公共厕所",
        "type": 0,
        "location": {
            "lat": 22.901287,
            "lng": 111.028289
        },
        "ad_info": {
            "adcode": 450481,
            "province": "广西壮族自治区",
            "city": "梧州市",
            "district": "岑溪市"
        }
    },
    {
        "id": "7702196047280984815",
        "title": "公共厕所",
        "address": "广西壮族自治区梧州市长洲区三龙大道与红岭路交叉口正南方向195米左右",
        "tel": "",
        "category": "基础设施:公共设施:公共厕所",
        "type": 0,
        "location": {
            "lat": 23.481076,
            "lng": 111.257118
        },
        "ad_info": {
            "adcode": 450405,
            "province": "广西壮族自治区",
            "city": "梧州市",
            "district": "长洲区"
        }
    },
    {
        "id": "4069675051782200151",
        "title": "公共厕所",
        "address": "广西壮族自治区梧州市万秀区鸳江路御景名城",
        "tel": "",
        "category": "基础设施:公共设施:公共厕所",
        "type": 0,
        "location": {
            "lat": 23.472948,
            "lng": 111.310267
        },
        "ad_info": {
            "adcode": 450403,
            "province": "广西壮族自治区",
            "city": "梧州市",
            "district": "万秀区"
        }
    },
    {
        "id": "17005729438194018331",
        "title": "公共厕所",
        "address": "广西壮族自治区梧州市蒙山县G321与新兴街交叉口正北方向265米左右",
        "tel": "",
        "category": "基础设施:公共设施:公共厕所",
        "type": 0,
        "location": {
            "lat": 24.265968,
            "lng": 110.438114
        },
        "ad_info": {
            "adcode": 450423,
            "province": "广西壮族自治区",
            "city": "梧州市",
            "district": "蒙山县"
        }
    },
    {
        "id": "14799668469007865623",
        "title": "公共厕所",
        "address": "广西壮族自治区梧州市藤县太平镇泰州北路1号(太平汽车站内)",
        "tel": "",
        "category": "基础设施:公共设施:公共厕所",
        "type": 0,
        "location": {
            "lat": 23.657874,
            "lng": 110.697305
        },
        "ad_info": {
            "adcode": 450422,
            "province": "广西壮族自治区",
            "city": "梧州市",
            "district": "藤县"
        }
    },
    {
        "id": "9710476041839549428",
        "title": "公共厕所",
        "address": "广西壮族自治区梧州市龙圩区G207与S505交叉口正南方向443米左右",
        "tel": "",
        "category": "基础设施:公共设施:公共厕所",
        "type": 0,
        "location": {
            "lat": 23.228024,
            "lng": 111.18334
        },
        "ad_info": {
            "adcode": 450406,
            "province": "广西壮族自治区",
            "city": "梧州市",
            "district": "龙圩区"
        }
    },
    {
        "id": "11827619858558145020",
        "title": "公共厕所",
        "address": "广西壮族自治区梧州市龙圩区新塘东路与新塘路交叉口东南方向123米左右",
        "tel": "",
        "category": "基础设施:公共设施:公共厕所",
        "type": 0,
        "location": {
            "lat": 23.412126,
            "lng": 111.244568
        },
        "ad_info": {
            "adcode": 450406,
            "province": "广西壮族自治区",
            "city": "梧州市",
            "district": "龙圩区"
        }
    },
    {
        "id": "16420610432465398859",
        "title": "公共厕所",
        "address": "广西壮族自治区梧州市万秀区中山路与文化路交叉口西南方向31米左右",
        "tel": "",
        "category": "基础设施:公共设施:公共厕所",
        "type": 0,
        "location": {
            "lat": 23.473457,
            "lng": 111.318409
        },
        "ad_info": {
            "adcode": 450403,
            "province": "广西壮族自治区",
            "city": "梧州市",
            "district": "万秀区"
        }
    },
    {
        "id": "18233251832154955521",
        "title": "白沙停车区第二公共厕所",
        "address": "广西壮族自治区梧州市龙圩区白沙服务区与G65包茂高速交叉口南200米",
        "tel": "",
        "category": "基础设施:公共设施:公共厕所",
        "type": 0,
        "location": {
            "lat": 23.409583,
            "lng": 111.185608
        },
        "ad_info": {
            "adcode": 450406,
            "province": "广西壮族自治区",
            "city": "梧州市",
            "district": "龙圩区"
        }
    },
    {
        "id": "4514701561836703127",
        "title": "白沙停车区第二公共厕所",
        "address": "广西壮族自治区梧州市龙圩区白沙服务区与G65包茂高速交叉口北150米",
        "tel": "",
        "category": "基础设施:公共设施:公共厕所",
        "type": 0,
        "location": {
            "lat": 23.409059,
            "lng": 111.186499
        },
        "ad_info": {
            "adcode": 450406,
            "province": "广西壮族自治区",
            "city": "梧州市",
            "district": "龙圩区"
        }
    }
]