[
    {
        "id": "1037948034043628584",
        "title": "公共厕所",
        "address": "云南省楚雄彝族自治州楚雄市鹿城西路197号",
        "tel": "",
        "category": "基础设施:公共设施:公共厕所",
        "type": 0,
        "location": {
            "lat": 25.038746,
            "lng": 101.539727
        },
        "ad_info": {
            "adcode": 532301,
            "province": "云南省",
            "city": "楚雄彝族自治州",
            "district": "楚雄市"
        }
    },
    {
        "id": "5112551206448105969",
        "title": "公共厕所",
        "address": "云南省楚雄彝族自治州楚雄市半城巷与秀苑巷交叉口东北方向59米左右",
        "tel": "",
        "category": "基础设施:公共设施:公共厕所",
        "type": 0,
        "location": {
            "lat": 25.025219,
            "lng": 101.544405
        },
        "ad_info": {
            "adcode": 532301,
            "province": "云南省",
            "city": "楚雄彝族自治州",
            "district": "楚雄市"
        }
    },
    {
        "id": "16837728757629890928",
        "title": "公共厕所",
        "address": "云南省楚雄彝族自治州楚雄市东山路与青龙河东路交叉口正南方向186米左右",
        "tel": "",
        "category": "基础设施:公共设施:公共厕所",
        "type": 0,
        "location": {
            "lat": 25.029839,
            "lng": 101.569219
        },
        "ad_info": {
            "adcode": 532301,
            "province": "云南省",
            "city": "楚雄彝族自治州",
            "district": "楚雄市"
        }
    },
    {
        "id": "15279287737294917998",
        "title": "公共厕所",
        "address": "云南省楚雄彝族自治州楚雄市东盛东路汇鑫广场2层",
        "tel": "",
        "category": "基础设施:公共设施:公共厕所",
        "type": 0,
        "location": {
            "lat": 25.053337,
            "lng": 101.538795
        },
        "ad_info": {
            "adcode": 532301,
            "province": "云南省",
            "city": "楚雄彝族自治州",
            "district": "楚雄市"
        }
    },
    {
        "id": "16244975622256018059",
        "title": "公共厕所",
        "address": "云南省楚雄彝族自治州楚雄市永安路与车坪路交叉口正南方向52米左右",
        "tel": "",
        "category": "基础设施:公共设施:公共厕所",
        "type": 0,
        "location": {
            "lat": 25.052021,
            "lng": 101.515993
        },
        "ad_info": {
            "adcode": 532301,
            "province": "云南省",
            "city": "楚雄彝族自治州",
            "district": "楚雄市"
        }
    },
    {
        "id": "18296873645074524321",
        "title": "彝人古镇公共厕所",
        "address": "云南省楚雄彝族自治州楚雄市车坪路彝人古镇风景区",
        "tel": "",
        "category": "基础设施:公共设施:公共厕所",
        "type": 0,
        "location": {
            "lat": 25.056649,
            "lng": 101.517491
        },
        "ad_info": {
            "adcode": 532301,
            "province": "云南省",
            "city": "楚雄彝族自治州",
            "district": "楚雄市"
        }
    },
    {
        "id": "1008476940371126593",
        "title": "公共厕所",
        "address": "云南省楚雄彝族自治州楚雄市东升路与阳光大道交叉口西南方向373米左右",
        "tel": "",
        "category": "基础设施:公共设施:公共厕所",
        "type": 0,
        "location": {
            "lat": 25.023485,
            "lng": 101.596223
        },
        "ad_info": {
            "adcode": 532301,
            "province": "云南省",
            "city": "楚雄彝族自治州",
            "district": "楚雄市"
        }
    },
    {
        "id": "12765536649892012973",
        "title": "公共厕所",
        "address": "云南省楚雄彝族自治州楚雄市团结路与青龙路交叉口西南方向95米左右",
        "tel": "",
        "category": "基础设施:公共设施:公共厕所",
        "type": 0,
        "location": {
            "lat": 25.043859,
            "lng": 101.552346
        },
        "ad_info": {
            "adcode": 532301,
            "province": "云南省",
            "city": "楚雄彝族自治州",
            "district": "楚雄市"
        }
    },
    {
        "id": "14008854905617290057",
        "title": "公共厕所",
        "address": "云南省楚雄彝族自治州楚雄市方源街与黎明路交叉口正南方向47米左右",
        "tel": "",
        "category": "基础设施:公共设施:公共厕所",
        "type": 0,
        "location": {
            "lat": 25.044203,
            "lng": 101.525857
        },
        "ad_info": {
            "adcode": 532301,
            "province": "云南省",
            "city": "楚雄彝族自治州",
            "district": "楚雄市"
        }
    },
    {
        "id": "18433364574749604443",
        "title": "公共厕所",
        "address": "云南省楚雄彝族自治州楚雄市彝海北路彜海公园",
        "tel": "",
        "category": "基础设施:公共设施:公共厕所",
        "type": 0,
        "location": {
            "lat": 25.014822,
            "lng": 101.583519
        },
        "ad_info": {
            "adcode": 532301,
            "province": "云南省",
            "city": "楚雄彝族自治州",
            "district": "楚雄市"
        }
    },
    {
        "id": "7234169640403696903",
        "title": "公共厕所",
        "address": "云南省楚雄彝族自治州楚雄市东盛东路与太阳历大道交叉口正北方向118米左右",
        "tel": "",
        "category": "基础设施:公共设施:公共厕所",
        "type": 0,
        "location": {
            "lat": 25.05552,
            "lng": 101.534617
        },
        "ad_info": {
            "adcode": 532301,
            "province": "云南省",
            "city": "楚雄彝族自治州",
            "district": "楚雄市"
        }
    },
    {
        "id": "2622156798201287377",
        "title": "公共厕所",
        "address": "云南省楚雄彝族自治州楚雄市曙光路市民广场内",
        "tel": "",
        "category": "基础设施:公共设施:公共厕所",
        "type": 0,
        "location": {
            "lat": 25.049324,
            "lng": 101.545514
        },
        "ad_info": {
            "adcode": 532301,
            "province": "云南省",
            "city": "楚雄彝族自治州",
            "district": "楚雄市"
        }
    },
    {
        "id": "8847837693057179330",
        "title": "公共厕所",
        "address": "云南省楚雄彝族自治州楚雄市东兴路与果园路交叉口东北方向71米左右",
        "tel": "",
        "category": "基础设施:公共设施:公共厕所",
        "type": 0,
        "location": {
            "lat": 25.036475,
            "lng": 101.557326
        },
        "ad_info": {
            "adcode": 532301,
            "province": "云南省",
            "city": "楚雄彝族自治州",
            "district": "楚雄市"
        }
    },
    {
        "id": "4257686746400991653",
        "title": "公共厕所",
        "address": "云南省楚雄彝族自治州楚雄市鹿城东路77号",
        "tel": "",
        "category": "基础设施:公共设施:公共厕所",
        "type": 0,
        "location": {
            "lat": 25.038879,
            "lng": 101.552853
        },
        "ad_info": {
            "adcode": 532301,
            "province": "云南省",
            "city": "楚雄彝族自治州",
            "district": "楚雄市"
        }
    },
    {
        "id": "10787504990853176609",
        "title": "公共厕所",
        "address": "云南省楚雄彝族自治州姚安县G227与文兴路交叉口正东方向268米左右",
        "tel": "",
        "category": "基础设施:公共设施:公共厕所",
        "type": 0,
        "location": {
            "lat": 25.518871,
            "lng": 101.24626
        },
        "ad_info": {
            "adcode": 532325,
            "province": "云南省",
            "city": "楚雄彝族自治州",
            "district": "姚安县"
        }
    },
    {
        "id": "665400496090232255",
        "title": "公共厕所",
        "address": "云南省楚雄彝族自治州楚雄市三市街与府后街交叉口正西方向8米左右",
        "tel": "",
        "category": "基础设施:公共设施:公共厕所",
        "type": 0,
        "location": {
            "lat": 25.036757,
            "lng": 101.543261
        },
        "ad_info": {
            "adcode": 532301,
            "province": "云南省",
            "city": "楚雄彝族自治州",
            "district": "楚雄市"
        }
    },
    {
        "id": "4990071383208381159",
        "title": "公共厕所",
        "address": "云南省楚雄彝族自治州楚雄市昌宁街与西凌街交叉口正南方向35米左右",
        "tel": "",
        "category": "基础设施:公共设施:公共厕所",
        "type": 0,
        "location": {
            "lat": 25.048216,
            "lng": 101.522269
        },
        "ad_info": {
            "adcode": 532301,
            "province": "云南省",
            "city": "楚雄彝族自治州",
            "district": "楚雄市"
        }
    },
    {
        "id": "17521277349656198195",
        "title": "公共厕所",
        "address": "云南省楚雄彝族自治州楚雄市永安路345号",
        "tel": "",
        "category": "基础设施:公共设施:公共厕所",
        "type": 0,
        "location": {
            "lat": 25.047161,
            "lng": 101.533962
        },
        "ad_info": {
            "adcode": 532301,
            "province": "云南省",
            "city": "楚雄彝族自治州",
            "district": "楚雄市"
        }
    },
    {
        "id": "14037452512441777137",
        "title": "公共厕所",
        "address": "云南省楚雄彝族自治州禄丰市万融街与惠民路交叉口西南方向131米左右",
        "tel": "",
        "category": "基础设施:公共设施:公共厕所",
        "type": 0,
        "location": {
            "lat": 25.143937,
            "lng": 102.071946
        },
        "ad_info": {
            "adcode": 532302,
            "province": "云南省",
            "city": "楚雄彝族自治州",
            "district": "禄丰市"
        }
    },
    {
        "id": "5960091952743141424",
        "title": "公共厕所",
        "address": "云南省楚雄彝族自治州楚雄市紫溪大道与鹿城北路交叉口正东方向59米左右",
        "tel": "",
        "category": "基础设施:公共设施:公共厕所",
        "type": 0,
        "location": {
            "lat": 25.044769,
            "lng": 101.545646
        },
        "ad_info": {
            "adcode": 532301,
            "province": "云南省",
            "city": "楚雄彝族自治州",
            "district": "楚雄市"
        }
    },
    {
        "id": "9468199269143913269",
        "title": "公共厕所",
        "address": "云南省楚雄彝族自治州牟定县中园大道与龙池路交叉口正北方向44米左右",
        "tel": "",
        "category": "基础设施:公共设施:公共厕所",
        "type": 0,
        "location": {
            "lat": 25.310186,
            "lng": 101.536301
        },
        "ad_info": {
            "adcode": 532323,
            "province": "云南省",
            "city": "楚雄彝族自治州",
            "district": "牟定县"
        }
    },
    {
        "id": "1545511838461860719",
        "title": "公共厕所",
        "address": "云南省楚雄彝族自治州楚雄市鹿城西路335号",
        "tel": "",
        "category": "基础设施:公共设施:公共厕所",
        "type": 0,
        "location": {
            "lat": 25.038432,
            "lng": 101.52919
        },
        "ad_info": {
            "adcode": 532301,
            "province": "云南省",
            "city": "楚雄彝族自治州",
            "district": "楚雄市"
        }
    },
    {
        "id": "13298671340527249228",
        "title": "公共厕所",
        "address": "云南省楚雄彝族自治州武定县环城南路82号",
        "tel": "",
        "category": "基础设施:公共设施:公共厕所",
        "type": 0,
        "location": {
            "lat": 25.525046,
            "lng": 102.40396
        },
        "ad_info": {
            "adcode": 532329,
            "province": "云南省",
            "city": "楚雄彝族自治州",
            "district": "武定县"
        }
    },
    {
        "id": "14778035467711700916",
        "title": "公共厕所",
        "address": "云南省楚雄彝族自治州楚雄市丰胜路与太阳历大道交叉口正南方向82米左右",
        "tel": "",
        "category": "基础设施:公共设施:公共厕所",
        "type": 0,
        "location": {
            "lat": 25.043419,
            "lng": 101.529408
        },
        "ad_info": {
            "adcode": 532301,
            "province": "云南省",
            "city": "楚雄彝族自治州",
            "district": "楚雄市"
        }
    },
    {
        "id": "9519277067910212853",
        "title": "公共厕所",
        "address": "云南省楚雄彝族自治州楚雄市丰胜路与鹿城北路交叉口正东方向64米左右",
        "tel": "",
        "category": "基础设施:公共设施:公共厕所",
        "type": 0,
        "location": {
            "lat": 25.046205,
            "lng": 101.545548
        },
        "ad_info": {
            "adcode": 532301,
            "province": "云南省",
            "city": "楚雄彝族自治州",
            "district": "楚雄市"
        }
    },
    {
        "id": "12971922864676409143",
        "title": "公共厕所",
        "address": "云南省楚雄彝族自治州楚雄市自强路与麦安路交叉口东南方向132米左右",
        "tel": "",
        "category": "基础设施:公共设施:公共厕所",
        "type": 0,
        "location": {
            "lat": 25.03591,
            "lng": 101.57433
        },
        "ad_info": {
            "adcode": 532301,
            "province": "云南省",
            "city": "楚雄彝族自治州",
            "district": "楚雄市"
        }
    },
    {
        "id": "5588672350010120059",
        "title": "公共厕所",
        "address": "云南省楚雄彝族自治州楚雄市东瓜大街与东盛西路交叉口东北方向35米左右",
        "tel": "",
        "category": "基础设施:公共设施:公共厕所",
        "type": 0,
        "location": {
            "lat": 25.075773,
            "lng": 101.506179
        },
        "ad_info": {
            "adcode": 532301,
            "province": "云南省",
            "city": "楚雄彝族自治州",
            "district": "楚雄市"
        }
    },
    {
        "id": "11045289557507803726",
        "title": "公共厕所",
        "address": "云南省楚雄彝族自治州楚雄市S218(雄宝路)",
        "tel": "",
        "category": "基础设施:公共设施:公共厕所",
        "type": 0,
        "location": {
            "lat": 25.030116,
            "lng": 101.564846
        },
        "ad_info": {
            "adcode": 532301,
            "province": "云南省",
            "city": "楚雄彝族自治州",
            "district": "楚雄市"
        }
    },
    {
        "id": "17939884007037957686",
        "title": "公共厕所",
        "address": "云南省楚雄彝族自治州楚雄市文鼎路与雄宝路交叉口西南方向43米左右",
        "tel": "",
        "category": "基础设施:公共设施:公共厕所",
        "type": 0,
        "location": {
            "lat": 25.026911,
            "lng": 101.566905
        },
        "ad_info": {
            "adcode": 532301,
            "province": "云南省",
            "city": "楚雄彝族自治州",
            "district": "楚雄市"
        }
    },
    {
        "id": "5524656976735359108",
        "title": "公共厕所",
        "address": "云南省楚雄彝族自治州楚雄市阳光大68号,70号",
        "tel": "",
        "category": "基础设施:公共设施:公共厕所",
        "type": 0,
        "location": {
            "lat": 25.020559,
            "lng": 101.55525
        },
        "ad_info": {
            "adcode": 532301,
            "province": "云南省",
            "city": "楚雄彝族自治州",
            "district": "楚雄市"
        }
    },
    {
        "id": "10516653020139755694",
        "title": "公共厕所",
        "address": "云南省楚雄彝族自治州楚雄市云荫寺路与雄宝路交叉口正南方向50米左右",
        "tel": "",
        "category": "基础设施:公共设施:公共厕所",
        "type": 0,
        "location": {
            "lat": 25.030211,
            "lng": 101.566631
        },
        "ad_info": {
            "adcode": 532301,
            "province": "云南省",
            "city": "楚雄彝族自治州",
            "district": "楚雄市"
        }
    },
    {
        "id": "4502684585534915972",
        "title": "公共厕所",
        "address": "云南省楚雄彝族自治州楚雄市花果山路与阳光大道交叉口正北方向298米左右",
        "tel": "",
        "category": "基础设施:公共设施:公共厕所",
        "type": 0,
        "location": {
            "lat": 25.023365,
            "lng": 101.562247
        },
        "ad_info": {
            "adcode": 532301,
            "province": "云南省",
            "city": "楚雄彝族自治州",
            "district": "楚雄市"
        }
    },
    {
        "id": "16580467664501732599",
        "title": "公共厕所",
        "address": "云南省楚雄彝族自治州禄丰市世纪大街与福泽巷交叉口正东方向61米左右",
        "tel": "",
        "category": "基础设施:公共设施:公共厕所",
        "type": 0,
        "location": {
            "lat": 25.141114,
            "lng": 102.070604
        },
        "ad_info": {
            "adcode": 532302,
            "province": "云南省",
            "city": "楚雄彝族自治州",
            "district": "禄丰市"
        }
    },
    {
        "id": "10955791243886794298",
        "title": "公共厕所",
        "address": "云南省楚雄彝族自治州楚雄市丰胜路与龙树街交叉口西北方向23米左右",
        "tel": "",
        "category": "基础设施:公共设施:公共厕所",
        "type": 0,
        "location": {
            "lat": 25.044729,
            "lng": 101.533611
        },
        "ad_info": {
            "adcode": 532301,
            "province": "云南省",
            "city": "楚雄彝族自治州",
            "district": "楚雄市"
        }
    },
    {
        "id": "17556161983899528814",
        "title": "公共厕所",
        "address": "云南省楚雄彝族自治州楚雄市团结路与雁塔路交叉口西南方向205米左右",
        "tel": "",
        "category": "基础设施:公共设施:公共厕所",
        "type": 0,
        "location": {
            "lat": 25.02784,
            "lng": 101.5515
        },
        "ad_info": {
            "adcode": 532301,
            "province": "云南省",
            "city": "楚雄彝族自治州",
            "district": "楚雄市"
        }
    },
    {
        "id": "1139447002532790815",
        "title": "公共厕所",
        "address": "云南省楚雄彝族自治州双柏县前进路与妥甸街交叉口东北方向90米左右",
        "tel": "",
        "category": "基础设施:公共设施:公共厕所",
        "type": 0,
        "location": {
            "lat": 24.689424,
            "lng": 101.639955
        },
        "ad_info": {
            "adcode": 532322,
            "province": "云南省",
            "city": "楚雄彝族自治州",
            "district": "双柏县"
        }
    },
    {
        "id": "17170263756284292918",
        "title": "公共厕所",
        "address": "云南省楚雄彝族自治州禄丰市侏罗纪大街与龙城路交叉口东北方向139米左右",
        "tel": "",
        "category": "基础设施:公共设施:公共厕所",
        "type": 0,
        "location": {
            "lat": 25.140456,
            "lng": 102.066784
        },
        "ad_info": {
            "adcode": 532302,
            "province": "云南省",
            "city": "楚雄彝族自治州",
            "district": "禄丰市"
        }
    },
    {
        "id": "15137105717410829459",
        "title": "公共厕所",
        "address": "云南省楚雄彝族自治州楚雄市果园东路与雄宝路交叉口西北方向58米左右",
        "tel": "",
        "category": "基础设施:公共设施:公共厕所",
        "type": 0,
        "location": {
            "lat": 25.033293,
            "lng": 101.564477
        },
        "ad_info": {
            "adcode": 532301,
            "province": "云南省",
            "city": "楚雄彝族自治州",
            "district": "楚雄市"
        }
    },
    {
        "id": "13942033070900502157",
        "title": "公共厕所",
        "address": "云南省楚雄彝族自治州楚雄市茶花大道栗子园小区-西区",
        "tel": "",
        "category": "基础设施:公共设施:公共厕所",
        "type": 0,
        "location": {
            "lat": 25.004823,
            "lng": 101.559733
        },
        "ad_info": {
            "adcode": 532301,
            "province": "云南省",
            "city": "楚雄彝族自治州",
            "district": "楚雄市"
        }
    },
    {
        "id": "10896226382349954034",
        "title": "公共厕所",
        "address": "云南省楚雄彝族自治州大姚县春溪路与金龙路交叉口西北方向64米左右",
        "tel": "",
        "category": "基础设施:公共设施:公共厕所",
        "type": 0,
        "location": {
            "lat": 25.715692,
            "lng": 101.323439
        },
        "ad_info": {
            "adcode": 532326,
            "province": "云南省",
            "city": "楚雄彝族自治州",
            "district": "大姚县"
        }
    },
    {
        "id": "13324803275271730866",
        "title": "公共厕所",
        "address": "云南省楚雄彝族自治州楚雄市昌宁街与益新街交叉口西北方向65米左右",
        "tel": "",
        "category": "基础设施:公共设施:公共厕所",
        "type": 0,
        "location": {
            "lat": 25.049787,
            "lng": 101.520306
        },
        "ad_info": {
            "adcode": 532301,
            "province": "云南省",
            "city": "楚雄彝族自治州",
            "district": "楚雄市"
        }
    },
    {
        "id": "5554018150475754105",
        "title": "公共厕所",
        "address": "云南省楚雄彝族自治州武定县武康路南段-54号",
        "tel": "",
        "category": "基础设施:公共设施:公共厕所",
        "type": 0,
        "location": {
            "lat": 25.529086,
            "lng": 102.406723
        },
        "ad_info": {
            "adcode": 532329,
            "province": "云南省",
            "city": "楚雄彝族自治州",
            "district": "武定县"
        }
    },
    {
        "id": "8215461686640247880",
        "title": "公共厕所",
        "address": "云南省楚雄彝族自治州楚雄市鹿城东路福德苑北侧约60米",
        "tel": "",
        "category": "基础设施:公共设施:公共厕所",
        "type": 0,
        "location": {
            "lat": 25.034125,
            "lng": 101.581074
        },
        "ad_info": {
            "adcode": 532301,
            "province": "云南省",
            "city": "楚雄彝族自治州",
            "district": "楚雄市"
        }
    },
    {
        "id": "16954115502093025121",
        "title": "公共厕所",
        "address": "云南省楚雄彝族自治州楚雄市彝海南路与茶花大道交叉口正东方向168米左右",
        "tel": "",
        "category": "基础设施:公共设施:公共厕所",
        "type": 0,
        "location": {
            "lat": 24.998802,
            "lng": 101.566568
        },
        "ad_info": {
            "adcode": 532301,
            "province": "云南省",
            "city": "楚雄彝族自治州",
            "district": "楚雄市"
        }
    },
    {
        "id": "2009461604507638687",
        "title": "公共厕所",
        "address": "云南省楚雄彝族自治州楚雄市下富线与青龙河西路交叉口东南方向181米左右",
        "tel": "",
        "category": "基础设施:公共设施:公共厕所",
        "type": 0,
        "location": {
            "lat": 25.006099,
            "lng": 101.568598
        },
        "ad_info": {
            "adcode": 532301,
            "province": "云南省",
            "city": "楚雄彝族自治州",
            "district": "楚雄市"
        }
    },
    {
        "id": "11335288822086316293",
        "title": "公共厕所",
        "address": "云南省楚雄彝族自治州牟定县南大街与白塔路交叉口东南方向98米左右",
        "tel": "",
        "category": "基础设施:公共设施:公共厕所",
        "type": 0,
        "location": {
            "lat": 25.316039,
            "lng": 101.542148
        },
        "ad_info": {
            "adcode": 532323,
            "province": "云南省",
            "city": "楚雄彝族自治州",
            "district": "牟定县"
        }
    },
    {
        "id": "16698773898407339518",
        "title": "公共厕所",
        "address": "云南省楚雄彝族自治州楚雄市鹿城南路楚雄人民商场(鹿城西路)",
        "tel": "",
        "category": "基础设施:公共设施:公共厕所",
        "type": 0,
        "location": {
            "lat": 25.037741,
            "lng": 101.545191
        },
        "ad_info": {
            "adcode": 532301,
            "province": "云南省",
            "city": "楚雄彝族自治州",
            "district": "楚雄市"
        }
    },
    {
        "id": "394553141183790184",
        "title": "公共厕所",
        "address": "云南省楚雄彝族自治州元谋县马街北路与马街南路交叉口正西方向56米左右",
        "tel": "",
        "category": "基础设施:公共设施:公共厕所",
        "type": 0,
        "location": {
            "lat": 25.703185,
            "lng": 101.871282
        },
        "ad_info": {
            "adcode": 532328,
            "province": "云南省",
            "city": "楚雄彝族自治州",
            "district": "元谋县"
        }
    },
    {
        "id": "2052664395834306781",
        "title": "公共厕所",
        "address": "云南省楚雄彝族自治州南华县龙兴路与龙旗路交叉口正南方向17米左右",
        "tel": "",
        "category": "基础设施:公共设施:公共厕所",
        "type": 0,
        "location": {
            "lat": 25.194874,
            "lng": 101.279415
        },
        "ad_info": {
            "adcode": 532324,
            "province": "云南省",
            "city": "楚雄彝族自治州",
            "district": "南华县"
        }
    },
    {
        "id": "13853122337489150287",
        "title": "公共厕所",
        "address": "云南省楚雄彝族自治州楚雄市东盛西路与华章路交叉口正东方向141米左右",
        "tel": "",
        "category": "基础设施:公共设施:公共厕所",
        "type": 0,
        "location": {
            "lat": 25.070559,
            "lng": 101.516901
        },
        "ad_info": {
            "adcode": 532301,
            "province": "云南省",
            "city": "楚雄彝族自治州",
            "district": "楚雄市"
        }
    },
    {
        "id": "16962787247612537124",
        "title": "公共厕所",
        "address": "云南省楚雄彝族自治州牟定县南大街与茅阳路交叉口西南方向59米左右",
        "tel": "",
        "category": "基础设施:公共设施:公共厕所",
        "type": 0,
        "location": {
            "lat": 25.312256,
            "lng": 101.541993
        },
        "ad_info": {
            "adcode": 532323,
            "province": "云南省",
            "city": "楚雄彝族自治州",
            "district": "牟定县"
        }
    },
    {
        "id": "9917898254135389436",
        "title": "公共厕所",
        "address": "云南省楚雄彝族自治州楚雄市雄宝路与青龙路交叉口东北方向67米左右",
        "tel": "",
        "category": "基础设施:公共设施:公共厕所",
        "type": 0,
        "location": {
            "lat": 25.045846,
            "lng": 101.560569
        },
        "ad_info": {
            "adcode": 532301,
            "province": "云南省",
            "city": "楚雄彝族自治州",
            "district": "楚雄市"
        }
    },
    {
        "id": "13890215348904575003",
        "title": "公共厕所",
        "address": "云南省楚雄彝族自治州楚雄市田园路与紫溪大道交叉口东南方向33米左右",
        "tel": "",
        "category": "基础设施:公共设施:公共厕所",
        "type": 0,
        "location": {
            "lat": 25.04477,
            "lng": 101.522382
        },
        "ad_info": {
            "adcode": 532301,
            "province": "云南省",
            "city": "楚雄彝族自治州",
            "district": "楚雄市"
        }
    },
    {
        "id": "628303687526563570",
        "title": "公共厕所",
        "address": "云南省楚雄彝族自治州武定县文化路与罗婺路交叉口东北方向109米左右",
        "tel": "",
        "category": "基础设施:公共设施:公共厕所",
        "type": 0,
        "location": {
            "lat": 25.527771,
            "lng": 102.408441
        },
        "ad_info": {
            "adcode": 532329,
            "province": "云南省",
            "city": "楚雄彝族自治州",
            "district": "武定县"
        }
    },
    {
        "id": "15007407344594512341",
        "title": "公共厕所",
        "address": "云南省楚雄彝族自治州楚雄市G227与永安路交叉口东南方向79米左右",
        "tel": "",
        "category": "基础设施:公共设施:公共厕所",
        "type": 0,
        "location": {
            "lat": 25.051024,
            "lng": 101.511868
        },
        "ad_info": {
            "adcode": 532301,
            "province": "云南省",
            "city": "楚雄彝族自治州",
            "district": "楚雄市"
        }
    },
    {
        "id": "5001048142765903761",
        "title": "公共厕所",
        "address": "云南省楚雄彝族自治州楚雄市怀象街与西园路交叉口西北方向93米左右",
        "tel": "",
        "category": "基础设施:公共设施:公共厕所",
        "type": 0,
        "location": {
            "lat": 25.037036,
            "lng": 101.540424
        },
        "ad_info": {
            "adcode": 532301,
            "province": "云南省",
            "city": "楚雄彝族自治州",
            "district": "楚雄市"
        }
    },
    {
        "id": "2185020112167685474",
        "title": "公共厕所",
        "address": "云南省楚雄彝族自治州楚雄市古镇南街与古镇西街交叉口西北方向149米左右",
        "tel": "",
        "category": "基础设施:公共设施:公共厕所",
        "type": 0,
        "location": {
            "lat": 25.057816,
            "lng": 101.513441
        },
        "ad_info": {
            "adcode": 532301,
            "province": "云南省",
            "city": "楚雄彝族自治州",
            "district": "楚雄市"
        }
    },
    {
        "id": "1817287023767766856",
        "title": "公共厕所",
        "address": "云南省楚雄彝族自治州姚安县兴宝街与德丰路交叉口东北方向60米左右",
        "tel": "",
        "category": "基础设施:公共设施:公共厕所",
        "type": 0,
        "location": {
            "lat": 25.504299,
            "lng": 101.239621
        },
        "ad_info": {
            "adcode": 532325,
            "province": "云南省",
            "city": "楚雄彝族自治州",
            "district": "姚安县"
        }
    },
    {
        "id": "2825860980366190445",
        "title": "公共厕所",
        "address": "云南省楚雄彝族自治州楚雄市彝海南路彜海公园",
        "tel": "",
        "category": "基础设施:公共设施:公共厕所",
        "type": 0,
        "location": {
            "lat": 25.006406,
            "lng": 101.580869
        },
        "ad_info": {
            "adcode": 532301,
            "province": "云南省",
            "city": "楚雄彝族自治州",
            "district": "楚雄市"
        }
    },
    {
        "id": "9142524491955446861",
        "title": "公共厕所",
        "address": "云南省楚雄彝族自治州双柏县G227与文康路交叉口东南方向271米左右",
        "tel": "",
        "category": "基础设施:公共设施:公共厕所",
        "type": 0,
        "location": {
            "lat": 24.694907,
            "lng": 101.638847
        },
        "ad_info": {
            "adcode": 532322,
            "province": "云南省",
            "city": "楚雄彝族自治州",
            "district": "双柏县"
        }
    },
    {
        "id": "14684595201879271854",
        "title": "公共厕所",
        "address": "云南省楚雄彝族自治州双柏县文卫路与晋云线交叉口正北方向77米左右",
        "tel": "",
        "category": "基础设施:公共设施:公共厕所",
        "type": 0,
        "location": {
            "lat": 24.600418,
            "lng": 101.848723
        },
        "ad_info": {
            "adcode": 532322,
            "province": "云南省",
            "city": "楚雄彝族自治州",
            "district": "双柏县"
        }
    },
    {
        "id": "17240009970567907611",
        "title": "公共厕所",
        "address": "云南省楚雄彝族自治州南华县龙旗路与龙泉路交叉口正西方向78米左右",
        "tel": "",
        "category": "基础设施:公共设施:公共厕所",
        "type": 0,
        "location": {
            "lat": 25.192482,
            "lng": 101.275772
        },
        "ad_info": {
            "adcode": 532324,
            "province": "云南省",
            "city": "楚雄彝族自治州",
            "district": "南华县"
        }
    },
    {
        "id": "12727417357849419561",
        "title": "公共厕所",
        "address": "云南省楚雄彝族自治州禄丰市大井街与金山南路交叉口东北方向190米左右",
        "tel": "",
        "category": "基础设施:公共设施:公共厕所",
        "type": 0,
        "location": {
            "lat": 25.146643,
            "lng": 102.07876
        },
        "ad_info": {
            "adcode": 532302,
            "province": "云南省",
            "city": "楚雄彝族自治州",
            "district": "禄丰市"
        }
    },
    {
        "id": "15741372072255853163",
        "title": "公共厕所",
        "address": "云南省楚雄彝族自治州南华县龙坪南路与龙泉路交叉口西南方向151米左右",
        "tel": "",
        "category": "基础设施:公共设施:公共厕所",
        "type": 0,
        "location": {
            "lat": 25.18729,
            "lng": 101.280881
        },
        "ad_info": {
            "adcode": 532324,
            "province": "云南省",
            "city": "楚雄彝族自治州",
            "district": "南华县"
        }
    },
    {
        "id": "101401654161865574",
        "title": "公共厕所",
        "address": "云南省楚雄彝族自治州武定县园河路武定体育馆",
        "tel": "",
        "category": "基础设施:公共设施:公共厕所",
        "type": 0,
        "location": {
            "lat": 25.52587,
            "lng": 102.408431
        },
        "ad_info": {
            "adcode": 532329,
            "province": "云南省",
            "city": "楚雄彝族自治州",
            "district": "武定县"
        }
    },
    {
        "id": "15775170523042930795",
        "title": "公共厕所",
        "address": "云南省楚雄彝族自治州大姚县白塔路49号",
        "tel": "",
        "category": "基础设施:公共设施:公共厕所",
        "type": 0,
        "location": {
            "lat": 25.728232,
            "lng": 101.321533
        },
        "ad_info": {
            "adcode": 532326,
            "province": "云南省",
            "city": "楚雄彝族自治州",
            "district": "大姚县"
        }
    },
    {
        "id": "2953011972435832387",
        "title": "公共厕所",
        "address": "云南省楚雄彝族自治州楚雄市三市街与鹿城南路交叉口正西方向97米左右",
        "tel": "",
        "category": "基础设施:公共设施:公共厕所",
        "type": 0,
        "location": {
            "lat": 25.036749,
            "lng": 101.544741
        },
        "ad_info": {
            "adcode": 532301,
            "province": "云南省",
            "city": "楚雄彝族自治州",
            "district": "楚雄市"
        }
    },
    {
        "id": "3322349277321986958",
        "title": "公共厕所",
        "address": "云南省楚雄彝族自治州楚雄市双建路与鹿城东路交叉口东北方向54米左右",
        "tel": "",
        "category": "基础设施:公共设施:公共厕所",
        "type": 0,
        "location": {
            "lat": 25.039157,
            "lng": 101.548861
        },
        "ad_info": {
            "adcode": 532301,
            "province": "云南省",
            "city": "楚雄彝族自治州",
            "district": "楚雄市"
        }
    },
    {
        "id": "4767501152119249173",
        "title": "彝人古镇公共厕所",
        "address": "云南省楚雄彝族自治州楚雄市德运北街与德运路交叉口西南方向50米左右",
        "tel": "",
        "category": "基础设施:公共设施:公共厕所",
        "type": 0,
        "location": {
            "lat": 25.061983,
            "lng": 101.522673
        },
        "ad_info": {
            "adcode": 532301,
            "province": "云南省",
            "city": "楚雄彝族自治州",
            "district": "楚雄市"
        }
    },
    {
        "id": "9885012564642375408",
        "title": "公共厕所",
        "address": "云南省楚雄彝族自治州武定县牡丹路与静云街交叉口西南方向41米左右",
        "tel": "",
        "category": "基础设施:公共设施:公共厕所",
        "type": 0,
        "location": {
            "lat": 25.540073,
            "lng": 102.403988
        },
        "ad_info": {
            "adcode": 532329,
            "province": "云南省",
            "city": "楚雄彝族自治州",
            "district": "武定县"
        }
    },
    {
        "id": "10674487261053893456",
        "title": "公共厕所",
        "address": "云南省楚雄彝族自治州楚雄市文体巷与经贸巷交叉口正东方向130米左右",
        "tel": "",
        "category": "基础设施:公共设施:公共厕所",
        "type": 0,
        "location": {
            "lat": 25.040989,
            "lng": 101.551948
        },
        "ad_info": {
            "adcode": 532301,
            "province": "云南省",
            "city": "楚雄彝族自治州",
            "district": "楚雄市"
        }
    },
    {
        "id": "2432775358490414921",
        "title": "公共厕所",
        "address": "云南省楚雄彝族自治州楚雄市鹿城西路16号",
        "tel": "",
        "category": "基础设施:公共设施:公共厕所",
        "type": 0,
        "location": {
            "lat": 25.037903,
            "lng": 101.544002
        },
        "ad_info": {
            "adcode": 532301,
            "province": "云南省",
            "city": "楚雄彝族自治州",
            "district": "楚雄市"
        }
    },
    {
        "id": "11042160352240141894",
        "title": "公共厕所",
        "address": "云南省楚雄彝族自治州武定县中新街与环城西路交叉口东南方向53米左右",
        "tel": "",
        "category": "基础设施:公共设施:公共厕所",
        "type": 0,
        "location": {
            "lat": 25.533573,
            "lng": 102.402605
        },
        "ad_info": {
            "adcode": 532329,
            "province": "云南省",
            "city": "楚雄彝族自治州",
            "district": "武定县"
        }
    },
    {
        "id": "6615569868882386512",
        "title": "公共厕所",
        "address": "云南省楚雄彝族自治州永仁县永兴路与永定河东路交叉口东南方向105米左右",
        "tel": "",
        "category": "基础设施:公共设施:公共厕所",
        "type": 0,
        "location": {
            "lat": 26.052035,
            "lng": 101.672021
        },
        "ad_info": {
            "adcode": 532327,
            "province": "云南省",
            "city": "楚雄彝族自治州",
            "district": "永仁县"
        }
    },
    {
        "id": "11557192552439089788",
        "title": "彝人古镇公共厕所",
        "address": "云南省楚雄彝族自治州楚雄市昙花街与汇泉南街交叉口正东方向75米左右",
        "tel": "",
        "category": "基础设施:公共设施:公共厕所",
        "type": 0,
        "location": {
            "lat": 25.052324,
            "lng": 101.519122
        },
        "ad_info": {
            "adcode": 532301,
            "province": "云南省",
            "city": "楚雄彝族自治州",
            "district": "楚雄市"
        }
    },
    {
        "id": "2830252064167136049",
        "title": "彝人古镇公共厕所",
        "address": "云南省楚雄彝族自治州楚雄市庙会街与德运路交叉口正南方向68米左右",
        "tel": "",
        "category": "基础设施:公共设施:公共厕所",
        "type": 0,
        "location": {
            "lat": 25.060485,
            "lng": 101.52158
        },
        "ad_info": {
            "adcode": 532301,
            "province": "云南省",
            "city": "楚雄彝族自治州",
            "district": "楚雄市"
        }
    },
    {
        "id": "1745374657290773410",
        "title": "公共厕所",
        "address": "云南省楚雄彝族自治州南华县龙旗路与龙泉路交叉口西北方向64米左右",
        "tel": "",
        "category": "基础设施:公共设施:公共厕所",
        "type": 0,
        "location": {
            "lat": 25.192701,
            "lng": 101.276028
        },
        "ad_info": {
            "adcode": 532324,
            "province": "云南省",
            "city": "楚雄彝族自治州",
            "district": "南华县"
        }
    },
    {
        "id": "18424527772410197563",
        "title": "龙江公园-公共厕所",
        "address": "云南省楚雄彝族自治州楚雄市鹿城北路70号",
        "tel": "",
        "category": "基础设施:公共设施:公共厕所",
        "type": 0,
        "location": {
            "lat": 25.042345,
            "lng": 101.545754
        },
        "ad_info": {
            "adcode": 532301,
            "province": "云南省",
            "city": "楚雄彝族自治州",
            "district": "楚雄市"
        }
    },
    {
        "id": "6922663675736059286",
        "title": "彝人古镇公共厕所",
        "address": "云南省楚雄彝族自治州楚雄市德运东路与德运北街交叉口正南方向18米左右",
        "tel": "",
        "category": "基础设施:公共设施:公共厕所",
        "type": 0,
        "location": {
            "lat": 25.06157,
            "lng": 101.52365
        },
        "ad_info": {
            "adcode": 532301,
            "province": "云南省",
            "city": "楚雄彝族自治州",
            "district": "楚雄市"
        }
    },
    {
        "id": "14600521088608598484",
        "title": "彝人古镇公共厕所",
        "address": "云南省楚雄彝族自治州楚雄市古镇西街与古镇西路交叉口西南方向168米左右",
        "tel": "",
        "category": "基础设施:公共设施:公共厕所",
        "type": 0,
        "location": {
            "lat": 25.05827,
            "lng": 101.51479
        },
        "ad_info": {
            "adcode": 532301,
            "province": "云南省",
            "city": "楚雄彝族自治州",
            "district": "楚雄市"
        }
    },
    {
        "id": "14845525056330534695",
        "title": "公共厕所",
        "address": "云南省楚雄彝族自治州禄丰市火中线与禄罗线交叉口正东方向1268米左右",
        "tel": "",
        "category": "基础设施:公共设施:公共厕所",
        "type": 0,
        "location": {
            "lat": 25.150968,
            "lng": 102.097867
        },
        "ad_info": {
            "adcode": 532302,
            "province": "云南省",
            "city": "楚雄彝族自治州",
            "district": "禄丰市"
        }
    },
    {
        "id": "1574011761407084922",
        "title": "公共厕所",
        "address": "云南省楚雄彝族自治州元谋县G108与马街南路交叉口正南方向71米左右",
        "tel": "",
        "category": "基础设施:公共设施:公共厕所",
        "type": 0,
        "location": {
            "lat": 25.682724,
            "lng": 101.86718
        },
        "ad_info": {
            "adcode": 532328,
            "province": "云南省",
            "city": "楚雄彝族自治州",
            "district": "元谋县"
        }
    },
    {
        "id": "8600100276491088300",
        "title": "公共厕所",
        "address": "云南省楚雄彝族自治州武定县府右路与民中路交叉口正南方向68米左右",
        "tel": "",
        "category": "基础设施:公共设施:公共厕所",
        "type": 0,
        "location": {
            "lat": 25.522864,
            "lng": 102.407643
        },
        "ad_info": {
            "adcode": 532329,
            "province": "云南省",
            "city": "楚雄彝族自治州",
            "district": "武定县"
        }
    },
    {
        "id": "15674420450830370944",
        "title": "公共厕所",
        "address": "云南省楚雄彝族自治州楚雄市振兴路与太阳历大道交叉口往北420米中国彝族十月太阳历文化园内",
        "tel": "",
        "category": "基础设施:公共设施:公共厕所",
        "type": 0,
        "location": {
            "lat": 25.05743,
            "lng": 101.52848
        },
        "ad_info": {
            "adcode": 532301,
            "province": "云南省",
            "city": "楚雄彝族自治州",
            "district": "楚雄市"
        }
    },
    {
        "id": "6184805311735540030",
        "title": "公共厕所",
        "address": "云南省楚雄彝族自治州牟定县万寿路与化湖南路交叉口东北方向46米左右",
        "tel": "",
        "category": "基础设施:公共设施:公共厕所",
        "type": 0,
        "location": {
            "lat": 25.319834,
            "lng": 101.546438
        },
        "ad_info": {
            "adcode": 532323,
            "province": "云南省",
            "city": "楚雄彝族自治州",
            "district": "牟定县"
        }
    },
    {
        "id": "6259994146795683126",
        "title": "公共厕所",
        "address": "云南省楚雄彝族自治州楚雄市彝人古镇大酒店松苑商铺-11号",
        "tel": "",
        "category": "基础设施:公共设施:公共厕所",
        "type": 0,
        "location": {
            "lat": 25.053812,
            "lng": 101.517201
        },
        "ad_info": {
            "adcode": 532301,
            "province": "云南省",
            "city": "楚雄彝族自治州",
            "district": "楚雄市"
        }
    },
    {
        "id": "10201725716959621836",
        "title": "公共厕所",
        "address": "云南省楚雄彝族自治州楚雄市中大街292号",
        "tel": "",
        "category": "基础设施:公共设施:公共厕所",
        "type": 0,
        "location": {
            "lat": 25.033951,
            "lng": 101.545031
        },
        "ad_info": {
            "adcode": 532301,
            "province": "云南省",
            "city": "楚雄彝族自治州",
            "district": "楚雄市"
        }
    },
    {
        "id": "10161790952010700330",
        "title": "公共厕所",
        "address": "云南省楚雄彝族自治州大姚县南横街与南街交叉口正西方向32米左右",
        "tel": "",
        "category": "基础设施:公共设施:公共厕所",
        "type": 0,
        "location": {
            "lat": 25.720787,
            "lng": 101.323672
        },
        "ad_info": {
            "adcode": 532326,
            "province": "云南省",
            "city": "楚雄彝族自治州",
            "district": "大姚县"
        }
    },
    {
        "id": "6443847292910060174",
        "title": "公共厕所",
        "address": "云南省楚雄彝族自治州楚雄市学桥街与虎尾巷交叉口正南方向153米左右",
        "tel": "",
        "category": "基础设施:公共设施:公共厕所",
        "type": 0,
        "location": {
            "lat": 25.030907,
            "lng": 101.548167
        },
        "ad_info": {
            "adcode": 532301,
            "province": "云南省",
            "city": "楚雄彝族自治州",
            "district": "楚雄市"
        }
    },
    {
        "id": "9367391343604194300",
        "title": "公共厕所",
        "address": "云南省楚雄彝族自治州楚雄市文联街与鹿城南路交叉口正北方向37米左右",
        "tel": "",
        "category": "基础设施:公共设施:公共厕所",
        "type": 0,
        "location": {
            "lat": 25.032356,
            "lng": 101.545812
        },
        "ad_info": {
            "adcode": 532301,
            "province": "云南省",
            "city": "楚雄彝族自治州",
            "district": "楚雄市"
        }
    },
    {
        "id": "2656160594156870159",
        "title": "公共厕所",
        "address": "云南省楚雄彝族自治州楚雄市兴云街与永丰街交叉口东北方向116米左右",
        "tel": "",
        "category": "基础设施:公共设施:公共厕所",
        "type": 0,
        "location": {
            "lat": 25.047493,
            "lng": 101.537723
        },
        "ad_info": {
            "adcode": 532301,
            "province": "云南省",
            "city": "楚雄彝族自治州",
            "district": "楚雄市"
        }
    },
    {
        "id": "11231863242631696935",
        "title": "公共厕所",
        "address": "云南省楚雄彝族自治州楚雄市南街与团结北路交叉口西南方向26米左右",
        "tel": "",
        "category": "基础设施:公共设施:公共厕所",
        "type": 0,
        "location": {
            "lat": 25.049772,
            "lng": 101.552407
        },
        "ad_info": {
            "adcode": 532301,
            "province": "云南省",
            "city": "楚雄彝族自治州",
            "district": "楚雄市"
        }
    },
    {
        "id": "645419815571777568",
        "title": "公共厕所",
        "address": "云南省楚雄彝族自治州楚雄市鹿城镇鹿城西路楚雄友好医院南门",
        "tel": "",
        "category": "基础设施:公共设施:公共厕所",
        "type": 0,
        "location": {
            "lat": 25.038333,
            "lng": 101.542381
        },
        "ad_info": {
            "adcode": 532301,
            "province": "云南省",
            "city": "楚雄彝族自治州",
            "district": "楚雄市"
        }
    },
    {
        "id": "14924770843467057087",
        "title": "公共厕所",
        "address": "云南省楚雄彝族自治州楚雄市雄宝路与青龙路交叉口西北方向170米左右",
        "tel": "",
        "category": "基础设施:公共设施:公共厕所",
        "type": 0,
        "location": {
            "lat": 25.046676,
            "lng": 101.559022
        },
        "ad_info": {
            "adcode": 532301,
            "province": "云南省",
            "city": "楚雄彝族自治州",
            "district": "楚雄市"
        }
    },
    {
        "id": "11864565381598884840",
        "title": "公共厕所",
        "address": "云南省楚雄彝族自治州元谋县发祥路与箐河南路交叉口正西方向31米左右",
        "tel": "",
        "category": "基础设施:公共设施:公共厕所",
        "type": 0,
        "location": {
            "lat": 25.702368,
            "lng": 101.86589
        },
        "ad_info": {
            "adcode": 532328,
            "province": "云南省",
            "city": "楚雄彝族自治州",
            "district": "元谋县"
        }
    },
    {
        "id": "9832885306788218007",
        "title": "公共厕所",
        "address": "云南省楚雄彝族自治州楚雄市鹿城东路202号",
        "tel": "",
        "category": "基础设施:公共设施:公共厕所",
        "type": 0,
        "location": {
            "lat": 25.036481,
            "lng": 101.562423
        },
        "ad_info": {
            "adcode": 532301,
            "province": "云南省",
            "city": "楚雄彝族自治州",
            "district": "楚雄市"
        }
    },
    {
        "id": "4162364253049144758",
        "title": "公共厕所",
        "address": "云南省楚雄彝族自治州楚雄市三家巷与鹿城西路交叉口正北方向98米左右",
        "tel": "",
        "category": "基础设施:公共设施:公共厕所",
        "type": 0,
        "location": {
            "lat": 25.039441,
            "lng": 101.544747
        },
        "ad_info": {
            "adcode": 532301,
            "province": "云南省",
            "city": "楚雄彝族自治州",
            "district": "楚雄市"
        }
    },
    {
        "id": "351558907263253474",
        "title": "公共厕所",
        "address": "云南省楚雄彝族自治州楚雄市新市街与百水巷交叉口正南方向84米左右",
        "tel": "",
        "category": "基础设施:公共设施:公共厕所",
        "type": 0,
        "location": {
            "lat": 25.035582,
            "lng": 101.546723
        },
        "ad_info": {
            "adcode": 532301,
            "province": "云南省",
            "city": "楚雄彝族自治州",
            "district": "楚雄市"
        }
    },
    {
        "id": "6411425415874083040",
        "title": "公共厕所",
        "address": "云南省楚雄彝族自治州楚雄市德运南街与车坪路交叉口东北方向110米左右",
        "tel": "",
        "category": "基础设施:公共设施:公共厕所",
        "type": 0,
        "location": {
            "lat": 25.05782,
            "lng": 101.51905
        },
        "ad_info": {
            "adcode": 532301,
            "province": "云南省",
            "city": "楚雄彝族自治州",
            "district": "楚雄市"
        }
    },
    {
        "id": "740164493429518663",
        "title": "公共厕所",
        "address": "云南省楚雄彝族自治州楚雄市鹿城南路34号",
        "tel": "",
        "category": "基础设施:公共设施:公共厕所",
        "type": 0,
        "location": {
            "lat": 25.036703,
            "lng": 101.545875
        },
        "ad_info": {
            "adcode": 532301,
            "province": "云南省",
            "city": "楚雄彝族自治州",
            "district": "楚雄市"
        }
    },
    {
        "id": "15262815938475382913",
        "title": "公共厕所",
        "address": "云南省楚雄彝族自治州楚雄市中大街179号",
        "tel": "",
        "category": "基础设施:公共设施:公共厕所",
        "type": 0,
        "location": {
            "lat": 25.034904,
            "lng": 101.548786
        },
        "ad_info": {
            "adcode": 532301,
            "province": "云南省",
            "city": "楚雄彝族自治州",
            "district": "楚雄市"
        }
    },
    {
        "id": "7835020502857921159",
        "title": "公共厕所",
        "address": "云南省楚雄彝族自治州楚雄市清明南街彝人古镇风景区",
        "tel": "",
        "category": "基础设施:公共设施:公共厕所",
        "type": 0,
        "location": {
            "lat": 25.05543,
            "lng": 101.51841
        },
        "ad_info": {
            "adcode": 532301,
            "province": "云南省",
            "city": "楚雄彝族自治州",
            "district": "楚雄市"
        }
    },
    {
        "id": "2936422749587596649",
        "title": "公共厕所",
        "address": "云南省楚雄彝族自治州楚雄市彝海北路与鹿城南路交叉口西北方向238米左右",
        "tel": "",
        "category": "基础设施:公共设施:公共厕所",
        "type": 0,
        "location": {
            "lat": 25.015572,
            "lng": 101.555823
        },
        "ad_info": {
            "adcode": 532301,
            "province": "云南省",
            "city": "楚雄彝族自治州",
            "district": "楚雄市"
        }
    },
    {
        "id": "98563025186344291",
        "title": "公共厕所",
        "address": "云南省楚雄彝族自治州楚雄市东兴路与果园路交叉口西南方向55米左右",
        "tel": "",
        "category": "基础设施:公共设施:公共厕所",
        "type": 0,
        "location": {
            "lat": 25.035611,
            "lng": 101.556543
        },
        "ad_info": {
            "adcode": 532301,
            "province": "云南省",
            "city": "楚雄彝族自治州",
            "district": "楚雄市"
        }
    },
    {
        "id": "4185093234861791013",
        "title": "公共厕所",
        "address": "云南省楚雄彝族自治州楚雄市府后街与府盛巷交叉口正西方向108米左右",
        "tel": "",
        "category": "基础设施:公共设施:公共厕所",
        "type": 0,
        "location": {
            "lat": 25.036112,
            "lng": 101.542356
        },
        "ad_info": {
            "adcode": 532301,
            "province": "云南省",
            "city": "楚雄彝族自治州",
            "district": "楚雄市"
        }
    },
    {
        "id": "12949171549772802558",
        "title": "公共厕所",
        "address": "云南省楚雄彝族自治州楚雄市团结北路与紫溪大道交叉口西北方向54米左右",
        "tel": "",
        "category": "基础设施:公共设施:公共厕所",
        "type": 0,
        "location": {
            "lat": 25.047649,
            "lng": 101.551266
        },
        "ad_info": {
            "adcode": 532301,
            "province": "云南省",
            "city": "楚雄彝族自治州",
            "district": "楚雄市"
        }
    },
    {
        "id": "15007948728735607078",
        "title": "公共厕所",
        "address": "云南省楚雄彝族自治州楚雄市威楚大道61号",
        "tel": "",
        "category": "基础设施:公共设施:公共厕所",
        "type": 0,
        "location": {
            "lat": 25.043461,
            "lng": 101.544609
        },
        "ad_info": {
            "adcode": 532301,
            "province": "云南省",
            "city": "楚雄彝族自治州",
            "district": "楚雄市"
        }
    },
    {
        "id": "493560882615575257",
        "title": "楚雄程家坝服务区第二公共厕所",
        "address": "云南省楚雄彝族自治州楚雄市程家坝服务区与G56杭瑞高速交叉口西南100米",
        "tel": "",
        "category": "基础设施:公共设施:公共厕所",
        "type": 0,
        "location": {
            "lat": 25.053926,
            "lng": 101.57554
        },
        "ad_info": {
            "adcode": 532301,
            "province": "云南省",
            "city": "楚雄彝族自治州",
            "district": "楚雄市"
        }
    },
    {
        "id": "590026038989817461",
        "title": "达连坝服务区第二公共厕所",
        "address": "云南省楚雄彝族自治州楚雄市达连坝",
        "tel": "",
        "category": "基础设施:公共设施:公共厕所",
        "type": 0,
        "location": {
            "lat": 25.082453,
            "lng": 101.469136
        },
        "ad_info": {
            "adcode": 532301,
            "province": "云南省",
            "city": "楚雄彝族自治州",
            "district": "楚雄市"
        }
    },
    {
        "id": "8766122500482414434",
        "title": "程家坝服务区公共厕所",
        "address": "云南省楚雄彝族自治州楚雄市程家坝服务区与G56杭瑞高速交叉口西南60米",
        "tel": "",
        "category": "基础设施:公共设施:公共厕所",
        "type": 0,
        "location": {
            "lat": 25.054004,
            "lng": 101.576069
        },
        "ad_info": {
            "adcode": 532301,
            "province": "云南省",
            "city": "楚雄彝族自治州",
            "district": "楚雄市"
        }
    },
    {
        "id": "12083311651733542911",
        "title": "公共厕所",
        "address": "云南省楚雄彝族自治州禄丰市金山镇金源街中医医院",
        "tel": "",
        "category": "基础设施:公共设施:公共厕所",
        "type": 0,
        "location": {
            "lat": 25.142436,
            "lng": 102.075204
        },
        "ad_info": {
            "adcode": 532302,
            "province": "云南省",
            "city": "楚雄彝族自治州",
            "district": "禄丰市"
        }
    },
    {
        "id": "15985459326195536290",
        "title": "免费公共厕所",
        "address": "云南省楚雄彝族自治州姚安县南正街123号",
        "tel": "",
        "category": "基础设施:公共设施:公共厕所",
        "type": 0,
        "location": {
            "lat": 25.505743,
            "lng": 101.239694
        },
        "ad_info": {
            "adcode": 532325,
            "province": "云南省",
            "city": "楚雄彝族自治州",
            "district": "姚安县"
        }
    },
    {
        "id": "14384289944276677653",
        "title": "东和酒店旁公共厕所",
        "address": "云南省楚雄彝族自治州双柏县妥甸镇永兴路延长线27号景区内",
        "tel": "",
        "category": "基础设施:公共设施:公共厕所",
        "type": 0,
        "location": {
            "lat": 24.676599,
            "lng": 101.637664
        },
        "ad_info": {
            "adcode": 532322,
            "province": "云南省",
            "city": "楚雄彝族自治州",
            "district": "双柏县"
        }
    },
    {
        "id": "6317968674747545768",
        "title": "无障碍公共厕所",
        "address": "云南省楚雄彝族自治州楚雄市鹿城西路福源花园",
        "tel": "",
        "category": "基础设施:公共设施:公共厕所",
        "type": 0,
        "location": {
            "lat": 25.038578,
            "lng": 101.532696
        },
        "ad_info": {
            "adcode": 532301,
            "province": "云南省",
            "city": "楚雄彝族自治州",
            "district": "楚雄市"
        }
    },
    {
        "id": "12441185951360780458",
        "title": "恐龙山服务区第二公共厕所",
        "address": "云南省楚雄彝族自治州禄丰市G56杭瑞高速与恐龙山服务区交叉口东北220米",
        "tel": "",
        "category": "基础设施:公共设施:公共厕所",
        "type": 0,
        "location": {
            "lat": 24.968823,
            "lng": 102.080785
        },
        "ad_info": {
            "adcode": 532302,
            "province": "云南省",
            "city": "楚雄彝族自治州",
            "district": "禄丰市"
        }
    },
    {
        "id": "6573686970027000463",
        "title": "大平地服务区第一公共厕所",
        "address": "云南省楚雄彝族自治州禄丰市安楚高速附近",
        "tel": "",
        "category": "基础设施:公共设施:公共厕所",
        "type": 0,
        "location": {
            "lat": 24.948887,
            "lng": 101.880626
        },
        "ad_info": {
            "adcode": 532302,
            "province": "云南省",
            "city": "楚雄彝族自治州",
            "district": "禄丰市"
        }
    },
    {
        "id": "14363290158272189214",
        "title": "大平地服务区第二公共厕所",
        "address": "云南省楚雄彝族自治州禄丰市安楚高速",
        "tel": "",
        "category": "基础设施:公共设施:公共厕所",
        "type": 0,
        "location": {
            "lat": 24.949805,
            "lng": 101.880624
        },
        "ad_info": {
            "adcode": 532302,
            "province": "云南省",
            "city": "楚雄彝族自治州",
            "district": "禄丰市"
        }
    },
    {
        "id": "18127964924494003502",
        "title": "元谋服务区公共厕所",
        "address": "云南省楚雄彝族自治州元谋县源昌路与滨江大道交叉口正西方向671米左右",
        "tel": "",
        "category": "基础设施:公共设施:公共厕所",
        "type": 0,
        "location": {
            "lat": 25.703739,
            "lng": 101.853969
        },
        "ad_info": {
            "adcode": 532328,
            "province": "云南省",
            "city": "楚雄彝族自治州",
            "district": "元谋县"
        }
    },
    {
        "id": "6595918540502224716",
        "title": "恐龙山服务区公共厕所",
        "address": "云南省楚雄彝族自治州禄丰市杭瑞高速公路恐龙山服务区",
        "tel": "",
        "category": "基础设施:公共设施:公共厕所",
        "type": 0,
        "location": {
            "lat": 24.967629,
            "lng": 102.080901
        },
        "ad_info": {
            "adcode": 532302,
            "province": "云南省",
            "city": "楚雄彝族自治州",
            "district": "禄丰市"
        }
    },
    {
        "id": "14590616804628676298",
        "title": "大平地服务区第一公共厕所",
        "address": "云南省楚雄彝族自治州禄丰市大平地服务区与G56杭瑞高速交叉口西南100米",
        "tel": "",
        "category": "基础设施:公共设施:公共厕所",
        "type": 0,
        "location": {
            "lat": 24.950299,
            "lng": 101.879849
        },
        "ad_info": {
            "adcode": 532302,
            "province": "云南省",
            "city": "楚雄彝族自治州",
            "district": "禄丰市"
        }
    },
    {
        "id": "17353094862292466239",
        "title": "公共厕所",
        "address": "云南省楚雄彝族自治州楚雄市G227与G320交叉口西南方向240米左右",
        "tel": "",
        "category": "基础设施:公共设施:公共厕所",
        "type": 0,
        "location": {
            "lat": 25.050595,
            "lng": 101.50554
        },
        "ad_info": {
            "adcode": 532301,
            "province": "云南省",
            "city": "楚雄彝族自治州",
            "district": "楚雄市"
        }
    },
    {
        "id": "8155844642170172942",
        "title": "公共厕所",
        "address": "云南省楚雄彝族自治州双柏县查姆大道与长青路交叉口正西方向100米左右",
        "tel": "",
        "category": "基础设施:公共设施:公共厕所",
        "type": 0,
        "location": {
            "lat": 24.684189,
            "lng": 101.635432
        },
        "ad_info": {
            "adcode": 532322,
            "province": "云南省",
            "city": "楚雄彝族自治州",
            "district": "双柏县"
        }
    },
    {
        "id": "10278899558942361649",
        "title": "百果园公共厕所",
        "address": "云南省楚雄彝族自治州姚安县江草段与南金路交叉口东北方向1785米",
        "tel": "",
        "category": "基础设施:公共设施:公共厕所",
        "type": 0,
        "location": {
            "lat": 25.60535,
            "lng": 101.24971
        },
        "ad_info": {
            "adcode": 532325,
            "province": "云南省",
            "city": "楚雄彝族自治州",
            "district": "姚安县"
        }
    },
    {
        "id": "5788376077251090482",
        "title": "公共厕所",
        "address": "云南省楚雄彝族自治州楚雄市桃源巷与鹿城东路交叉口正北方向60米左右",
        "tel": "",
        "category": "基础设施:公共设施:公共厕所",
        "type": 0,
        "location": {
            "lat": 25.039461,
            "lng": 101.547172
        },
        "ad_info": {
            "adcode": 532301,
            "province": "云南省",
            "city": "楚雄彝族自治州",
            "district": "楚雄市"
        }
    },
    {
        "id": "4380509494677654371",
        "title": "公共厕所",
        "address": "云南省楚雄彝族自治州楚雄市百水巷7号",
        "tel": "",
        "category": "基础设施:公共设施:公共厕所",
        "type": 0,
        "location": {
            "lat": 25.037244,
            "lng": 101.550011
        },
        "ad_info": {
            "adcode": 532301,
            "province": "云南省",
            "city": "楚雄彝族自治州",
            "district": "楚雄市"
        }
    },
    {
        "id": "3418353355584183833",
        "title": "公共厕所",
        "address": "云南省楚雄彝族自治州南华县华强路与菌王路交叉口正东方向43米左右",
        "tel": "",
        "category": "基础设施:公共设施:公共厕所",
        "type": 0,
        "location": {
            "lat": 25.196276,
            "lng": 101.290179
        },
        "ad_info": {
            "adcode": 532324,
            "province": "云南省",
            "city": "楚雄彝族自治州",
            "district": "南华县"
        }
    },
    {
        "id": "15978723375205828973",
        "title": "公共厕所",
        "address": "云南省楚雄彝族自治州楚雄市G320与大白线交叉口西北方向351米左右",
        "tel": "",
        "category": "基础设施:公共设施:公共厕所",
        "type": 0,
        "location": {
            "lat": 25.055534,
            "lng": 101.502538
        },
        "ad_info": {
            "adcode": 532301,
            "province": "云南省",
            "city": "楚雄彝族自治州",
            "district": "楚雄市"
        }
    },
    {
        "id": "8928512060978848424",
        "title": "公共厕所",
        "address": "云南省楚雄彝族自治州南华县龙园街与龙城大道交叉口正南方向104米左右",
        "tel": "",
        "category": "基础设施:公共设施:公共厕所",
        "type": 0,
        "location": {
            "lat": 25.192979,
            "lng": 101.284584
        },
        "ad_info": {
            "adcode": 532324,
            "province": "云南省",
            "city": "楚雄彝族自治州",
            "district": "南华县"
        }
    },
    {
        "id": "4694796530057476935",
        "title": "大平地服务区第二公共厕所",
        "address": "云南省楚雄彝族自治州禄丰市大平地服务区与G56杭瑞高速交叉口西南260米",
        "tel": "",
        "category": "基础设施:公共设施:公共厕所",
        "type": 0,
        "location": {
            "lat": 24.94877,
            "lng": 101.879381
        },
        "ad_info": {
            "adcode": 532302,
            "province": "云南省",
            "city": "楚雄彝族自治州",
            "district": "禄丰市"
        }
    },
    {
        "id": "9442099285015971412",
        "title": "公共厕所",
        "address": "云南省楚雄彝族自治州大姚县金碧镇中国石化云岭加油站",
        "tel": "",
        "category": "基础设施:公共设施:公共厕所",
        "type": 0,
        "location": {
            "lat": 25.706881,
            "lng": 101.326738
        },
        "ad_info": {
            "adcode": 532326,
            "province": "云南省",
            "city": "楚雄彝族自治州",
            "district": "大姚县"
        }
    },
    {
        "id": "16396257813776011407",
        "title": "公共厕所",
        "address": "云南省楚雄彝族自治州楚雄市东新路与兴市街交叉口东南方向55米左右",
        "tel": "",
        "category": "基础设施:公共设施:公共厕所",
        "type": 0,
        "location": {
            "lat": 24.943831,
            "lng": 101.490929
        },
        "ad_info": {
            "adcode": 532301,
            "province": "云南省",
            "city": "楚雄彝族自治州",
            "district": "楚雄市"
        }
    },
    {
        "id": "15090995532539811961",
        "title": "公共厕所",
        "address": "云南省楚雄彝族自治州禄丰市侏罗纪大街与迤西路交叉口正北方向331米左右",
        "tel": "",
        "category": "基础设施:公共设施:公共厕所",
        "type": 0,
        "location": {
            "lat": 25.155475,
            "lng": 102.066226
        },
        "ad_info": {
            "adcode": 532302,
            "province": "云南省",
            "city": "楚雄彝族自治州",
            "district": "禄丰市"
        }
    },
    {
        "id": "7256725246207525949",
        "title": "公共厕所",
        "address": "云南省楚雄彝族自治州元谋县科园街与科技路交叉口正南方向161米左右",
        "tel": "",
        "category": "基础设施:公共设施:公共厕所",
        "type": 0,
        "location": {
            "lat": 25.721675,
            "lng": 101.864784
        },
        "ad_info": {
            "adcode": 532328,
            "province": "云南省",
            "city": "楚雄彝族自治州",
            "district": "元谋县"
        }
    },
    {
        "id": "11109222747714207247",
        "title": "公共厕所",
        "address": "云南省楚雄彝族自治州元谋县源昌路与滨江大道交叉口正西方向526米左右",
        "tel": "",
        "category": "基础设施:公共设施:公共厕所",
        "type": 0,
        "location": {
            "lat": 25.705024,
            "lng": 101.855142
        },
        "ad_info": {
            "adcode": 532328,
            "province": "云南省",
            "city": "楚雄彝族自治州",
            "district": "元谋县"
        }
    },
    {
        "id": "15281076404670380902",
        "title": "公共厕所",
        "address": "云南省楚雄彝族自治州永仁县G227与鲁母地乍线交叉口正北方向1425米左右",
        "tel": "",
        "category": "基础设施:公共设施:公共厕所",
        "type": 0,
        "location": {
            "lat": 25.960027,
            "lng": 101.544331
        },
        "ad_info": {
            "adcode": 532327,
            "province": "云南省",
            "city": "楚雄彝族自治州",
            "district": "永仁县"
        }
    },
    {
        "id": "16960260535080195219",
        "title": "公共厕所",
        "address": "云南省楚雄彝族自治州楚雄市紫溪大道999号",
        "tel": "",
        "category": "基础设施:公共设施:公共厕所",
        "type": 0,
        "location": {
            "lat": 25.049796,
            "lng": 101.578305
        },
        "ad_info": {
            "adcode": 532301,
            "province": "云南省",
            "city": "楚雄彝族自治州",
            "district": "楚雄市"
        }
    },
    {
        "id": "2923108442679574756",
        "title": "公共厕所",
        "address": "云南省楚雄彝族自治州楚雄市百水巷与龙泉路交叉口东北方向143米左右",
        "tel": "",
        "category": "基础设施:公共设施:公共厕所",
        "type": 0,
        "location": {
            "lat": 25.03886,
            "lng": 101.55093
        },
        "ad_info": {
            "adcode": 532301,
            "province": "云南省",
            "city": "楚雄彝族自治州",
            "district": "楚雄市"
        }
    },
    {
        "id": "15259181110250725883",
        "title": "公共厕所",
        "address": "云南省楚雄彝族自治州楚雄市G320与车坪公路交叉口西北方向1055米左右",
        "tel": "",
        "category": "基础设施:公共设施:公共厕所",
        "type": 0,
        "location": {
            "lat": 25.081882,
            "lng": 101.544026
        },
        "ad_info": {
            "adcode": 532301,
            "province": "云南省",
            "city": "楚雄彝族自治州",
            "district": "楚雄市"
        }
    },
    {
        "id": "9482676261972397158",
        "title": "公共厕所",
        "address": "云南省楚雄彝族自治州楚雄市民生路与雄宝路交叉口东南方向179米左右",
        "tel": "",
        "category": "基础设施:公共设施:公共厕所",
        "type": 0,
        "location": {
            "lat": 24.99386,
            "lng": 101.574667
        },
        "ad_info": {
            "adcode": 532301,
            "province": "云南省",
            "city": "楚雄彝族自治州",
            "district": "楚雄市"
        }
    },
    {
        "id": "11344237873896215590",
        "title": "公共厕所",
        "address": "云南省楚雄彝族自治州楚雄市G227与东盛西路交叉口正北方向273米左右",
        "tel": "",
        "category": "基础设施:公共设施:公共厕所",
        "type": 0,
        "location": {
            "lat": 25.078243,
            "lng": 101.506955
        },
        "ad_info": {
            "adcode": 532301,
            "province": "云南省",
            "city": "楚雄彝族自治州",
            "district": "楚雄市"
        }
    },
    {
        "id": "12433167128166048443",
        "title": "公共厕所",
        "address": "云南省楚雄彝族自治州牟定县定远街",
        "tel": "",
        "category": "基础设施:公共设施:公共厕所",
        "type": 0,
        "location": {
            "lat": 25.308354,
            "lng": 101.551787
        },
        "ad_info": {
            "adcode": 532323,
            "province": "云南省",
            "city": "楚雄彝族自治州",
            "district": "牟定县"
        }
    },
    {
        "id": "7885083983846120272",
        "title": "公共厕所",
        "address": "云南省楚雄彝族自治州牟定县S214与哚基二号桥交叉口正北方向1896米左右",
        "tel": "",
        "category": "基础设施:公共设施:公共厕所",
        "type": 0,
        "location": {
            "lat": 25.487023,
            "lng": 101.55525
        },
        "ad_info": {
            "adcode": 532323,
            "province": "云南省",
            "city": "楚雄彝族自治州",
            "district": "牟定县"
        }
    },
    {
        "id": "5820515702238377750",
        "title": "公共厕所",
        "address": "云南省楚雄彝族自治州元谋县滨江大道与龙泉路交叉口正南方向27米左右",
        "tel": "",
        "category": "基础设施:公共设施:公共厕所",
        "type": 0,
        "location": {
            "lat": 25.701165,
            "lng": 101.865228
        },
        "ad_info": {
            "adcode": 532328,
            "province": "云南省",
            "city": "楚雄彝族自治州",
            "district": "元谋县"
        }
    },
    {
        "id": "5478937457147288485",
        "title": "公共厕所",
        "address": "云南省楚雄彝族自治州禄丰市文庙街",
        "tel": "",
        "category": "基础设施:公共设施:公共厕所",
        "type": 0,
        "location": {
            "lat": 25.37772,
            "lng": 101.74962
        },
        "ad_info": {
            "adcode": 532302,
            "province": "云南省",
            "city": "楚雄彝族自治州",
            "district": "禄丰市"
        }
    },
    {
        "id": "8390429433615706880",
        "title": "公共厕所",
        "address": "云南省楚雄彝族自治州元谋县科园街与科技路交叉口西南方向107米左右",
        "tel": "",
        "category": "基础设施:公共设施:公共厕所",
        "type": 0,
        "location": {
            "lat": 25.72235,
            "lng": 101.864295
        },
        "ad_info": {
            "adcode": 532328,
            "province": "云南省",
            "city": "楚雄彝族自治州",
            "district": "元谋县"
        }
    },
    {
        "id": "16532827333052992845",
        "title": "公共厕所",
        "address": "云南省楚雄彝族自治州武定县环城南路与香水路交叉口西北方向84米左右",
        "tel": "",
        "category": "基础设施:公共设施:公共厕所",
        "type": 0,
        "location": {
            "lat": 25.518087,
            "lng": 102.407473
        },
        "ad_info": {
            "adcode": 532329,
            "province": "云南省",
            "city": "楚雄彝族自治州",
            "district": "武定县"
        }
    },
    {
        "id": "10233300545615041505",
        "title": "公共厕所",
        "address": "云南省楚雄彝族自治州武定县S215与贺铭段交叉口正西方向108米左右",
        "tel": "",
        "category": "基础设施:公共设施:公共厕所",
        "type": 0,
        "location": {
            "lat": 25.471295,
            "lng": 102.36337
        },
        "ad_info": {
            "adcode": 532329,
            "province": "云南省",
            "city": "楚雄彝族自治州",
            "district": "武定县"
        }
    },
    {
        "id": "5751136689578754536",
        "title": "公共厕所",
        "address": "云南省楚雄彝族自治州元谋县凤翥路与源达路交叉口正南方向183米左右",
        "tel": "",
        "category": "基础设施:公共设施:公共厕所",
        "type": 0,
        "location": {
            "lat": 25.721881,
            "lng": 101.854285
        },
        "ad_info": {
            "adcode": 532328,
            "province": "云南省",
            "city": "楚雄彝族自治州",
            "district": "元谋县"
        }
    },
    {
        "id": "1954621726492262657",
        "title": "公共厕所",
        "address": "云南省楚雄彝族自治州元谋县G108与金沙路交叉口西南方向1426米左右",
        "tel": "",
        "category": "基础设施:公共设施:公共厕所",
        "type": 0,
        "location": {
            "lat": 25.805063,
            "lng": 101.853277
        },
        "ad_info": {
            "adcode": 532328,
            "province": "云南省",
            "city": "楚雄彝族自治州",
            "district": "元谋县"
        }
    },
    {
        "id": "2219313674008742194",
        "title": "公共厕所",
        "address": "云南省楚雄彝族自治州牟定县014乡道蟠猫乡朵苴村委会朵苴村村委会旁(散中线)",
        "tel": "",
        "category": "基础设施:公共设施:公共厕所",
        "type": 0,
        "location": {
            "lat": 25.477213,
            "lng": 101.53255
        },
        "ad_info": {
            "adcode": 532323,
            "province": "云南省",
            "city": "楚雄彝族自治州",
            "district": "牟定县"
        }
    },
    {
        "id": "4824921299876441523",
        "title": "公共厕所",
        "address": "云南省楚雄彝族自治州楚雄市阳光大道与鹿城南路交叉口西北方向204米左右",
        "tel": "",
        "category": "基础设施:公共设施:公共厕所",
        "type": 0,
        "location": {
            "lat": 25.020542,
            "lng": 101.551306
        },
        "ad_info": {
            "adcode": 532301,
            "province": "云南省",
            "city": "楚雄彝族自治州",
            "district": "楚雄市"
        }
    },
    {
        "id": "1077712392224039059",
        "title": "公共厕所",
        "address": "云南省楚雄彝族自治州楚雄市Y008",
        "tel": "",
        "category": "基础设施:公共设施:公共厕所",
        "type": 0,
        "location": {
            "lat": 25.069765,
            "lng": 101.590879
        },
        "ad_info": {
            "adcode": 532301,
            "province": "云南省",
            "city": "楚雄彝族自治州",
            "district": "楚雄市"
        }
    },
    {
        "id": "8128472543394842315",
        "title": "公共厕所",
        "address": "云南省楚雄彝族自治州禄丰市G320与杭瑞高速交叉口正东方向1836米左右",
        "tel": "",
        "category": "基础设施:公共设施:公共厕所",
        "type": 0,
        "location": {
            "lat": 24.950645,
            "lng": 102.207272
        },
        "ad_info": {
            "adcode": 532302,
            "province": "云南省",
            "city": "楚雄彝族自治州",
            "district": "禄丰市"
        }
    },
    {
        "id": "11096224530485531358",
        "title": "公共厕所",
        "address": "云南省楚雄彝族自治州大姚县G227与三潭2号桥交叉口正北方向248米左右",
        "tel": "",
        "category": "基础设施:公共设施:公共厕所",
        "type": 0,
        "location": {
            "lat": 25.837787,
            "lng": 101.51557
        },
        "ad_info": {
            "adcode": 532326,
            "province": "云南省",
            "city": "楚雄彝族自治州",
            "district": "大姚县"
        }
    },
    {
        "id": "11181989810172671279",
        "title": "公共厕所",
        "address": "云南省楚雄彝族自治州禄丰市S320与金光路交叉口西北方向189米左右",
        "tel": "",
        "category": "基础设施:公共设施:公共厕所",
        "type": 0,
        "location": {
            "lat": 25.158655,
            "lng": 101.754076
        },
        "ad_info": {
            "adcode": 532302,
            "province": "云南省",
            "city": "楚雄彝族自治州",
            "district": "禄丰市"
        }
    },
    {
        "id": "10295510650669151963",
        "title": "公共厕所",
        "address": "云南省楚雄彝族自治州楚雄市G56杭瑞高速与楚雄服务区交叉口东北480米",
        "tel": "",
        "category": "基础设施:公共设施:公共厕所",
        "type": 0,
        "location": {
            "lat": 25.068063,
            "lng": 101.597847
        },
        "ad_info": {
            "adcode": 532301,
            "province": "云南省",
            "city": "楚雄彝族自治州",
            "district": "楚雄市"
        }
    },
    {
        "id": "15476269899205652558",
        "title": "公共厕所",
        "address": "云南省楚雄彝族自治州禄丰市G320与一平浪老街交叉口正南方向182米左右",
        "tel": "",
        "category": "基础设施:公共设施:公共厕所",
        "type": 0,
        "location": {
            "lat": 25.154323,
            "lng": 101.903185
        },
        "ad_info": {
            "adcode": 532302,
            "province": "云南省",
            "city": "楚雄彝族自治州",
            "district": "禄丰市"
        }
    },
    {
        "id": "6717886177882547024",
        "title": "公共厕所",
        "address": "云南省楚雄彝族自治州牟定县S218与万斛路交叉口正北方向786米左右",
        "tel": "",
        "category": "基础设施:公共设施:公共厕所",
        "type": 0,
        "location": {
            "lat": 25.293857,
            "lng": 101.556002
        },
        "ad_info": {
            "adcode": 532323,
            "province": "云南省",
            "city": "楚雄彝族自治州",
            "district": "牟定县"
        }
    },
    {
        "id": "16238462238242841933",
        "title": "灵官桥服务区公共厕所",
        "address": "云南省楚雄彝族自治州南华县G320与龙城大道交叉口正西方向1260米左右",
        "tel": "",
        "category": "基础设施:公共设施:公共厕所",
        "type": 0,
        "location": {
            "lat": 25.198135,
            "lng": 101.256449
        },
        "ad_info": {
            "adcode": 532324,
            "province": "云南省",
            "city": "楚雄彝族自治州",
            "district": "南华县"
        }
    },
    {
        "id": "12900905129524924738",
        "title": "公共厕所",
        "address": "云南省楚雄彝族自治州牟定县南大街与新南路交叉口正北方向38米左右",
        "tel": "",
        "category": "基础设施:公共设施:公共厕所",
        "type": 0,
        "location": {
            "lat": 25.303253,
            "lng": 101.54746
        },
        "ad_info": {
            "adcode": 532323,
            "province": "云南省",
            "city": "楚雄彝族自治州",
            "district": "牟定县"
        }
    },
    {
        "id": "9130424337282713056",
        "title": "公共厕所",
        "address": "云南省楚雄彝族自治州楚雄市太阳历大道与紫溪大道交叉口正南方向120米左右",
        "tel": "",
        "category": "基础设施:公共设施:公共厕所",
        "type": 0,
        "location": {
            "lat": 25.041481,
            "lng": 101.528665
        },
        "ad_info": {
            "adcode": 532301,
            "province": "云南省",
            "city": "楚雄彝族自治州",
            "district": "楚雄市"
        }
    },
    {
        "id": "6332657374854360899",
        "title": "公共厕所",
        "address": "云南省楚雄彝族自治州牟定县中园大道与学兴路交叉口东北方向76米左右",
        "tel": "",
        "category": "基础设施:公共设施:公共厕所",
        "type": 0,
        "location": {
            "lat": 25.312158,
            "lng": 101.546466
        },
        "ad_info": {
            "adcode": 532323,
            "province": "云南省",
            "city": "楚雄彝族自治州",
            "district": "牟定县"
        }
    },
    {
        "id": "8595028020643366466",
        "title": "公共厕所",
        "address": "云南省楚雄彝族自治州元谋县G108与元大公路交叉口正东方向469米左右",
        "tel": "",
        "category": "基础设施:公共设施:公共厕所",
        "type": 0,
        "location": {
            "lat": 25.839494,
            "lng": 101.844191
        },
        "ad_info": {
            "adcode": 532328,
            "province": "云南省",
            "city": "楚雄彝族自治州",
            "district": "元谋县"
        }
    },
    {
        "id": "18098565485104154098",
        "title": "公共厕所",
        "address": "云南省楚雄彝族自治州楚雄市丰胜路与拓西街交叉口西南方向81米左右",
        "tel": "",
        "category": "基础设施:公共设施:公共厕所",
        "type": 0,
        "location": {
            "lat": 25.043862,
            "lng": 101.531649
        },
        "ad_info": {
            "adcode": 532301,
            "province": "云南省",
            "city": "楚雄彝族自治州",
            "district": "楚雄市"
        }
    },
    {
        "id": "3705773269299464725",
        "title": "公共厕所",
        "address": "云南省楚雄彝族自治州大姚县西河北路与金平路交叉口西北方向191米左右",
        "tel": "",
        "category": "基础设施:公共设施:公共厕所",
        "type": 0,
        "location": {
            "lat": 25.72568,
            "lng": 101.334771
        },
        "ad_info": {
            "adcode": 532326,
            "province": "云南省",
            "city": "楚雄彝族自治州",
            "district": "大姚县"
        }
    },
    {
        "id": "7200865278084195244",
        "title": "公共厕所",
        "address": "云南省楚雄彝族自治州楚雄市岔街与环城西路交叉口正西方向42米左右",
        "tel": "",
        "category": "基础设施:公共设施:公共厕所",
        "type": 0,
        "location": {
            "lat": 25.034979,
            "lng": 101.533152
        },
        "ad_info": {
            "adcode": 532301,
            "province": "云南省",
            "city": "楚雄彝族自治州",
            "district": "楚雄市"
        }
    },
    {
        "id": "1038420241449589519",
        "title": "公共厕所",
        "address": "云南省楚雄彝族自治州禄丰市世纪大街与侏罗纪大街交叉口西南方向385米左右",
        "tel": "",
        "category": "基础设施:公共设施:公共厕所",
        "type": 0,
        "location": {
            "lat": 25.126801,
            "lng": 102.062495
        },
        "ad_info": {
            "adcode": 532302,
            "province": "云南省",
            "city": "楚雄彝族自治州",
            "district": "禄丰市"
        }
    },
    {
        "id": "12588274277241392700",
        "title": "公共厕所",
        "address": "云南省楚雄彝族自治州楚雄市彝海北路与青龙河东路交叉口东南方向319米左右",
        "tel": "",
        "category": "基础设施:公共设施:公共厕所",
        "type": 0,
        "location": {
            "lat": 25.014367,
            "lng": 101.572221
        },
        "ad_info": {
            "adcode": 532301,
            "province": "云南省",
            "city": "楚雄彝族自治州",
            "district": "楚雄市"
        }
    },
    {
        "id": "9174769612718412997",
        "title": "公共厕所",
        "address": "云南省楚雄彝族自治州牟定县S219与X028交叉口正西方向73米左右",
        "tel": "",
        "category": "基础设施:公共设施:公共厕所",
        "type": 0,
        "location": {
            "lat": 25.250346,
            "lng": 101.460732
        },
        "ad_info": {
            "adcode": 532323,
            "province": "云南省",
            "city": "楚雄彝族自治州",
            "district": "牟定县"
        }
    },
    {
        "id": "6135124914584595058",
        "title": "公共厕所",
        "address": "云南省楚雄彝族自治州双柏县海资底街28正西方向96米",
        "tel": "",
        "category": "基础设施:公共设施:公共厕所",
        "type": 0,
        "location": {
            "lat": 24.490098,
            "lng": 101.560813
        },
        "ad_info": {
            "adcode": 532322,
            "province": "云南省",
            "city": "楚雄彝族自治州",
            "district": "双柏县"
        }
    },
    {
        "id": "13487784256641189810",
        "title": "公共厕所",
        "address": "云南省楚雄彝族自治州南华县G320与正春桥交叉口西北方向854米左右",
        "tel": "",
        "category": "基础设施:公共设施:公共厕所",
        "type": 0,
        "location": {
            "lat": 25.312405,
            "lng": 101.030242
        },
        "ad_info": {
            "adcode": 532324,
            "province": "云南省",
            "city": "楚雄彝族自治州",
            "district": "南华县"
        }
    },
    {
        "id": "1615914137352871691",
        "title": "武定县北片区行政办公区广场公共厕所",
        "address": "云南省楚雄彝族自治州武定县静城路与静溪路交叉口正西方向35米左右",
        "tel": "",
        "category": "基础设施:公共设施:公共厕所",
        "type": 0,
        "location": {
            "lat": 25.538157,
            "lng": 102.405667
        },
        "ad_info": {
            "adcode": 532329,
            "province": "云南省",
            "city": "楚雄彝族自治州",
            "district": "武定县"
        }
    },
    {
        "id": "3840775370742081212",
        "title": "公共厕所",
        "address": "云南省楚雄彝族自治州楚雄市大大线与子兴街交叉口正北方向396米左右",
        "tel": "",
        "category": "基础设施:公共设施:公共厕所",
        "type": 0,
        "location": {
            "lat": 24.890409,
            "lng": 101.532648
        },
        "ad_info": {
            "adcode": 532301,
            "province": "云南省",
            "city": "楚雄彝族自治州",
            "district": "楚雄市"
        }
    },
    {
        "id": "5007670119562376419",
        "title": "公共厕所",
        "address": "云南省楚雄彝族自治州永仁县永盛路与苴却路交叉口正北方向74米左右",
        "tel": "",
        "category": "基础设施:公共设施:公共厕所",
        "type": 0,
        "location": {
            "lat": 26.049178,
            "lng": 101.678379
        },
        "ad_info": {
            "adcode": 532327,
            "province": "云南省",
            "city": "楚雄彝族自治州",
            "district": "永仁县"
        }
    },
    {
        "id": "4428873782826549811",
        "title": "公共厕所",
        "address": "云南省楚雄彝族自治州永仁县建设路37号",
        "tel": "",
        "category": "基础设施:公共设施:公共厕所",
        "type": 0,
        "location": {
            "lat": 26.056595,
            "lng": 101.667915
        },
        "ad_info": {
            "adcode": 532327,
            "province": "云南省",
            "city": "楚雄彝族自治州",
            "district": "永仁县"
        }
    },
    {
        "id": "17704599558437724817",
        "title": "狮子山风景区公共厕所",
        "address": "云南省楚雄彝族自治州武定县狮山办事处公路与狮山旅游专线交叉口东北方向988米左右",
        "tel": "",
        "category": "基础设施:公共设施:公共厕所",
        "type": 0,
        "location": {
            "lat": 25.53388,
            "lng": 102.38304
        },
        "ad_info": {
            "adcode": 532329,
            "province": "云南省",
            "city": "楚雄彝族自治州",
            "district": "武定县"
        }
    },
    {
        "id": "16071864831460687399",
        "title": "公共厕所",
        "address": "云南省楚雄彝族自治州楚雄市复兴巷与学桥街交叉口正北方向51米左右",
        "tel": "",
        "category": "基础设施:公共设施:公共厕所",
        "type": 0,
        "location": {
            "lat": 25.033915,
            "lng": 101.54736
        },
        "ad_info": {
            "adcode": 532301,
            "province": "云南省",
            "city": "楚雄彝族自治州",
            "district": "楚雄市"
        }
    },
    {
        "id": "12924714554114301312",
        "title": "公共厕所",
        "address": "云南省楚雄彝族自治州禄丰市金山南路与龙缘路东段交叉口东北方向336米左右",
        "tel": "",
        "category": "基础设施:公共设施:公共厕所",
        "type": 0,
        "location": {
            "lat": 25.136655,
            "lng": 102.077482
        },
        "ad_info": {
            "adcode": 532302,
            "province": "云南省",
            "city": "楚雄彝族自治州",
            "district": "禄丰市"
        }
    },
    {
        "id": "17442973902378139007",
        "title": "公共厕所",
        "address": "云南省楚雄彝族自治州大姚县北街与北门坡交叉口正南方向65米左右",
        "tel": "",
        "category": "基础设施:公共设施:公共厕所",
        "type": 0,
        "location": {
            "lat": 25.724241,
            "lng": 101.323788
        },
        "ad_info": {
            "adcode": 532326,
            "province": "云南省",
            "city": "楚雄彝族自治州",
            "district": "大姚县"
        }
    },
    {
        "id": "10186148117518651094",
        "title": "公共厕所",
        "address": "云南省楚雄彝族自治州禄丰市S320与金光路交叉口西南方向167米左右",
        "tel": "",
        "category": "基础设施:公共设施:公共厕所",
        "type": 0,
        "location": {
            "lat": 25.163429,
            "lng": 101.749291
        },
        "ad_info": {
            "adcode": 532302,
            "province": "云南省",
            "city": "楚雄彝族自治州",
            "district": "禄丰市"
        }
    },
    {
        "id": "10532999109444274004",
        "title": "公共厕所",
        "address": "云南省楚雄彝族自治州楚雄市彝海北路与青龙河西路交叉口正南方向159米左右",
        "tel": "",
        "category": "基础设施:公共设施:公共厕所",
        "type": 0,
        "location": {
            "lat": 25.014489,
            "lng": 101.568139
        },
        "ad_info": {
            "adcode": 532301,
            "province": "云南省",
            "city": "楚雄彝族自治州",
            "district": "楚雄市"
        }
    },
    {
        "id": "12854246133331759364",
        "title": "公共厕所",
        "address": "云南省楚雄彝族自治州大姚县蜻蛉路与金平路交叉口正东方向71米左右",
        "tel": "",
        "category": "基础设施:公共设施:公共厕所",
        "type": 0,
        "location": {
            "lat": 25.721742,
            "lng": 101.336238
        },
        "ad_info": {
            "adcode": 532326,
            "province": "云南省",
            "city": "楚雄彝族自治州",
            "district": "大姚县"
        }
    },
    {
        "id": "8845745250792171067",
        "title": "公共厕所",
        "address": "云南省楚雄彝族自治州双柏县妥甸街与文明路交叉口正南方向98米左右",
        "tel": "",
        "category": "基础设施:公共设施:公共厕所",
        "type": 0,
        "location": {
            "lat": 24.68803,
            "lng": 101.637219
        },
        "ad_info": {
            "adcode": 532322,
            "province": "云南省",
            "city": "楚雄彝族自治州",
            "district": "双柏县"
        }
    },
    {
        "id": "10748787286333759630",
        "title": "公共厕所",
        "address": "云南省楚雄彝族自治州牟定县Y018与戌街线交叉口东南方向94米左右",
        "tel": "",
        "category": "基础设施:公共设施:公共厕所",
        "type": 0,
        "location": {
            "lat": 25.574592,
            "lng": 101.672311
        },
        "ad_info": {
            "adcode": 532323,
            "province": "云南省",
            "city": "楚雄彝族自治州",
            "district": "牟定县"
        }
    },
    {
        "id": "17470996157194912161",
        "title": "公共厕所",
        "address": "云南省楚雄彝族自治州双柏县人民路4号",
        "tel": "",
        "category": "基础设施:公共设施:公共厕所",
        "type": 0,
        "location": {
            "lat": 24.685314,
            "lng": 101.635987
        },
        "ad_info": {
            "adcode": 532322,
            "province": "云南省",
            "city": "楚雄彝族自治州",
            "district": "双柏县"
        }
    },
    {
        "id": "9473545007295899496",
        "title": "公共厕所",
        "address": "云南省楚雄彝族自治州楚雄市白龙路与茶花大道交叉口西北方向1038米左右",
        "tel": "",
        "category": "基础设施:公共设施:公共厕所",
        "type": 0,
        "location": {
            "lat": 25.03598,
            "lng": 101.516339
        },
        "ad_info": {
            "adcode": 532301,
            "province": "云南省",
            "city": "楚雄彝族自治州",
            "district": "楚雄市"
        }
    },
    {
        "id": "13352151802597529476",
        "title": "公共厕所",
        "address": "云南省楚雄彝族自治州南华县红土门枢纽与G56杭瑞高速交叉口东北220米",
        "tel": "",
        "category": "基础设施:公共设施:公共厕所",
        "type": 0,
        "location": {
            "lat": 25.209269,
            "lng": 101.241775
        },
        "ad_info": {
            "adcode": 532324,
            "province": "云南省",
            "city": "楚雄彝族自治州",
            "district": "南华县"
        }
    },
    {
        "id": "11129257811111523581",
        "title": "公共厕所",
        "address": "云南省楚雄彝族自治州南华县Y004与河牛线交叉口正北方向1470米左右",
        "tel": "",
        "category": "基础设施:公共设施:公共厕所",
        "type": 0,
        "location": {
            "lat": 25.161326,
            "lng": 101.340759
        },
        "ad_info": {
            "adcode": 532324,
            "province": "云南省",
            "city": "楚雄彝族自治州",
            "district": "南华县"
        }
    },
    {
        "id": "16132552319394613681",
        "title": "公共厕所",
        "address": "云南省楚雄彝族自治州大姚县湾新公路与瓦拉公路交叉口正南方向203米左右",
        "tel": "",
        "category": "基础设施:公共设施:公共厕所",
        "type": 0,
        "location": {
            "lat": 26.352385,
            "lng": 101.202104
        },
        "ad_info": {
            "adcode": 532326,
            "province": "云南省",
            "city": "楚雄彝族自治州",
            "district": "大姚县"
        }
    },
    {
        "id": "1453209587806397971",
        "title": "彝盛都大酒店-洗手间",
        "address": "云南省楚雄彝族自治州大姚县咪依噜大街与梁寺巷交叉口正南方向105米左右",
        "tel": "",
        "category": "基础设施:公共设施:公共厕所",
        "type": 0,
        "location": {
            "lat": 25.715632,
            "lng": 101.321235
        },
        "ad_info": {
            "adcode": 532326,
            "province": "云南省",
            "city": "楚雄彝族自治州",
            "district": "大姚县"
        }
    },
    {
        "id": "10894448140667348475",
        "title": "公共厕所",
        "address": "云南省楚雄彝族自治州楚雄市东盛东路与古镇西路交叉口东北方向1298米左右",
        "tel": "",
        "category": "基础设施:公共设施:公共厕所",
        "type": 0,
        "location": {
            "lat": 25.074557,
            "lng": 101.529232
        },
        "ad_info": {
            "adcode": 532301,
            "province": "云南省",
            "city": "楚雄彝族自治州",
            "district": "楚雄市"
        }
    },
    {
        "id": "7158190847158096994",
        "title": "公共厕所",
        "address": "云南省楚雄彝族自治州禄丰市G320与侏罗纪大街交叉口西北方向505米左右",
        "tel": "",
        "category": "基础设施:公共设施:公共厕所",
        "type": 0,
        "location": {
            "lat": 25.113872,
            "lng": 102.072976
        },
        "ad_info": {
            "adcode": 532302,
            "province": "云南省",
            "city": "楚雄彝族自治州",
            "district": "禄丰市"
        }
    },
    {
        "id": "7502085248332494967",
        "title": "公共厕所",
        "address": "云南省楚雄彝族自治州楚雄市东盛东路与古镇西路交叉口东北方向301米左右",
        "tel": "",
        "category": "基础设施:公共设施:公共厕所",
        "type": 0,
        "location": {
            "lat": 25.066765,
            "lng": 101.524222
        },
        "ad_info": {
            "adcode": 532301,
            "province": "云南省",
            "city": "楚雄彝族自治州",
            "district": "楚雄市"
        }
    },
    {
        "id": "6657477869907368690",
        "title": "公共厕所",
        "address": "云南省楚雄彝族自治州永仁县G108与东盛路交叉口正南方向593米左右",
        "tel": "",
        "category": "基础设施:公共设施:公共厕所",
        "type": 0,
        "location": {
            "lat": 26.042091,
            "lng": 101.694464
        },
        "ad_info": {
            "adcode": 532327,
            "province": "云南省",
            "city": "楚雄彝族自治州",
            "district": "永仁县"
        }
    },
    {
        "id": "10170641788717574859",
        "title": "公共厕所",
        "address": "云南省楚雄彝族自治州姚安县蛉荷大道",
        "tel": "",
        "category": "基础设施:公共设施:公共厕所",
        "type": 0,
        "location": {
            "lat": 25.484723,
            "lng": 101.249187
        },
        "ad_info": {
            "adcode": 532325,
            "province": "云南省",
            "city": "楚雄彝族自治州",
            "district": "姚安县"
        }
    },
    {
        "id": "18377019936470098087",
        "title": "公共厕所",
        "address": "云南省楚雄彝族自治州大姚县联通希望小学东侧140米",
        "tel": "",
        "category": "基础设施:公共设施:公共厕所",
        "type": 0,
        "location": {
            "lat": 25.79535,
            "lng": 101.461138
        },
        "ad_info": {
            "adcode": 532326,
            "province": "云南省",
            "city": "楚雄彝族自治州",
            "district": "大姚县"
        }
    },
    {
        "id": "4487235698105607970",
        "title": "公共厕所",
        "address": "云南省楚雄彝族自治州楚雄市古镇西路与德远北街交叉口西北方向133米左右",
        "tel": "",
        "category": "基础设施:公共设施:公共厕所",
        "type": 0,
        "location": {
            "lat": 25.064506,
            "lng": 101.520139
        },
        "ad_info": {
            "adcode": 532301,
            "province": "云南省",
            "city": "楚雄彝族自治州",
            "district": "楚雄市"
        }
    },
    {
        "id": "9545499700719490008",
        "title": "公共厕所",
        "address": "云南省楚雄彝族自治州楚雄市G320与大白线交叉口正南方向36米左右",
        "tel": "",
        "category": "基础设施:公共设施:公共厕所",
        "type": 0,
        "location": {
            "lat": 25.052948,
            "lng": 101.505067
        },
        "ad_info": {
            "adcode": 532301,
            "province": "云南省",
            "city": "楚雄彝族自治州",
            "district": "楚雄市"
        }
    },
    {
        "id": "13747807040658344394",
        "title": "公共厕所",
        "address": "云南省楚雄彝族自治州楚雄市栗子园农贸市场门口",
        "tel": "",
        "category": "基础设施:公共设施:公共厕所",
        "type": 0,
        "location": {
            "lat": 25.005576,
            "lng": 101.562062
        },
        "ad_info": {
            "adcode": 532301,
            "province": "云南省",
            "city": "楚雄彝族自治州",
            "district": "楚雄市"
        }
    },
    {
        "id": "7108444596664726901",
        "title": "公共厕所",
        "address": "云南省楚雄彝族自治州大姚县环城东路与环城北路交叉口东北方向45米左右",
        "tel": "",
        "category": "基础设施:公共设施:公共厕所",
        "type": 0,
        "location": {
            "lat": 25.730537,
            "lng": 101.324668
        },
        "ad_info": {
            "adcode": 532326,
            "province": "云南省",
            "city": "楚雄彝族自治州",
            "district": "大姚县"
        }
    },
    {
        "id": "10532999109444274004",
        "title": "公共厕所",
        "address": "云南省楚雄彝族自治州楚雄市彝海北路与青龙河西路交叉口正南方向159米左右",
        "tel": "",
        "category": "基础设施:公共设施:公共厕所",
        "type": 0,
        "location": {
            "lat": 25.014489,
            "lng": 101.568139
        },
        "ad_info": {
            "adcode": 532301,
            "province": "云南省",
            "city": "楚雄彝族自治州",
            "district": "楚雄市"
        }
    },
    {
        "id": "12854246133331759364",
        "title": "公共厕所",
        "address": "云南省楚雄彝族自治州大姚县蜻蛉路与金平路交叉口正东方向71米左右",
        "tel": "",
        "category": "基础设施:公共设施:公共厕所",
        "type": 0,
        "location": {
            "lat": 25.721742,
            "lng": 101.336238
        },
        "ad_info": {
            "adcode": 532326,
            "province": "云南省",
            "city": "楚雄彝族自治州",
            "district": "大姚县"
        }
    },
    {
        "id": "8845745250792171067",
        "title": "公共厕所",
        "address": "云南省楚雄彝族自治州双柏县妥甸街与文明路交叉口正南方向98米左右",
        "tel": "",
        "category": "基础设施:公共设施:公共厕所",
        "type": 0,
        "location": {
            "lat": 24.68803,
            "lng": 101.637219
        },
        "ad_info": {
            "adcode": 532322,
            "province": "云南省",
            "city": "楚雄彝族自治州",
            "district": "双柏县"
        }
    },
    {
        "id": "10748787286333759630",
        "title": "公共厕所",
        "address": "云南省楚雄彝族自治州牟定县Y018与戌街线交叉口东南方向94米左右",
        "tel": "",
        "category": "基础设施:公共设施:公共厕所",
        "type": 0,
        "location": {
            "lat": 25.574592,
            "lng": 101.672311
        },
        "ad_info": {
            "adcode": 532323,
            "province": "云南省",
            "city": "楚雄彝族自治州",
            "district": "牟定县"
        }
    },
    {
        "id": "17470996157194912161",
        "title": "公共厕所",
        "address": "云南省楚雄彝族自治州双柏县人民路4号",
        "tel": "",
        "category": "基础设施:公共设施:公共厕所",
        "type": 0,
        "location": {
            "lat": 24.685314,
            "lng": 101.635987
        },
        "ad_info": {
            "adcode": 532322,
            "province": "云南省",
            "city": "楚雄彝族自治州",
            "district": "双柏县"
        }
    },
    {
        "id": "9473545007295899496",
        "title": "公共厕所",
        "address": "云南省楚雄彝族自治州楚雄市白龙路与茶花大道交叉口西北方向1038米左右",
        "tel": "",
        "category": "基础设施:公共设施:公共厕所",
        "type": 0,
        "location": {
            "lat": 25.03598,
            "lng": 101.516339
        },
        "ad_info": {
            "adcode": 532301,
            "province": "云南省",
            "city": "楚雄彝族自治州",
            "district": "楚雄市"
        }
    },
    {
        "id": "13352151802597529476",
        "title": "公共厕所",
        "address": "云南省楚雄彝族自治州南华县红土门枢纽与G56杭瑞高速交叉口东北220米",
        "tel": "",
        "category": "基础设施:公共设施:公共厕所",
        "type": 0,
        "location": {
            "lat": 25.209269,
            "lng": 101.241775
        },
        "ad_info": {
            "adcode": 532324,
            "province": "云南省",
            "city": "楚雄彝族自治州",
            "district": "南华县"
        }
    },
    {
        "id": "11129257811111523581",
        "title": "公共厕所",
        "address": "云南省楚雄彝族自治州南华县Y004与河牛线交叉口正北方向1470米左右",
        "tel": "",
        "category": "基础设施:公共设施:公共厕所",
        "type": 0,
        "location": {
            "lat": 25.161326,
            "lng": 101.340759
        },
        "ad_info": {
            "adcode": 532324,
            "province": "云南省",
            "city": "楚雄彝族自治州",
            "district": "南华县"
        }
    },
    {
        "id": "16132552319394613681",
        "title": "公共厕所",
        "address": "云南省楚雄彝族自治州大姚县湾新公路与瓦拉公路交叉口正南方向203米左右",
        "tel": "",
        "category": "基础设施:公共设施:公共厕所",
        "type": 0,
        "location": {
            "lat": 26.352385,
            "lng": 101.202104
        },
        "ad_info": {
            "adcode": 532326,
            "province": "云南省",
            "city": "楚雄彝族自治州",
            "district": "大姚县"
        }
    },
    {
        "id": "1453209587806397971",
        "title": "彝盛都大酒店-洗手间",
        "address": "云南省楚雄彝族自治州大姚县咪依噜大街与梁寺巷交叉口正南方向105米左右",
        "tel": "",
        "category": "基础设施:公共设施:公共厕所",
        "type": 0,
        "location": {
            "lat": 25.715632,
            "lng": 101.321235
        },
        "ad_info": {
            "adcode": 532326,
            "province": "云南省",
            "city": "楚雄彝族自治州",
            "district": "大姚县"
        }
    },
    {
        "id": "10894448140667348475",
        "title": "公共厕所",
        "address": "云南省楚雄彝族自治州楚雄市东盛东路与古镇西路交叉口东北方向1298米左右",
        "tel": "",
        "category": "基础设施:公共设施:公共厕所",
        "type": 0,
        "location": {
            "lat": 25.074557,
            "lng": 101.529232
        },
        "ad_info": {
            "adcode": 532301,
            "province": "云南省",
            "city": "楚雄彝族自治州",
            "district": "楚雄市"
        }
    },
    {
        "id": "7158190847158096994",
        "title": "公共厕所",
        "address": "云南省楚雄彝族自治州禄丰市G320与侏罗纪大街交叉口西北方向505米左右",
        "tel": "",
        "category": "基础设施:公共设施:公共厕所",
        "type": 0,
        "location": {
            "lat": 25.113872,
            "lng": 102.072976
        },
        "ad_info": {
            "adcode": 532302,
            "province": "云南省",
            "city": "楚雄彝族自治州",
            "district": "禄丰市"
        }
    },
    {
        "id": "7502085248332494967",
        "title": "公共厕所",
        "address": "云南省楚雄彝族自治州楚雄市东盛东路与古镇西路交叉口东北方向301米左右",
        "tel": "",
        "category": "基础设施:公共设施:公共厕所",
        "type": 0,
        "location": {
            "lat": 25.066765,
            "lng": 101.524222
        },
        "ad_info": {
            "adcode": 532301,
            "province": "云南省",
            "city": "楚雄彝族自治州",
            "district": "楚雄市"
        }
    },
    {
        "id": "6657477869907368690",
        "title": "公共厕所",
        "address": "云南省楚雄彝族自治州永仁县G108与东盛路交叉口正南方向593米左右",
        "tel": "",
        "category": "基础设施:公共设施:公共厕所",
        "type": 0,
        "location": {
            "lat": 26.042091,
            "lng": 101.694464
        },
        "ad_info": {
            "adcode": 532327,
            "province": "云南省",
            "city": "楚雄彝族自治州",
            "district": "永仁县"
        }
    },
    {
        "id": "10170641788717574859",
        "title": "公共厕所",
        "address": "云南省楚雄彝族自治州姚安县蛉荷大道",
        "tel": "",
        "category": "基础设施:公共设施:公共厕所",
        "type": 0,
        "location": {
            "lat": 25.484723,
            "lng": 101.249187
        },
        "ad_info": {
            "adcode": 532325,
            "province": "云南省",
            "city": "楚雄彝族自治州",
            "district": "姚安县"
        }
    },
    {
        "id": "18377019936470098087",
        "title": "公共厕所",
        "address": "云南省楚雄彝族自治州大姚县联通希望小学东侧140米",
        "tel": "",
        "category": "基础设施:公共设施:公共厕所",
        "type": 0,
        "location": {
            "lat": 25.79535,
            "lng": 101.461138
        },
        "ad_info": {
            "adcode": 532326,
            "province": "云南省",
            "city": "楚雄彝族自治州",
            "district": "大姚县"
        }
    },
    {
        "id": "4487235698105607970",
        "title": "公共厕所",
        "address": "云南省楚雄彝族自治州楚雄市古镇西路与德远北街交叉口西北方向133米左右",
        "tel": "",
        "category": "基础设施:公共设施:公共厕所",
        "type": 0,
        "location": {
            "lat": 25.064506,
            "lng": 101.520139
        },
        "ad_info": {
            "adcode": 532301,
            "province": "云南省",
            "city": "楚雄彝族自治州",
            "district": "楚雄市"
        }
    },
    {
        "id": "9545499700719490008",
        "title": "公共厕所",
        "address": "云南省楚雄彝族自治州楚雄市G320与大白线交叉口正南方向36米左右",
        "tel": "",
        "category": "基础设施:公共设施:公共厕所",
        "type": 0,
        "location": {
            "lat": 25.052948,
            "lng": 101.505067
        },
        "ad_info": {
            "adcode": 532301,
            "province": "云南省",
            "city": "楚雄彝族自治州",
            "district": "楚雄市"
        }
    },
    {
        "id": "13747807040658344394",
        "title": "公共厕所",
        "address": "云南省楚雄彝族自治州楚雄市栗子园农贸市场门口",
        "tel": "",
        "category": "基础设施:公共设施:公共厕所",
        "type": 0,
        "location": {
            "lat": 25.005576,
            "lng": 101.562062
        },
        "ad_info": {
            "adcode": 532301,
            "province": "云南省",
            "city": "楚雄彝族自治州",
            "district": "楚雄市"
        }
    },
    {
        "id": "7108444596664726901",
        "title": "公共厕所",
        "address": "云南省楚雄彝族自治州大姚县环城东路与环城北路交叉口东北方向45米左右",
        "tel": "",
        "category": "基础设施:公共设施:公共厕所",
        "type": 0,
        "location": {
            "lat": 25.730537,
            "lng": 101.324668
        },
        "ad_info": {
            "adcode": 532326,
            "province": "云南省",
            "city": "楚雄彝族自治州",
            "district": "大姚县"
        }
    },
    {
        "id": "10532999109444274004",
        "title": "公共厕所",
        "address": "云南省楚雄彝族自治州楚雄市彝海北路与青龙河西路交叉口正南方向159米左右",
        "tel": "",
        "category": "基础设施:公共设施:公共厕所",
        "type": 0,
        "location": {
            "lat": 25.014489,
            "lng": 101.568139
        },
        "ad_info": {
            "adcode": 532301,
            "province": "云南省",
            "city": "楚雄彝族自治州",
            "district": "楚雄市"
        }
    },