[
    {
        "id": "15497682592988704273",
        "title": "公共厕所",
        "address": "甘肃省武威市凉州区东岳南路70号",
        "tel": "",
        "category": "基础设施:公共设施:公共厕所",
        "type": 0,
        "location": {
            "lat": 37.940641,
            "lng": 102.648504
        },
        "ad_info": {
            "adcode": 620602,
            "province": "甘肃省",
            "city": "武威市",
            "district": "凉州区"
        }
    },
    {
        "id": "12559853619381565018",
        "title": "公共厕所",
        "address": "甘肃省武威市凉州区东岳南路与雷台东路交叉口正北方向372米左右",
        "tel": "",
        "category": "基础设施:公共设施:公共厕所",
        "type": 0,
        "location": {
            "lat": 37.942698,
            "lng": 102.648448
        },
        "ad_info": {
            "adcode": 620602,
            "province": "甘肃省",
            "city": "武威市",
            "district": "凉州区"
        }
    },
    {
        "id": "915859023129611153",
        "title": "公共厕所(瑞安南路)",
        "address": "甘肃省武威市古浪县双城东路与双城西路交叉口东北方向160米左右",
        "tel": "",
        "category": "基础设施:公共设施:公共厕所",
        "type": 0,
        "location": {
            "lat": 37.480913,
            "lng": 103.418093
        },
        "ad_info": {
            "adcode": 620622,
            "province": "甘肃省",
            "city": "武威市",
            "district": "古浪县"
        }
    },
    {
        "id": "9435020907349877432",
        "title": "公共厕所",
        "address": "甘肃省武威市凉州区东大街与北大街交叉口正西方向184米左右",
        "tel": "",
        "category": "基础设施:公共设施:公共厕所",
        "type": 0,
        "location": {
            "lat": 37.927605,
            "lng": 102.634559
        },
        "ad_info": {
            "adcode": 620602,
            "province": "甘肃省",
            "city": "武威市",
            "district": "凉州区"
        }
    },
    {
        "id": "16017338354414488477",
        "title": "公共厕所(GS-WW-0196)",
        "address": "甘肃省武威市古浪县古丰镇油菜花基地",
        "tel": "",
        "category": "基础设施:公共设施:公共厕所",
        "type": 0,
        "location": {
            "lat": 37.388834,
            "lng": 102.7278
        },
        "ad_info": {
            "adcode": 620622,
            "province": "甘肃省",
            "city": "武威市",
            "district": "古浪县"
        }
    },
    {
        "id": "2797984069322489268",
        "title": "公共厕所",
        "address": "甘肃省武威市古浪县商业步行街与旧大路交叉口东南方向32米左右",
        "tel": "",
        "category": "基础设施:公共设施:公共厕所",
        "type": 0,
        "location": {
            "lat": 37.474326,
            "lng": 102.896863
        },
        "ad_info": {
            "adcode": 620622,
            "province": "甘肃省",
            "city": "武威市",
            "district": "古浪县"
        }
    },
    {
        "id": "862862184224625511",
        "title": "公共厕所",
        "address": "甘肃省武威市凉州区书城路与南二环交叉口正北方向43米左右",
        "tel": "",
        "category": "基础设施:公共设施:公共厕所",
        "type": 0,
        "location": {
            "lat": 37.913304,
            "lng": 102.640547
        },
        "ad_info": {
            "adcode": 620602,
            "province": "甘肃省",
            "city": "武威市",
            "district": "凉州区"
        }
    },
    {
        "id": "9256076343900720719",
        "title": "公共厕所",
        "address": "甘肃省武威市古浪县G30连霍高速出口与G30连霍高速交叉口东440米",
        "tel": "",
        "category": "基础设施:公共设施:公共厕所",
        "type": 0,
        "location": {
            "lat": 37.603549,
            "lng": 102.871279
        },
        "ad_info": {
            "adcode": 620622,
            "province": "甘肃省",
            "city": "武威市",
            "district": "古浪县"
        }
    },
    {
        "id": "6005888541181459962",
        "title": "公共厕所",
        "address": "甘肃省武威市凉州区姑臧路与汉武大道交叉口东南方向58米左右",
        "tel": "",
        "category": "基础设施:公共设施:公共厕所",
        "type": 0,
        "location": {
            "lat": 37.947514,
            "lng": 102.62417
        },
        "ad_info": {
            "adcode": 620602,
            "province": "甘肃省",
            "city": "武威市",
            "district": "凉州区"
        }
    },
    {
        "id": "18263019389107126783",
        "title": "公共厕所",
        "address": "甘肃省武威市凉州区学府路与汉武大道交叉口正东方向176米左右",
        "tel": "",
        "category": "基础设施:公共设施:公共厕所",
        "type": 0,
        "location": {
            "lat": 37.948337,
            "lng": 102.612123
        },
        "ad_info": {
            "adcode": 620602,
            "province": "甘肃省",
            "city": "武威市",
            "district": "凉州区"
        }
    },
    {
        "id": "4796690712478231789",
        "title": "公共厕所",
        "address": "甘肃省武威市凉州区前进巷与庆余巷交叉口正北方向86米左右",
        "tel": "",
        "category": "基础设施:公共设施:公共厕所",
        "type": 0,
        "location": {
            "lat": 37.927516,
            "lng": 102.630554
        },
        "ad_info": {
            "adcode": 620602,
            "province": "甘肃省",
            "city": "武威市",
            "district": "凉州区"
        }
    },
    {
        "id": "14747065079584576827",
        "title": "公共厕所",
        "address": "甘肃省武威市凉州区共和街与沙井巷交叉口西北方向44米左右",
        "tel": "",
        "category": "基础设施:公共设施:公共厕所",
        "type": 0,
        "location": {
            "lat": 37.930769,
            "lng": 102.635103
        },
        "ad_info": {
            "adcode": 620602,
            "province": "甘肃省",
            "city": "武威市",
            "district": "凉州区"
        }
    },
    {
        "id": "6807941797581128694",
        "title": "公共厕所",
        "address": "甘肃省武威市凉州区共和街与大井巷交叉口正东方向89米左右",
        "tel": "",
        "category": "基础设施:公共设施:公共厕所",
        "type": 0,
        "location": {
            "lat": 37.930533,
            "lng": 102.631354
        },
        "ad_info": {
            "adcode": 620602,
            "province": "甘肃省",
            "city": "武威市",
            "district": "凉州区"
        }
    },
    {
        "id": "11196037897591353048",
        "title": "公共厕所",
        "address": "甘肃省武威市凉州区海藏路212子弟小学",
        "tel": "",
        "category": "基础设施:公共设施:公共厕所",
        "type": 0,
        "location": {
            "lat": 37.937336,
            "lng": 102.628998
        },
        "ad_info": {
            "adcode": 620602,
            "province": "甘肃省",
            "city": "武威市",
            "district": "凉州区"
        }
    },
    {
        "id": "7573847370904709362",
        "title": "公共厕所",
        "address": "甘肃省武威市凉州区雷海路新圣园家居广场东侧",
        "tel": "",
        "category": "基础设施:公共设施:公共厕所",
        "type": 0,
        "location": {
            "lat": 37.943547,
            "lng": 102.636142
        },
        "ad_info": {
            "adcode": 620602,
            "province": "甘肃省",
            "city": "武威市",
            "district": "凉州区"
        }
    },
    {
        "id": "4473108716380312627",
        "title": "公共厕所",
        "address": "甘肃省武威市凉州区中心巷与杨府街交叉口西北方向24米左右",
        "tel": "",
        "category": "基础设施:公共设施:公共厕所",
        "type": 0,
        "location": {
            "lat": 37.930772,
            "lng": 102.637911
        },
        "ad_info": {
            "adcode": 620602,
            "province": "甘肃省",
            "city": "武威市",
            "district": "凉州区"
        }
    },
    {
        "id": "17299083561547192238",
        "title": "公共厕所",
        "address": "甘肃省武威市民勤县技校巷与民湖路交叉口正东方向23米左右",
        "tel": "",
        "category": "基础设施:公共设施:公共厕所",
        "type": 0,
        "location": {
            "lat": 38.630795,
            "lng": 103.101567
        },
        "ad_info": {
            "adcode": 620621,
            "province": "甘肃省",
            "city": "武威市",
            "district": "民勤县"
        }
    },
    {
        "id": "2086731145407024606",
        "title": "公共厕所",
        "address": "甘肃省武威市凉州区滨河路与理工街交叉口正东方向195米左右",
        "tel": "",
        "category": "基础设施:公共设施:公共厕所",
        "type": 0,
        "location": {
            "lat": 37.915184,
            "lng": 102.655341
        },
        "ad_info": {
            "adcode": 620602,
            "province": "甘肃省",
            "city": "武威市",
            "district": "凉州区"
        }
    },
    {
        "id": "2370876587610300501",
        "title": "公共厕所",
        "address": "甘肃省武威市凉州区建设路与迎宾路交叉口正南方向150米左右",
        "tel": "",
        "category": "基础设施:公共设施:公共厕所",
        "type": 0,
        "location": {
            "lat": 37.903719,
            "lng": 102.625181
        },
        "ad_info": {
            "adcode": 620602,
            "province": "甘肃省",
            "city": "武威市",
            "district": "凉州区"
        }
    },
    {
        "id": "13483242896469473655",
        "title": "公共厕所",
        "address": "甘肃省武威市古浪县上城路与昌松路交叉口东北方向61米左右",
        "tel": "",
        "category": "基础设施:公共设施:公共厕所",
        "type": 0,
        "location": {
            "lat": 37.455599,
            "lng": 102.888048
        },
        "ad_info": {
            "adcode": 620622,
            "province": "甘肃省",
            "city": "武威市",
            "district": "古浪县"
        }
    },
    {
        "id": "14510017439827704060",
        "title": "公共厕所",
        "address": "甘肃省武威市凉州区公园路与西关北路交叉口正北方向78米左右",
        "tel": "",
        "category": "基础设施:公共设施:公共厕所",
        "type": 0,
        "location": {
            "lat": 37.928762,
            "lng": 102.621135
        },
        "ad_info": {
            "adcode": 620602,
            "province": "甘肃省",
            "city": "武威市",
            "district": "凉州区"
        }
    },
    {
        "id": "7376731097612022972",
        "title": "公共厕所",
        "address": "甘肃省武威市古浪县昌灵路与迎宾路交叉口正北方向260米左右",
        "tel": "",
        "category": "基础设施:公共设施:公共厕所",
        "type": 0,
        "location": {
            "lat": 37.487699,
            "lng": 102.899242
        },
        "ad_info": {
            "adcode": 620622,
            "province": "甘肃省",
            "city": "武威市",
            "district": "古浪县"
        }
    },
    {
        "id": "2836561849057450515",
        "title": "公共厕所",
        "address": "甘肃省武威市凉州区悦蔬巷与祁连大道交叉口东北方向83米左右",
        "tel": "",
        "category": "基础设施:公共设施:公共厕所",
        "type": 0,
        "location": {
            "lat": 37.935081,
            "lng": 102.634828
        },
        "ad_info": {
            "adcode": 620602,
            "province": "甘肃省",
            "city": "武威市",
            "district": "凉州区"
        }
    },
    {
        "id": "9640720610051513124",
        "title": "公共厕所",
        "address": "甘肃省武威市凉州区公园路与民勤路交叉口东北方向134米左右",
        "tel": "",
        "category": "基础设施:公共设施:公共厕所",
        "type": 0,
        "location": {
            "lat": 37.928678,
            "lng": 102.61885
        },
        "ad_info": {
            "adcode": 620602,
            "province": "甘肃省",
            "city": "武威市",
            "district": "凉州区"
        }
    },
    {
        "id": "16054572661765584112",
        "title": "公共厕所",
        "address": "甘肃省武威市凉州区学府路与宣武街交叉口西南方向105米左右",
        "tel": "",
        "category": "基础设施:公共设施:公共厕所",
        "type": 0,
        "location": {
            "lat": 37.938794,
            "lng": 102.609126
        },
        "ad_info": {
            "adcode": 620602,
            "province": "甘肃省",
            "city": "武威市",
            "district": "凉州区"
        }
    },
    {
        "id": "11159087081001296121",
        "title": "公共厕所",
        "address": "甘肃省武威市古浪县S316与金色大道辅路交叉口正北方向273米",
        "tel": "",
        "category": "基础设施:公共设施:公共厕所",
        "type": 0,
        "location": {
            "lat": 37.63947,
            "lng": 103.26838
        },
        "ad_info": {
            "adcode": 620622,
            "province": "甘肃省",
            "city": "武威市",
            "district": "古浪县"
        }
    },
    {
        "id": "10201345477780518808",
        "title": "公共厕所",
        "address": "甘肃省武威市凉州区南关西路与西关南路交叉口正南方向295米左右",
        "tel": "",
        "category": "基础设施:公共设施:公共厕所",
        "type": 0,
        "location": {
            "lat": 37.918701,
            "lng": 102.622544
        },
        "ad_info": {
            "adcode": 620602,
            "province": "甘肃省",
            "city": "武威市",
            "district": "凉州区"
        }
    },
    {
        "id": "6148690648980878138",
        "title": "公共厕所",
        "address": "甘肃省武威市凉州区凤凰路与达府街交叉口西南方向31米左右",
        "tel": "",
        "category": "基础设施:公共设施:公共厕所",
        "type": 0,
        "location": {
            "lat": 37.923116,
            "lng": 102.628651
        },
        "ad_info": {
            "adcode": 620602,
            "province": "甘肃省",
            "city": "武威市",
            "district": "凉州区"
        }
    },
    {
        "id": "11786581664827587424",
        "title": "公共厕所",
        "address": "甘肃省武威市凉州区云晓东巷与祁连大道交叉口东北方向60米左右",
        "tel": "",
        "category": "基础设施:公共设施:公共厕所",
        "type": 0,
        "location": {
            "lat": 37.934734,
            "lng": 102.613583
        },
        "ad_info": {
            "adcode": 620602,
            "province": "甘肃省",
            "city": "武威市",
            "district": "凉州区"
        }
    },
    {
        "id": "1356267551247921699",
        "title": "公共厕所",
        "address": "甘肃省武威市凉州区古浪街与丹凤路交叉口东100米",
        "tel": "",
        "category": "基础设施:公共设施:公共厕所",
        "type": 0,
        "location": {
            "lat": 37.913302,
            "lng": 102.635056
        },
        "ad_info": {
            "adcode": 620602,
            "province": "甘肃省",
            "city": "武威市",
            "district": "凉州区"
        }
    },
    {
        "id": "16881369585158932544",
        "title": "公共厕所",
        "address": "甘肃省武威市凉州区凉都大道与窑沟街交叉口西南方向280米左右",
        "tel": "",
        "category": "基础设施:公共设施:公共厕所",
        "type": 0,
        "location": {
            "lat": 37.931037,
            "lng": 102.657999
        },
        "ad_info": {
            "adcode": 620602,
            "province": "甘肃省",
            "city": "武威市",
            "district": "凉州区"
        }
    },
    {
        "id": "11645962695429655106",
        "title": "公共厕所",
        "address": "甘肃省武威市凉州区古浪街与惠民路交叉口西南方向106米左右",
        "tel": "",
        "category": "基础设施:公共设施:公共厕所",
        "type": 0,
        "location": {
            "lat": 37.913542,
            "lng": 102.618341
        },
        "ad_info": {
            "adcode": 620602,
            "province": "甘肃省",
            "city": "武威市",
            "district": "凉州区"
        }
    },
    {
        "id": "13250684286034388760",
        "title": "公共厕所",
        "address": "甘肃省武威市凉州区玉泉巷与祁连大道交叉口正西方向36米左右",
        "tel": "",
        "category": "基础设施:公共设施:公共厕所",
        "type": 0,
        "location": {
            "lat": 37.934183,
            "lng": 102.632527
        },
        "ad_info": {
            "adcode": 620602,
            "province": "甘肃省",
            "city": "武威市",
            "district": "凉州区"
        }
    },
    {
        "id": "15399403361044649812",
        "title": "公共厕所(GS-WW-0296)",
        "address": "甘肃省武威市古浪县古柳段古丰镇油菜花基地",
        "tel": "",
        "category": "基础设施:公共设施:公共厕所",
        "type": 0,
        "location": {
            "lat": 37.388836,
            "lng": 102.72782
        },
        "ad_info": {
            "adcode": 620622,
            "province": "甘肃省",
            "city": "武威市",
            "district": "古浪县"
        }
    },
    {
        "id": "7945383577247753560",
        "title": "公共厕所",
        "address": "甘肃省武威市凉州区五凉路与天丰街交叉口正北方向114米左右",
        "tel": "",
        "category": "基础设施:公共设施:公共厕所",
        "type": 0,
        "location": {
            "lat": 37.94424,
            "lng": 102.59827
        },
        "ad_info": {
            "adcode": 620602,
            "province": "甘肃省",
            "city": "武威市",
            "district": "凉州区"
        }
    },
    {
        "id": "13168987972464713717",
        "title": "公共厕所",
        "address": "甘肃省武威市古浪县和平街与昌灵路交叉口西南方向25米左右",
        "tel": "",
        "category": "基础设施:公共设施:公共厕所",
        "type": 0,
        "location": {
            "lat": 37.468127,
            "lng": 102.898263
        },
        "ad_info": {
            "adcode": 620622,
            "province": "甘肃省",
            "city": "武威市",
            "district": "古浪县"
        }
    },
    {
        "id": "8170938059654488967",
        "title": "公共厕所",
        "address": "甘肃省武威市凉州区杏林路与银武街交叉口东北方向133米左右",
        "tel": "",
        "category": "基础设施:公共设施:公共厕所",
        "type": 0,
        "location": {
            "lat": 37.938478,
            "lng": 102.605649
        },
        "ad_info": {
            "adcode": 620602,
            "province": "甘肃省",
            "city": "武威市",
            "district": "凉州区"
        }
    },
    {
        "id": "5646226395547399569",
        "title": "公共厕所",
        "address": "甘肃省武威市凉州区和平大道与祁连大道交叉口正西方向52米左右",
        "tel": "",
        "category": "基础设施:公共设施:公共厕所",
        "type": 0,
        "location": {
            "lat": 37.934715,
            "lng": 102.593884
        },
        "ad_info": {
            "adcode": 620602,
            "province": "甘肃省",
            "city": "武威市",
            "district": "凉州区"
        }
    },
    {
        "id": "2524274578200892454",
        "title": "公共厕所",
        "address": "甘肃省武威市凉州区启源东路与启源路交叉口西北方向47米左右",
        "tel": "",
        "category": "基础设施:公共设施:公共厕所",
        "type": 0,
        "location": {
            "lat": 37.925507,
            "lng": 102.614844
        },
        "ad_info": {
            "adcode": 620602,
            "province": "甘肃省",
            "city": "武威市",
            "district": "凉州区"
        }
    },
    {
        "id": "15153933523731493271",
        "title": "公共厕所",
        "address": "甘肃省武威市凉州区文海路与汉武大道交叉口正东方向76米左右",
        "tel": "",
        "category": "基础设施:公共设施:公共厕所",
        "type": 0,
        "location": {
            "lat": 37.948153,
            "lng": 102.619908
        },
        "ad_info": {
            "adcode": 620602,
            "province": "甘肃省",
            "city": "武威市",
            "district": "凉州区"
        }
    },
    {
        "id": "6024818264828359559",
        "title": "公共厕所",
        "address": "甘肃省武威市民勤县清华路与苏武路交叉口正北方向108米左右",
        "tel": "",
        "category": "基础设施:公共设施:公共厕所",
        "type": 0,
        "location": {
            "lat": 38.624944,
            "lng": 103.10109
        },
        "ad_info": {
            "adcode": 620621,
            "province": "甘肃省",
            "city": "武威市",
            "district": "民勤县"
        }
    },
    {
        "id": "8275114642250107008",
        "title": "公共厕所",
        "address": "甘肃省武威市凉州区Y295与金武公路交叉口东南方向280米左右",
        "tel": "",
        "category": "基础设施:公共设施:公共厕所",
        "type": 0,
        "location": {
            "lat": 38.059762,
            "lng": 102.594363
        },
        "ad_info": {
            "adcode": 620602,
            "province": "甘肃省",
            "city": "武威市",
            "district": "凉州区"
        }
    },
    {
        "id": "11578282546115057096",
        "title": "公共厕所",
        "address": "甘肃省武威市凉州区周义农家乐东侧",
        "tel": "",
        "category": "基础设施:公共设施:公共厕所",
        "type": 0,
        "location": {
            "lat": 38.138463,
            "lng": 102.592572
        },
        "ad_info": {
            "adcode": 620602,
            "province": "甘肃省",
            "city": "武威市",
            "district": "凉州区"
        }
    },
    {
        "id": "10677461643160534301",
        "title": "公共厕所",
        "address": "甘肃省武威市凉州区学府路与宣武街交叉口正西方向223米左右",
        "tel": "",
        "category": "基础设施:公共设施:公共厕所",
        "type": 0,
        "location": {
            "lat": 37.938777,
            "lng": 102.607597
        },
        "ad_info": {
            "adcode": 620602,
            "province": "甘肃省",
            "city": "武威市",
            "district": "凉州区"
        }
    },
    {
        "id": "2635281810942086128",
        "title": "公共厕所",
        "address": "甘肃省武威市民勤县Y306与东大街交叉口正西方向113米左右",
        "tel": "",
        "category": "基础设施:公共设施:公共厕所",
        "type": 0,
        "location": {
            "lat": 38.949637,
            "lng": 103.676477
        },
        "ad_info": {
            "adcode": 620621,
            "province": "甘肃省",
            "city": "武威市",
            "district": "民勤县"
        }
    },
    {
        "id": "10884851099163245603",
        "title": "公共厕所",
        "address": "甘肃省武威市凉州区南关西路与靶场南路交叉口西北方向44米左右",
        "tel": "",
        "category": "基础设施:公共设施:公共厕所",
        "type": 0,
        "location": {
            "lat": 37.921587,
            "lng": 102.624368
        },
        "ad_info": {
            "adcode": 620602,
            "province": "甘肃省",
            "city": "武威市",
            "district": "凉州区"
        }
    },
    {
        "id": "1495926241304768142",
        "title": "公共厕所",
        "address": "甘肃省武威市古浪县",
        "tel": "",
        "category": "基础设施:公共设施:公共厕所",
        "type": 0,
        "location": {
            "lat": 37.643736,
            "lng": 103.244074
        },
        "ad_info": {
            "adcode": 620622,
            "province": "甘肃省",
            "city": "武威市",
            "district": "古浪县"
        }
    },
    {
        "id": "10440242986309658035",
        "title": "公共厕所",
        "address": "甘肃省武威市凉州区G312与发展路交叉口东南方向191米左右",
        "tel": "",
        "category": "基础设施:公共设施:公共厕所",
        "type": 0,
        "location": {
            "lat": 37.648396,
            "lng": 102.836569
        },
        "ad_info": {
            "adcode": 620602,
            "province": "甘肃省",
            "city": "武威市",
            "district": "凉州区"
        }
    },
    {
        "id": "8174453917463337986",
        "title": "公共厕所",
        "address": "甘肃省武威市凉州区姑臧路与祁连大道交叉口正东方向189米左右",
        "tel": "",
        "category": "基础设施:公共设施:公共厕所",
        "type": 0,
        "location": {
            "lat": 37.93469,
            "lng": 102.626121
        },
        "ad_info": {
            "adcode": 620602,
            "province": "甘肃省",
            "city": "武威市",
            "district": "凉州区"
        }
    },
    {
        "id": "17804744334016235632",
        "title": "公共卫生间",
        "address": "甘肃省武威市古浪县古浪县汽配汽修东北侧",
        "tel": "",
        "category": "基础设施:公共设施:公共厕所",
        "type": 0,
        "location": {
            "lat": 37.474732,
            "lng": 103.74115
        },
        "ad_info": {
            "adcode": 620622,
            "province": "甘肃省",
            "city": "武威市",
            "district": "古浪县"
        }
    },
    {
        "id": "10248568165935565339",
        "title": "公共厕所",
        "address": "甘肃省武威市凉州区凤凰路与南关西路交叉口正西方向171米左右",
        "tel": "",
        "category": "基础设施:公共设施:公共厕所",
        "type": 0,
        "location": {
            "lat": 37.921363,
            "lng": 102.627091
        },
        "ad_info": {
            "adcode": 620602,
            "province": "甘肃省",
            "city": "武威市",
            "district": "凉州区"
        }
    },
    {
        "id": "13385739501993052098",
        "title": "公共厕所",
        "address": "甘肃省武威市民勤县东内环路与苏武路交叉口正北方向52米左右",
        "tel": "",
        "category": "基础设施:公共设施:公共厕所",
        "type": 0,
        "location": {
            "lat": 38.624504,
            "lng": 103.096207
        },
        "ad_info": {
            "adcode": 620621,
            "province": "甘肃省",
            "city": "武威市",
            "district": "民勤县"
        }
    },
    {
        "id": "13530082827034029025",
        "title": "公共厕所",
        "address": "甘肃省武威市民勤县北内环路6号",
        "tel": "",
        "category": "基础设施:公共设施:公共厕所",
        "type": 0,
        "location": {
            "lat": 38.628545,
            "lng": 103.093155
        },
        "ad_info": {
            "adcode": 620621,
            "province": "甘肃省",
            "city": "武威市",
            "district": "民勤县"
        }
    },
    {
        "id": "1714866509766243766",
        "title": "公共厕所",
        "address": "甘肃省武威市凉州区南关西路与民勤路交叉口正南方向154米左右",
        "tel": "",
        "category": "基础设施:公共设施:公共厕所",
        "type": 0,
        "location": {
            "lat": 37.919918,
            "lng": 102.615465
        },
        "ad_info": {
            "adcode": 620602,
            "province": "甘肃省",
            "city": "武威市",
            "district": "凉州区"
        }
    },
    {
        "id": "16797974145797245521",
        "title": "公共厕所",
        "address": "甘肃省武威市民勤县西大街26号",
        "tel": "",
        "category": "基础设施:公共设施:公共厕所",
        "type": 0,
        "location": {
            "lat": 38.624145,
            "lng": 103.085447
        },
        "ad_info": {
            "adcode": 620621,
            "province": "甘肃省",
            "city": "武威市",
            "district": "民勤县"
        }
    },
    {
        "id": "11590830916028855372",
        "title": "公共厕所",
        "address": "甘肃省武威市民勤县中国石油加油站西侧240米",
        "tel": "",
        "category": "基础设施:公共设施:公共厕所",
        "type": 0,
        "location": {
            "lat": 38.345335,
            "lng": 102.858561
        },
        "ad_info": {
            "adcode": 620621,
            "province": "甘肃省",
            "city": "武威市",
            "district": "民勤县"
        }
    },
    {
        "id": "1781895773818185938",
        "title": "公共厕所",
        "address": "甘肃省武威市凉州区和平大道与天丰街交叉口正北方向104米左右",
        "tel": "",
        "category": "基础设施:公共设施:公共厕所",
        "type": 0,
        "location": {
            "lat": 37.944292,
            "lng": 102.594408
        },
        "ad_info": {
            "adcode": 620602,
            "province": "甘肃省",
            "city": "武威市",
            "district": "凉州区"
        }
    },
    {
        "id": "4473912754381409075",
        "title": "公共厕所",
        "address": "甘肃省武威市天祝藏族自治县团结路与新华巷交叉口正南方向164米左右",
        "tel": "",
        "category": "基础设施:公共设施:公共厕所",
        "type": 0,
        "location": {
            "lat": 36.976746,
            "lng": 103.138574
        },
        "ad_info": {
            "adcode": 620623,
            "province": "甘肃省",
            "city": "武威市",
            "district": "天祝藏族自治县"
        }
    },
    {
        "id": "161132942660892465",
        "title": "公共厕所",
        "address": "甘肃省武威市古浪县公园路与昌松路交叉口东北方向44米左右",
        "tel": "",
        "category": "基础设施:公共设施:公共厕所",
        "type": 0,
        "location": {
            "lat": 37.459943,
            "lng": 102.89517
        },
        "ad_info": {
            "adcode": 620622,
            "province": "甘肃省",
            "city": "武威市",
            "district": "古浪县"
        }
    },
    {
        "id": "8076060173961732332",
        "title": "公共厕所",
        "address": "甘肃省武威市古浪县迎宾路与昌灵路南交叉口西140米",
        "tel": "",
        "category": "基础设施:公共设施:公共厕所",
        "type": 0,
        "location": {
            "lat": 37.485193,
            "lng": 102.896853
        },
        "ad_info": {
            "adcode": 620622,
            "province": "甘肃省",
            "city": "武威市",
            "district": "古浪县"
        }
    },
    {
        "id": "17911383203943462270",
        "title": "公共厕所",
        "address": "甘肃省武威市凉州区悦蔬巷与祁连大道交叉口东北方向115米左右",
        "tel": "",
        "category": "基础设施:公共设施:公共厕所",
        "type": 0,
        "location": {
            "lat": 37.935275,
            "lng": 102.63514
        },
        "ad_info": {
            "adcode": 620602,
            "province": "甘肃省",
            "city": "武威市",
            "district": "凉州区"
        }
    },
    {
        "id": "4655436716743631106",
        "title": "公共厕所",
        "address": "甘肃省武威市凉州区杏林路与祁连大道交叉口正东方向111米左右",
        "tel": "",
        "category": "基础设施:公共设施:公共厕所",
        "type": 0,
        "location": {
            "lat": 37.934794,
            "lng": 102.605491
        },
        "ad_info": {
            "adcode": 620602,
            "province": "甘肃省",
            "city": "武威市",
            "district": "凉州区"
        }
    },
    {
        "id": "12506719513514472541",
        "title": "公共厕所",
        "address": "甘肃省武威市古浪县文华路与昌松路交叉口正北方向257米左右",
        "tel": "",
        "category": "基础设施:公共设施:公共厕所",
        "type": 0,
        "location": {
            "lat": 37.478311,
            "lng": 102.894776
        },
        "ad_info": {
            "adcode": 620622,
            "province": "甘肃省",
            "city": "武威市",
            "district": "古浪县"
        }
    },
    {
        "id": "5273611530129578946",
        "title": "公共厕所",
        "address": "甘肃省武威市民勤县东内环路与南环东路交叉口正东方向51米左右",
        "tel": "",
        "category": "基础设施:公共设施:公共厕所",
        "type": 0,
        "location": {
            "lat": 38.619857,
            "lng": 103.097035
        },
        "ad_info": {
            "adcode": 620621,
            "province": "甘肃省",
            "city": "武威市",
            "district": "民勤县"
        }
    },
    {
        "id": "2442718058466397468",
        "title": "公共厕所",
        "address": "甘肃省武威市凉州区崇文街与闻喜巷交叉口东南方向41米左右",
        "tel": "",
        "category": "基础设施:公共设施:公共厕所",
        "type": 0,
        "location": {
            "lat": 37.923608,
            "lng": 102.642914
        },
        "ad_info": {
            "adcode": 620602,
            "province": "甘肃省",
            "city": "武威市",
            "district": "凉州区"
        }
    },
    {
        "id": "14025055077461481038",
        "title": "公共厕所",
        "address": "甘肃省武威市凉州区武东互通立交中桥与连霍高速交叉口正东方向1221米左右",
        "tel": "",
        "category": "基础设施:公共设施:公共厕所",
        "type": 0,
        "location": {
            "lat": 37.8797,
            "lng": 102.650272
        },
        "ad_info": {
            "adcode": 620602,
            "province": "甘肃省",
            "city": "武威市",
            "district": "凉州区"
        }
    },
    {
        "id": "5234471547860397014",
        "title": "公共厕所",
        "address": "甘肃省武威市古浪县建设路与昌松路交叉口东南方向115米左右",
        "tel": "",
        "category": "基础设施:公共设施:公共厕所",
        "type": 0,
        "location": {
            "lat": 37.46536,
            "lng": 102.895326
        },
        "ad_info": {
            "adcode": 620622,
            "province": "甘肃省",
            "city": "武威市",
            "district": "古浪县"
        }
    },
    {
        "id": "15887793405691219426",
        "title": "公共厕所",
        "address": "甘肃省武威市民勤县S307与民左路交叉口东北方向403米左右",
        "tel": "",
        "category": "基础设施:公共设施:公共厕所",
        "type": 0,
        "location": {
            "lat": 38.632867,
            "lng": 103.119722
        },
        "ad_info": {
            "adcode": 620621,
            "province": "甘肃省",
            "city": "武威市",
            "district": "民勤县"
        }
    },
    {
        "id": "8931588222794614612",
        "title": "公共厕所",
        "address": "甘肃省武威市古浪县S308与Y287交叉口正西方向41米左右",
        "tel": "",
        "category": "基础设施:公共设施:公共厕所",
        "type": 0,
        "location": {
            "lat": 37.621049,
            "lng": 103.065183
        },
        "ad_info": {
            "adcode": 620622,
            "province": "甘肃省",
            "city": "武威市",
            "district": "古浪县"
        }
    },
    {
        "id": "16638246338141863528",
        "title": "公共厕所",
        "address": "甘肃省武威市民勤县黑山头附近",
        "tel": "",
        "category": "基础设施:公共设施:公共厕所",
        "type": 0,
        "location": {
            "lat": 38.415044,
            "lng": 102.89587
        },
        "ad_info": {
            "adcode": 620621,
            "province": "甘肃省",
            "city": "武威市",
            "district": "民勤县"
        }
    },
    {
        "id": "3943605348809073566",
        "title": "公共厕所",
        "address": "甘肃省武威市古浪县和平街与昌灵路交叉口东北方向128米左右",
        "tel": "",
        "category": "基础设施:公共设施:公共厕所",
        "type": 0,
        "location": {
            "lat": 37.469089,
            "lng": 102.899514
        },
        "ad_info": {
            "adcode": 620622,
            "province": "甘肃省",
            "city": "武威市",
            "district": "古浪县"
        }
    },
    {
        "id": "921113882505660068",
        "title": "公共厕所",
        "address": "甘肃省武威市民勤县八一南路与北大街交叉口正北方向346米左右",
        "tel": "",
        "category": "基础设施:公共设施:公共厕所",
        "type": 0,
        "location": {
            "lat": 38.637127,
            "lng": 103.09275
        },
        "ad_info": {
            "adcode": 620621,
            "province": "甘肃省",
            "city": "武威市",
            "district": "民勤县"
        }
    },
    {
        "id": "10410466135969675582",
        "title": "公共厕所",
        "address": "甘肃省武威市古浪县S316与金色大道辅路交叉口正西方向648米",
        "tel": "",
        "category": "基础设施:公共设施:公共厕所",
        "type": 0,
        "location": {
            "lat": 37.62404,
            "lng": 103.30739
        },
        "ad_info": {
            "adcode": 620622,
            "province": "甘肃省",
            "city": "武威市",
            "district": "古浪县"
        }
    },
    {
        "id": "8336333246362775455",
        "title": "公共厕所",
        "address": "甘肃省武威市民勤县S211(民武路)",
        "tel": "",
        "category": "基础设施:公共设施:公共厕所",
        "type": 0,
        "location": {
            "lat": 38.256815,
            "lng": 102.822229
        },
        "ad_info": {
            "adcode": 620621,
            "province": "甘肃省",
            "city": "武威市",
            "district": "民勤县"
        }
    },
    {
        "id": "13771903824249310403",
        "title": "公共厕所",
        "address": "甘肃省武威市古浪县G312与S235交叉口正北方向270米左右",
        "tel": "",
        "category": "基础设施:公共设施:公共厕所",
        "type": 0,
        "location": {
            "lat": 37.583314,
            "lng": 102.873199
        },
        "ad_info": {
            "adcode": 620622,
            "province": "甘肃省",
            "city": "武威市",
            "district": "古浪县"
        }
    },
    {
        "id": "4035598775902694101",
        "title": "公共厕所",
        "address": "甘肃省武威市民勤县东内环路与清华路交叉口正东方向167米左右",
        "tel": "",
        "category": "基础设施:公共设施:公共厕所",
        "type": 0,
        "location": {
            "lat": 38.626563,
            "lng": 103.098411
        },
        "ad_info": {
            "adcode": 620621,
            "province": "甘肃省",
            "city": "武威市",
            "district": "民勤县"
        }
    },
    {
        "id": "7866215557004530800",
        "title": "公共厕所",
        "address": "甘肃省武威市民勤县北大街与崇文路交叉口正西方向49米左右",
        "tel": "",
        "category": "基础设施:公共设施:公共厕所",
        "type": 0,
        "location": {
            "lat": 38.631833,
            "lng": 103.091406
        },
        "ad_info": {
            "adcode": 620621,
            "province": "甘肃省",
            "city": "武威市",
            "district": "民勤县"
        }
    },
    {
        "id": "12895610356059404747",
        "title": "公共厕所",
        "address": "甘肃省武威市民勤县东大街21号",
        "tel": "",
        "category": "基础设施:公共设施:公共厕所",
        "type": 0,
        "location": {
            "lat": 38.62385,
            "lng": 103.098633
        },
        "ad_info": {
            "adcode": 620621,
            "province": "甘肃省",
            "city": "武威市",
            "district": "民勤县"
        }
    },
    {
        "id": "6718617711872445860",
        "title": "公共厕所",
        "address": "甘肃省武威市古浪县黑松驿初级中学西侧200米",
        "tel": "",
        "category": "基础设施:公共设施:公共厕所",
        "type": 0,
        "location": {
            "lat": 37.351397,
            "lng": 102.909242
        },
        "ad_info": {
            "adcode": 620622,
            "province": "甘肃省",
            "city": "武威市",
            "district": "古浪县"
        }
    },
    {
        "id": "17238499772712354951",
        "title": "公共厕所",
        "address": "甘肃省武威市民勤县重兴邮政所北侧70米",
        "tel": "",
        "category": "基础设施:公共设施:公共厕所",
        "type": 0,
        "location": {
            "lat": 38.345718,
            "lng": 102.861515
        },
        "ad_info": {
            "adcode": 620621,
            "province": "甘肃省",
            "city": "武威市",
            "district": "民勤县"
        }
    },
    {
        "id": "11187199371823771888",
        "title": "公共厕所",
        "address": "甘肃省武威市古浪县308省道东50米",
        "tel": "",
        "category": "基础设施:公共设施:公共厕所",
        "type": 0,
        "location": {
            "lat": 37.588991,
            "lng": 102.947381
        },
        "ad_info": {
            "adcode": 620622,
            "province": "甘肃省",
            "city": "武威市",
            "district": "古浪县"
        }
    },
    {
        "id": "18428679892426537045",
        "title": "公共厕所",
        "address": "甘肃省武威市民勤县东大街与东湖路交叉口西南方向163米左右",
        "tel": "",
        "category": "基础设施:公共设施:公共厕所",
        "type": 0,
        "location": {
            "lat": 38.620287,
            "lng": 103.110641
        },
        "ad_info": {
            "adcode": 620621,
            "province": "甘肃省",
            "city": "武威市",
            "district": "民勤县"
        }
    },
    {
        "id": "14626375039558272572",
        "title": "公共厕所",
        "address": "甘肃省武威市凉州区X155与金色大道交叉口东北方向137米左右",
        "tel": "",
        "category": "基础设施:公共设施:公共厕所",
        "type": 0,
        "location": {
            "lat": 37.683759,
            "lng": 102.945352
        },
        "ad_info": {
            "adcode": 620602,
            "province": "甘肃省",
            "city": "武威市",
            "district": "凉州区"
        }
    },
    {
        "id": "6970494100056462869",
        "title": "公共厕所",
        "address": "甘肃省武威市凉州区X155附近",
        "tel": "",
        "category": "基础设施:公共设施:公共厕所",
        "type": 0,
        "location": {
            "lat": 37.705841,
            "lng": 102.948202
        },
        "ad_info": {
            "adcode": 620602,
            "province": "甘肃省",
            "city": "武威市",
            "district": "凉州区"
        }
    },
    {
        "id": "3859914844780985363",
        "title": "公共厕所",
        "address": "甘肃省武威市古浪县爱民新村卫生所西侧120米",
        "tel": "",
        "category": "基础设施:公共设施:公共厕所",
        "type": 0,
        "location": {
            "lat": 37.611487,
            "lng": 103.337935
        },
        "ad_info": {
            "adcode": 620622,
            "province": "甘肃省",
            "city": "武威市",
            "district": "古浪县"
        }
    },
    {
        "id": "14838181660561579360",
        "title": "公共厕所",
        "address": "甘肃省武威市古浪县蔚来目充站古浪中石化宁福加油站南侧",
        "tel": "",
        "category": "基础设施:公共设施:公共厕所",
        "type": 0,
        "location": {
            "lat": 37.465205,
            "lng": 102.905935
        },
        "ad_info": {
            "adcode": 620622,
            "province": "甘肃省",
            "city": "武威市",
            "district": "古浪县"
        }
    },
    {
        "id": "8481361826896088461",
        "title": "公共厕所",
        "address": "甘肃省武威市古浪县S308中国石油加油站",
        "tel": "",
        "category": "基础设施:公共设施:公共厕所",
        "type": 0,
        "location": {
            "lat": 37.614443,
            "lng": 103.056006
        },
        "ad_info": {
            "adcode": 620622,
            "province": "甘肃省",
            "city": "武威市",
            "district": "古浪县"
        }
    },
    {
        "id": "11388111738003092848",
        "title": "公共厕所",
        "address": "甘肃省武威市古浪县东环路16号",
        "tel": "",
        "category": "基础设施:公共设施:公共厕所",
        "type": 0,
        "location": {
            "lat": 37.477901,
            "lng": 102.901561
        },
        "ad_info": {
            "adcode": 620622,
            "province": "甘肃省",
            "city": "武威市",
            "district": "古浪县"
        }
    },
    {
        "id": "6586775848478390227",
        "title": "公共厕所",
        "address": "甘肃省武威市古浪县民生路79正南方向20米",
        "tel": "",
        "category": "基础设施:公共设施:公共厕所",
        "type": 0,
        "location": {
            "lat": 37.481058,
            "lng": 102.901951
        },
        "ad_info": {
            "adcode": 620622,
            "province": "甘肃省",
            "city": "武威市",
            "district": "古浪县"
        }
    },
    {
        "id": "11864482545485543203",
        "title": "公共厕所",
        "address": "甘肃省武威市天祝藏族自治县代乾巷与团结路交叉口东北方向85米左右",
        "tel": "",
        "category": "基础设施:公共设施:公共厕所",
        "type": 0,
        "location": {
            "lat": 36.969215,
            "lng": 103.143136
        },
        "ad_info": {
            "adcode": 620623,
            "province": "甘肃省",
            "city": "武威市",
            "district": "天祝藏族自治县"
        }
    },
    {
        "id": "7513188064843602282",
        "title": "公共厕所",
        "address": "甘肃省武威市天祝藏族自治县华秀路与滨河东路交叉口正东方向107米左右",
        "tel": "",
        "category": "基础设施:公共设施:公共厕所",
        "type": 0,
        "location": {
            "lat": 36.978299,
            "lng": 103.144793
        },
        "ad_info": {
            "adcode": 620623,
            "province": "甘肃省",
            "city": "武威市",
            "district": "天祝藏族自治县"
        }
    },
    {
        "id": "15328961139435960955",
        "title": "公共厕所",
        "address": "甘肃省武威市天祝藏族自治县新华中学东南侧220米",
        "tel": "",
        "category": "基础设施:公共设施:公共厕所",
        "type": 0,
        "location": {
            "lat": 36.9922,
            "lng": 103.137071
        },
        "ad_info": {
            "adcode": 620623,
            "province": "甘肃省",
            "city": "武威市",
            "district": "天祝藏族自治县"
        }
    },
    {
        "id": "6233434091440195102",
        "title": "公共厕所",
        "address": "甘肃省武威市天祝藏族自治县G312与G338交叉口正南方向32米左右",
        "tel": "",
        "category": "基础设施:公共设施:公共厕所",
        "type": 0,
        "location": {
            "lat": 37.016038,
            "lng": 103.096568
        },
        "ad_info": {
            "adcode": 620623,
            "province": "甘肃省",
            "city": "武威市",
            "district": "天祝藏族自治县"
        }
    },
    {
        "id": "16611973492663815624",
        "title": "武威丹阳广场-公共厕所",
        "address": "甘肃省武威市凉州区丹阳路与滨河路交叉口东北方向113米左右",
        "tel": "",
        "category": "基础设施:公共设施:公共厕所",
        "type": 0,
        "location": {
            "lat": 37.903514,
            "lng": 102.638232
        },
        "ad_info": {
            "adcode": 620602,
            "province": "甘肃省",
            "city": "武威市",
            "district": "凉州区"
        }
    },
    {
        "id": "2132986233605832417",
        "title": "公共厕所",
        "address": "甘肃省武威市天祝藏族自治县延禧路与滨河东路交叉口正北方向181米左右",
        "tel": "",
        "category": "基础设施:公共设施:公共厕所",
        "type": 0,
        "location": {
            "lat": 36.969487,
            "lng": 103.148949
        },
        "ad_info": {
            "adcode": 620623,
            "province": "甘肃省",
            "city": "武威市",
            "district": "天祝藏族自治县"
        }
    },
    {
        "id": "15546100871424107465",
        "title": "公共卫生间",
        "address": "甘肃省武威市天祝藏族自治县团结路与达隆路交叉口正南方向20米左右",
        "tel": "",
        "category": "基础设施:公共设施:公共厕所",
        "type": 0,
        "location": {
            "lat": 36.970688,
            "lng": 103.141694
        },
        "ad_info": {
            "adcode": 620623,
            "province": "甘肃省",
            "city": "武威市",
            "district": "天祝藏族自治县"
        }
    },
    {
        "id": "17101043642155966803",
        "title": "黑山村公共卫生间",
        "address": "甘肃省武威市民勤县",
        "tel": "",
        "category": "基础设施:公共设施:公共厕所",
        "type": 0,
        "location": {
            "lat": 38.365829,
            "lng": 102.916962
        },
        "ad_info": {
            "adcode": 620621,
            "province": "甘肃省",
            "city": "武威市",
            "district": "民勤县"
        }
    },
    {
        "id": "15468708301929479736",
        "title": "公共厕所",
        "address": "甘肃省武威市天祝藏族自治县滨河东路与达隆路交叉口正东方向54米左右",
        "tel": "",
        "category": "基础设施:公共设施:公共厕所",
        "type": 0,
        "location": {
            "lat": 36.971962,
            "lng": 103.147683
        },
        "ad_info": {
            "adcode": 620623,
            "province": "甘肃省",
            "city": "武威市",
            "district": "天祝藏族自治县"
        }
    },
    {
        "id": "16091574652394734970",
        "title": "公共厕所",
        "address": "甘肃省武威市古浪县昌灵路",
        "tel": "",
        "category": "基础设施:公共设施:公共厕所",
        "type": 0,
        "location": {
            "lat": 37.475601,
            "lng": 102.898173
        },
        "ad_info": {
            "adcode": 620622,
            "province": "甘肃省",
            "city": "武威市",
            "district": "古浪县"
        }
    },
    {
        "id": "6412710367975648508",
        "title": "公共厕所",
        "address": "甘肃省武威市天祝藏族自治县滨河西路与达隆路交叉口正北方向56米左右",
        "tel": "",
        "category": "基础设施:公共设施:公共厕所",
        "type": 0,
        "location": {
            "lat": 36.971868,
            "lng": 103.144018
        },
        "ad_info": {
            "adcode": 620623,
            "province": "甘肃省",
            "city": "武威市",
            "district": "天祝藏族自治县"
        }
    },
    {
        "id": "2720852659370944403",
        "title": "公共厕所",
        "address": "甘肃省武威市天祝藏族自治县X202与安柳段交叉口正南方向1782米左右",
        "tel": "",
        "category": "基础设施:公共设施:公共厕所",
        "type": 0,
        "location": {
            "lat": 37.251851,
            "lng": 102.855336
        },
        "ad_info": {
            "adcode": 620623,
            "province": "甘肃省",
            "city": "武威市",
            "district": "天祝藏族自治县"
        }
    },
    {
        "id": "8136232042328302056",
        "title": "永靖小区公共厕所",
        "address": "甘肃省武威市古浪县",
        "tel": "",
        "category": "基础设施:公共设施:公共厕所",
        "type": 0,
        "location": {
            "lat": 37.481802,
            "lng": 103.418565
        },
        "ad_info": {
            "adcode": 620622,
            "province": "甘肃省",
            "city": "武威市",
            "district": "古浪县"
        }
    },
    {
        "id": "12589730551896916554",
        "title": "民勤服务区公共厕所",
        "address": "甘肃省武威市民勤县G569与S310交叉口正东方向1611米左右",
        "tel": "",
        "category": "基础设施:公共设施:公共厕所",
        "type": 0,
        "location": {
            "lat": 38.534965,
            "lng": 103.061649
        },
        "ad_info": {
            "adcode": 620621,
            "province": "甘肃省",
            "city": "武威市",
            "district": "民勤县"
        }
    },
    {
        "id": "4655979233517787694",
        "title": "富民新村公共厕所",
        "address": "甘肃省武威市古浪县金色大道",
        "tel": "",
        "category": "基础设施:公共设施:公共厕所",
        "type": 0,
        "location": {
            "lat": 37.610893,
            "lng": 103.353572
        },
        "ad_info": {
            "adcode": 620622,
            "province": "甘肃省",
            "city": "武威市",
            "district": "古浪县"
        }
    },
    {
        "id": "9664447227095082061",
        "title": "富民新村公共厕所",
        "address": "甘肃省武威市古浪县金色大道",
        "tel": "",
        "category": "基础设施:公共设施:公共厕所",
        "type": 0,
        "location": {
            "lat": 37.611348,
            "lng": 103.352276
        },
        "ad_info": {
            "adcode": 620622,
            "province": "甘肃省",
            "city": "武威市",
            "district": "古浪县"
        }
    },
    {
        "id": "7516144244862844588",
        "title": "上城老街公共厕所",
        "address": "甘肃省武威市古浪县公园路",
        "tel": "",
        "category": "基础设施:公共设施:公共厕所",
        "type": 0,
        "location": {
            "lat": 37.458692,
            "lng": 102.889784
        },
        "ad_info": {
            "adcode": 620622,
            "province": "甘肃省",
            "city": "武威市",
            "district": "古浪县"
        }
    },
    {
        "id": "4227174045857793975",
        "title": "公共厕所",
        "address": "甘肃省武威市天祝藏族自治县1号路与石门中路交叉口东南方向191米左右",
        "tel": "",
        "category": "基础设施:公共设施:公共厕所",
        "type": 0,
        "location": {
            "lat": 37.001961,
            "lng": 103.046655
        },
        "ad_info": {
            "adcode": 620623,
            "province": "甘肃省",
            "city": "武威市",
            "district": "天祝藏族自治县"
        }
    },
    {
        "id": "4506317847070110649",
        "title": "康宁新村东公共卫生间",
        "address": "甘肃省武威市古浪县庆兴路",
        "tel": "",
        "category": "基础设施:公共设施:公共厕所",
        "type": 0,
        "location": {
            "lat": 37.686001,
            "lng": 103.14878
        },
        "ad_info": {
            "adcode": 620622,
            "province": "甘肃省",
            "city": "武威市",
            "district": "古浪县"
        }
    },
    {
        "id": "1576843444562308048",
        "title": "扎子沟服务区公共厕所",
        "address": "甘肃省武威市民勤县扎子沟服务区东南侧",
        "tel": "",
        "category": "基础设施:公共设施:公共厕所",
        "type": 0,
        "location": {
            "lat": 38.210315,
            "lng": 102.804846
        },
        "ad_info": {
            "adcode": 620621,
            "province": "甘肃省",
            "city": "武威市",
            "district": "民勤县"
        }
    },
    {
        "id": "8577817172732653041",
        "title": "农技中心平房巷公共厕所",
        "address": "甘肃省武威市古浪县昌松路227号",
        "tel": "",
        "category": "基础设施:公共设施:公共厕所",
        "type": 0,
        "location": {
            "lat": 37.465115,
            "lng": 102.893924
        },
        "ad_info": {
            "adcode": 620622,
            "province": "甘肃省",
            "city": "武威市",
            "district": "古浪县"
        }
    },
    {
        "id": "14983110316651427024",
        "title": "政府巷内南侧公共厕所",
        "address": "甘肃省武威市古浪县昌松路203号",
        "tel": "",
        "category": "基础设施:公共设施:公共厕所",
        "type": 0,
        "location": {
            "lat": 37.464853,
            "lng": 102.894413
        },
        "ad_info": {
            "adcode": 620622,
            "province": "甘肃省",
            "city": "武威市",
            "district": "古浪县"
        }
    },
    {
        "id": "1646043538672562191",
        "title": "4号昌灵南公厕",
        "address": "甘肃省武威市古浪县昌灵路305号",
        "tel": "",
        "category": "基础设施:公共设施:公共厕所",
        "type": 0,
        "location": {
            "lat": 37.479553,
            "lng": 102.899012
        },
        "ad_info": {
            "adcode": 620622,
            "province": "甘肃省",
            "city": "武威市",
            "district": "古浪县"
        }
    },
    {
        "id": "4956340469780681442",
        "title": "西靖镇康乐新村公共厕所",
        "address": "甘肃省武威市古浪县",
        "tel": "",
        "category": "基础设施:公共设施:公共厕所",
        "type": 0,
        "location": {
            "lat": 37.66017,
            "lng": 103.254665
        },
        "ad_info": {
            "adcode": 620622,
            "province": "甘肃省",
            "city": "武威市",
            "district": "古浪县"
        }
    },
    {
        "id": "5229803222773637443",
        "title": "双城服务区公共厕所",
        "address": "甘肃省武威市凉州区G3017金武高速附近",
        "tel": "",
        "category": "基础设施:公共设施:公共厕所",
        "type": 0,
        "location": {
            "lat": 38.1277,
            "lng": 102.561193
        },
        "ad_info": {
            "adcode": 620602,
            "province": "甘肃省",
            "city": "武威市",
            "district": "凉州区"
        }
    },
    {
        "id": "15613288263923158283",
        "title": "大靖服务区公共厕所",
        "address": "甘肃省武威市古浪县大靖服务区西北(定武高速公路北)",
        "tel": "",
        "category": "基础设施:公共设施:公共厕所",
        "type": 0,
        "location": {
            "lat": 37.466939,
            "lng": 103.491236
        },
        "ad_info": {
            "adcode": 620622,
            "province": "甘肃省",
            "city": "武威市",
            "district": "古浪县"
        }
    },
    {
        "id": "4382732250547719576",
        "title": "武威服务区公共厕所",
        "address": "甘肃省武威市凉州区武南收费站立交与连霍高速交叉口正南方向1116米左右",
        "tel": "",
        "category": "基础设施:公共设施:公共厕所",
        "type": 0,
        "location": {
            "lat": 37.8053,
            "lng": 102.697868
        },
        "ad_info": {
            "adcode": 620602,
            "province": "甘肃省",
            "city": "武威市",
            "district": "凉州区"
        }
    },
    {
        "id": "17820388628690644787",
        "title": "龙山路天壶广场公共厕所",
        "address": "甘肃省武威市古浪县西环路",
        "tel": "",
        "category": "基础设施:公共设施:公共厕所",
        "type": 0,
        "location": {
            "lat": 37.462932,
            "lng": 102.89133
        },
        "ad_info": {
            "adcode": 620622,
            "province": "甘肃省",
            "city": "武威市",
            "district": "古浪县"
        }
    },
    {
        "id": "16332301422673135297",
        "title": "武威服务区公共厕所",
        "address": "甘肃省武威市凉州区连霍高速武威南服务区",
        "tel": "",
        "category": "基础设施:公共设施:公共厕所",
        "type": 0,
        "location": {
            "lat": 37.805958,
            "lng": 102.695081
        },
        "ad_info": {
            "adcode": 620602,
            "province": "甘肃省",
            "city": "武威市",
            "district": "凉州区"
        }
    },
    {
        "id": "16320510351026792237",
        "title": "旅游厕所",
        "address": "甘肃省武威市天祝藏族自治县",
        "tel": "",
        "category": "基础设施:公共设施:公共厕所",
        "type": 0,
        "location": {
            "lat": 37.695657,
            "lng": 102.325848
        },
        "ad_info": {
            "adcode": 620623,
            "province": "甘肃省",
            "city": "武威市",
            "district": "天祝藏族自治县"
        }
    },
    {
        "id": "8696285872028941176",
        "title": "安门服务区公共厕所",
        "address": "甘肃省武威市天祝藏族自治县G312与谱沟桥交叉口正北方向1603米左右",
        "tel": "",
        "category": "基础设施:公共设施:公共厕所",
        "type": 0,
        "location": {
            "lat": 37.127703,
            "lng": 102.953183
        },
        "ad_info": {
            "adcode": 620623,
            "province": "甘肃省",
            "city": "武威市",
            "district": "天祝藏族自治县"
        }
    },
    {
        "id": "7151441594810733501",
        "title": "公共厕所",
        "address": "甘肃省武威市凉州区熙泰牧业有限责任公司良种牛繁育中心西北侧240米",
        "tel": "",
        "category": "基础设施:公共设施:公共厕所",
        "type": 0,
        "location": {
            "lat": 37.829779,
            "lng": 102.687157
        },
        "ad_info": {
            "adcode": 620602,
            "province": "甘肃省",
            "city": "武威市",
            "district": "凉州区"
        }
    },
    {
        "id": "15704353931847273527",
        "title": "公共厕所",
        "address": "甘肃省武威市凉州区G569与Y856交叉口东南方向191米左右",
        "tel": "",
        "category": "基础设施:公共设施:公共厕所",
        "type": 0,
        "location": {
            "lat": 37.971516,
            "lng": 102.437359
        },
        "ad_info": {
            "adcode": 620602,
            "province": "甘肃省",
            "city": "武威市",
            "district": "凉州区"
        }
    },
    {
        "id": "12650781652873414816",
        "title": "公共厕所",
        "address": "甘肃省武威市天祝藏族自治县G312与莫科路交叉口正东方向478米左右",
        "tel": "",
        "category": "基础设施:公共设施:公共厕所",
        "type": 0,
        "location": {
            "lat": 36.990151,
            "lng": 103.126577
        },
        "ad_info": {
            "adcode": 620623,
            "province": "甘肃省",
            "city": "武威市",
            "district": "天祝藏族自治县"
        }
    },
    {
        "id": "3364875259097945929",
        "title": "公共厕所",
        "address": "甘肃省武威市古浪县大漠影视基地",
        "tel": "",
        "category": "基础设施:公共设施:公共厕所",
        "type": 0,
        "location": {
            "lat": 37.813487,
            "lng": 103.163568
        },
        "ad_info": {
            "adcode": 620622,
            "province": "甘肃省",
            "city": "武威市",
            "district": "古浪县"
        }
    },
    {
        "id": "895054198130641464",
        "title": "公共厕所",
        "address": "甘肃省武威市凉州区九墩滩九年一贯制学校东侧",
        "tel": "",
        "category": "基础设施:公共设施:公共厕所",
        "type": 0,
        "location": {
            "lat": 38.127377,
            "lng": 102.754092
        },
        "ad_info": {
            "adcode": 620602,
            "province": "甘肃省",
            "city": "武威市",
            "district": "凉州区"
        }
    },
    {
        "id": "12361146496440700886",
        "title": "公共厕所(GS-WW-0376)",
        "address": "甘肃省武威市古浪县",
        "tel": "",
        "category": "基础设施:公共设施:公共厕所",
        "type": 0,
        "location": {
            "lat": 37.580402,
            "lng": 103.095063
        },
        "ad_info": {
            "adcode": 620622,
            "province": "甘肃省",
            "city": "武威市",
            "district": "古浪县"
        }
    },
    {
        "id": "1003864816897113795",
        "title": "公共厕所",
        "address": "甘肃省武威市凉州区三道巷与复兴南路交叉口正东方向161米左右",
        "tel": "",
        "category": "基础设施:公共设施:公共厕所",
        "type": 0,
        "location": {
            "lat": 37.924616,
            "lng": 102.654492
        },
        "ad_info": {
            "adcode": 620602,
            "province": "甘肃省",
            "city": "武威市",
            "district": "凉州区"
        }
    },
    {
        "id": "11381485516133761049",
        "title": "公共厕所",
        "address": "甘肃省武威市凉州区文庙西路与明清街交叉口东北方向18米左右",
        "tel": "",
        "category": "基础设施:公共设施:公共厕所",
        "type": 0,
        "location": {
            "lat": 37.922969,
            "lng": 102.642362
        },
        "ad_info": {
            "adcode": 620602,
            "province": "甘肃省",
            "city": "武威市",
            "district": "凉州区"
        }
    },
    {
        "id": "10543352674247608114",
        "title": "惠民新村卫生间",
        "address": "甘肃省武威市古浪县G2012",
        "tel": "",
        "category": "基础设施:公共设施:公共厕所",
        "type": 0,
        "location": {
            "lat": 37.608824,
            "lng": 103.266071
        },
        "ad_info": {
            "adcode": 620622,
            "province": "甘肃省",
            "city": "武威市",
            "district": "古浪县"
        }
    },
    {
        "id": "2185254835710839011",
        "title": "公共厕所",
        "address": "甘肃省武威市古浪县",
        "tel": "",
        "category": "基础设施:公共设施:公共厕所",
        "type": 0,
        "location": {
            "lat": 37.616458,
            "lng": 103.075617
        },
        "ad_info": {
            "adcode": 620622,
            "province": "甘肃省",
            "city": "武威市",
            "district": "古浪县"
        }
    },
    {
        "id": "3485024737747154140",
        "title": "公共厕所",
        "address": "甘肃省武威市古浪县S308与定武高速交叉口正南方向988米左右",
        "tel": "",
        "category": "基础设施:公共设施:公共厕所",
        "type": 0,
        "location": {
            "lat": 37.502761,
            "lng": 103.411416
        },
        "ad_info": {
            "adcode": 620622,
            "province": "甘肃省",
            "city": "武威市",
            "district": "古浪县"
        }
    },
    {
        "id": "11235623178602718983",
        "title": "公共厕所",
        "address": "甘肃省武威市天祝藏族自治县S586与Y109交叉口正南方向1312米左右",
        "tel": "",
        "category": "基础设施:公共设施:公共厕所",
        "type": 0,
        "location": {
            "lat": 37.478915,
            "lng": 102.555722
        },
        "ad_info": {
            "adcode": 620623,
            "province": "甘肃省",
            "city": "武威市",
            "district": "天祝藏族自治县"
        }
    },
    {
        "id": "14945435269693166826",
        "title": "公共厕所",
        "address": "甘肃省武威市民勤县G569与南大街交叉口东北方向88米左右",
        "tel": "",
        "category": "基础设施:公共设施:公共厕所",
        "type": 0,
        "location": {
            "lat": 38.975673,
            "lng": 103.538719
        },
        "ad_info": {
            "adcode": 620621,
            "province": "甘肃省",
            "city": "武威市",
            "district": "民勤县"
        }
    },
    {
        "id": "13179768524799782240",
        "title": "公共厕所",
        "address": "甘肃省武威市凉州区南关东路与富民南路交叉口正西方向184米左右",
        "tel": "",
        "category": "基础设施:公共设施:公共厕所",
        "type": 0,
        "location": {
            "lat": 37.920769,
            "lng": 102.647433
        },
        "ad_info": {
            "adcode": 620602,
            "province": "甘肃省",
            "city": "武威市",
            "district": "凉州区"
        }
    },
    {
        "id": "13831045476502038202",
        "title": "民勤服务区公共厕所",
        "address": "甘肃省武威市民勤县G569与S310交叉口正东方向1800米左右",
        "tel": "",
        "category": "基础设施:公共设施:公共厕所",
        "type": 0,
        "location": {
            "lat": 38.532631,
            "lng": 103.063527
        },
        "ad_info": {
            "adcode": 620621,
            "province": "甘肃省",
            "city": "武威市",
            "district": "民勤县"
        }
    },
    {
        "id": "16402251683762356106",
        "title": "公共厕所",
        "address": "甘肃省武威市民勤县G569与东大街交叉口东南方向42米左右",
        "tel": "",
        "category": "基础设施:公共设施:公共厕所",
        "type": 0,
        "location": {
            "lat": 38.859947,
            "lng": 103.30942
        },
        "ad_info": {
            "adcode": 620621,
            "province": "甘肃省",
            "city": "武威市",
            "district": "民勤县"
        }
    },
    {
        "id": "8745077462110706584",
        "title": "公共厕所",
        "address": "甘肃省武威市民勤县S235与Y304交叉口正东方向753米左右",
        "tel": "",
        "category": "基础设施:公共设施:公共厕所",
        "type": 0,
        "location": {
            "lat": 38.594825,
            "lng": 103.29838
        },
        "ad_info": {
            "adcode": 620621,
            "province": "甘肃省",
            "city": "武威市",
            "district": "民勤县"
        }
    },
    {
        "id": "5621143418684413745",
        "title": "公共厕所",
        "address": "甘肃省武威市古浪县政府巷与西环路交叉口正东方向136米左右",
        "tel": "",
        "category": "基础设施:公共设施:公共厕所",
        "type": 0,
        "location": {
            "lat": 37.464317,
            "lng": 102.892961
        },
        "ad_info": {
            "adcode": 620622,
            "province": "甘肃省",
            "city": "武威市",
            "district": "古浪县"
        }
    },
    {
        "id": "12293148519119458409",
        "title": "公共厕所",
        "address": "甘肃省武威市民勤县G569与S235交叉口正西方向571米左右",
        "tel": "",
        "category": "基础设施:公共设施:公共厕所",
        "type": 0,
        "location": {
            "lat": 38.768017,
            "lng": 103.244031
        },
        "ad_info": {
            "adcode": 620621,
            "province": "甘肃省",
            "city": "武威市",
            "district": "民勤县"
        }
    },
    {
        "id": "7590847380859660458",
        "title": "公共厕所",
        "address": "甘肃省武威市民勤县S235与X171交叉口西南方向270米左右",
        "tel": "",
        "category": "基础设施:公共设施:公共厕所",
        "type": 0,
        "location": {
            "lat": 38.582557,
            "lng": 103.17224
        },
        "ad_info": {
            "adcode": 620621,
            "province": "甘肃省",
            "city": "武威市",
            "district": "民勤县"
        }
    },
    {
        "id": "13280489236984334431",
        "title": "公共厕所",
        "address": "甘肃省武威市天祝藏族自治县佳多路与祝贡路交叉口正西方向99米左右",
        "tel": "",
        "category": "基础设施:公共设施:公共厕所",
        "type": 0,
        "location": {
            "lat": 36.972948,
            "lng": 103.137175
        },
        "ad_info": {
            "adcode": 620623,
            "province": "甘肃省",
            "city": "武威市",
            "district": "天祝藏族自治县"
        }
    },
    {
        "id": "6719743136802291999",
        "title": "公共厕所",
        "address": "甘肃省武威市古浪县昌松路与迎宾路交叉口东南方向47米左右",
        "tel": "",
        "category": "基础设施:公共设施:公共厕所",
        "type": 0,
        "location": {
            "lat": 37.484981,
            "lng": 102.894337
        },
        "ad_info": {
            "adcode": 620622,
            "province": "甘肃省",
            "city": "武威市",
            "district": "古浪县"
        }
    },
    {
        "id": "13711441674858900979",
        "title": "公共厕所",
        "address": "甘肃省武威市民勤县S235与X171交叉口西北方向297米左右",
        "tel": "",
        "category": "基础设施:公共设施:公共厕所",
        "type": 0,
        "location": {
            "lat": 38.17858,
            "lng": 103.263876
        },
        "ad_info": {
            "adcode": 620621,
            "province": "甘肃省",
            "city": "武威市",
            "district": "民勤县"
        }
    },
    {
        "id": "852221395523229213",
        "title": "土门服务区公共厕所",
        "address": "甘肃省武威市古浪县土门服务区西30米",
        "tel": "",
        "category": "基础设施:公共设施:公共厕所",
        "type": 0,
        "location": {
            "lat": 37.637588,
            "lng": 102.981854
        },
        "ad_info": {
            "adcode": 620622,
            "province": "甘肃省",
            "city": "武威市",
            "district": "古浪县"
        }
    },
    {
        "id": "1369056143851088191",
        "title": "立民新村公共厕所",
        "address": "甘肃省武威市古浪县S308",
        "tel": "",
        "category": "基础设施:公共设施:公共厕所",
        "type": 0,
        "location": {
            "lat": 37.590223,
            "lng": 103.304527
        },
        "ad_info": {
            "adcode": 620622,
            "province": "甘肃省",
            "city": "武威市",
            "district": "古浪县"
        }
    },
    {
        "id": "8415003513782960713",
        "title": "公共厕所",
        "address": "甘肃省武威市民勤县中国石油东坝加油站东北侧150米",
        "tel": "",
        "category": "基础设施:公共设施:公共厕所",
        "type": 0,
        "location": {
            "lat": 38.655795,
            "lng": 103.269088
        },
        "ad_info": {
            "adcode": 620621,
            "province": "甘肃省",
            "city": "武威市",
            "district": "民勤县"
        }
    },
    {
        "id": "17537947376013126329",
        "title": "爱民新村公共厕所",
        "address": "甘肃省武威市古浪县金色大道",
        "tel": "",
        "category": "基础设施:公共设施:公共厕所",
        "type": 0,
        "location": {
            "lat": 37.611221,
            "lng": 103.33822
        },
        "ad_info": {
            "adcode": 620622,
            "province": "甘肃省",
            "city": "武威市",
            "district": "古浪县"
        }
    },
    {
        "id": "14744882436543320267",
        "title": "扎子沟服务区公共厕所",
        "address": "甘肃省武威市民勤县扎子沟服务区超市东北侧",
        "tel": "",
        "category": "基础设施:公共设施:公共厕所",
        "type": 0,
        "location": {
            "lat": 38.212137,
            "lng": 102.802821
        },
        "ad_info": {
            "adcode": 620621,
            "province": "甘肃省",
            "city": "武威市",
            "district": "民勤县"
        }
    },
    {
        "id": "6164985009140791937",
        "title": "公共厕所",
        "address": "甘肃省武威市古浪县古浪立民新村社区",
        "tel": "",
        "category": "基础设施:公共设施:公共厕所",
        "type": 0,
        "location": {
            "lat": 37.590217,
            "lng": 103.306534
        },
        "ad_info": {
            "adcode": 620622,
            "province": "甘肃省",
            "city": "武威市",
            "district": "古浪县"
        }
    },
    {
        "id": "8127619069195421739",
        "title": "公共厕所",
        "address": "甘肃省武威市民勤县顺发餐厅北侧100米",
        "tel": "",
        "category": "基础设施:公共设施:公共厕所",
        "type": 0,
        "location": {
            "lat": 38.412054,
            "lng": 102.903834
        },
        "ad_info": {
            "adcode": 620621,
            "province": "甘肃省",
            "city": "武威市",
            "district": "民勤县"
        }
    },
    {
        "id": "11673354225525846988",
        "title": "公共厕所",
        "address": "甘肃省武威市凉州区民勤路与皇台路交叉口东南方向50米左右",
        "tel": "",
        "category": "基础设施:公共设施:公共厕所",
        "type": 0,
        "location": {
            "lat": 37.931687,
            "lng": 102.61566
        },
        "ad_info": {
            "adcode": 620602,
            "province": "甘肃省",
            "city": "武威市",
            "district": "凉州区"
        }
    },
    {
        "id": "14197999389293780802",
        "title": "公共厕所(GS-WW-0383)",
        "address": "甘肃省武威市古浪县纬五路",
        "tel": "",
        "category": "基础设施:公共设施:公共厕所",
        "type": 0,
        "location": {
            "lat": 37.685251,
            "lng": 103.15078
        },
        "ad_info": {
            "adcode": 620622,
            "province": "甘肃省",
            "city": "武威市",
            "district": "古浪县"
        }
    },
    {
        "id": "5776779200524668311",
        "title": "公共厕所",
        "address": "甘肃省武威市古浪县世纪路与昌松路交叉口东北方向74米左右",
        "tel": "",
        "category": "基础设施:公共设施:公共厕所",
        "type": 0,
        "location": {
            "lat": 37.470462,
            "lng": 102.894796
        },
        "ad_info": {
            "adcode": 620622,
            "province": "甘肃省",
            "city": "武威市",
            "district": "古浪县"
        }
    },
    {
        "id": "7615600405234808697",
        "title": "公共厕所",
        "address": "甘肃省武威市古浪县徐古公路与昌灵路交叉口正北方向1157米左右",
        "tel": "",
        "category": "基础设施:公共设施:公共厕所",
        "type": 0,
        "location": {
            "lat": 37.500023,
            "lng": 102.903044
        },
        "ad_info": {
            "adcode": 620622,
            "province": "甘肃省",
            "city": "武威市",
            "district": "古浪县"
        }
    },
    {
        "id": "6317452656211410102",
        "title": "公共厕所",
        "address": "甘肃省武威市凉州区东岳南路与兴盛路交叉口正南方向244米左右",
        "tel": "",
        "category": "基础设施:公共设施:公共厕所",
        "type": 0,
        "location": {
            "lat": 37.932182,
            "lng": 102.648515
        },
        "ad_info": {
            "adcode": 620602,
            "province": "甘肃省",
            "city": "武威市",
            "district": "凉州区"
        }
    },
    {
        "id": "9216862287375616457",
        "title": "公共厕所",
        "address": "甘肃省武威市古浪县昌灵路249号",
        "tel": "",
        "category": "基础设施:公共设施:公共厕所",
        "type": 0,
        "location": {
            "lat": 37.478139,
            "lng": 102.898807
        },
        "ad_info": {
            "adcode": 620622,
            "province": "甘肃省",
            "city": "武威市",
            "district": "古浪县"
        }
    },
    {
        "id": "8599743053588429110",
        "title": "公共卫生间",
        "address": "甘肃省武威市民勤县S310与Y886交叉口正东方向72米左右",
        "tel": "",
        "category": "基础设施:公共设施:公共厕所",
        "type": 0,
        "location": {
            "lat": 38.5483,
            "lng": 103.01932
        },
        "ad_info": {
            "adcode": 620621,
            "province": "甘肃省",
            "city": "武威市",
            "district": "民勤县"
        }
    },
    {
        "id": "16474134911257671356",
        "title": "公共厕所",
        "address": "甘肃省武威市古浪县西凉女儿国影视基地旅游景区西侧",
        "tel": "",
        "category": "基础设施:公共设施:公共厕所",
        "type": 0,
        "location": {
            "lat": 37.815331,
            "lng": 103.171421
        },
        "ad_info": {
            "adcode": 620622,
            "province": "甘肃省",
            "city": "武威市",
            "district": "古浪县"
        }
    },
    {
        "id": "8697776059313807111",
        "title": "为民新村公共厕所",
        "address": "甘肃省武威市古浪县S316",
        "tel": "",
        "category": "基础设施:公共设施:公共厕所",
        "type": 0,
        "location": {
            "lat": 37.623532,
            "lng": 103.305514
        },
        "ad_info": {
            "adcode": 620622,
            "province": "甘肃省",
            "city": "武威市",
            "district": "古浪县"
        }
    },
    {
        "id": "12110160859697766936",
        "title": "公共厕所",
        "address": "甘肃省武威市凉州区育才中路与花明街交叉口西北方向57米左右",
        "tel": "",
        "category": "基础设施:公共设施:公共厕所",
        "type": 0,
        "location": {
            "lat": 37.831005,
            "lng": 102.724408
        },
        "ad_info": {
            "adcode": 620602,
            "province": "甘肃省",
            "city": "武威市",
            "district": "凉州区"
        }
    },
    {
        "id": "17365949502025728819",
        "title": "公共厕所",
        "address": "甘肃省武威市凉州区宣武街与民勤路交叉口东北方向92米左右",
        "tel": "",
        "category": "基础设施:公共设施:公共厕所",
        "type": 0,
        "location": {
            "lat": 37.939834,
            "lng": 102.616256
        },
        "ad_info": {
            "adcode": 620602,
            "province": "甘肃省",
            "city": "武威市",
            "district": "凉州区"
        }
    },
    {
        "id": "3961401771677911672",
        "title": "公共厕所",
        "address": "甘肃省武威市民勤县西渠中学东侧200米",
        "tel": "",
        "category": "基础设施:公共设施:公共厕所",
        "type": 0,
        "location": {
            "lat": 38.9755,
            "lng": 103.538314
        },
        "ad_info": {
            "adcode": 620621,
            "province": "甘肃省",
            "city": "武威市",
            "district": "民勤县"
        }
    },
    {
        "id": "12304883376598150129",
        "title": "公共厕所",
        "address": "甘肃省武威市民勤县蔡旗中心卫生院西侧250米",
        "tel": "",
        "category": "基础设施:公共设施:公共厕所",
        "type": 0,
        "location": {
            "lat": 38.221225,
            "lng": 102.747653
        },
        "ad_info": {
            "adcode": 620621,
            "province": "甘肃省",
            "city": "武威市",
            "district": "民勤县"
        }
    },
    {
        "id": "1161039008287608851",
        "title": "和乐村公共卫生间",
        "address": "甘肃省武威市古浪县S308",
        "tel": "",
        "category": "基础设施:公共设施:公共厕所",
        "type": 0,
        "location": {
            "lat": 37.629087,
            "lng": 103.07624
        },
        "ad_info": {
            "adcode": 620622,
            "province": "甘肃省",
            "city": "武威市",
            "district": "古浪县"
        }
    },
    {
        "id": "12187086090042628631",
        "title": "公共厕所",
        "address": "甘肃省武威市凉州区和平大道与学府路交叉口正东方向103米左右",
        "tel": "",
        "category": "基础设施:公共设施:公共厕所",
        "type": 0,
        "location": {
            "lat": 37.918727,
            "lng": 102.608207
        },
        "ad_info": {
            "adcode": 620602,
            "province": "甘肃省",
            "city": "武威市",
            "district": "凉州区"
        }
    },
    {
        "id": "12375348646308920108",
        "title": "公共厕所",
        "address": "甘肃省武威市民勤县东大街与东湖路交叉口东南方向64米左右",
        "tel": "",
        "category": "基础设施:公共设施:公共厕所",
        "type": 0,
        "location": {
            "lat": 38.621208,
            "lng": 103.111975
        },
        "ad_info": {
            "adcode": 620621,
            "province": "甘肃省",
            "city": "武威市",
            "district": "民勤县"
        }
    },
    {
        "id": "536996241036764511",
        "title": "公共厕所",
        "address": "甘肃省武威市凉州区古浪街与富民南路交叉口东南方向208米左右",
        "tel": "",
        "category": "基础设施:公共设施:公共厕所",
        "type": 0,
        "location": {
            "lat": 37.911225,
            "lng": 102.649295
        },
        "ad_info": {
            "adcode": 620602,
            "province": "甘肃省",
            "city": "武威市",
            "district": "凉州区"
        }
    },
    {
        "id": "18432912501667861192",
        "title": "公共厕所",
        "address": "甘肃省武威市天祝藏族自治县滨河东路与达隆路交叉口正北方向398米左右",
        "tel": "",
        "category": "基础设施:公共设施:公共厕所",
        "type": 0,
        "location": {
            "lat": 36.975559,
            "lng": 103.148434
        },
        "ad_info": {
            "adcode": 620623,
            "province": "甘肃省",
            "city": "武威市",
            "district": "天祝藏族自治县"
        }
    },
    {
        "id": "10213045762845206806",
        "title": "18号公共厕所",
        "address": "甘肃省武威市古浪县昌松路",
        "tel": "",
        "category": "基础设施:公共设施:公共厕所",
        "type": 0,
        "location": {
            "lat": 37.470254,
            "lng": 102.894537
        },
        "ad_info": {
            "adcode": 620622,
            "province": "甘肃省",
            "city": "武威市",
            "district": "古浪县"
        }
    },
    {
        "id": "7222407527629387783",
        "title": "19号公厕",
        "address": "甘肃省武威市古浪县昌松路624号",
        "tel": "",
        "category": "基础设施:公共设施:公共厕所",
        "type": 0,
        "location": {
            "lat": 37.478684,
            "lng": 102.894747
        },
        "ad_info": {
            "adcode": 620622,
            "province": "甘肃省",
            "city": "武威市",
            "district": "古浪县"
        }
    },
    {
        "id": "5398440732902179215",
        "title": "安门服务区公共厕所",
        "address": "甘肃省武威市天祝藏族自治县连霍高速安门服务区",
        "tel": "",
        "category": "基础设施:公共设施:公共厕所",
        "type": 0,
        "location": {
            "lat": 37.125849,
            "lng": 102.952521
        },
        "ad_info": {
            "adcode": 620623,
            "province": "甘肃省",
            "city": "武威市",
            "district": "天祝藏族自治县"
        }
    },
    {
        "id": "12376198273709326171",
        "title": "公共厕所",
        "address": "甘肃省武威市民勤县G569与南门支线交叉口西北方向147米左右",
        "tel": "",
        "category": "基础设施:公共设施:公共厕所",
        "type": 0,
        "location": {
            "lat": 38.592179,
            "lng": 103.089141
        },
        "ad_info": {
            "adcode": 620621,
            "province": "甘肃省",
            "city": "武威市",
            "district": "民勤县"
        }
    },
    {
        "id": "10557514556946912760",
        "title": "感恩新村公共厕所",
        "address": "甘肃省武威市古浪县S316",
        "tel": "",
        "category": "基础设施:公共设施:公共厕所",
        "type": 0,
        "location": {
            "lat": 37.648528,
            "lng": 103.224541
        },
        "ad_info": {
            "adcode": 620622,
            "province": "甘肃省",
            "city": "武威市",
            "district": "古浪县"
        }
    },
    {
        "id": "1175694365414337047",
        "title": "公共厕所",
        "address": "甘肃省武威市凉州区东岳南路与新鲜街交叉口正北方向147米左右",
        "tel": "",
        "category": "基础设施:公共设施:公共厕所",
        "type": 0,
        "location": {
            "lat": 37.937923,
            "lng": 102.647707
        },
        "ad_info": {
            "adcode": 620602,
            "province": "甘肃省",
            "city": "武威市",
            "district": "凉州区"
        }
    },
    {
        "id": "12268785511901267444",
        "title": "古浪县绿洲广场公共厕所",
        "address": "甘肃省武威市古浪县庆兴路与纬四路交叉口正东方向149米左右",
        "tel": "",
        "category": "基础设施:公共设施:公共厕所",
        "type": 0,
        "location": {
            "lat": 37.687186,
            "lng": 103.151617
        },
        "ad_info": {
            "adcode": 620622,
            "province": "甘肃省",
            "city": "武威市",
            "district": "古浪县"
        }
    },
    {
        "id": "9574752682881781295",
        "title": "公园路路口公共厕所",
        "address": "甘肃省武威市古浪县公园路9号",
        "tel": "",
        "category": "基础设施:公共设施:公共厕所",
        "type": 0,
        "location": {
            "lat": 37.459694,
            "lng": 102.894523
        },
        "ad_info": {
            "adcode": 620622,
            "province": "甘肃省",
            "city": "武威市",
            "district": "古浪县"
        }
    },
    {
        "id": "14414099304340953590",
        "title": "公共厕所",
        "address": "甘肃省武威市凉州区G569与Y856交叉口西南方向60米左右",
        "tel": "",
        "category": "基础设施:公共设施:公共厕所",
        "type": 0,
        "location": {
            "lat": 37.972281,
            "lng": 102.435582
        },
        "ad_info": {
            "adcode": 620602,
            "province": "甘肃省",
            "city": "武威市",
            "district": "凉州区"
        }
    },
    {
        "id": "9973071514740864831",
        "title": "公共厕所",
        "address": "甘肃省武威市凉州区三道巷与复兴南路交叉口正东方向18米左右",
        "tel": "",
        "category": "基础设施:公共设施:公共厕所",
        "type": 0,
        "location": {
            "lat": 37.925144,
            "lng": 102.652955
        },
        "ad_info": {
            "adcode": 620602,
            "province": "甘肃省",
            "city": "武威市",
            "district": "凉州区"
        }
    },
    {
        "id": "5349752167766647446",
        "title": "公共厕所",
        "address": "甘肃省武威市天祝藏族自治县华锐路与格桑路交叉口正北方向618米左右",
        "tel": "",
        "category": "基础设施:公共设施:公共厕所",
        "type": 0,
        "location": {
            "lat": 36.98934,
            "lng": 103.134248
        },
        "ad_info": {
            "adcode": 620623,
            "province": "甘肃省",
            "city": "武威市",
            "district": "天祝藏族自治县"
        }
    },
    {
        "id": "12424038146273047954",
        "title": "公共厕所",
        "address": "甘肃省武威市古浪县昌灵路与连霍高速交叉口正北方向1941米左右",
        "tel": "",
        "category": "基础设施:公共设施:公共厕所",
        "type": 0,
        "location": {
            "lat": 37.508309,
            "lng": 102.89566
        },
        "ad_info": {
            "adcode": 620622,
            "province": "甘肃省",
            "city": "武威市",
            "district": "古浪县"
        }
    },
    {
        "id": "6278693698635715913",
        "title": "公共厕所",
        "address": "甘肃省武威市民勤县S310与X164交叉口东北方向50米",
        "tel": "",
        "category": "基础设施:公共设施:公共厕所",
        "type": 0,
        "location": {
            "lat": 38.618505,
            "lng": 102.503299
        },
        "ad_info": {
            "adcode": 620621,
            "province": "甘肃省",
            "city": "武威市",
            "district": "民勤县"
        }
    },
    {
        "id": "13524444404031125760",
        "title": "公共厕所",
        "address": "甘肃省武威市古浪县G30连霍高速出口与312国道交叉口南20米",
        "tel": "",
        "category": "基础设施:公共设施:公共厕所",
        "type": 0,
        "location": {
            "lat": 37.580456,
            "lng": 102.872831
        },
        "ad_info": {
            "adcode": 620622,
            "province": "甘肃省",
            "city": "武威市",
            "district": "古浪县"
        }
    },
    {
        "id": "16619691456191432058",
        "title": "公共厕所",
        "address": "甘肃省武威市古浪县古丰村",
        "tel": "",
        "category": "基础设施:公共设施:公共厕所",
        "type": 0,
        "location": {
            "lat": 37.424707,
            "lng": 102.815735
        },
        "ad_info": {
            "adcode": 620622,
            "province": "甘肃省",
            "city": "武威市",
            "district": "古浪县"
        }
    },
    {
        "id": "7695720590026269345",
        "title": "公共厕所",
        "address": "甘肃省武威市民勤县育才路与苏武路交叉口正南方向117米左右",
        "tel": "",
        "category": "基础设施:公共设施:公共厕所",
        "type": 0,
        "location": {
            "lat": 38.621832,
            "lng": 103.106365
        },
        "ad_info": {
            "adcode": 620621,
            "province": "甘肃省",
            "city": "武威市",
            "district": "民勤县"
        }
    },
    {
        "id": "10538759235530148601",
        "title": "公共厕所",
        "address": "甘肃省武威市凉州区祁连大道1527号",
        "tel": "",
        "category": "基础设施:公共设施:公共厕所",
        "type": 0,
        "location": {
            "lat": 37.934326,
            "lng": 102.59925
        },
        "ad_info": {
            "adcode": 620602,
            "province": "甘肃省",
            "city": "武威市",
            "district": "凉州区"
        }
    },
    {
        "id": "3103028669034274560",
        "title": "公共厕所",
        "address": "甘肃省武威市古浪县G312与S235交叉口正北方向162米左右",
        "tel": "",
        "category": "基础设施:公共设施:公共厕所",
        "type": 0,
        "location": {
            "lat": 37.582336,
            "lng": 102.873312
        },
        "ad_info": {
            "adcode": 620622,
            "province": "甘肃省",
            "city": "武威市",
            "district": "古浪县"
        }
    },
    {
        "id": "7500537317621574090",
        "title": "公共厕所",
        "address": "甘肃省武威市凉州区东岳南路与兴盛路交叉口西南方向67米左右",
        "tel": "",
        "category": "基础设施:公共设施:公共厕所",
        "type": 0,
        "location": {
            "lat": 37.934089,
            "lng": 102.64723
        },
        "ad_info": {
            "adcode": 620602,
            "province": "甘肃省",
            "city": "武威市",
            "district": "凉州区"
        }
    },
    {
        "id": "5141275541923593344",
        "title": "公共厕所",
        "address": "甘肃省武威市凉州区沪霍线中国石化加油站",
        "tel": "",
        "category": "基础设施:公共设施:公共厕所",
        "type": 0,
        "location": {
            "lat": 37.808466,
            "lng": 102.696695
        },
        "ad_info": {
            "adcode": 620602,
            "province": "甘肃省",
            "city": "武威市",
            "district": "凉州区"
        }
    },
    {
        "id": "17051483862331983192",
        "title": "公共厕所",
        "address": "甘肃省武威市民勤县南大街与南湖路交叉口正东方向94米左右",
        "tel": "",
        "category": "基础设施:公共设施:公共厕所",
        "type": 0,
        "location": {
            "lat": 38.617165,
            "lng": 103.092112
        },
        "ad_info": {
            "adcode": 620621,
            "province": "甘肃省",
            "city": "武威市",
            "district": "民勤县"
        }
    },
    {
        "id": "14089330066512396844",
        "title": "公共厕所",
        "address": "甘肃省武威市凉州区古都路与天丰街交叉口正北方向95米左右",
        "tel": "",
        "category": "基础设施:公共设施:公共厕所",
        "type": 0,
        "location": {
            "lat": 37.944247,
            "lng": 102.600647
        },
        "ad_info": {
            "adcode": 620602,
            "province": "甘肃省",
            "city": "武威市",
            "district": "凉州区"
        }
    },
    {
        "id": "14328551794959089378",
        "title": "公共厕所",
        "address": "甘肃省武威市凉州区学海路与皇台路交叉口西北方向88米左右",
        "tel": "",
        "category": "基础设施:公共设施:公共厕所",
        "type": 0,
        "location": {
            "lat": 37.932493,
            "lng": 102.606099
        },
        "ad_info": {
            "adcode": 620602,
            "province": "甘肃省",
            "city": "武威市",
            "district": "凉州区"
        }
    },
    {
        "id": "11762325323689207536",
        "title": "公共厕所",
        "address": "甘肃省武威市古浪县西靖高峰小学东南侧190米",
        "tel": "",
        "category": "基础设施:公共设施:公共厕所",
        "type": 0,
        "location": {
            "lat": 37.635113,
            "lng": 103.223469
        },
        "ad_info": {
            "adcode": 620622,
            "province": "甘肃省",
            "city": "武威市",
            "district": "古浪县"
        }
    },
    {
        "id": "4996411092027954209",
        "title": "大靖服务区公共厕所",
        "address": "甘肃省武威市古浪县定武高速大靖服务区",
        "tel": "",
        "category": "基础设施:公共设施:公共厕所",
        "type": 0,
        "location": {
            "lat": 37.46466,
            "lng": 103.491455
        },
        "ad_info": {
            "adcode": 620622,
            "province": "甘肃省",
            "city": "武威市",
            "district": "古浪县"
        }
    },
    {
        "id": "6911911659565145563",
        "title": "西郊公园-公共厕所",
        "address": "甘肃省武威市凉州区益民巷与祁连大道交叉口正东方向138米左右",
        "tel": "",
        "category": "基础设施:公共设施:公共厕所",
        "type": 0,
        "location": {
            "lat": 37.934247,
            "lng": 102.61931
        },
        "ad_info": {
            "adcode": 620602,
            "province": "甘肃省",
            "city": "武威市",
            "district": "凉州区"
        }
    },
    {
        "id": "14054143867006488459",
        "title": "公共厕所",
        "address": "甘肃省武威市民勤县民湖路与荣盛路交叉口正东方向674米左右",
        "tel": "",
        "category": "基础设施:公共设施:公共厕所",
        "type": 0,
        "location": {
            "lat": 38.63984,
            "lng": 103.118065
        },
        "ad_info": {
            "adcode": 620621,
            "province": "甘肃省",
            "city": "武威市",
            "district": "民勤县"
        }
    },
    {
        "id": "14232550937131538987",
        "title": "公共厕所",
        "address": "甘肃省武威市凉州区凉都大道与荣华西路交叉口正南方向301米左右",
        "tel": "",
        "category": "基础设施:公共设施:公共厕所",
        "type": 0,
        "location": {
            "lat": 37.917545,
            "lng": 102.657242
        },
        "ad_info": {
            "adcode": 620602,
            "province": "甘肃省",
            "city": "武威市",
            "district": "凉州区"
        }
    },
    {
        "id": "10607356021792138184",
        "title": "公共厕所",
        "address": "甘肃省武威市凉州区G569与X159交叉口正东方向1531米左右",
        "tel": "",
        "category": "基础设施:公共设施:公共厕所",
        "type": 0,
        "location": {
            "lat": 37.975992,
            "lng": 102.385174
        },
        "ad_info": {
            "adcode": 620602,
            "province": "甘肃省",
            "city": "武威市",
            "district": "凉州区"
        }
    },
    {
        "id": "7400756861631115230",
        "title": "公共厕所",
        "address": "甘肃省武威市古浪县G312",
        "tel": "",
        "category": "基础设施:公共设施:公共厕所",
        "type": 0,
        "location": {
            "lat": 37.424088,
            "lng": 102.88438
        },
        "ad_info": {
            "adcode": 620622,
            "province": "甘肃省",
            "city": "武威市",
            "district": "古浪县"
        }
    },
    {
        "id": "9667759191210731603",
        "title": "公共厕所",
        "address": "甘肃省武威市凉州区G312与Y296交叉口正北方向109米左右",
        "tel": "",
        "category": "基础设施:公共设施:公共厕所",
        "type": 0,
        "location": {
            "lat": 38.071184,
            "lng": 102.36629
        },
        "ad_info": {
            "adcode": 620602,
            "province": "甘肃省",
            "city": "武威市",
            "district": "凉州区"
        }
    },
    {
        "id": "5601744795209343931",
        "title": "公共厕所",
        "address": "甘肃省武威市天祝藏族自治县G312与G338交叉口正西方向97米左右",
        "tel": "",
        "category": "基础设施:公共设施:公共厕所",
        "type": 0,
        "location": {
            "lat": 37.016591,
            "lng": 103.095412
        },
        "ad_info": {
            "adcode": 620623,
            "province": "甘肃省",
            "city": "武威市",
            "district": "天祝藏族自治县"
        }
    },
    {
        "id": "6278693698635715913",
        "title": "公共厕所",
        "address": "甘肃省武威市民勤县S310与X164交叉口东北方向50米",
        "tel": "",
        "category": "基础设施:公共设施:公共厕所",
        "type": 0,
        "location": {
            "lat": 38.618505,
            "lng": 102.503299
        },
        "ad_info": {
            "adcode": 620621,
            "province": "甘肃省",
            "city": "武威市",
            "district": "民勤县"
        }
    },
    {
        "id": "13524444404031125760",
        "title": "公共厕所",
        "address": "甘肃省武威市古浪县G30连霍高速出口与312国道交叉口南20米",
        "tel": "",
        "category": "基础设施:公共设施:公共厕所",
        "type": 0,
        "location": {
            "lat": 37.580456,
            "lng": 102.872831
        },
        "ad_info": {
            "adcode": 620622,
            "province": "甘肃省",
            "city": "武威市",
            "district": "古浪县"
        }
    },
    {
        "id": "16619691456191432058",
        "title": "公共厕所",
        "address": "甘肃省武威市古浪县古丰村",
        "tel": "",
        "category": "基础设施:公共设施:公共厕所",
        "type": 0,
        "location": {
            "lat": 37.424707,
            "lng": 102.815735
        },
        "ad_info": {
            "adcode": 620622,
            "province": "甘肃省",
            "city": "武威市",
            "district": "古浪县"
        }
    },
    {
        "id": "7695720590026269345",
        "title": "公共厕所",
        "address": "甘肃省武威市民勤县育才路与苏武路交叉口正南方向117米左右",
        "tel": "",
        "category": "基础设施:公共设施:公共厕所",
        "type": 0,
        "location": {
            "lat": 38.621832,
            "lng": 103.106365
        },
        "ad_info": {
            "adcode": 620621,
            "province": "甘肃省",
            "city": "武威市",
            "district": "民勤县"
        }
    },
    {
        "id": "10538759235530148601",
        "title": "公共厕所",
        "address": "甘肃省武威市凉州区祁连大道1527号",
        "tel": "",
        "category": "基础设施:公共设施:公共厕所",
        "type": 0,
        "location": {
            "lat": 37.934326,
            "lng": 102.59925
        },
        "ad_info": {
            "adcode": 620602,
            "province": "甘肃省",
            "city": "武威市",
            "district": "凉州区"
        }
    },
    {
        "id": "3103028669034274560",
        "title": "公共厕所",
        "address": "甘肃省武威市古浪县G312与S235交叉口正北方向162米左右",
        "tel": "",
        "category": "基础设施:公共设施:公共厕所",
        "type": 0,
        "location": {
            "lat": 37.582336,
            "lng": 102.873312
        },
        "ad_info": {
            "adcode": 620622,
            "province": "甘肃省",
            "city": "武威市",
            "district": "古浪县"
        }
    },
    {
        "id": "7500537317621574090",
        "title": "公共厕所",
        "address": "甘肃省武威市凉州区东岳南路与兴盛路交叉口西南方向67米左右",
        "tel": "",
        "category": "基础设施:公共设施:公共厕所",
        "type": 0,
        "location": {
            "lat": 37.934089,
            "lng": 102.64723
        },
        "ad_info": {
            "adcode": 620602,
            "province": "甘肃省",
            "city": "武威市",
            "district": "凉州区"
        }
    },
    {
        "id": "5141275541923593344",
        "title": "公共厕所",
        "address": "甘肃省武威市凉州区沪霍线中国石化加油站",
        "tel": "",
        "category": "基础设施:公共设施:公共厕所",
        "type": 0,
        "location": {
            "lat": 37.808466,
            "lng": 102.696695
        },
        "ad_info": {
            "adcode": 620602,
            "province": "甘肃省",
            "city": "武威市",
            "district": "凉州区"
        }
    },
    {
        "id": "17051483862331983192",
        "title": "公共厕所",
        "address": "甘肃省武威市民勤县南大街与南湖路交叉口正东方向94米左右",
        "tel": "",
        "category": "基础设施:公共设施:公共厕所",
        "type": 0,
        "location": {
            "lat": 38.617165,
            "lng": 103.092112
        },
        "ad_info": {
            "adcode": 620621,
            "province": "甘肃省",
            "city": "武威市",
            "district": "民勤县"
        }
    },
    {
        "id": "14089330066512396844",
        "title": "公共厕所",
        "address": "甘肃省武威市凉州区古都路与天丰街交叉口正北方向95米左右",
        "tel": "",
        "category": "基础设施:公共设施:公共厕所",
        "type": 0,
        "location": {
            "lat": 37.944247,
            "lng": 102.600647
        },
        "ad_info": {
            "adcode": 620602,
            "province": "甘肃省",
            "city": "武威市",
            "district": "凉州区"
        }
    },
    {
        "id": "14328551794959089378",
        "title": "公共厕所",
        "address": "甘肃省武威市凉州区学海路与皇台路交叉口西北方向88米左右",
        "tel": "",
        "category": "基础设施:公共设施:公共厕所",
        "type": 0,
        "location": {
            "lat": 37.932493,
            "lng": 102.606099
        },
        "ad_info": {
            "adcode": 620602,
            "province": "甘肃省",
            "city": "武威市",
            "district": "凉州区"
        }
    },
    {
        "id": "11762325323689207536",
        "title": "公共厕所",
        "address": "甘肃省武威市古浪县西靖高峰小学东南侧190米",
        "tel": "",
        "category": "基础设施:公共设施:公共厕所",
        "type": 0,
        "location": {
            "lat": 37.635113,
            "lng": 103.223469
        },
        "ad_info": {
            "adcode": 620622,
            "province": "甘肃省",
            "city": "武威市",
            "district": "古浪县"
        }
    },
    {
        "id": "4996411092027954209",
        "title": "大靖服务区公共厕所",
        "address": "甘肃省武威市古浪县定武高速大靖服务区",
        "tel": "",
        "category": "基础设施:公共设施:公共厕所",
        "type": 0,
        "location": {
            "lat": 37.46466,
            "lng": 103.491455
        },
        "ad_info": {
            "adcode": 620622,
            "province": "甘肃省",
            "city": "武威市",
            "district": "古浪县"
        }
    },
    {
        "id": "6911911659565145563",
        "title": "西郊公园-公共厕所",
        "address": "甘肃省武威市凉州区益民巷与祁连大道交叉口正东方向138米左右",
        "tel": "",
        "category": "基础设施:公共设施:公共厕所",
        "type": 0,
        "location": {
            "lat": 37.934247,
            "lng": 102.61931
        },
        "ad_info": {
            "adcode": 620602,
            "province": "甘肃省",
            "city": "武威市",
            "district": "凉州区"
        }
    },
    {
        "id": "14054143867006488459",
        "title": "公共厕所",
        "address": "甘肃省武威市民勤县民湖路与荣盛路交叉口正东方向674米左右",
        "tel": "",
        "category": "基础设施:公共设施:公共厕所",
        "type": 0,
        "location": {
            "lat": 38.63984,
            "lng": 103.118065
        },
        "ad_info": {
            "adcode": 620621,
            "province": "甘肃省",
            "city": "武威市",
            "district": "民勤县"
        }
    },
    {
        "id": "14232550937131538987",
        "title": "公共厕所",
        "address": "甘肃省武威市凉州区凉都大道与荣华西路交叉口正南方向301米左右",
        "tel": "",
        "category": "基础设施:公共设施:公共厕所",
        "type": 0,
        "location": {
            "lat": 37.917545,
            "lng": 102.657242
        },
        "ad_info": {
            "adcode": 620602,
            "province": "甘肃省",
            "city": "武威市",
            "district": "凉州区"
        }
    },
    {
        "id": "10607356021792138184",
        "title": "公共厕所",
        "address": "甘肃省武威市凉州区G569与X159交叉口正东方向1531米左右",
        "tel": "",
        "category": "基础设施:公共设施:公共厕所",
        "type": 0,
        "location": {
            "lat": 37.975992,
            "lng": 102.385174
        },
        "ad_info": {
            "adcode": 620602,
            "province": "甘肃省",
            "city": "武威市",
            "district": "凉州区"
        }
    },
    {
        "id": "7400756861631115230",
        "title": "公共厕所",
        "address": "甘肃省武威市古浪县G312",
        "tel": "",
        "category": "基础设施:公共设施:公共厕所",
        "type": 0,
        "location": {
            "lat": 37.424088,
            "lng": 102.88438
        },
        "ad_info": {
            "adcode": 620622,
            "province": "甘肃省",
            "city": "武威市",
            "district": "古浪县"
        }
    },
    {
        "id": "9667759191210731603",
        "title": "公共厕所",
        "address": "甘肃省武威市凉州区G312与Y296交叉口正北方向109米左右",
        "tel": "",
        "category": "基础设施:公共设施:公共厕所",
        "type": 0,
        "location": {
            "lat": 38.071184,
            "lng": 102.36629
        },
        "ad_info": {
            "adcode": 620602,
            "province": "甘肃省",
            "city": "武威市",
            "district": "凉州区"
        }
    },
    {
        "id": "5601744795209343931",
        "title": "公共厕所",
        "address": "甘肃省武威市天祝藏族自治县G312与G338交叉口正西方向97米左右",
        "tel": "",
        "category": "基础设施:公共设施:公共厕所",
        "type": 0,
        "location": {
            "lat": 37.016591,
            "lng": 103.095412
        },
        "ad_info": {
            "adcode": 620623,
            "province": "甘肃省",
            "city": "武威市",
            "district": "天祝藏族自治县"
        }
    },
    {
        "id": "6278693698635715913",
        "title": "公共厕所",
        "address": "甘肃省武威市民勤县S310与X164交叉口东北方向50米",
        "tel": "",
        "category": "基础设施:公共设施:公共厕所",
        "type": 0,
        "location": {
            "lat": 38.618505,
            "lng": 102.503299
        },
        "ad_info": {
            "adcode": 620621,
            "province": "甘肃省",
            "city": "武威市",
            "district": "民勤县"
        }
    },
    {
        "id": "13524444404031125760",
        "title": "公共厕所",
        "address": "甘肃省武威市古浪县G30连霍高速出口与312国道交叉口南20米",
        "tel": "",
        "category": "基础设施:公共设施:公共厕所",
        "type": 0,
        "location": {
            "lat": 37.580456,
            "lng": 102.872831
        },
        "ad_info": {
            "adcode": 620622,
            "province": "甘肃省",
            "city": "武威市",
            "district": "古浪县"
        }
    },
    {
        "id": "16619691456191432058",
        "title": "公共厕所",
        "address": "甘肃省武威市古浪县古丰村",
        "tel": "",
        "category": "基础设施:公共设施:公共厕所",
        "type": 0,
        "location": {
            "lat": 37.424707,
            "lng": 102.815735
        },
        "ad_info": {
            "adcode": 620622,
            "province": "甘肃省",
            "city": "武威市",
            "district": "古浪县"
        }
    },
    {
        "id": "7695720590026269345",
        "title": "公共厕所",
        "address": "甘肃省武威市民勤县育才路与苏武路交叉口正南方向117米左右",
        "tel": "",
        "category": "基础设施:公共设施:公共厕所",
        "type": 0,
        "location": {
            "lat": 38.621832,
            "lng": 103.106365
        },
        "ad_info": {
            "adcode": 620621,
            "province": "甘肃省",
            "city": "武威市",
            "district": "民勤县"
        }
    },
    {
        "id": "10538759235530148601",
        "title": "公共厕所",
        "address": "甘肃省武威市凉州区祁连大道1527号",
        "tel": "",
        "category": "基础设施:公共设施:公共厕所",
        "type": 0,
        "location": {
            "lat": 37.934326,
            "lng": 102.59925
        },
        "ad_info": {
            "adcode": 620602,
            "province": "甘肃省",
            "city": "武威市",
            "district": "凉州区"
        }
    },
    {
        "id": "3103028669034274560",
        "title": "公共厕所",
        "address": "甘肃省武威市古浪县G312与S235交叉口正北方向162米左右",
        "tel": "",
        "category": "基础设施:公共设施:公共厕所",
        "type": 0,
        "location": {
            "lat": 37.582336,
            "lng": 102.873312
        },
        "ad_info": {
            "adcode": 620622,
            "province": "甘肃省",
            "city": "武威市",
            "district": "古浪县"
        }
    },
    {
        "id": "7500537317621574090",
        "title": "公共厕所",
        "address": "甘肃省武威市凉州区东岳南路与兴盛路交叉口西南方向67米左右",
        "tel": "",
        "category": "基础设施:公共设施:公共厕所",
        "type": 0,
        "location": {
            "lat": 37.934089,
            "lng": 102.64723
        },
        "ad_info": {
            "adcode": 620602,
            "province": "甘肃省",
            "city": "武威市",
            "district": "凉州区"
        }
    },
    {
        "id": "5141275541923593344",
        "title": "公共厕所",
        "address": "甘肃省武威市凉州区沪霍线中国石化加油站",
        "tel": "",
        "category": "基础设施:公共设施:公共厕所",
        "type": 0,
        "location": {
            "lat": 37.808466,
            "lng": 102.696695
        },
        "ad_info": {
            "adcode": 620602,
            "province": "甘肃省",
            "city": "武威市",
            "district": "凉州区"
        }
    },
    {
        "id": "17051483862331983192",
        "title": "公共厕所",
        "address": "甘肃省武威市民勤县南大街与南湖路交叉口正东方向94米左右",
        "tel": "",
        "category": "基础设施:公共设施:公共厕所",
        "type": 0,
        "location": {
            "lat": 38.617165,
            "lng": 103.092112
        },
        "ad_info": {
            "adcode": 620621,
            "province": "甘肃省",
            "city": "武威市",
            "district": "民勤县"
        }
    },
    {
        "id": "14089330066512396844",
        "title": "公共厕所",
        "address": "甘肃省武威市凉州区古都路与天丰街交叉口正北方向95米左右",
        "tel": "",
        "category": "基础设施:公共设施:公共厕所",
        "type": 0,
        "location": {
            "lat": 37.944247,
            "lng": 102.600647
        },
        "ad_info": {
            "adcode": 620602,
            "province": "甘肃省",
            "city": "武威市",
            "district": "凉州区"
        }
    },
    {
        "id": "14328551794959089378",
        "title": "公共厕所",
        "address": "甘肃省武威市凉州区学海路与皇台路交叉口西北方向88米左右",
        "tel": "",
        "category": "基础设施:公共设施:公共厕所",
        "type": 0,
        "location": {
            "lat": 37.932493,
            "lng": 102.606099
        },
        "ad_info": {
            "adcode": 620602,
            "province": "甘肃省",
            "city": "武威市",
            "district": "凉州区"
        }
    },
    {
        "id": "11762325323689207536",
        "title": "公共厕所",
        "address": "甘肃省武威市古浪县西靖高峰小学东南侧190米",
        "tel": "",
        "category": "基础设施:公共设施:公共厕所",
        "type": 0,
        "location": {
            "lat": 37.635113,
            "lng": 103.223469
        },
        "ad_info": {
            "adcode": 620622,
            "province": "甘肃省",
            "city": "武威市",
            "district": "古浪县"
        }
    },
    {
        "id": "4996411092027954209",
        "title": "大靖服务区公共厕所",
        "address": "甘肃省武威市古浪县定武高速大靖服务区",
        "tel": "",
        "category": "基础设施:公共设施:公共厕所",
        "type": 0,
        "location": {
            "lat": 37.46466,
            "lng": 103.491455
        },
        "ad_info": {
            "adcode": 620622,
            "province": "甘肃省",
            "city": "武威市",
            "district": "古浪县"
        }
    },
    {
        "id": "6911911659565145563",
        "title": "西郊公园-公共厕所",
        "address": "甘肃省武威市凉州区益民巷与祁连大道交叉口正东方向138米左右",
        "tel": "",
        "category": "基础设施:公共设施:公共厕所",
        "type": 0,
        "location": {
            "lat": 37.934247,
            "lng": 102.61931
        },
        "ad_info": {
            "adcode": 620602,
            "province": "甘肃省",
            "city": "武威市",
            "district": "凉州区"
        }
    },
    {
        "id": "14054143867006488459",
        "title": "公共厕所",
        "address": "甘肃省武威市民勤县民湖路与荣盛路交叉口正东方向674米左右",
        "tel": "",
        "category": "基础设施:公共设施:公共厕所",
        "type": 0,
        "location": {
            "lat": 38.63984,
            "lng": 103.118065
        },
        "ad_info": {
            "adcode": 620621,
            "province": "甘肃省",
            "city": "武威市",
            "district": "民勤县"
        }
    },
    {
        "id": "14232550937131538987",
        "title": "公共厕所",
        "address": "甘肃省武威市凉州区凉都大道与荣华西路交叉口正南方向301米左右",
        "tel": "",
        "category": "基础设施:公共设施:公共厕所",
        "type": 0,
        "location": {
            "lat": 37.917545,
            "lng": 102.657242
        },
        "ad_info": {
            "adcode": 620602,
            "province": "甘肃省",
            "city": "武威市",
            "district": "凉州区"
        }
    },
    {
        "id": "10607356021792138184",
        "title": "公共厕所",
        "address": "甘肃省武威市凉州区G569与X159交叉口正东方向1531米左右",
        "tel": "",
        "category": "基础设施:公共设施:公共厕所",
        "type": 0,
        "location": {
            "lat": 37.975992,
            "lng": 102.385174
        },
        "ad_info": {
            "adcode": 620602,
            "province": "甘肃省",
            "city": "武威市",
            "district": "凉州区"
        }
    },
    {
        "id": "7400756861631115230",
        "title": "公共厕所",
        "address": "甘肃省武威市古浪县G312",
        "tel": "",
        "category": "基础设施:公共设施:公共厕所",
        "type": 0,
        "location": {
            "lat": 37.424088,
            "lng": 102.88438
        },
        "ad_info": {
            "adcode": 620622,
            "province": "甘肃省",
            "city": "武威市",
            "district": "古浪县"
        }
    },
    {
        "id": "9667759191210731603",
        "title": "公共厕所",
        "address": "甘肃省武威市凉州区G312与Y296交叉口正北方向109米左右",
        "tel": "",
        "category": "基础设施:公共设施:公共厕所",
        "type": 0,
        "location": {
            "lat": 38.071184,
            "lng": 102.36629
        },
        "ad_info": {
            "adcode": 620602,
            "province": "甘肃省",
            "city": "武威市",
            "district": "凉州区"
        }
    },
    {
        "id": "5601744795209343931",
        "title": "公共厕所",
        "address": "甘肃省武威市天祝藏族自治县G312与G338交叉口正西方向97米左右",
        "tel": "",
        "category": "基础设施:公共设施:公共厕所",
        "type": 0,
        "location": {
            "lat": 37.016591,
            "lng": 103.095412
        },
        "ad_info": {
            "adcode": 620623,
            "province": "甘肃省",
            "city": "武威市",
            "district": "天祝藏族自治县"
        }
    }
]