[
    {
        "id": "14494893077591425764",
        "title": "公共厕所",
        "address": "湖南省永州市冷水滩区九嶷巷与精品步行街交叉口正北方向43米左右",
        "tel": "",
        "category": "基础设施:公共设施:公共厕所",
        "type": 0,
        "location": {
            "lat": 26.445355,
            "lng": 111.59576
        },
        "ad_info": {
            "adcode": 431103,
            "province": "湖南省",
            "city": "永州市",
            "district": "冷水滩区"
        }
    },
    {
        "id": "16622277873015703102",
        "title": "公共厕所",
        "address": "湖南省永州市道县建新街与潇水中路交叉口正西方向84米左右",
        "tel": "",
        "category": "基础设施:公共设施:公共厕所",
        "type": 0,
        "location": {
            "lat": 25.51691,
            "lng": 111.592195
        },
        "ad_info": {
            "adcode": 431124,
            "province": "湖南省",
            "city": "永州市",
            "district": "道县"
        }
    },
    {
        "id": "4873934560963148059",
        "title": "公共厕所",
        "address": "湖南省永州市零陵区潇水西路与零陵东风大桥交叉口西南方向161米左右",
        "tel": "",
        "category": "基础设施:公共设施:公共厕所",
        "type": 0,
        "location": {
            "lat": 26.219496,
            "lng": 111.609869
        },
        "ad_info": {
            "adcode": 431102,
            "province": "湖南省",
            "city": "永州市",
            "district": "零陵区"
        }
    },
    {
        "id": "4111632794386536276",
        "title": "公共厕所",
        "address": "湖南省永州市零陵区神仙岭路与菱角塘路交叉口东南方向41米左右",
        "tel": "",
        "category": "基础设施:公共设施:公共厕所",
        "type": 0,
        "location": {
            "lat": 26.229212,
            "lng": 111.62508
        },
        "ad_info": {
            "adcode": 431102,
            "province": "湖南省",
            "city": "永州市",
            "district": "零陵区"
        }
    },
    {
        "id": "893182825899607986",
        "title": "公共厕所",
        "address": "湖南省永州市零陵区光明新路与黄盖路交叉口正南方向82米左右",
        "tel": "",
        "category": "基础设施:公共设施:公共厕所",
        "type": 0,
        "location": {
            "lat": 26.248106,
            "lng": 111.630491
        },
        "ad_info": {
            "adcode": 431102,
            "province": "湖南省",
            "city": "永州市",
            "district": "零陵区"
        }
    },
    {
        "id": "15817967852779740898",
        "title": "公共厕所",
        "address": "湖南省永州市零陵区南津北路155号",
        "tel": "",
        "category": "基础设施:公共设施:公共厕所",
        "type": 0,
        "location": {
            "lat": 26.240097,
            "lng": 111.630584
        },
        "ad_info": {
            "adcode": 431102,
            "province": "湖南省",
            "city": "永州市",
            "district": "零陵区"
        }
    },
    {
        "id": "1592588187177523360",
        "title": "公共厕所",
        "address": "湖南省永州市冷水滩区广场路与潇湘大道交叉口西南方向177米左右",
        "tel": "",
        "category": "基础设施:公共设施:公共厕所",
        "type": 0,
        "location": {
            "lat": 26.454922,
            "lng": 111.57268
        },
        "ad_info": {
            "adcode": 431103,
            "province": "湖南省",
            "city": "永州市",
            "district": "冷水滩区"
        }
    },
    {
        "id": "2929951545956829450",
        "title": "公共厕所",
        "address": "湖南省永州市零陵区中山南路永州市三中",
        "tel": "",
        "category": "基础设施:公共设施:公共厕所",
        "type": 0,
        "location": {
            "lat": 26.208658,
            "lng": 111.618488
        },
        "ad_info": {
            "adcode": 431102,
            "province": "湖南省",
            "city": "永州市",
            "district": "零陵区"
        }
    },
    {
        "id": "6002864779048384962",
        "title": "公共厕所",
        "address": "湖南省永州市零陵区柳子街与萍阳南路交叉口西北方向212米左右",
        "tel": "",
        "category": "基础设施:公共设施:公共厕所",
        "type": 0,
        "location": {
            "lat": 26.217945,
            "lng": 111.609572
        },
        "ad_info": {
            "adcode": 431102,
            "province": "湖南省",
            "city": "永州市",
            "district": "零陵区"
        }
    },
    {
        "id": "10988700410902951339",
        "title": "公共厕所",
        "address": "湖南省永州市零陵区萍阳南路141号",
        "tel": "",
        "category": "基础设施:公共设施:公共厕所",
        "type": 0,
        "location": {
            "lat": 26.217093,
            "lng": 111.610395
        },
        "ad_info": {
            "adcode": 431102,
            "province": "湖南省",
            "city": "永州市",
            "district": "零陵区"
        }
    },
    {
        "id": "3164450724105705703",
        "title": "公共厕所",
        "address": "湖南省永州市零陵区司马塘路与芝山路交叉口西北方向196米左右",
        "tel": "",
        "category": "基础设施:公共设施:公共厕所",
        "type": 0,
        "location": {
            "lat": 26.226116,
            "lng": 111.618048
        },
        "ad_info": {
            "adcode": 431102,
            "province": "湖南省",
            "city": "永州市",
            "district": "零陵区"
        }
    },
    {
        "id": "15455328088115390998",
        "title": "公共厕所",
        "address": "湖南省永州市冷水滩区火车站",
        "tel": "",
        "category": "基础设施:公共设施:公共厕所",
        "type": 0,
        "location": {
            "lat": 26.453257,
            "lng": 111.572742
        },
        "ad_info": {
            "adcode": 431103,
            "province": "湖南省",
            "city": "永州市",
            "district": "冷水滩区"
        }
    },
    {
        "id": "10359856553441350114",
        "title": "公共厕所",
        "address": "湖南省永州市冷水滩区湘江西路与觅湘路交叉口西南方向63米左右",
        "tel": "",
        "category": "基础设施:公共设施:公共厕所",
        "type": 0,
        "location": {
            "lat": 26.442342,
            "lng": 111.59732
        },
        "ad_info": {
            "adcode": 431103,
            "province": "湖南省",
            "city": "永州市",
            "district": "冷水滩区"
        }
    },
    {
        "id": "13268145833407423517",
        "title": "公共厕所",
        "address": "湖南省永州市零陵区南津北路与南津路交叉口正南方向110米左右",
        "tel": "",
        "category": "基础设施:公共设施:公共厕所",
        "type": 0,
        "location": {
            "lat": 26.229624,
            "lng": 111.630965
        },
        "ad_info": {
            "adcode": 431102,
            "province": "湖南省",
            "city": "永州市",
            "district": "零陵区"
        }
    },
    {
        "id": "3881430534821299005",
        "title": "公共厕所",
        "address": "湖南省永州市零陵区中山南路与水晶巷交叉口西南方向44米左右",
        "tel": "",
        "category": "基础设施:公共设施:公共厕所",
        "type": 0,
        "location": {
            "lat": 26.216505,
            "lng": 111.616948
        },
        "ad_info": {
            "adcode": 431102,
            "province": "湖南省",
            "city": "永州市",
            "district": "零陵区"
        }
    },
    {
        "id": "15191842423612831889",
        "title": "公共厕所",
        "address": "湖南省永州市零陵区南津路与潇水中路二巷交叉口东南方向154米左右",
        "tel": "",
        "category": "基础设施:公共设施:公共厕所",
        "type": 0,
        "location": {
            "lat": 26.219241,
            "lng": 111.632882
        },
        "ad_info": {
            "adcode": 431102,
            "province": "湖南省",
            "city": "永州市",
            "district": "零陵区"
        }
    },
    {
        "id": "12334224686842380810",
        "title": "公共厕所",
        "address": "湖南省永州市零陵区五里堆路与工业大道交叉口东北方向221米左右",
        "tel": "",
        "category": "基础设施:公共设施:公共厕所",
        "type": 0,
        "location": {
            "lat": 26.202999,
            "lng": 111.581482
        },
        "ad_info": {
            "adcode": 431102,
            "province": "湖南省",
            "city": "永州市",
            "district": "零陵区"
        }
    },
    {
        "id": "850983183464157791",
        "title": "公共厕所",
        "address": "湖南省永州市冷水滩区育才路与进贤二巷交叉口西南方向26米左右",
        "tel": "",
        "category": "基础设施:公共设施:公共厕所",
        "type": 0,
        "location": {
            "lat": 26.412829,
            "lng": 111.621056
        },
        "ad_info": {
            "adcode": 431103,
            "province": "湖南省",
            "city": "永州市",
            "district": "冷水滩区"
        }
    },
    {
        "id": "2593301712956940295",
        "title": "公共厕所",
        "address": "湖南省永州市零陵区黄古山东路与黄泥塘路交叉口西南方向79米左右",
        "tel": "",
        "category": "基础设施:公共设施:公共厕所",
        "type": 0,
        "location": {
            "lat": 26.230484,
            "lng": 111.632911
        },
        "ad_info": {
            "adcode": 431102,
            "province": "湖南省",
            "city": "永州市",
            "district": "零陵区"
        }
    },
    {
        "id": "6613040595392710720",
        "title": "公共厕所",
        "address": "湖南省永州市零陵区萍阳北路58号",
        "tel": "",
        "category": "基础设施:公共设施:公共厕所",
        "type": 0,
        "location": {
            "lat": 26.225277,
            "lng": 111.61113
        },
        "ad_info": {
            "adcode": 431102,
            "province": "湖南省",
            "city": "永州市",
            "district": "零陵区"
        }
    },
    {
        "id": "10365595237114038075",
        "title": "公共厕所",
        "address": "湖南省永州市零陵区南津南路与百万庄8号路交叉口西南方向42米左右",
        "tel": "",
        "category": "基础设施:公共设施:公共厕所",
        "type": 0,
        "location": {
            "lat": 26.214372,
            "lng": 111.630733
        },
        "ad_info": {
            "adcode": 431102,
            "province": "湖南省",
            "city": "永州市",
            "district": "零陵区"
        }
    },
    {
        "id": "18190956077231587885",
        "title": "公共厕所",
        "address": "湖南省永州市零陵区南津路与菱角塘路交叉口正北方向203米左右",
        "tel": "",
        "category": "基础设施:公共设施:公共厕所",
        "type": 0,
        "location": {
            "lat": 26.226883,
            "lng": 111.631143
        },
        "ad_info": {
            "adcode": 431102,
            "province": "湖南省",
            "city": "永州市",
            "district": "零陵区"
        }
    },
    {
        "id": "11946883753349122519",
        "title": "公共厕所",
        "address": "湖南省永州市零陵区芝山北路与荔枝西路交叉口正北方向77米左右",
        "tel": "",
        "category": "基础设施:公共设施:公共厕所",
        "type": 0,
        "location": {
            "lat": 26.236905,
            "lng": 111.622585
        },
        "ad_info": {
            "adcode": 431102,
            "province": "湖南省",
            "city": "永州市",
            "district": "零陵区"
        }
    },
    {
        "id": "15298808054534249952",
        "title": "公共厕所",
        "address": "湖南省永州市零陵区太平路与正大街交叉口正南方向15米左右",
        "tel": "",
        "category": "基础设施:公共设施:公共厕所",
        "type": 0,
        "location": {
            "lat": 26.210719,
            "lng": 111.614785
        },
        "ad_info": {
            "adcode": 431102,
            "province": "湖南省",
            "city": "永州市",
            "district": "零陵区"
        }
    },
    {
        "id": "10042753655907866399",
        "title": "公共厕所",
        "address": "湖南省永州市零陵区南津路与菱角塘路交叉口西南方向403米左右",
        "tel": "",
        "category": "基础设施:公共设施:公共厕所",
        "type": 0,
        "location": {
            "lat": 26.222475,
            "lng": 111.628162
        },
        "ad_info": {
            "adcode": 431102,
            "province": "湖南省",
            "city": "永州市",
            "district": "零陵区"
        }
    },
    {
        "id": "14774477918965328974",
        "title": "公共厕所",
        "address": "湖南省永州市冷水滩区九嶷巷与零陵中路交叉口西北方向65米左右",
        "tel": "",
        "category": "基础设施:公共设施:公共厕所",
        "type": 0,
        "location": {
            "lat": 26.446456,
            "lng": 111.594775
        },
        "ad_info": {
            "adcode": 431103,
            "province": "湖南省",
            "city": "永州市",
            "district": "冷水滩区"
        }
    },
    {
        "id": "10167665150513790720",
        "title": "公共厕所",
        "address": "湖南省永州市冷水滩区冷东公路与安康路交叉口正南方向91米左右",
        "tel": "",
        "category": "基础设施:公共设施:公共厕所",
        "type": 0,
        "location": {
            "lat": 26.41876,
            "lng": 111.58478
        },
        "ad_info": {
            "adcode": 431103,
            "province": "湖南省",
            "city": "永州市",
            "district": "冷水滩区"
        }
    },
    {
        "id": "10707486459236221549",
        "title": "公共厕所",
        "address": "湖南省永州市冷水滩区梧桐路与车站路交叉口正北方向82米左右",
        "tel": "",
        "category": "基础设施:公共设施:公共厕所",
        "type": 0,
        "location": {
            "lat": 26.46042,
            "lng": 111.593707
        },
        "ad_info": {
            "adcode": 431103,
            "province": "湖南省",
            "city": "永州市",
            "district": "冷水滩区"
        }
    },
    {
        "id": "8680249616519924224",
        "title": "公共厕所",
        "address": "湖南省永州市双牌县双电西路与阳明路交叉口正北方向120米左右",
        "tel": "",
        "category": "基础设施:公共设施:公共厕所",
        "type": 0,
        "location": {
            "lat": 25.962094,
            "lng": 111.666561
        },
        "ad_info": {
            "adcode": 431123,
            "province": "湖南省",
            "city": "永州市",
            "district": "双牌县"
        }
    },
    {
        "id": "7275462007667913438",
        "title": "公共厕所",
        "address": "湖南省永州市冷水滩区百花路与育才路交叉口西南方向57米左右",
        "tel": "",
        "category": "基础设施:公共设施:公共厕所",
        "type": 0,
        "location": {
            "lat": 26.428709,
            "lng": 111.620851
        },
        "ad_info": {
            "adcode": 431103,
            "province": "湖南省",
            "city": "永州市",
            "district": "冷水滩区"
        }
    },
    {
        "id": "14848450500476540764",
        "title": "公共厕所",
        "address": "湖南省永州市新田县双碧街与支二路交叉口东北方向259米左右",
        "tel": "",
        "category": "基础设施:公共设施:公共厕所",
        "type": 0,
        "location": {
            "lat": 25.895582,
            "lng": 112.199491
        },
        "ad_info": {
            "adcode": 431128,
            "province": "湖南省",
            "city": "永州市",
            "district": "新田县"
        }
    },
    {
        "id": "14700976265295638818",
        "title": "公共厕所",
        "address": "湖南省永州市东安县东安大道与林角路交叉口正西方向58米左右",
        "tel": "",
        "category": "基础设施:公共设施:公共厕所",
        "type": 0,
        "location": {
            "lat": 26.390347,
            "lng": 111.333259
        },
        "ad_info": {
            "adcode": 431122,
            "province": "湖南省",
            "city": "永州市",
            "district": "东安县"
        }
    },
    {
        "id": "16559581128173036761",
        "title": "公共厕所",
        "address": "湖南省永州市道县厦蓉高速与道州枢纽交叉口西北方向732米左右",
        "tel": "",
        "category": "基础设施:公共设施:公共厕所",
        "type": 0,
        "location": {
            "lat": 25.458661,
            "lng": 111.588254
        },
        "ad_info": {
            "adcode": 431124,
            "province": "湖南省",
            "city": "永州市",
            "district": "道县"
        }
    },
    {
        "id": "9930850466756420143",
        "title": "公共厕所",
        "address": "湖南省永州市冷水滩区传芳路与站前南路交叉口正西方向107米左右",
        "tel": "",
        "category": "基础设施:公共设施:公共厕所",
        "type": 0,
        "location": {
            "lat": 26.449462,
            "lng": 111.577406
        },
        "ad_info": {
            "adcode": 431103,
            "province": "湖南省",
            "city": "永州市",
            "district": "冷水滩区"
        }
    },
    {
        "id": "17828127390441864366",
        "title": "公共厕所",
        "address": "湖南省永州市双牌县潇水路与紫金北路交叉口西南方向130米左右",
        "tel": "",
        "category": "基础设施:公共设施:公共厕所",
        "type": 0,
        "location": {
            "lat": 25.974842,
            "lng": 111.662304
        },
        "ad_info": {
            "adcode": 431123,
            "province": "湖南省",
            "city": "永州市",
            "district": "双牌县"
        }
    },
    {
        "id": "15218651424625572747",
        "title": "公共厕所",
        "address": "湖南省永州市零陵区司马塘路永州商业城(西北角)",
        "tel": "",
        "category": "基础设施:公共设施:公共厕所",
        "type": 0,
        "location": {
            "lat": 26.225727,
            "lng": 111.618213
        },
        "ad_info": {
            "adcode": 431102,
            "province": "湖南省",
            "city": "永州市",
            "district": "零陵区"
        }
    },
    {
        "id": "12455573941373549862",
        "title": "公共厕所",
        "address": "湖南省永州市祁阳市椒山北路与泰安路交叉口正东方向87米左右",
        "tel": "",
        "category": "基础设施:公共设施:公共厕所",
        "type": 0,
        "location": {
            "lat": 26.583728,
            "lng": 111.858348
        },
        "ad_info": {
            "adcode": 431181,
            "province": "湖南省",
            "city": "永州市",
            "district": "祁阳市"
        }
    },
    {
        "id": "6447710454169356170",
        "title": "公共厕所",
        "address": "湖南省永州市零陵区322国道北50米",
        "tel": "",
        "category": "基础设施:公共设施:公共厕所",
        "type": 0,
        "location": {
            "lat": 26.199218,
            "lng": 111.447747
        },
        "ad_info": {
            "adcode": 431102,
            "province": "湖南省",
            "city": "永州市",
            "district": "零陵区"
        }
    },
    {
        "id": "15563808541457543561",
        "title": "公共厕所",
        "address": "湖南省永州市冷水滩区虹桥路与陶源路交叉口东北方向36米左右",
        "tel": "",
        "category": "基础设施:公共设施:公共厕所",
        "type": 0,
        "location": {
            "lat": 26.480749,
            "lng": 111.583451
        },
        "ad_info": {
            "adcode": 431103,
            "province": "湖南省",
            "city": "永州市",
            "district": "冷水滩区"
        }
    },
    {
        "id": "10389435034891882353",
        "title": "公共厕所",
        "address": "湖南省永州市东安县东安大道辅路与东山路交叉口正南方向52米左右",
        "tel": "",
        "category": "基础设施:公共设施:公共厕所",
        "type": 0,
        "location": {
            "lat": 26.394647,
            "lng": 111.314869
        },
        "ad_info": {
            "adcode": 431122,
            "province": "湖南省",
            "city": "永州市",
            "district": "东安县"
        }
    },
    {
        "id": "17900563897240339522",
        "title": "公共厕所",
        "address": "湖南省永州市冷水滩区双洲路178号正南方向40米",
        "tel": "",
        "category": "基础设施:公共设施:公共厕所",
        "type": 0,
        "location": {
            "lat": 26.425052,
            "lng": 111.617931
        },
        "ad_info": {
            "adcode": 431103,
            "province": "湖南省",
            "city": "永州市",
            "district": "冷水滩区"
        }
    },
    {
        "id": "17006010919929398193",
        "title": "公共厕所",
        "address": "湖南省永州市冷水滩区永州大道与长丰大道交叉口西南方向418米左右",
        "tel": "",
        "category": "基础设施:公共设施:公共厕所",
        "type": 0,
        "location": {
            "lat": 26.401936,
            "lng": 111.62363
        },
        "ad_info": {
            "adcode": 431103,
            "province": "湖南省",
            "city": "永州市",
            "district": "冷水滩区"
        }
    },
    {
        "id": "11854744211452603031",
        "title": "公共厕所",
        "address": "湖南省永州市东安县石期市镇新街市场旁",
        "tel": "",
        "category": "基础设施:公共设施:公共厕所",
        "type": 0,
        "location": {
            "lat": 26.269892,
            "lng": 111.439438
        },
        "ad_info": {
            "adcode": 431122,
            "province": "湖南省",
            "city": "永州市",
            "district": "东安县"
        }
    },
    {
        "id": "3280615829101192162",
        "title": "公共厕所",
        "address": "湖南省永州市冷水滩区百业街与育才路交叉口正南方向125米左右",
        "tel": "",
        "category": "基础设施:公共设施:公共厕所",
        "type": 0,
        "location": {
            "lat": 26.437772,
            "lng": 111.620863
        },
        "ad_info": {
            "adcode": 431103,
            "province": "湖南省",
            "city": "永州市",
            "district": "冷水滩区"
        }
    },
    {
        "id": "18182823071928146159",
        "title": "公共厕所",
        "address": "湖南省永州市零陵区七层坡与七层坡路交叉口东北方向37米左右",
        "tel": "",
        "category": "基础设施:公共设施:公共厕所",
        "type": 0,
        "location": {
            "lat": 26.214158,
            "lng": 111.614442
        },
        "ad_info": {
            "adcode": 431102,
            "province": "湖南省",
            "city": "永州市",
            "district": "零陵区"
        }
    },
    {
        "id": "8654645694983101271",
        "title": "公共厕所",
        "address": "湖南省永州市双牌县S230与S343交叉口东南方向544米左右",
        "tel": "",
        "category": "基础设施:公共设施:公共厕所",
        "type": 0,
        "location": {
            "lat": 26.007877,
            "lng": 111.868964
        },
        "ad_info": {
            "adcode": 431123,
            "province": "湖南省",
            "city": "永州市",
            "district": "双牌县"
        }
    },
    {
        "id": "7301376290221344823",
        "title": "公共厕所",
        "address": "湖南省永州市江永县幸福路与知青路交叉口西南方向285米左右",
        "tel": "",
        "category": "基础设施:公共设施:公共厕所",
        "type": 0,
        "location": {
            "lat": 25.267821,
            "lng": 111.35029
        },
        "ad_info": {
            "adcode": 431125,
            "province": "湖南省",
            "city": "永州市",
            "district": "江永县"
        }
    },
    {
        "id": "911557700434988383",
        "title": "公共厕所",
        "address": "湖南省永州市祁阳市民生南路与百花路交叉口东北方向175米左右",
        "tel": "",
        "category": "基础设施:公共设施:公共厕所",
        "type": 0,
        "location": {
            "lat": 26.59055,
            "lng": 111.864302
        },
        "ad_info": {
            "adcode": 431181,
            "province": "湖南省",
            "city": "永州市",
            "district": "祁阳市"
        }
    },
    {
        "id": "17320488323950088551",
        "title": "公共厕所",
        "address": "湖南省永州市零陵区中山南路与水晶巷交叉口正东方向325米左右",
        "tel": "",
        "category": "基础设施:公共设施:公共厕所",
        "type": 0,
        "location": {
            "lat": 26.216008,
            "lng": 111.620318
        },
        "ad_info": {
            "adcode": 431102,
            "province": "湖南省",
            "city": "永州市",
            "district": "零陵区"
        }
    },
    {
        "id": "13100493266279619173",
        "title": "公共厕所",
        "address": "湖南省永州市双牌县永贺高速与永道高速交叉口西北方向1442米左右",
        "tel": "",
        "category": "基础设施:公共设施:公共厕所",
        "type": 0,
        "location": {
            "lat": 25.716066,
            "lng": 111.605733
        },
        "ad_info": {
            "adcode": 431123,
            "province": "湖南省",
            "city": "永州市",
            "district": "双牌县"
        }
    },
    {
        "id": "4816086826088479059",
        "title": "公共厕所",
        "address": "湖南省永州市零陵区前进街七层坡市场(七层坡小学东南)",
        "tel": "",
        "category": "基础设施:公共设施:公共厕所",
        "type": 0,
        "location": {
            "lat": 26.214516,
            "lng": 111.616143
        },
        "ad_info": {
            "adcode": 431102,
            "province": "湖南省",
            "city": "永州市",
            "district": "零陵区"
        }
    },
    {
        "id": "13634669496043979305",
        "title": "公共厕所",
        "address": "湖南省永州市冷水滩区怡苑路与零陵南路交叉口东南方向180米左右",
        "tel": "",
        "category": "基础设施:公共设施:公共厕所",
        "type": 0,
        "location": {
            "lat": 26.418796,
            "lng": 111.588739
        },
        "ad_info": {
            "adcode": 431103,
            "province": "湖南省",
            "city": "永州市",
            "district": "冷水滩区"
        }
    },
    {
        "id": "18209218683639113151",
        "title": "公共厕所",
        "address": "湖南省永州市道县月岩中路217号往西2000米道州火车站",
        "tel": "",
        "category": "基础设施:公共设施:公共厕所",
        "type": 0,
        "location": {
            "lat": 25.516395,
            "lng": 111.570045
        },
        "ad_info": {
            "adcode": 431124,
            "province": "湖南省",
            "city": "永州市",
            "district": "道县"
        }
    },
    {
        "id": "15235854733412976919",
        "title": "公共厕所",
        "address": "湖南省永州市祁阳市人民东路与小康路交叉口西北方向77米左右",
        "tel": "",
        "category": "基础设施:公共设施:公共厕所",
        "type": 0,
        "location": {
            "lat": 26.587427,
            "lng": 111.859284
        },
        "ad_info": {
            "adcode": 431181,
            "province": "湖南省",
            "city": "永州市",
            "district": "祁阳市"
        }
    },
    {
        "id": "15302452471108756941",
        "title": "公共厕所",
        "address": "湖南省永州市冷水滩区凤凰路与建材大道交叉口正东方向157米左右",
        "tel": "",
        "category": "基础设施:公共设施:公共厕所",
        "type": 0,
        "location": {
            "lat": 26.451796,
            "lng": 111.603156
        },
        "ad_info": {
            "adcode": 431103,
            "province": "湖南省",
            "city": "永州市",
            "district": "冷水滩区"
        }
    },
    {
        "id": "809612789560990160",
        "title": "公共厕所",
        "address": "湖南省永州市江永县325省道东50米",
        "tel": "",
        "category": "基础设施:公共设施:公共厕所",
        "type": 0,
        "location": {
            "lat": 25.346044,
            "lng": 111.44897
        },
        "ad_info": {
            "adcode": 431125,
            "province": "湖南省",
            "city": "永州市",
            "district": "江永县"
        }
    },
    {
        "id": "15021458512651561285",
        "title": "公共厕所",
        "address": "湖南省永州市零陵区太平路与正大街交叉口正北方向68米左右",
        "tel": "",
        "category": "基础设施:公共设施:公共厕所",
        "type": 0,
        "location": {
            "lat": 26.211464,
            "lng": 111.614902
        },
        "ad_info": {
            "adcode": 431102,
            "province": "湖南省",
            "city": "永州市",
            "district": "零陵区"
        }
    },
    {
        "id": "11710838692748495695",
        "title": "公共厕所",
        "address": "湖南省永州市冷水滩区观音街与觅湘路交叉口正南方向103米左右",
        "tel": "",
        "category": "基础设施:公共设施:公共厕所",
        "type": 0,
        "location": {
            "lat": 26.443859,
            "lng": 111.597702
        },
        "ad_info": {
            "adcode": 431103,
            "province": "湖南省",
            "city": "永州市",
            "district": "冷水滩区"
        }
    },
    {
        "id": "17999170848442035682",
        "title": "公共厕所",
        "address": "湖南省永州市冷水滩区月岩路与梧桐路交叉口正西方向173米左右",
        "tel": "",
        "category": "基础设施:公共设施:公共厕所",
        "type": 0,
        "location": {
            "lat": 26.459427,
            "lng": 111.603225
        },
        "ad_info": {
            "adcode": 431103,
            "province": "湖南省",
            "city": "永州市",
            "district": "冷水滩区"
        }
    },
    {
        "id": "12896477586048773600",
        "title": "公共厕所",
        "address": "湖南省永州市冷水滩区零陵路854号",
        "tel": "",
        "category": "基础设施:公共设施:公共厕所",
        "type": 0,
        "location": {
            "lat": 26.446763,
            "lng": 111.594597
        },
        "ad_info": {
            "adcode": 431103,
            "province": "湖南省",
            "city": "永州市",
            "district": "冷水滩区"
        }
    },
    {
        "id": "8833235665293047039",
        "title": "公共厕所",
        "address": "湖南省永州市祁阳市龙山路2号龙山公园",
        "tel": "",
        "category": "基础设施:公共设施:公共厕所",
        "type": 0,
        "location": {
            "lat": 26.588779,
            "lng": 111.869665
        },
        "ad_info": {
            "adcode": 431181,
            "province": "湖南省",
            "city": "永州市",
            "district": "祁阳市"
        }
    },
    {
        "id": "15239888276226036071",
        "title": "公共厕所",
        "address": "湖南省永州市零陵区东门岭路与黄溪岭路交叉口正西方向69米左右",
        "tel": "",
        "category": "基础设施:公共设施:公共厕所",
        "type": 0,
        "location": {
            "lat": 26.213029,
            "lng": 111.618339
        },
        "ad_info": {
            "adcode": 431102,
            "province": "湖南省",
            "city": "永州市",
            "district": "零陵区"
        }
    },
    {
        "id": "4779505735662889605",
        "title": "公共厕所",
        "address": "湖南省永州市冷水滩区人和路与谢家三巷交叉口正东方向71米左右",
        "tel": "",
        "category": "基础设施:公共设施:公共厕所",
        "type": 0,
        "location": {
            "lat": 26.428113,
            "lng": 111.610421
        },
        "ad_info": {
            "adcode": 431103,
            "province": "湖南省",
            "city": "永州市",
            "district": "冷水滩区"
        }
    },
    {
        "id": "2292231050239243413",
        "title": "公共厕所",
        "address": "湖南省永州市零陵区G322与六合路交叉口东北方向1973米左右",
        "tel": "",
        "category": "基础设施:公共设施:公共厕所",
        "type": 0,
        "location": {
            "lat": 26.275397,
            "lng": 111.655994
        },
        "ad_info": {
            "adcode": 431102,
            "province": "湖南省",
            "city": "永州市",
            "district": "零陵区"
        }
    },
    {
        "id": "16618325588465783970",
        "title": "公共厕所",
        "address": "湖南省永州市祁阳市书岩路与文昌街交叉口东北方向202米左右",
        "tel": "",
        "category": "基础设施:公共设施:公共厕所",
        "type": 0,
        "location": {
            "lat": 26.586458,
            "lng": 111.883476
        },
        "ad_info": {
            "adcode": 431181,
            "province": "湖南省",
            "city": "永州市",
            "district": "祁阳市"
        }
    },
    {
        "id": "3292047963494520971",
        "title": "公共厕所",
        "address": "湖南省永州市冷水滩区珊瑚路江南幸福里对面",
        "tel": "",
        "category": "基础设施:公共设施:公共厕所",
        "type": 0,
        "location": {
            "lat": 26.454929,
            "lng": 111.607542
        },
        "ad_info": {
            "adcode": 431103,
            "province": "湖南省",
            "city": "永州市",
            "district": "冷水滩区"
        }
    },
    {
        "id": "8343727754180763774",
        "title": "公共厕所",
        "address": "湖南省永州市冷水滩区春江路与谷源路交叉口东南方向456米左右",
        "tel": "",
        "category": "基础设施:公共设施:公共厕所",
        "type": 0,
        "location": {
            "lat": 26.488865,
            "lng": 111.609576
        },
        "ad_info": {
            "adcode": 431103,
            "province": "湖南省",
            "city": "永州市",
            "district": "冷水滩区"
        }
    },
    {
        "id": "3122092479255286007",
        "title": "公共厕所",
        "address": "湖南省永州市双牌县216省道北100米",
        "tel": "",
        "category": "基础设施:公共设施:公共厕所",
        "type": 0,
        "location": {
            "lat": 25.957477,
            "lng": 111.884961
        },
        "ad_info": {
            "adcode": 431123,
            "province": "湖南省",
            "city": "永州市",
            "district": "双牌县"
        }
    },
    {
        "id": "15207690076777669376",
        "title": "公共厕所",
        "address": "湖南省永州市冷水滩区毛里山路与银象路交叉口正南方向84米左右",
        "tel": "",
        "category": "基础设施:公共设施:公共厕所",
        "type": 0,
        "location": {
            "lat": 26.477433,
            "lng": 111.590573
        },
        "ad_info": {
            "adcode": 431103,
            "province": "湖南省",
            "city": "永州市",
            "district": "冷水滩区"
        }
    },
    {
        "id": "13506446722187938847",
        "title": "公共厕所",
        "address": "湖南省永州市冷水滩区上李家巷32号",
        "tel": "",
        "category": "基础设施:公共设施:公共厕所",
        "type": 0,
        "location": {
            "lat": 26.467084,
            "lng": 111.601623
        },
        "ad_info": {
            "adcode": 431103,
            "province": "湖南省",
            "city": "永州市",
            "district": "冷水滩区"
        }
    },
    {
        "id": "16392705624165977547",
        "title": "公共厕所",
        "address": "湖南省永州市冷水滩区潇湘大道与站前南路交叉口东南方向124米左右",
        "tel": "",
        "category": "基础设施:公共设施:公共厕所",
        "type": 0,
        "location": {
            "lat": 26.448726,
            "lng": 111.574958
        },
        "ad_info": {
            "adcode": 431103,
            "province": "湖南省",
            "city": "永州市",
            "district": "冷水滩区"
        }
    },
    {
        "id": "5192793371379238878",
        "title": "公共厕所",
        "address": "湖南省永州市冷水滩区湘江东路与长丰大道交叉口西北方向50米左右",
        "tel": "",
        "category": "基础设施:公共设施:公共厕所",
        "type": 0,
        "location": {
            "lat": 26.405159,
            "lng": 111.620541
        },
        "ad_info": {
            "adcode": 431103,
            "province": "湖南省",
            "city": "永州市",
            "district": "冷水滩区"
        }
    },
    {
        "id": "2701272992765002981",
        "title": "公共厕所",
        "address": "湖南省永州市冷水滩区S217与花桥街互通交叉口正东方向33米左右",
        "tel": "",
        "category": "基础设施:公共设施:公共厕所",
        "type": 0,
        "location": {
            "lat": 26.657473,
            "lng": 111.50087
        },
        "ad_info": {
            "adcode": 431103,
            "province": "湖南省",
            "city": "永州市",
            "district": "冷水滩区"
        }
    },
    {
        "id": "7678388002135864928",
        "title": "公共厕所",
        "address": "湖南省永州市新田县双碧街新田汽车站",
        "tel": "",
        "category": "基础设施:公共设施:公共厕所",
        "type": 0,
        "location": {
            "lat": 25.917839,
            "lng": 112.191827
        },
        "ad_info": {
            "adcode": 431128,
            "province": "湖南省",
            "city": "永州市",
            "district": "新田县"
        }
    },
    {
        "id": "10866241464302690838",
        "title": "公共厕所",
        "address": "湖南省永州市冷水滩区天桥路与珊瑚路交叉口西南方向81米左右",
        "tel": "",
        "category": "基础设施:公共设施:公共厕所",
        "type": 0,
        "location": {
            "lat": 26.453569,
            "lng": 111.600791
        },
        "ad_info": {
            "adcode": 431103,
            "province": "湖南省",
            "city": "永州市",
            "district": "冷水滩区"
        }
    },
    {
        "id": "3926654575054149621",
        "title": "公共厕所",
        "address": "湖南省永州市冷水滩区X012与永州北互通交叉口正南方向284米左右",
        "tel": "",
        "category": "基础设施:公共设施:公共厕所",
        "type": 0,
        "location": {
            "lat": 26.522923,
            "lng": 111.585121
        },
        "ad_info": {
            "adcode": 431103,
            "province": "湖南省",
            "city": "永州市",
            "district": "冷水滩区"
        }
    },
    {
        "id": "16241472761777861430",
        "title": "公共厕所",
        "address": "湖南省永州市零陵区回龙塔路与黄古山中路交叉口西南方向236米左右",
        "tel": "",
        "category": "基础设施:公共设施:公共厕所",
        "type": 0,
        "location": {
            "lat": 26.227831,
            "lng": 111.6195
        },
        "ad_info": {
            "adcode": 431102,
            "province": "湖南省",
            "city": "永州市",
            "district": "零陵区"
        }
    },
    {
        "id": "10220033829490891550",
        "title": "公共厕所",
        "address": "湖南省永州市新田县中山路与兴新街交叉口正西方向97米左右",
        "tel": "",
        "category": "基础设施:公共设施:公共厕所",
        "type": 0,
        "location": {
            "lat": 25.908577,
            "lng": 112.220973
        },
        "ad_info": {
            "adcode": 431128,
            "province": "湖南省",
            "city": "永州市",
            "district": "新田县"
        }
    },
    {
        "id": "6314707791253980803",
        "title": "公共厕所",
        "address": "湖南省永州市冷水滩区伍家院街与杨家巷交叉口正北方向144米左右",
        "tel": "",
        "category": "基础设施:公共设施:公共厕所",
        "type": 0,
        "location": {
            "lat": 26.439614,
            "lng": 111.591897
        },
        "ad_info": {
            "adcode": 431103,
            "province": "湖南省",
            "city": "永州市",
            "district": "冷水滩区"
        }
    },
    {
        "id": "4993595712793931721",
        "title": "公共厕所",
        "address": "湖南省永州市东安县东新路与建设大道交叉口东南方向111米左右",
        "tel": "",
        "category": "基础设施:公共设施:公共厕所",
        "type": 0,
        "location": {
            "lat": 26.39567,
            "lng": 111.296096
        },
        "ad_info": {
            "adcode": 431122,
            "province": "湖南省",
            "city": "永州市",
            "district": "东安县"
        }
    },
    {
        "id": "11075742713626120435",
        "title": "公共厕所",
        "address": "湖南省永州市冷水滩区冷东公路与潇湘大道交叉口正西方向1590米左右",
        "tel": "",
        "category": "基础设施:公共设施:公共厕所",
        "type": 0,
        "location": {
            "lat": 26.415847,
            "lng": 111.558242
        },
        "ad_info": {
            "adcode": 431103,
            "province": "湖南省",
            "city": "永州市",
            "district": "冷水滩区"
        }
    },
    {
        "id": "8295815560154805811",
        "title": "公共厕所",
        "address": "湖南省永州市新田县府东路与新嘉公路交叉口东南方向143米左右",
        "tel": "",
        "category": "基础设施:公共设施:公共厕所",
        "type": 0,
        "location": {
            "lat": 25.900597,
            "lng": 112.206541
        },
        "ad_info": {
            "adcode": 431128,
            "province": "湖南省",
            "city": "永州市",
            "district": "新田县"
        }
    },
    {
        "id": "3509322984350406609",
        "title": "公共厕所",
        "address": "湖南省永州市蓝山县216省道与G55二广高速出口交叉口西北50米",
        "tel": "",
        "category": "基础设施:公共设施:公共厕所",
        "type": 0,
        "location": {
            "lat": 25.288754,
            "lng": 112.161419
        },
        "ad_info": {
            "adcode": 431127,
            "province": "湖南省",
            "city": "永州市",
            "district": "蓝山县"
        }
    },
    {
        "id": "3051293115910112890",
        "title": "公共厕所",
        "address": "湖南省永州市新田县东溪街与石马路交叉口西北方向33米左右",
        "tel": "",
        "category": "基础设施:公共设施:公共厕所",
        "type": 0,
        "location": {
            "lat": 25.910093,
            "lng": 112.199448
        },
        "ad_info": {
            "adcode": 431128,
            "province": "湖南省",
            "city": "永州市",
            "district": "新田县"
        }
    },
    {
        "id": "15650286706901750790",
        "title": "公共厕所",
        "address": "湖南省永州市蓝山县三中路与南平路交叉口正南方向38米左右",
        "tel": "",
        "category": "基础设施:公共设施:公共厕所",
        "type": 0,
        "location": {
            "lat": 25.381885,
            "lng": 112.200488
        },
        "ad_info": {
            "adcode": 431127,
            "province": "湖南省",
            "city": "永州市",
            "district": "蓝山县"
        }
    },
    {
        "id": "7774782232536196040",
        "title": "公共厕所",
        "address": "湖南省永州市祁阳市椒山南路51号",
        "tel": "",
        "category": "基础设施:公共设施:公共厕所",
        "type": 0,
        "location": {
            "lat": 26.580836,
            "lng": 111.856948
        },
        "ad_info": {
            "adcode": 431181,
            "province": "湖南省",
            "city": "永州市",
            "district": "祁阳市"
        }
    },
    {
        "id": "13189387069094283130",
        "title": "公共厕所",
        "address": "湖南省永州市蓝山县东方大道与创业大道交叉口正东方向226米左右",
        "tel": "",
        "category": "基础设施:公共设施:公共厕所",
        "type": 0,
        "location": {
            "lat": 25.396086,
            "lng": 112.213006
        },
        "ad_info": {
            "adcode": 431127,
            "province": "湖南省",
            "city": "永州市",
            "district": "蓝山县"
        }
    },
    {
        "id": "13208403017561312945",
        "title": "公共厕所",
        "address": "湖南省永州市祁阳市322国道西50米",
        "tel": "",
        "category": "基础设施:公共设施:公共厕所",
        "type": 0,
        "location": {
            "lat": 26.741339,
            "lng": 111.842648
        },
        "ad_info": {
            "adcode": 431181,
            "province": "湖南省",
            "city": "永州市",
            "district": "祁阳市"
        }
    },
    {
        "id": "18311536656611606199",
        "title": "万喜登酒店-洗手间",
        "address": "湖南省永州市冷水滩区天桥路与零陵中路交叉口正北方向24米左右",
        "tel": "",
        "category": "基础设施:公共设施:公共厕所",
        "type": 0,
        "location": {
            "lat": 26.448419,
            "lng": 111.59798
        },
        "ad_info": {
            "adcode": 431103,
            "province": "湖南省",
            "city": "永州市",
            "district": "冷水滩区"
        }
    },
    {
        "id": "18157536571085657517",
        "title": "公共厕所",
        "address": "湖南省永州市蓝山县二广高速与祠堂圩枢纽交叉口西北方向1845米左右",
        "tel": "",
        "category": "基础设施:公共设施:公共厕所",
        "type": 0,
        "location": {
            "lat": 25.520747,
            "lng": 112.110402
        },
        "ad_info": {
            "adcode": 431127,
            "province": "湖南省",
            "city": "永州市",
            "district": "蓝山县"
        }
    },
    {
        "id": "13967357267518393312",
        "title": "公共厕所",
        "address": "湖南省永州市江华瑶族自治县寿域路与阳华路交叉口西北方向100米左右",
        "tel": "",
        "category": "基础设施:公共设施:公共厕所",
        "type": 0,
        "location": {
            "lat": 25.182377,
            "lng": 111.574559
        },
        "ad_info": {
            "adcode": 431129,
            "province": "湖南省",
            "city": "永州市",
            "district": "江华瑶族自治县"
        }
    },
    {
        "id": "9759104490349797132",
        "title": "公共厕所",
        "address": "湖南省永州市宁远县G537与舂陵路交叉口正北方向260米左右",
        "tel": "",
        "category": "基础设施:公共设施:公共厕所",
        "type": 0,
        "location": {
            "lat": 25.619701,
            "lng": 111.951026
        },
        "ad_info": {
            "adcode": 431126,
            "province": "湖南省",
            "city": "永州市",
            "district": "宁远县"
        }
    },
    {
        "id": "10000129486373152322",
        "title": "公共厕所",
        "address": "湖南省永州市宁远县九疑南路与园艺路交叉口西南方向54米左右",
        "tel": "",
        "category": "基础设施:公共设施:公共厕所",
        "type": 0,
        "location": {
            "lat": 25.56412,
            "lng": 111.94978
        },
        "ad_info": {
            "adcode": 431126,
            "province": "湖南省",
            "city": "永州市",
            "district": "宁远县"
        }
    },
    {
        "id": "14612029932306523817",
        "title": "公共厕所",
        "address": "湖南省永州市宁远县印山路宁远八中",
        "tel": "",
        "category": "基础设施:公共设施:公共厕所",
        "type": 0,
        "location": {
            "lat": 25.568392,
            "lng": 111.945061
        },
        "ad_info": {
            "adcode": 431126,
            "province": "湖南省",
            "city": "永州市",
            "district": "宁远县"
        }
    },
    {
        "id": "13188023255920973480",
        "title": "公共厕所",
        "address": "湖南省永州市宁远县水市路与泠江中路交叉口东北方向106米左右",
        "tel": "",
        "category": "基础设施:公共设施:公共厕所",
        "type": 0,
        "location": {
            "lat": 25.58512,
            "lng": 111.94388
        },
        "ad_info": {
            "adcode": 431126,
            "province": "湖南省",
            "city": "永州市",
            "district": "宁远县"
        }
    },
    {
        "id": "2208885098481906157",
        "title": "公共厕所",
        "address": "湖南省永州市宁远县九疑南路与富民路交叉口正南方向85米左右",
        "tel": "",
        "category": "基础设施:公共设施:公共厕所",
        "type": 0,
        "location": {
            "lat": 25.57396,
            "lng": 111.94747
        },
        "ad_info": {
            "adcode": 431126,
            "province": "湖南省",
            "city": "永州市",
            "district": "宁远县"
        }
    },
    {
        "id": "10710753298208451035",
        "title": "阳明山服务区第一公共厕所",
        "address": "湖南省永州市双牌县二广高速",
        "tel": "",
        "category": "基础设施:公共设施:公共厕所",
        "type": 0,
        "location": {
            "lat": 26.081256,
            "lng": 111.820701
        },
        "ad_info": {
            "adcode": 431123,
            "province": "湖南省",
            "city": "永州市",
            "district": "双牌县"
        }
    },
    {
        "id": "6336174294164820833",
        "title": "阳明山服务区第一公共厕所",
        "address": "湖南省永州市双牌县茶林镇二广高速公路阳明山服务区附近",
        "tel": "",
        "category": "基础设施:公共设施:公共厕所",
        "type": 0,
        "location": {
            "lat": 26.080577,
            "lng": 111.823048
        },
        "ad_info": {
            "adcode": 431123,
            "province": "湖南省",
            "city": "永州市",
            "district": "双牌县"
        }
    },
    {
        "id": "9495345751943261894",
        "title": "阳明山服务区第二公共厕所",
        "address": "湖南省永州市双牌县二广高速阳明山服务区",
        "tel": "",
        "category": "基础设施:公共设施:公共厕所",
        "type": 0,
        "location": {
            "lat": 26.080506,
            "lng": 111.82151
        },
        "ad_info": {
            "adcode": 431123,
            "province": "湖南省",
            "city": "永州市",
            "district": "双牌县"
        }
    },
    {
        "id": "13690069740059394557",
        "title": "公共厕所",
        "address": "湖南省永州市宁远县九亿街与重华北路交叉口东南方向172米左右",
        "tel": "",
        "category": "基础设施:公共设施:公共厕所",
        "type": 0,
        "location": {
            "lat": 25.58985,
            "lng": 111.93572
        },
        "ad_info": {
            "adcode": 431126,
            "province": "湖南省",
            "city": "永州市",
            "district": "宁远县"
        }
    },
    {
        "id": "18029388189387988285",
        "title": "濂溪服务区公共厕所",
        "address": "湖南省永州市道县G76厦蓉高速附近",
        "tel": "",
        "category": "基础设施:公共设施:公共厕所",
        "type": 0,
        "location": {
            "lat": 25.649525,
            "lng": 111.338543
        },
        "ad_info": {
            "adcode": 431124,
            "province": "湖南省",
            "city": "永州市",
            "district": "道县"
        }
    },
    {
        "id": "15649454329364113808",
        "title": "永州北停车区公共厕所",
        "address": "湖南省永州市东安县二广高速与马坪枢纽交叉口东南方向1771米左右",
        "tel": "",
        "category": "基础设施:公共设施:公共厕所",
        "type": 0,
        "location": {
            "lat": 26.562748,
            "lng": 111.567545
        },
        "ad_info": {
            "adcode": 431122,
            "province": "湖南省",
            "city": "永州市",
            "district": "东安县"
        }
    },
    {
        "id": "14572904830005219687",
        "title": "阳明山服务区第二公共厕所",
        "address": "湖南省永州市双牌县二广高速阳明山服务区",
        "tel": "",
        "category": "基础设施:公共设施:公共厕所",
        "type": 0,
        "location": {
            "lat": 26.08112,
            "lng": 111.822608
        },
        "ad_info": {
            "adcode": 431123,
            "province": "湖南省",
            "city": "永州市",
            "district": "双牌县"
        }
    },
    {
        "id": "16797230675853894018",
        "title": "大盛停车区公共厕所",
        "address": "湖南省永州市东安县大盛停车区大盛停车区",
        "tel": "",
        "category": "基础设施:公共设施:公共厕所",
        "type": 0,
        "location": {
            "lat": 26.782078,
            "lng": 111.432806
        },
        "ad_info": {
            "adcode": 431122,
            "province": "湖南省",
            "city": "永州市",
            "district": "东安县"
        }
    },
    {
        "id": "6013862400259086759",
        "title": "公共厕所",
        "address": "湖南省永州市蓝山县C022与塔峰东路交叉口正西方向110米左右",
        "tel": "",
        "category": "基础设施:公共设施:公共厕所",
        "type": 0,
        "location": {
            "lat": 25.369357,
            "lng": 112.202419
        },
        "ad_info": {
            "adcode": 431127,
            "province": "湖南省",
            "city": "永州市",
            "district": "蓝山县"
        }
    },
    {
        "id": "17444233334161598909",
        "title": "零陵修艺修卫生间堵漏中心",
        "address": "湖南省永州市零陵区潇湘社区永连小区F栋F-03号门面",
        "tel": "",
        "category": "基础设施:公共设施:公共厕所",
        "type": 0,
        "location": {
            "lat": 26.295074,
            "lng": 111.637369
        },
        "ad_info": {
            "adcode": 431102,
            "province": "湖南省",
            "city": "永州市",
            "district": "零陵区"
        }
    },
    {
        "id": "11651544754668471377",
        "title": "道县服务区第二公共厕所",
        "address": "湖南省永州市道县道县道县服务区与S81道贺高速交叉口南200米",
        "tel": "",
        "category": "基础设施:公共设施:公共厕所",
        "type": 0,
        "location": {
            "lat": 25.328984,
            "lng": 111.526514
        },
        "ad_info": {
            "adcode": 431124,
            "province": "湖南省",
            "city": "永州市",
            "district": "道县"
        }
    },
    {
        "id": "14791003869702184920",
        "title": "公共厕所",
        "address": "湖南省永州市新田县府前路与秀峰街交叉口西北方向232米左右",
        "tel": "",
        "category": "基础设施:公共设施:公共厕所",
        "type": 0,
        "location": {
            "lat": 25.90593,
            "lng": 112.20662
        },
        "ad_info": {
            "adcode": 431128,
            "province": "湖南省",
            "city": "永州市",
            "district": "新田县"
        }
    },
    {
        "id": "7184164771575366978",
        "title": "道县服务区第一公共厕所",
        "address": "湖南省永州市道县道县道贺高速道县服务区",
        "tel": "",
        "category": "基础设施:公共设施:公共厕所",
        "type": 0,
        "location": {
            "lat": 25.32764,
            "lng": 111.526423
        },
        "ad_info": {
            "adcode": 431124,
            "province": "湖南省",
            "city": "永州市",
            "district": "道县"
        }
    },
    {
        "id": "9512704142483282268",
        "title": "公共厕所",
        "address": "湖南省永州市蓝山县新建路与湘粤中路交叉口西南方向106米左右",
        "tel": "",
        "category": "基础设施:公共设施:公共厕所",
        "type": 0,
        "location": {
            "lat": 25.376264,
            "lng": 112.192948
        },
        "ad_info": {
            "adcode": 431127,
            "province": "湖南省",
            "city": "永州市",
            "district": "蓝山县"
        }
    },
    {
        "id": "5391005093989261606",
        "title": "舜源服务区公共厕所",
        "address": "湖南省永州市道县舜源服务区与G76厦蓉高速交叉口西150米附近",
        "tel": "",
        "category": "基础设施:公共设施:公共厕所",
        "type": 0,
        "location": {
            "lat": 25.462098,
            "lng": 111.698015
        },
        "ad_info": {
            "adcode": 431124,
            "province": "湖南省",
            "city": "永州市",
            "district": "道县"
        }
    },
    {
        "id": "17114840314265797295",
        "title": "冷水滩服务区公共厕所",
        "address": "湖南省永州市冷水滩区G322与X021交叉口西北方向1607米左右",
        "tel": "",
        "category": "基础设施:公共设施:公共厕所",
        "type": 0,
        "location": {
            "lat": 26.368576,
            "lng": 111.704266
        },
        "ad_info": {
            "adcode": 431103,
            "province": "湖南省",
            "city": "永州市",
            "district": "冷水滩区"
        }
    },
    {
        "id": "8878776761320272180",
        "title": "永州服务区第二公共厕所",
        "address": "湖南省永州市冷水滩区衡昆高速",
        "tel": "",
        "category": "基础设施:公共设施:公共厕所",
        "type": 0,
        "location": {
            "lat": 26.341112,
            "lng": 111.763439
        },
        "ad_info": {
            "adcode": 431103,
            "province": "湖南省",
            "city": "永州市",
            "district": "冷水滩区"
        }
    },
    {
        "id": "9719749453834660713",
        "title": "冷水滩服务区第二公共厕所",
        "address": "湖南省永州市冷水滩区G322与X021交叉口西北方向1617米左右",
        "tel": "",
        "category": "基础设施:公共设施:公共厕所",
        "type": 0,
        "location": {
            "lat": 26.369951,
            "lng": 111.704886
        },
        "ad_info": {
            "adcode": 431103,
            "province": "湖南省",
            "city": "永州市",
            "district": "冷水滩区"
        }
    },
    {
        "id": "11092524083161214575",
        "title": "潘市服务区公共厕所",
        "address": "湖南省永州市祁阳市S227与X001交叉口西北方向273米左右",
        "tel": "",
        "category": "基础设施:公共设施:公共厕所",
        "type": 0,
        "location": {
            "lat": 26.481328,
            "lng": 112.037417
        },
        "ad_info": {
            "adcode": 431181,
            "province": "湖南省",
            "city": "永州市",
            "district": "祁阳市"
        }
    },
    {
        "id": "17039384738151510871",
        "title": "洪观服务区第二公共厕所",
        "address": "湖南省永州市蓝山县G76厦蓉高速北50米",
        "tel": "",
        "category": "基础设施:公共设施:公共厕所",
        "type": 0,
        "location": {
            "lat": 25.531762,
            "lng": 112.239616
        },
        "ad_info": {
            "adcode": 431127,
            "province": "湖南省",
            "city": "永州市",
            "district": "蓝山县"
        }
    },
    {
        "id": "11704738007586257071",
        "title": "洪观服务区公共厕所",
        "address": "湖南省永州市蓝山县厦蓉高速洪观服务区",
        "tel": "",
        "category": "基础设施:公共设施:公共厕所",
        "type": 0,
        "location": {
            "lat": 25.530278,
            "lng": 112.238566
        },
        "ad_info": {
            "adcode": 431127,
            "province": "湖南省",
            "city": "永州市",
            "district": "蓝山县"
        }
    },
    {
        "id": "2006685460141656636",
        "title": "洪观服务区公共厕所",
        "address": "湖南省永州市蓝山县厦蓉高速",
        "tel": "",
        "category": "基础设施:公共设施:公共厕所",
        "type": 0,
        "location": {
            "lat": 25.531913,
            "lng": 112.240054
        },
        "ad_info": {
            "adcode": 431127,
            "province": "湖南省",
            "city": "永州市",
            "district": "蓝山县"
        }
    },
    {
        "id": "14881522201418188841",
        "title": "潘市服务区公共厕所",
        "address": "湖南省永州市祁阳市S227与X001交叉口西北方向129米左右",
        "tel": "",
        "category": "基础设施:公共设施:公共厕所",
        "type": 0,
        "location": {
            "lat": 26.480115,
            "lng": 112.038129
        },
        "ad_info": {
            "adcode": 431181,
            "province": "湖南省",
            "city": "永州市",
            "district": "祁阳市"
        }
    },
    {
        "id": "12004898160690019674",
        "title": "公共厕所",
        "address": "湖南省永州市零陵区230省道与永州大道辅路交叉口东南380米",
        "tel": "",
        "category": "基础设施:公共设施:公共厕所",
        "type": 0,
        "location": {
            "lat": 26.293832,
            "lng": 111.638071
        },
        "ad_info": {
            "adcode": 431102,
            "province": "湖南省",
            "city": "永州市",
            "district": "零陵区"
        }
    },
    {
        "id": "15031885370945175307",
        "title": "公共厕所",
        "address": "湖南省永州市新田县怡华路与陶然街交叉口正北方向103米左右",
        "tel": "",
        "category": "基础设施:公共设施:公共厕所",
        "type": 0,
        "location": {
            "lat": 25.904781,
            "lng": 112.189134
        },
        "ad_info": {
            "adcode": 431128,
            "province": "湖南省",
            "city": "永州市",
            "district": "新田县"
        }
    },
    {
        "id": "15763169103273553405",
        "title": "公共厕所",
        "address": "湖南省永州市冷水滩区李达大道与永州大道辅路交叉口正西方向1502米左右",
        "tel": "",
        "category": "基础设施:公共设施:公共厕所",
        "type": 0,
        "location": {
            "lat": 26.353779,
            "lng": 111.614847
        },
        "ad_info": {
            "adcode": 431103,
            "province": "湖南省",
            "city": "永州市",
            "district": "冷水滩区"
        }
    },
    {
        "id": "536059318613269935",
        "title": "公共厕所",
        "address": "湖南省永州市东安县",
        "tel": "",
        "category": "基础设施:公共设施:公共厕所",
        "type": 0,
        "location": {
            "lat": 26.406991,
            "lng": 111.039423
        },
        "ad_info": {
            "adcode": 431122,
            "province": "湖南省",
            "city": "永州市",
            "district": "东安县"
        }
    },
    {
        "id": "4961581882790962082",
        "title": "公共厕所",
        "address": "湖南省永州市冷水滩区永州大道与陶源路交叉口东北方向404米左右",
        "tel": "",
        "category": "基础设施:公共设施:公共厕所",
        "type": 0,
        "location": {
            "lat": 26.481954,
            "lng": 111.622193
        },
        "ad_info": {
            "adcode": 431103,
            "province": "湖南省",
            "city": "永州市",
            "district": "冷水滩区"
        }
    },
    {
        "id": "266545602861726843",
        "title": "公共厕所",
        "address": "湖南省永州市江永县永桃路与郊西路交叉口东南方向165米左右",
        "tel": "",
        "category": "基础设施:公共设施:公共厕所",
        "type": 0,
        "location": {
            "lat": 25.267737,
            "lng": 111.341276
        },
        "ad_info": {
            "adcode": 431125,
            "province": "湖南省",
            "city": "永州市",
            "district": "江永县"
        }
    },
    {
        "id": "7060123776992424530",
        "title": "公共厕所",
        "address": "湖南省永州市零陵区中山路与永州时代旺角商业步行街交叉口东南方向137米左右",
        "tel": "",
        "category": "基础设施:公共设施:公共厕所",
        "type": 0,
        "location": {
            "lat": 26.220786,
            "lng": 111.618775
        },
        "ad_info": {
            "adcode": 431102,
            "province": "湖南省",
            "city": "永州市",
            "district": "零陵区"
        }
    },
    {
        "id": "3786932364030326492",
        "title": "公共厕所",
        "address": "湖南省永州市冷水滩区珍珠路与西冲塘路交叉口东北方向147米左右",
        "tel": "",
        "category": "基础设施:公共设施:公共厕所",
        "type": 0,
        "location": {
            "lat": 26.444227,
            "lng": 111.589363
        },
        "ad_info": {
            "adcode": 431103,
            "province": "湖南省",
            "city": "永州市",
            "district": "冷水滩区"
        }
    },
    {
        "id": "5785475887505298949",
        "title": "公共厕所",
        "address": "湖南省永州市双牌县G207与司仙坳隧道交叉口正南方向293米左右",
        "tel": "",
        "category": "基础设施:公共设施:公共厕所",
        "type": 0,
        "location": {
            "lat": 25.773243,
            "lng": 111.620625
        },
        "ad_info": {
            "adcode": 431123,
            "province": "湖南省",
            "city": "永州市",
            "district": "双牌县"
        }
    },
    {
        "id": "12763638560396462986",
        "title": "公共厕所",
        "address": "湖南省永州市零陵区东门岭路与中山南路交叉口西南方向25米左右",
        "tel": "",
        "category": "基础设施:公共设施:公共厕所",
        "type": 0,
        "location": {
            "lat": 26.213011,
            "lng": 111.616534
        },
        "ad_info": {
            "adcode": 431102,
            "province": "湖南省",
            "city": "永州市",
            "district": "零陵区"
        }
    },
    {
        "id": "8892991015673117930",
        "title": "公共厕所",
        "address": "湖南省永州市冷水滩区永州大道与零陵北路交叉口东南方向109米左右",
        "tel": "",
        "category": "基础设施:公共设施:公共厕所",
        "type": 0,
        "location": {
            "lat": 26.455311,
            "lng": 111.621958
        },
        "ad_info": {
            "adcode": 431103,
            "province": "湖南省",
            "city": "永州市",
            "district": "冷水滩区"
        }
    },
    {
        "id": "7429548370544473364",
        "title": "公共厕所",
        "address": "湖南省永州市零陵区南津南路与百万庄路交叉口正南方向186米左右",
        "tel": "",
        "category": "基础设施:公共设施:公共厕所",
        "type": 0,
        "location": {
            "lat": 26.207324,
            "lng": 111.630116
        },
        "ad_info": {
            "adcode": 431102,
            "province": "湖南省",
            "city": "永州市",
            "district": "零陵区"
        }
    },
    {
        "id": "985274180915797824",
        "title": "公共厕所",
        "address": "湖南省永州市冷水滩区八通巷与金辉巷交叉口西南方向47米左右",
        "tel": "",
        "category": "基础设施:公共设施:公共厕所",
        "type": 0,
        "location": {
            "lat": 26.472125,
            "lng": 111.600228
        },
        "ad_info": {
            "adcode": 431103,
            "province": "湖南省",
            "city": "永州市",
            "district": "冷水滩区"
        }
    },
    {
        "id": "15739774480241747989",
        "title": "公共厕所",
        "address": "湖南省永州市零陵区城南路与太平路交叉口正东方向39米左右",
        "tel": "",
        "category": "基础设施:公共设施:公共厕所",
        "type": 0,
        "location": {
            "lat": 26.210859,
            "lng": 111.615948
        },
        "ad_info": {
            "adcode": 431102,
            "province": "湖南省",
            "city": "永州市",
            "district": "零陵区"
        }
    },
    {
        "id": "8771865406175041437",
        "title": "公共厕所",
        "address": "湖南省永州市江永县千源江永大酒店东侧140米",
        "tel": "",
        "category": "基础设施:公共设施:公共厕所",
        "type": 0,
        "location": {
            "lat": 25.278834,
            "lng": 111.346429
        },
        "ad_info": {
            "adcode": 431125,
            "province": "湖南省",
            "city": "永州市",
            "district": "江永县"
        }
    },
    {
        "id": "17019170989003374091",
        "title": "公共厕所",
        "address": "湖南省永州市江华瑶族自治县G207与仙姑路交叉口正东方向82米左右",
        "tel": "",
        "category": "基础设施:公共设施:公共厕所",
        "type": 0,
        "location": {
            "lat": 24.737875,
            "lng": 111.498792
        },
        "ad_info": {
            "adcode": 431129,
            "province": "湖南省",
            "city": "永州市",
            "district": "江华瑶族自治县"
        }
    },
    {
        "id": "4859882138502546284",
        "title": "公共厕所",
        "address": "湖南省永州市冷水滩区梅湾路与谢家一巷交叉口东北方向413米左右",
        "tel": "",
        "category": "基础设施:公共设施:公共厕所",
        "type": 0,
        "location": {
            "lat": 26.431077,
            "lng": 111.614144
        },
        "ad_info": {
            "adcode": 431103,
            "province": "湖南省",
            "city": "永州市",
            "district": "冷水滩区"
        }
    },
    {
        "id": "3373981037440333201",
        "title": "公共厕所",
        "address": "湖南省永州市冷水滩区珍珠路与零陵中路交叉口西北方向110米左右",
        "tel": "",
        "category": "基础设施:公共设施:公共厕所",
        "type": 0,
        "location": {
            "lat": 26.442395,
            "lng": 111.590058
        },
        "ad_info": {
            "adcode": 431103,
            "province": "湖南省",
            "city": "永州市",
            "district": "冷水滩区"
        }
    },
    {
        "id": "4663943341452976313",
        "title": "公共厕所",
        "address": "湖南省永州市宁远县G537与冷九公路交叉口东南方向327米左右",
        "tel": "",
        "category": "基础设施:公共设施:公共厕所",
        "type": 0,
        "location": {
            "lat": 25.552866,
            "lng": 112.035079
        },
        "ad_info": {
            "adcode": 431126,
            "province": "湖南省",
            "city": "永州市",
            "district": "宁远县"
        }
    },
    {
        "id": "5962862680346738573",
        "title": "公共厕所",
        "address": "湖南省永州市宁远县霖轩碧璟园东侧180米",
        "tel": "",
        "category": "基础设施:公共设施:公共厕所",
        "type": 0,
        "location": {
            "lat": 25.576561,
            "lng": 111.955912
        },
        "ad_info": {
            "adcode": 431126,
            "province": "湖南省",
            "city": "永州市",
            "district": "宁远县"
        }
    },
    {
        "id": "3979153998657810073",
        "title": "公共厕所",
        "address": "湖南省永州市冷水滩区湘江东路与育才路交叉口正东方向200米左右",
        "tel": "",
        "category": "基础设施:公共设施:公共厕所",
        "type": 0,
        "location": {
            "lat": 26.440636,
            "lng": 111.623135
        },
        "ad_info": {
            "adcode": 431103,
            "province": "湖南省",
            "city": "永州市",
            "district": "冷水滩区"
        }
    },
    {
        "id": "3041171353208254710",
        "title": "公共厕所",
        "address": "湖南省永州市江华瑶族自治县冯乘路与长征路交叉口正南方向134米左右",
        "tel": "",
        "category": "基础设施:公共设施:公共厕所",
        "type": 0,
        "location": {
            "lat": 25.193616,
            "lng": 111.573256
        },
        "ad_info": {
            "adcode": 431129,
            "province": "湖南省",
            "city": "永州市",
            "district": "江华瑶族自治县"
        }
    },
    {
        "id": "5738936916249315161",
        "title": "舜源服务区公共厕所",
        "address": "湖南省永州市道县厦蓉高速",
        "tel": "",
        "category": "基础设施:公共设施:公共厕所",
        "type": 0,
        "location": {
            "lat": 25.460928,
            "lng": 111.697267
        },
        "ad_info": {
            "adcode": 431124,
            "province": "湖南省",
            "city": "永州市",
            "district": "道县"
        }
    },
    {
        "id": "8653523348659991780",
        "title": "公共厕所",
        "address": "湖南省永州市零陵区中山北路34号",
        "tel": "",
        "category": "基础设施:公共设施:公共厕所",
        "type": 0,
        "location": {
            "lat": 26.221411,
            "lng": 111.618822
        },
        "ad_info": {
            "adcode": 431102,
            "province": "湖南省",
            "city": "永州市",
            "district": "零陵区"
        }
    },
    {
        "id": "12657364588546762121",
        "title": "公共厕所",
        "address": "湖南省永州市冷水滩区德源路与石牌楼街交叉口正北方向133米左右",
        "tel": "",
        "category": "基础设施:公共设施:公共厕所",
        "type": 0,
        "location": {
            "lat": 26.447304,
            "lng": 111.593221
        },
        "ad_info": {
            "adcode": 431103,
            "province": "湖南省",
            "city": "永州市",
            "district": "冷水滩区"
        }
    },
    {
        "id": "6617524941762855869",
        "title": "公共厕所",
        "address": "湖南省永州市东安县建设大道与福馨巷交叉口正南方向77米左右",
        "tel": "",
        "category": "基础设施:公共设施:公共厕所",
        "type": 0,
        "location": {
            "lat": 26.38293,
            "lng": 111.286681
        },
        "ad_info": {
            "adcode": 431122,
            "province": "湖南省",
            "city": "永州市",
            "district": "东安县"
        }
    },
    {
        "id": "2159326226932365321",
        "title": "公共厕所",
        "address": "湖南省永州市零陵区207国道西50米",
        "tel": "",
        "category": "基础设施:公共设施:公共厕所",
        "type": 0,
        "location": {
            "lat": 26.217836,
            "lng": 111.584716
        },
        "ad_info": {
            "adcode": 431102,
            "province": "湖南省",
            "city": "永州市",
            "district": "零陵区"
        }
    },
    {
        "id": "2915656163669678417",
        "title": "公共厕所",
        "address": "湖南省永州市宁远县仪凤路与内环路交叉口西南方向108米左右",
        "tel": "",
        "category": "基础设施:公共设施:公共厕所",
        "type": 0,
        "location": {
            "lat": 25.59241,
            "lng": 111.94489
        },
        "ad_info": {
            "adcode": 431126,
            "province": "湖南省",
            "city": "永州市",
            "district": "宁远县"
        }
    },
    {
        "id": "3928429938707705787",
        "title": "公共厕所",
        "address": "湖南省永州市祁阳市中仓街与人民东路交叉口东南方向50米左右",
        "tel": "",
        "category": "基础设施:公共设施:公共厕所",
        "type": 0,
        "location": {
            "lat": 26.585155,
            "lng": 111.864547
        },
        "ad_info": {
            "adcode": 431181,
            "province": "湖南省",
            "city": "永州市",
            "district": "祁阳市"
        }
    },
    {
        "id": "11729364934654960943",
        "title": "公共厕所",
        "address": "湖南省永州市蓝山县G537与X090交叉口西北方向408米左右",
        "tel": "",
        "category": "基础设施:公共设施:公共厕所",
        "type": 0,
        "location": {
            "lat": 25.200444,
            "lng": 112.197781
        },
        "ad_info": {
            "adcode": 431127,
            "province": "湖南省",
            "city": "永州市",
            "district": "蓝山县"
        }
    },
    {
        "id": "356657646734166168",
        "title": "公共卫生间",
        "address": "湖南省永州市冷水滩区建业路与长丰大道交叉口正东方向287米左右",
        "tel": "",
        "category": "基础设施:公共设施:公共厕所",
        "type": 0,
        "location": {
            "lat": 26.399543,
            "lng": 111.598622
        },
        "ad_info": {
            "adcode": 431103,
            "province": "湖南省",
            "city": "永州市",
            "district": "冷水滩区"
        }
    },
    {
        "id": "12793617186325904105",
        "title": "蓝山服务区公共厕所",
        "address": "湖南省永州市蓝山县G537与S322交叉口正南方向641米左右",
        "tel": "",
        "category": "基础设施:公共设施:公共厕所",
        "type": 0,
        "location": {
            "lat": 25.453453,
            "lng": 112.161058
        },
        "ad_info": {
            "adcode": 431127,
            "province": "湖南省",
            "city": "永州市",
            "district": "蓝山县"
        }
    },
    {
        "id": "1420486332925021854",
        "title": "公共厕所",
        "address": "湖南省永州市冷水滩区新华街与湘江西路交叉口东北方向80米左右",
        "tel": "",
        "category": "基础设施:公共设施:公共厕所",
        "type": 0,
        "location": {
            "lat": 26.439454,
            "lng": 111.595764
        },
        "ad_info": {
            "adcode": 431103,
            "province": "湖南省",
            "city": "永州市",
            "district": "冷水滩区"
        }
    },
    {
        "id": "9042170242840640152",
        "title": "道县服务区-公共厕所",
        "address": "湖南省永州市道县",
        "tel": "",
        "category": "基础设施:公共设施:公共厕所",
        "type": 0,
        "location": {
            "lat": 25.328832,
            "lng": 111.525369
        },
        "ad_info": {
            "adcode": 431124,
            "province": "湖南省",
            "city": "永州市",
            "district": "道县"
        }
    },
    {
        "id": "377027133849629839",
        "title": "公共厕所",
        "address": "湖南省永州市零陵区人民路与前进街交叉口西南方向66米左右",
        "tel": "",
        "category": "基础设施:公共设施:公共厕所",
        "type": 0,
        "location": {
            "lat": 26.217847,
            "lng": 111.614554
        },
        "ad_info": {
            "adcode": 431102,
            "province": "湖南省",
            "city": "永州市",
            "district": "零陵区"
        }
    },
    {
        "id": "9193854644098718045",
        "title": "公共厕所",
        "address": "湖南省永州市冷水滩区春江路与欣欣路交叉口正西方向125米左右",
        "tel": "",
        "category": "基础设施:公共设施:公共厕所",
        "type": 0,
        "location": {
            "lat": 26.471211,
            "lng": 111.606222
        },
        "ad_info": {
            "adcode": 431103,
            "province": "湖南省",
            "city": "永州市",
            "district": "冷水滩区"
        }
    },
    {
        "id": "441706289809496214",
        "title": "公共厕所",
        "address": "湖南省永州市冷水滩区吴家庙路与百业街交叉口正北方向214米左右",
        "tel": "",
        "category": "基础设施:公共设施:公共厕所",
        "type": 0,
        "location": {
            "lat": 26.440787,
            "lng": 111.617205
        },
        "ad_info": {
            "adcode": 431103,
            "province": "湖南省",
            "city": "永州市",
            "district": "冷水滩区"
        }
    },
    {
        "id": "15675703157949025908",
        "title": "公共厕所",
        "address": "湖南省永州市道县小江口路与金都路交叉口正南方向143米左右",
        "tel": "",
        "category": "基础设施:公共设施:公共厕所",
        "type": 0,
        "location": {
            "lat": 25.493611,
            "lng": 111.596286
        },
        "ad_info": {
            "adcode": 431124,
            "province": "湖南省",
            "city": "永州市",
            "district": "道县"
        }
    },
    {
        "id": "4481482708041816203",
        "title": "公共厕所",
        "address": "湖南省永州市冷水滩区潇湘大道中央新城-A区",
        "tel": "",
        "category": "基础设施:公共设施:公共厕所",
        "type": 0,
        "location": {
            "lat": 26.446756,
            "lng": 111.574879
        },
        "ad_info": {
            "adcode": 431103,
            "province": "湖南省",
            "city": "永州市",
            "district": "冷水滩区"
        }
    },
    {
        "id": "8839022164526255644",
        "title": "公共厕所",
        "address": "湖南省永州市祁阳市浯溪中路与金龙街交叉口西北240米",
        "tel": "",
        "category": "基础设施:公共设施:公共厕所",
        "type": 0,
        "location": {
            "lat": 26.575325,
            "lng": 111.850118
        },
        "ad_info": {
            "adcode": 431181,
            "province": "湖南省",
            "city": "永州市",
            "district": "祁阳市"
        }
    },
    {
        "id": "2785520102092685752",
        "title": "公共厕所",
        "address": "湖南省永州市东安县G207与邓家桥交叉口东南方向728米左右",
        "tel": "",
        "category": "基础设施:公共设施:公共厕所",
        "type": 0,
        "location": {
            "lat": 26.336794,
            "lng": 111.395913
        },
        "ad_info": {
            "adcode": 431122,
            "province": "湖南省",
            "city": "永州市",
            "district": "东安县"
        }
    },
    {
        "id": "65400460484843602",
        "title": "公共厕所",
        "address": "湖南省永州市零陵区湘口馆西路与湘口馆路交叉口西南方向135米左右",
        "tel": "",
        "category": "基础设施:公共设施:公共厕所",
        "type": 0,
        "location": {
            "lat": 26.240032,
            "lng": 111.623324
        },
        "ad_info": {
            "adcode": 431102,
            "province": "湖南省",
            "city": "永州市",
            "district": "零陵区"
        }
    },
    {
        "id": "13659423730005926457",
        "title": "公共厕所",
        "address": "湖南省永州市宁远县215省道西50米",
        "tel": "",
        "category": "基础设施:公共设施:公共厕所",
        "type": 0,
        "location": {
            "lat": 25.90223,
            "lng": 112.066073
        },
        "ad_info": {
            "adcode": 431126,
            "province": "湖南省",
            "city": "永州市",
            "district": "宁远县"
        }
    },
    {
        "id": "3032625872351007316",
        "title": "公共厕所",
        "address": "湖南省永州市祁阳市人字街与黄道街交叉口东北方向40米左右",
        "tel": "",
        "category": "基础设施:公共设施:公共厕所",
        "type": 0,
        "location": {
            "lat": 26.585514,
            "lng": 111.867232
        },
        "ad_info": {
            "adcode": 431181,
            "province": "湖南省",
            "city": "永州市",
            "district": "祁阳市"
        }
    },
    {
        "id": "15521085444535824065",
        "title": "公共厕所",
        "address": "湖南省永州市蓝山县永连公路与舜乡路交叉口西南方向231米左右",
        "tel": "",
        "category": "基础设施:公共设施:公共厕所",
        "type": 0,
        "location": {
            "lat": 25.358929,
            "lng": 112.181209
        },
        "ad_info": {
            "adcode": 431127,
            "province": "湖南省",
            "city": "永州市",
            "district": "蓝山县"
        }
    },
    {
        "id": "3047604549653052037",
        "title": "公共厕所",
        "address": "湖南省永州市冷水滩区零陵南路与飞腾路交叉口西北方向100米左右",
        "tel": "",
        "category": "基础设施:公共设施:公共厕所",
        "type": 0,
        "location": {
            "lat": 26.401568,
            "lng": 111.602206
        },
        "ad_info": {
            "adcode": 431103,
            "province": "湖南省",
            "city": "永州市",
            "district": "冷水滩区"
        }
    },
    {
        "id": "6670354557016081893",
        "title": "公共厕所",
        "address": "湖南省永州市冷水滩区湘江东路与翠竹路交叉口西南方向23米左右",
        "tel": "",
        "category": "基础设施:公共设施:公共厕所",
        "type": 0,
        "location": {
            "lat": 26.423698,
            "lng": 111.608865
        },
        "ad_info": {
            "adcode": 431103,
            "province": "湖南省",
            "city": "永州市",
            "district": "冷水滩区"
        }
    },
    {
        "id": "17385808842194767038",
        "title": "公共厕所",
        "address": "湖南省永州市宁远县湘妃大道与重华南路交叉口正西方向184米左右",
        "tel": "",
        "category": "基础设施:公共设施:公共厕所",
        "type": 0,
        "location": {
            "lat": 25.556409,
            "lng": 111.941259
        },
        "ad_info": {
            "adcode": 431126,
            "province": "湖南省",
            "city": "永州市",
            "district": "宁远县"
        }
    },
    {
        "id": "4936469116799449845",
        "title": "公共厕所",
        "address": "湖南省永州市宁远县文明街与沿江南路三巷交叉口正东方向20米左右",
        "tel": "",
        "category": "基础设施:公共设施:公共厕所",
        "type": 0,
        "location": {
            "lat": 25.588628,
            "lng": 111.947974
        },
        "ad_info": {
            "adcode": 431126,
            "province": "湖南省",
            "city": "永州市",
            "district": "宁远县"
        }
    },
    {
        "id": "14082213586169934790",
        "title": "公共厕所",
        "address": "湖南省永州市宁远县文明街二巷与沿江南路二巷交叉口西南方向133米左右",
        "tel": "",
        "category": "基础设施:公共设施:公共厕所",
        "type": 0,
        "location": {
            "lat": 25.586237,
            "lng": 111.946196
        },
        "ad_info": {
            "adcode": 431126,
            "province": "湖南省",
            "city": "永州市",
            "district": "宁远县"
        }
    },
    {
        "id": "12541287414678387304",
        "title": "九嶷山服务区厕所",
        "address": "湖南省永州市宁远县二广高速附近",
        "tel": "",
        "category": "基础设施:公共设施:公共厕所",
        "type": 0,
        "location": {
            "lat": 25.640201,
            "lng": 112.104126
        },
        "ad_info": {
            "adcode": 431126,
            "province": "湖南省",
            "city": "永州市",
            "district": "宁远县"
        }
    },
    {
        "id": "4468945646962741673",
        "title": "公共厕所",
        "address": "湖南省永州市冷水滩区冷东公路与安康路交叉口西南方向147米左右",
        "tel": "",
        "category": "基础设施:公共设施:公共厕所",
        "type": 0,
        "location": {
            "lat": 26.418913,
            "lng": 111.583633
        },
        "ad_info": {
            "adcode": 431103,
            "province": "湖南省",
            "city": "永州市",
            "district": "冷水滩区"
        }
    },
    {
        "id": "2335286732885013055",
        "title": "公共厕所",
        "address": "湖南省永州市东安县",
        "tel": "",
        "category": "基础设施:公共设施:公共厕所",
        "type": 0,
        "location": {
            "lat": 26.413143,
            "lng": 111.028834
        },
        "ad_info": {
            "adcode": 431122,
            "province": "湖南省",
            "city": "永州市",
            "district": "东安县"
        }
    },
    {
        "id": "10125760215527531217",
        "title": "中国石化公共厕所",
        "address": "湖南省永州市东安县舜皇大道16号",
        "tel": "",
        "category": "基础设施:公共设施:公共厕所",
        "type": 0,
        "location": {
            "lat": 26.401201,
            "lng": 111.314489
        },
        "ad_info": {
            "adcode": 431122,
            "province": "湖南省",
            "city": "永州市",
            "district": "东安县"
        }
    },
    {
        "id": "2183229268749296304",
        "title": "公共厕所",
        "address": "湖南省永州市祁阳市金洞漂流有限公司东北侧220米",
        "tel": "",
        "category": "基础设施:公共设施:公共厕所",
        "type": 0,
        "location": {
            "lat": 26.168356,
            "lng": 112.086884
        },
        "ad_info": {
            "adcode": 431181,
            "province": "湖南省",
            "city": "永州市",
            "district": "祁阳市"
        }
    },
    {
        "id": "183682998716073602",
        "title": "公共厕所",
        "address": "湖南省永州市宁远县娥皇路与重华北路交叉口正西方向27米左右",
        "tel": "",
        "category": "基础设施:公共设施:公共厕所",
        "type": 0,
        "location": {
            "lat": 25.594168,
            "lng": 111.934161
        },
        "ad_info": {
            "adcode": 431126,
            "province": "湖南省",
            "city": "永州市",
            "district": "宁远县"
        }
    },
    {
        "id": "12409755588228249840",
        "title": "公共厕所",
        "address": "湖南省永州市双牌县小黄江源",
        "tel": "",
        "category": "基础设施:公共设施:公共厕所",
        "type": 0,
        "location": {
            "lat": 26.080544,
            "lng": 111.935595
        },
        "ad_info": {
            "adcode": 431123,
            "province": "湖南省",
            "city": "永州市",
            "district": "双牌县"
        }
    },
    {
        "id": "15217850499476541641",
        "title": "公共厕所",
        "address": "湖南省永州市新田县云鹤路瑞华学校",
        "tel": "",
        "category": "基础设施:公共设施:公共厕所",
        "type": 0,
        "location": {
            "lat": 25.912432,
            "lng": 112.196461
        },
        "ad_info": {
            "adcode": 431128,
            "province": "湖南省",
            "city": "永州市",
            "district": "新田县"
        }
    },
    {
        "id": "12101756647490086468",
        "title": "公共厕所",
        "address": "湖南省永州市冷水滩区湘江东路与翠竹路交叉口西北方向38米左右",
        "tel": "",
        "category": "基础设施:公共设施:公共厕所",
        "type": 0,
        "location": {
            "lat": 26.42404,
            "lng": 111.608624
        },
        "ad_info": {
            "adcode": 431103,
            "province": "湖南省",
            "city": "永州市",
            "district": "冷水滩区"
        }
    },
    {
        "id": "1720838343923572390",
        "title": "公共厕所",
        "address": "湖南省永州市零陵区南津路与潇水中路二巷交叉口正西方向34米左右",
        "tel": "",
        "category": "基础设施:公共设施:公共厕所",
        "type": 0,
        "location": {
            "lat": 26.219906,
            "lng": 111.631176
        },
        "ad_info": {
            "adcode": 431102,
            "province": "湖南省",
            "city": "永州市",
            "district": "零陵区"
        }
    },
    {
        "id": "9819229834854123027",
        "title": "公共厕所",
        "address": "湖南省永州市冷水滩区凤凰路与招商路交叉口西北方向52米左右",
        "tel": "",
        "category": "基础设施:公共设施:公共厕所",
        "type": 0,
        "location": {
            "lat": 26.468744,
            "lng": 111.600075
        },
        "ad_info": {
            "adcode": 431103,
            "province": "湖南省",
            "city": "永州市",
            "district": "冷水滩区"
        }
    },
    {
        "id": "16827690330525240828",
        "title": "肯德基(零陵北路餐厅)-洗手间",
        "address": "湖南省永州市冷水滩区凤凰路与零陵中路交叉口东北方向123米左右",
        "tel": "",
        "category": "基础设施:公共设施:公共厕所",
        "type": 0,
        "location": {
            "lat": 26.449283,
            "lng": 111.602739
        },
        "ad_info": {
            "adcode": 431103,
            "province": "湖南省",
            "city": "永州市",
            "district": "冷水滩区"
        }
    },
    {
        "id": "17878725450185118657",
        "title": "公共厕所",
        "address": "湖南省永州市新田县新华北路与滨河东路交叉口正西方向41米左右",
        "tel": "",
        "category": "基础设施:公共设施:公共厕所",
        "type": 0,
        "location": {
            "lat": 25.913272,
            "lng": 112.216245
        },
        "ad_info": {
            "adcode": 431128,
            "province": "湖南省",
            "city": "永州市",
            "district": "新田县"
        }
    },
    {
        "id": "7908183379239828960",
        "title": "公共厕所",
        "address": "湖南省永州市江华瑶族自治县阳华人家西南侧240米",
        "tel": "",
        "category": "基础设施:公共设施:公共厕所",
        "type": 0,
        "location": {
            "lat": 25.182878,
            "lng": 111.648842
        },
        "ad_info": {
            "adcode": 431129,
            "province": "湖南省",
            "city": "永州市",
            "district": "江华瑶族自治县"
        }
    },
    {
        "id": "4845287170994105207",
        "title": "卫生间",
        "address": "湖南省永州市冷水滩区梧桐路777号愿景国际广场3F",
        "tel": "",
        "category": "基础设施:公共设施:公共厕所",
        "type": 0,
        "location": {
            "lat": 26.458571,
            "lng": 111.596803
        },
        "ad_info": {
            "adcode": 431103,
            "province": "湖南省",
            "city": "永州市",
            "district": "冷水滩区"
        }
    },
    {
        "id": "215074941961334115",
        "title": "无障碍公共厕所",
        "address": "湖南省永州市道县湘源路与营阳大道交叉口东460米",
        "tel": "",
        "category": "基础设施:公共设施:公共厕所",
        "type": 0,
        "location": {
            "lat": 25.538745,
            "lng": 111.615935
        },
        "ad_info": {
            "adcode": 431124,
            "province": "湖南省",
            "city": "永州市",
            "district": "道县"
        }
    },
    {
        "id": "14656858451753797944",
        "title": "公共卫生间",
        "address": "湖南省永州市祁阳市浯溪中路与金龙街交叉口西北方向243米左右",
        "tel": "",
        "category": "基础设施:公共设施:公共厕所",
        "type": 0,
        "location": {
            "lat": 26.575112,
            "lng": 111.849948
        },
        "ad_info": {
            "adcode": 431181,
            "province": "湖南省",
            "city": "永州市",
            "district": "祁阳市"
        }
    },
    {
        "id": "5830535071090409968",
        "title": "公共卫生间隔断",
        "address": "湖南省永州市冷水滩区永达建材市场b4栋8号",
        "tel": "",
        "category": "基础设施:公共设施:公共厕所",
        "type": 0,
        "location": {
            "lat": 26.455511,
            "lng": 111.592669
        },
        "ad_info": {
            "adcode": 431103,
            "province": "湖南省",
            "city": "永州市",
            "district": "冷水滩区"
        }
    },
    {
        "id": "17143576463442971430",
        "title": "公共厕所",
        "address": "湖南省永州市道县G207与道州北路交叉口东南方向111米左右",
        "tel": "",
        "category": "基础设施:公共设施:公共厕所",
        "type": 0,
        "location": {
            "lat": 25.58119,
            "lng": 111.599506
        },
        "ad_info": {
            "adcode": 431124,
            "province": "湖南省",
            "city": "永州市",
            "district": "道县"
        }
    },
    {
        "id": "316094025253493225",
        "title": "公共厕所",
        "address": "湖南省永州市宁远县大界源生态休闲度假村东南侧110米",
        "tel": "",
        "category": "基础设施:公共设施:公共厕所",
        "type": 0,
        "location": {
            "lat": 25.471355,
            "lng": 111.951395
        },
        "ad_info": {
            "adcode": 431126,
            "province": "湖南省",
            "city": "永州市",
            "district": "宁远县"
        }
    },
    {
        "id": "3557469519905979725",
        "title": "公共厕所",
        "address": "湖南省永州市冷水滩区西区路太阳红酒店正对面",
        "tel": "",
        "category": "基础设施:公共设施:公共厕所",
        "type": 0,
        "location": {
            "lat": 26.435688,
            "lng": 111.5831
        },
        "ad_info": {
            "adcode": 431103,
            "province": "湖南省",
            "city": "永州市",
            "district": "冷水滩区"
        }
    },
    {
        "id": "10991985604536217064",
        "title": "公共厕所",
        "address": "湖南省永州市江永县幸福路与知青路交叉口正北方向284米左右",
        "tel": "",
        "category": "基础设施:公共设施:公共厕所",
        "type": 0,
        "location": {
            "lat": 25.272518,
            "lng": 111.351169
        },
        "ad_info": {
            "adcode": 431125,
            "province": "湖南省",
            "city": "永州市",
            "district": "江永县"
        }
    },
    {
        "id": "8548629578526466759",
        "title": "公共厕所",
        "address": "湖南省永州市祁阳市宝塔街与陶铸路交叉口东南方向206米左右",
        "tel": "",
        "category": "基础设施:公共设施:公共厕所",
        "type": 0,
        "location": {
            "lat": 26.586933,
            "lng": 111.880101
        },
        "ad_info": {
            "adcode": 431181,
            "province": "湖南省",
            "city": "永州市",
            "district": "祁阳市"
        }
    },
    {
        "id": "2576815116792233501",
        "title": "卫生间",
        "address": "湖南省永州市冷水滩区梧桐路777号愿景国际广场2F",
        "tel": "",
        "category": "基础设施:公共设施:公共厕所",
        "type": 0,
        "location": {
            "lat": 26.458564,
            "lng": 111.596817
        },
        "ad_info": {
            "adcode": 431103,
            "province": "湖南省",
            "city": "永州市",
            "district": "冷水滩区"
        }
    },
    {
        "id": "210034221464133607",
        "title": "公共厕所",
        "address": "湖南省永州市江永县凤亭路与白龙路交叉口正北方向62米左右",
        "tel": "",
        "category": "基础设施:公共设施:公共厕所",
        "type": 0,
        "location": {
            "lat": 25.259683,
            "lng": 111.359248
        },
        "ad_info": {
            "adcode": 431125,
            "province": "湖南省",
            "city": "永州市",
            "district": "江永县"
        }
    },
    {
        "id": "6481401918001005808",
        "title": "公共厕所",
        "address": "湖南省永州市宁远县九疑中路与建设路交叉口正北方向42米左右",
        "tel": "",
        "category": "基础设施:公共设施:公共厕所",
        "type": 0,
        "location": {
            "lat": 25.58393,
            "lng": 111.945751
        },
        "ad_info": {
            "adcode": 431126,
            "province": "湖南省",
            "city": "永州市",
            "district": "宁远县"
        }
    },
    {
        "id": "14642714796921006884",
        "title": "卫生间",
        "address": "湖南省永州市冷水滩区梧桐路777号愿景国际广场1F",
        "tel": "",
        "category": "基础设施:公共设施:公共厕所",
        "type": 0,
        "location": {
            "lat": 26.458621,
            "lng": 111.596777
        },
        "ad_info": {
            "adcode": 431103,
            "province": "湖南省",
            "city": "永州市",
            "district": "冷水滩区"
        }
    },
    {
        "id": "6666153133075519473",
        "title": "骥村镇李家湾村公厕",
        "address": "湖南省永州市新田县",
        "tel": "",
        "category": "基础设施:公共设施:公共厕所",
        "type": 0,
        "location": {
            "lat": 25.947709,
            "lng": 112.158181
        },
        "ad_info": {
            "adcode": 431128,
            "province": "湖南省",
            "city": "永州市",
            "district": "新田县"
        }
    },
    {
        "id": "1664694097670593900",
        "title": "公共厕所",
        "address": "湖南省永州市冷水滩区凤凰路与珊瑚路交叉口东南方向56米左右",
        "tel": "",
        "category": "基础设施:公共设施:公共厕所",
        "type": 0,
        "location": {
            "lat": 26.453705,
            "lng": 111.600514
        },
        "ad_info": {
            "adcode": 431103,
            "province": "湖南省",
            "city": "永州市",
            "district": "冷水滩区"
        }
    },
    {
        "id": "12061890469533675916",
        "title": "公共厕所",
        "address": "湖南省永州市祁阳市人民东路与西横街交叉口正南方向30米左右",
        "tel": "",
        "category": "基础设施:公共设施:公共厕所",
        "type": 0,
        "location": {
            "lat": 26.586116,
            "lng": 111.861129
        },
        "ad_info": {
            "adcode": 431181,
            "province": "湖南省",
            "city": "永州市",
            "district": "祁阳市"
        }
    },
    {
        "id": "6149397932925795924",
        "title": "公共厕所",
        "address": "湖南省永州市零陵区李家塘路与黄溪岭路交叉口东北方向198米左右",
        "tel": "",
        "category": "基础设施:公共设施:公共厕所",
        "type": 0,
        "location": {
            "lat": 26.213539,
            "lng": 111.620987
        },
        "ad_info": {
            "adcode": 431102,
            "province": "湖南省",
            "city": "永州市",
            "district": "零陵区"
        }
    },
    {
        "id": "16827690330525240828",
        "title": "肯德基(零陵北路餐厅)-洗手间",
        "address": "湖南省永州市冷水滩区凤凰路与零陵中路交叉口东北方向123米左右",
        "tel": "",
        "category": "基础设施:公共设施:公共厕所",
        "type": 0,
        "location": {
            "lat": 26.449283,
            "lng": 111.602739
        },
        "ad_info": {
            "adcode": 431103,
            "province": "湖南省",
            "city": "永州市",
            "district": "冷水滩区"
        }
    },
    {
        "id": "17878725450185118657",
        "title": "公共厕所",
        "address": "湖南省永州市新田县新华北路与滨河东路交叉口正西方向41米左右",
        "tel": "",
        "category": "基础设施:公共设施:公共厕所",
        "type": 0,
        "location": {
            "lat": 25.913272,
            "lng": 112.216245
        },
        "ad_info": {
            "adcode": 431128,
            "province": "湖南省",
            "city": "永州市",
            "district": "新田县"
        }
    },
    {
        "id": "7908183379239828960",
        "title": "公共厕所",
        "address": "湖南省永州市江华瑶族自治县阳华人家西南侧240米",
        "tel": "",
        "category": "基础设施:公共设施:公共厕所",
        "type": 0,
        "location": {
            "lat": 25.182878,
            "lng": 111.648842
        },
        "ad_info": {
            "adcode": 431129,
            "province": "湖南省",
            "city": "永州市",
            "district": "江华瑶族自治县"
        }
    },
    {
        "id": "4845287170994105207",
        "title": "卫生间",
        "address": "湖南省永州市冷水滩区梧桐路777号愿景国际广场3F",
        "tel": "",
        "category": "基础设施:公共设施:公共厕所",
        "type": 0,
        "location": {
            "lat": 26.458571,
            "lng": 111.596803
        },
        "ad_info": {
            "adcode": 431103,
            "province": "湖南省",
            "city": "永州市",
            "district": "冷水滩区"
        }
    },
    {
        "id": "215074941961334115",
        "title": "无障碍公共厕所",
        "address": "湖南省永州市道县湘源路与营阳大道交叉口东460米",
        "tel": "",
        "category": "基础设施:公共设施:公共厕所",
        "type": 0,
        "location": {
            "lat": 25.538745,
            "lng": 111.615935
        },
        "ad_info": {
            "adcode": 431124,
            "province": "湖南省",
            "city": "永州市",
            "district": "道县"
        }
    },
    {
        "id": "14656858451753797944",
        "title": "公共卫生间",
        "address": "湖南省永州市祁阳市浯溪中路与金龙街交叉口西北方向243米左右",
        "tel": "",
        "category": "基础设施:公共设施:公共厕所",
        "type": 0,
        "location": {
            "lat": 26.575112,
            "lng": 111.849948
        },
        "ad_info": {
            "adcode": 431181,
            "province": "湖南省",
            "city": "永州市",
            "district": "祁阳市"
        }
    },
    {
        "id": "5830535071090409968",
        "title": "公共卫生间隔断",
        "address": "湖南省永州市冷水滩区永达建材市场b4栋8号",
        "tel": "",
        "category": "基础设施:公共设施:公共厕所",
        "type": 0,
        "location": {
            "lat": 26.455511,
            "lng": 111.592669
        },
        "ad_info": {
            "adcode": 431103,
            "province": "湖南省",
            "city": "永州市",
            "district": "冷水滩区"
        }
    },
    {
        "id": "17143576463442971430",
        "title": "公共厕所",
        "address": "湖南省永州市道县G207与道州北路交叉口东南方向111米左右",
        "tel": "",
        "category": "基础设施:公共设施:公共厕所",
        "type": 0,
        "location": {
            "lat": 25.58119,
            "lng": 111.599506
        },
        "ad_info": {
            "adcode": 431124,
            "province": "湖南省",
            "city": "永州市",
            "district": "道县"
        }
    },
    {
        "id": "316094025253493225",
        "title": "公共厕所",
        "address": "湖南省永州市宁远县大界源生态休闲度假村东南侧110米",
        "tel": "",
        "category": "基础设施:公共设施:公共厕所",
        "type": 0,
        "location": {
            "lat": 25.471355,
            "lng": 111.951395
        },
        "ad_info": {
            "adcode": 431126,
            "province": "湖南省",
            "city": "永州市",
            "district": "宁远县"
        }
    },
    {
        "id": "3557469519905979725",
        "title": "公共厕所",
        "address": "湖南省永州市冷水滩区西区路太阳红酒店正对面",
        "tel": "",
        "category": "基础设施:公共设施:公共厕所",
        "type": 0,
        "location": {
            "lat": 26.435688,
            "lng": 111.5831
        },
        "ad_info": {
            "adcode": 431103,
            "province": "湖南省",
            "city": "永州市",
            "district": "冷水滩区"
        }
    },
    {
        "id": "10991985604536217064",
        "title": "公共厕所",
        "address": "湖南省永州市江永县幸福路与知青路交叉口正北方向284米左右",
        "tel": "",
        "category": "基础设施:公共设施:公共厕所",
        "type": 0,
        "location": {
            "lat": 25.272518,
            "lng": 111.351169
        },
        "ad_info": {
            "adcode": 431125,
            "province": "湖南省",
            "city": "永州市",
            "district": "江永县"
        }
    },
    {
        "id": "8548629578526466759",
        "title": "公共厕所",
        "address": "湖南省永州市祁阳市宝塔街与陶铸路交叉口东南方向206米左右",
        "tel": "",
        "category": "基础设施:公共设施:公共厕所",
        "type": 0,
        "location": {
            "lat": 26.586933,
            "lng": 111.880101
        },
        "ad_info": {
            "adcode": 431181,
            "province": "湖南省",
            "city": "永州市",
            "district": "祁阳市"
        }
    },
    {
        "id": "2576815116792233501",
        "title": "卫生间",
        "address": "湖南省永州市冷水滩区梧桐路777号愿景国际广场2F",
        "tel": "",
        "category": "基础设施:公共设施:公共厕所",
        "type": 0,
        "location": {
            "lat": 26.458564,
            "lng": 111.596817
        },
        "ad_info": {
            "adcode": 431103,
            "province": "湖南省",
            "city": "永州市",
            "district": "冷水滩区"
        }
    },
    {
        "id": "210034221464133607",
        "title": "公共厕所",
        "address": "湖南省永州市江永县凤亭路与白龙路交叉口正北方向62米左右",
        "tel": "",
        "category": "基础设施:公共设施:公共厕所",
        "type": 0,
        "location": {
            "lat": 25.259683,
            "lng": 111.359248
        },
        "ad_info": {
            "adcode": 431125,
            "province": "湖南省",
            "city": "永州市",
            "district": "江永县"
        }
    },
    {
        "id": "6481401918001005808",
        "title": "公共厕所",
        "address": "湖南省永州市宁远县九疑中路与建设路交叉口正北方向42米左右",
        "tel": "",
        "category": "基础设施:公共设施:公共厕所",
        "type": 0,
        "location": {
            "lat": 25.58393,
            "lng": 111.945751
        },
        "ad_info": {
            "adcode": 431126,
            "province": "湖南省",
            "city": "永州市",
            "district": "宁远县"
        }
    },
    {
        "id": "14642714796921006884",
        "title": "卫生间",
        "address": "湖南省永州市冷水滩区梧桐路777号愿景国际广场1F",
        "tel": "",
        "category": "基础设施:公共设施:公共厕所",
        "type": 0,
        "location": {
            "lat": 26.458621,
            "lng": 111.596777
        },
        "ad_info": {
            "adcode": 431103,
            "province": "湖南省",
            "city": "永州市",
            "district": "冷水滩区"
        }
    },
    {
        "id": "6666153133075519473",
        "title": "骥村镇李家湾村公厕",
        "address": "湖南省永州市新田县",
        "tel": "",
        "category": "基础设施:公共设施:公共厕所",
        "type": 0,
        "location": {
            "lat": 25.947709,
            "lng": 112.158181
        },
        "ad_info": {
            "adcode": 431128,
            "province": "湖南省",
            "city": "永州市",
            "district": "新田县"
        }
    },
    {
        "id": "1664694097670593900",
        "title": "公共厕所",
        "address": "湖南省永州市冷水滩区凤凰路与珊瑚路交叉口东南方向56米左右",
        "tel": "",
        "category": "基础设施:公共设施:公共厕所",
        "type": 0,
        "location": {
            "lat": 26.453705,
            "lng": 111.600514
        },
        "ad_info": {
            "adcode": 431103,
            "province": "湖南省",
            "city": "永州市",
            "district": "冷水滩区"
        }
    },
    {
        "id": "12061890469533675916",
        "title": "公共厕所",
        "address": "湖南省永州市祁阳市人民东路与西横街交叉口正南方向30米左右",
        "tel": "",
        "category": "基础设施:公共设施:公共厕所",
        "type": 0,
        "location": {
            "lat": 26.586116,
            "lng": 111.861129
        },
        "ad_info": {
            "adcode": 431181,
            "province": "湖南省",
            "city": "永州市",
            "district": "祁阳市"
        }
    },
    {
        "id": "6149397932925795924",
        "title": "公共厕所",
        "address": "湖南省永州市零陵区李家塘路与黄溪岭路交叉口东北方向198米左右",
        "tel": "",
        "category": "基础设施:公共设施:公共厕所",
        "type": 0,
        "location": {
            "lat": 26.213539,
            "lng": 111.620987
        },
        "ad_info": {
            "adcode": 431102,
            "province": "湖南省",
            "city": "永州市",
            "district": "零陵区"
        }
    },
    {
        "id": "16827690330525240828",
        "title": "肯德基(零陵北路餐厅)-洗手间",
        "address": "湖南省永州市冷水滩区凤凰路与零陵中路交叉口东北方向123米左右",
        "tel": "",
        "category": "基础设施:公共设施:公共厕所",
        "type": 0,
        "location": {
            "lat": 26.449283,
            "lng": 111.602739
        },
        "ad_info": {
            "adcode": 431103,
            "province": "湖南省",
            "city": "永州市",
            "district": "冷水滩区"
        }
    },
    {
        "id": "17878725450185118657",
        "title": "公共厕所",
        "address": "湖南省永州市新田县新华北路与滨河东路交叉口正西方向41米左右",
        "tel": "",
        "category": "基础设施:公共设施:公共厕所",
        "type": 0,
        "location": {
            "lat": 25.913272,
            "lng": 112.216245
        },
        "ad_info": {
            "adcode": 431128,
            "province": "湖南省",
            "city": "永州市",
            "district": "新田县"
        }
    },
    {
        "id": "7908183379239828960",
        "title": "公共厕所",
        "address": "湖南省永州市江华瑶族自治县阳华人家西南侧240米",
        "tel": "",
        "category": "基础设施:公共设施:公共厕所",
        "type": 0,
        "location": {
            "lat": 25.182878,
            "lng": 111.648842
        },
        "ad_info": {
            "adcode": 431129,
            "province": "湖南省",
            "city": "永州市",
            "district": "江华瑶族自治县"
        }
    },
    {
        "id": "4845287170994105207",
        "title": "卫生间",
        "address": "湖南省永州市冷水滩区梧桐路777号愿景国际广场3F",
        "tel": "",
        "category": "基础设施:公共设施:公共厕所",
        "type": 0,
        "location": {
            "lat": 26.458571,
            "lng": 111.596803
        },
        "ad_info": {
            "adcode": 431103,
            "province": "湖南省",
            "city": "永州市",
            "district": "冷水滩区"
        }
    },
    {
        "id": "215074941961334115",
        "title": "无障碍公共厕所",
        "address": "湖南省永州市道县湘源路与营阳大道交叉口东460米",
        "tel": "",
        "category": "基础设施:公共设施:公共厕所",
        "type": 0,
        "location": {
            "lat": 25.538745,
            "lng": 111.615935
        },
        "ad_info": {
            "adcode": 431124,
            "province": "湖南省",
            "city": "永州市",
            "district": "道县"
        }
    },
    {
        "id": "14656858451753797944",
        "title": "公共卫生间",
        "address": "湖南省永州市祁阳市浯溪中路与金龙街交叉口西北方向243米左右",
        "tel": "",
        "category": "基础设施:公共设施:公共厕所",
        "type": 0,
        "location": {
            "lat": 26.575112,
            "lng": 111.849948
        },
        "ad_info": {
            "adcode": 431181,
            "province": "湖南省",
            "city": "永州市",
            "district": "祁阳市"
        }
    },
    {
        "id": "5830535071090409968",
        "title": "公共卫生间隔断",
        "address": "湖南省永州市冷水滩区永达建材市场b4栋8号",
        "tel": "",
        "category": "基础设施:公共设施:公共厕所",
        "type": 0,
        "location": {
            "lat": 26.455511,
            "lng": 111.592669
        },
        "ad_info": {
            "adcode": 431103,
            "province": "湖南省",
            "city": "永州市",
            "district": "冷水滩区"
        }
    },
    {
        "id": "17143576463442971430",
        "title": "公共厕所",
        "address": "湖南省永州市道县G207与道州北路交叉口东南方向111米左右",
        "tel": "",
        "category": "基础设施:公共设施:公共厕所",
        "type": 0,
        "location": {
            "lat": 25.58119,
            "lng": 111.599506
        },
        "ad_info": {
            "adcode": 431124,
            "province": "湖南省",
            "city": "永州市",
            "district": "道县"
        }
    },
    {
        "id": "316094025253493225",
        "title": "公共厕所",
        "address": "湖南省永州市宁远县大界源生态休闲度假村东南侧110米",
        "tel": "",
        "category": "基础设施:公共设施:公共厕所",
        "type": 0,
        "location": {
            "lat": 25.471355,
            "lng": 111.951395
        },
        "ad_info": {
            "adcode": 431126,
            "province": "湖南省",
            "city": "永州市",
            "district": "宁远县"
        }
    },
    {
        "id": "3557469519905979725",
        "title": "公共厕所",
        "address": "湖南省永州市冷水滩区西区路太阳红酒店正对面",
        "tel": "",
        "category": "基础设施:公共设施:公共厕所",
        "type": 0,
        "location": {
            "lat": 26.435688,
            "lng": 111.5831
        },
        "ad_info": {
            "adcode": 431103,
            "province": "湖南省",
            "city": "永州市",
            "district": "冷水滩区"
        }
    },
    {
        "id": "10991985604536217064",
        "title": "公共厕所",
        "address": "湖南省永州市江永县幸福路与知青路交叉口正北方向284米左右",
        "tel": "",
        "category": "基础设施:公共设施:公共厕所",
        "type": 0,
        "location": {
            "lat": 25.272518,
            "lng": 111.351169
        },
        "ad_info": {
            "adcode": 431125,
            "province": "湖南省",
            "city": "永州市",
            "district": "江永县"
        }
    },
    {
        "id": "8548629578526466759",
        "title": "公共厕所",
        "address": "湖南省永州市祁阳市宝塔街与陶铸路交叉口东南方向206米左右",
        "tel": "",
        "category": "基础设施:公共设施:公共厕所",
        "type": 0,
        "location": {
            "lat": 26.586933,
            "lng": 111.880101
        },
        "ad_info": {
            "adcode": 431181,
            "province": "湖南省",
            "city": "永州市",
            "district": "祁阳市"
        }
    },
    {
        "id": "2576815116792233501",
        "title": "卫生间",
        "address": "湖南省永州市冷水滩区梧桐路777号愿景国际广场2F",
        "tel": "",
        "category": "基础设施:公共设施:公共厕所",
        "type": 0,
        "location": {
            "lat": 26.458564,
            "lng": 111.596817
        },
        "ad_info": {
            "adcode": 431103,
            "province": "湖南省",
            "city": "永州市",
            "district": "冷水滩区"
        }
    },
    {
        "id": "210034221464133607",
        "title": "公共厕所",
        "address": "湖南省永州市江永县凤亭路与白龙路交叉口正北方向62米左右",
        "tel": "",
        "category": "基础设施:公共设施:公共厕所",
        "type": 0,
        "location": {
            "lat": 25.259683,
            "lng": 111.359248
        },
        "ad_info": {
            "adcode": 431125,
            "province": "湖南省",
            "city": "永州市",
            "district": "江永县"
        }
    },
    {
        "id": "6481401918001005808",
        "title": "公共厕所",
        "address": "湖南省永州市宁远县九疑中路与建设路交叉口正北方向42米左右",
        "tel": "",
        "category": "基础设施:公共设施:公共厕所",
        "type": 0,
        "location": {
            "lat": 25.58393,
            "lng": 111.945751
        },
        "ad_info": {
            "adcode": 431126,
            "province": "湖南省",
            "city": "永州市",
            "district": "宁远县"
        }
    },
    {
        "id": "14642714796921006884",
        "title": "卫生间",
        "address": "湖南省永州市冷水滩区梧桐路777号愿景国际广场1F",
        "tel": "",
        "category": "基础设施:公共设施:公共厕所",
        "type": 0,
        "location": {
            "lat": 26.458621,
            "lng": 111.596777
        },
        "ad_info": {
            "adcode": 431103,
            "province": "湖南省",
            "city": "永州市",
            "district": "冷水滩区"
        }
    },
    {
        "id": "6666153133075519473",
        "title": "骥村镇李家湾村公厕",
        "address": "湖南省永州市新田县",
        "tel": "",
        "category": "基础设施:公共设施:公共厕所",
        "type": 0,
        "location": {
            "lat": 25.947709,
            "lng": 112.158181
        },
        "ad_info": {
            "adcode": 431128,
            "province": "湖南省",
            "city": "永州市",
            "district": "新田县"
        }
    },
    {
        "id": "1664694097670593900",
        "title": "公共厕所",
        "address": "湖南省永州市冷水滩区凤凰路与珊瑚路交叉口东南方向56米左右",
        "tel": "",
        "category": "基础设施:公共设施:公共厕所",
        "type": 0,
        "location": {
            "lat": 26.453705,
            "lng": 111.600514
        },
        "ad_info": {
            "adcode": 431103,
            "province": "湖南省",
            "city": "永州市",
            "district": "冷水滩区"
        }
    },
    {
        "id": "12061890469533675916",
        "title": "公共厕所",
        "address": "湖南省永州市祁阳市人民东路与西横街交叉口正南方向30米左右",
        "tel": "",
        "category": "基础设施:公共设施:公共厕所",
        "type": 0,
        "location": {
            "lat": 26.586116,
            "lng": 111.861129
        },
        "ad_info": {
            "adcode": 431181,
            "province": "湖南省",
            "city": "永州市",
            "district": "祁阳市"
        }
    },
    {
        "id": "6149397932925795924",
        "title": "公共厕所",
        "address": "湖南省永州市零陵区李家塘路与黄溪岭路交叉口东北方向198米左右",
        "tel": "",
        "category": "基础设施:公共设施:公共厕所",
        "type": 0,
        "location": {
            "lat": 26.213539,
            "lng": 111.620987
        },
        "ad_info": {
            "adcode": 431102,
            "province": "湖南省",
            "city": "永州市",
            "district": "零陵区"
        }
    },
    {
        "id": "16827690330525240828",
        "title": "肯德基(零陵北路餐厅)-洗手间",
        "address": "湖南省永州市冷水滩区凤凰路与零陵中路交叉口东北方向123米左右",
        "tel": "",
        "category": "基础设施:公共设施:公共厕所",
        "type": 0,
        "location": {
            "lat": 26.449283,
            "lng": 111.602739
        },
        "ad_info": {
            "adcode": 431103,
            "province": "湖南省",
            "city": "永州市",
            "district": "冷水滩区"
        }
    },
    {
        "id": "17878725450185118657",
        "title": "公共厕所",
        "address": "湖南省永州市新田县新华北路与滨河东路交叉口正西方向41米左右",
        "tel": "",
        "category": "基础设施:公共设施:公共厕所",
        "type": 0,
        "location": {
            "lat": 25.913272,
            "lng": 112.216245
        },
        "ad_info": {
            "adcode": 431128,
            "province": "湖南省",
            "city": "永州市",
            "district": "新田县"
        }
    },
    {
        "id": "7908183379239828960",
        "title": "公共厕所",
        "address": "湖南省永州市江华瑶族自治县阳华人家西南侧240米",
        "tel": "",
        "category": "基础设施:公共设施:公共厕所",
        "type": 0,
        "location": {
            "lat": 25.182878,
            "lng": 111.648842
        },
        "ad_info": {
            "adcode": 431129,
            "province": "湖南省",
            "city": "永州市",
            "district": "江华瑶族自治县"
        }
    },
    {
        "id": "4845287170994105207",
        "title": "卫生间",
        "address": "湖南省永州市冷水滩区梧桐路777号愿景国际广场3F",
        "tel": "",
        "category": "基础设施:公共设施:公共厕所",
        "type": 0,
        "location": {
            "lat": 26.458571,
            "lng": 111.596803
        },
        "ad_info": {
            "adcode": 431103,
            "province": "湖南省",
            "city": "永州市",
            "district": "冷水滩区"
        }
    },
    {
        "id": "215074941961334115",
        "title": "无障碍公共厕所",
        "address": "湖南省永州市道县湘源路与营阳大道交叉口东460米",
        "tel": "",
        "category": "基础设施:公共设施:公共厕所",
        "type": 0,
        "location": {
            "lat": 25.538745,
            "lng": 111.615935
        },
        "ad_info": {
            "adcode": 431124,
            "province": "湖南省",
            "city": "永州市",
            "district": "道县"
        }
    },
    {
        "id": "14656858451753797944",
        "title": "公共卫生间",
        "address": "湖南省永州市祁阳市浯溪中路与金龙街交叉口西北方向243米左右",
        "tel": "",
        "category": "基础设施:公共设施:公共厕所",
        "type": 0,
        "location": {
            "lat": 26.575112,
            "lng": 111.849948
        },
        "ad_info": {
            "adcode": 431181,
            "province": "湖南省",
            "city": "永州市",
            "district": "祁阳市"
        }
    },
    {
        "id": "5830535071090409968",
        "title": "公共卫生间隔断",
        "address": "湖南省永州市冷水滩区永达建材市场b4栋8号",
        "tel": "",
        "category": "基础设施:公共设施:公共厕所",
        "type": 0,
        "location": {
            "lat": 26.455511,
            "lng": 111.592669
        },
        "ad_info": {
            "adcode": 431103,
            "province": "湖南省",
            "city": "永州市",
            "district": "冷水滩区"
        }
    },
    {
        "id": "17143576463442971430",
        "title": "公共厕所",
        "address": "湖南省永州市道县G207与道州北路交叉口东南方向111米左右",
        "tel": "",
        "category": "基础设施:公共设施:公共厕所",
        "type": 0,
        "location": {
            "lat": 25.58119,
            "lng": 111.599506
        },
        "ad_info": {
            "adcode": 431124,
            "province": "湖南省",
            "city": "永州市",
            "district": "道县"
        }
    },
    {
        "id": "316094025253493225",
        "title": "公共厕所",
        "address": "湖南省永州市宁远县大界源生态休闲度假村东南侧110米",
        "tel": "",
        "category": "基础设施:公共设施:公共厕所",
        "type": 0,
        "location": {
            "lat": 25.471355,
            "lng": 111.951395
        },
        "ad_info": {
            "adcode": 431126,
            "province": "湖南省",
            "city": "永州市",
            "district": "宁远县"
        }
    },
    {
        "id": "3557469519905979725",
        "title": "公共厕所",
        "address": "湖南省永州市冷水滩区西区路太阳红酒店正对面",
        "tel": "",
        "category": "基础设施:公共设施:公共厕所",
        "type": 0,
        "location": {
            "lat": 26.435688,
            "lng": 111.5831
        },
        "ad_info": {
            "adcode": 431103,
            "province": "湖南省",
            "city": "永州市",
            "district": "冷水滩区"
        }
    },
    {
        "id": "10991985604536217064",
        "title": "公共厕所",
        "address": "湖南省永州市江永县幸福路与知青路交叉口正北方向284米左右",
        "tel": "",
        "category": "基础设施:公共设施:公共厕所",
        "type": 0,
        "location": {
            "lat": 25.272518,
            "lng": 111.351169
        },
        "ad_info": {
            "adcode": 431125,
            "province": "湖南省",
            "city": "永州市",
            "district": "江永县"
        }
    },
    {
        "id": "8548629578526466759",
        "title": "公共厕所",
        "address": "湖南省永州市祁阳市宝塔街与陶铸路交叉口东南方向206米左右",
        "tel": "",
        "category": "基础设施:公共设施:公共厕所",
        "type": 0,
        "location": {
            "lat": 26.586933,
            "lng": 111.880101
        },
        "ad_info": {
            "adcode": 431181,
            "province": "湖南省",
            "city": "永州市",
            "district": "祁阳市"
        }
    },
    {
        "id": "2576815116792233501",
        "title": "卫生间",
        "address": "湖南省永州市冷水滩区梧桐路777号愿景国际广场2F",
        "tel": "",
        "category": "基础设施:公共设施:公共厕所",
        "type": 0,
        "location": {
            "lat": 26.458564,
            "lng": 111.596817
        },
        "ad_info": {
            "adcode": 431103,
            "province": "湖南省",
            "city": "永州市",
            "district": "冷水滩区"
        }
    },
    {
        "id": "210034221464133607",
        "title": "公共厕所",
        "address": "湖南省永州市江永县凤亭路与白龙路交叉口正北方向62米左右",
        "tel": "",
        "category": "基础设施:公共设施:公共厕所",
        "type": 0,
        "location": {
            "lat": 25.259683,
            "lng": 111.359248
        },
        "ad_info": {
            "adcode": 431125,
            "province": "湖南省",
            "city": "永州市",
            "district": "江永县"
        }
    },
    {
        "id": "6481401918001005808",
        "title": "公共厕所",
        "address": "湖南省永州市宁远县九疑中路与建设路交叉口正北方向42米左右",
        "tel": "",
        "category": "基础设施:公共设施:公共厕所",
        "type": 0,
        "location": {
            "lat": 25.58393,
            "lng": 111.945751
        },
        "ad_info": {
            "adcode": 431126,
            "province": "湖南省",
            "city": "永州市",
            "district": "宁远县"
        }
    },
    {
        "id": "14642714796921006884",
        "title": "卫生间",
        "address": "湖南省永州市冷水滩区梧桐路777号愿景国际广场1F",
        "tel": "",
        "category": "基础设施:公共设施:公共厕所",
        "type": 0,
        "location": {
            "lat": 26.458621,
            "lng": 111.596777
        },
        "ad_info": {
            "adcode": 431103,
            "province": "湖南省",
            "city": "永州市",
            "district": "冷水滩区"
        }
    },
    {
        "id": "6666153133075519473",
        "title": "骥村镇李家湾村公厕",
        "address": "湖南省永州市新田县",
        "tel": "",
        "category": "基础设施:公共设施:公共厕所",
        "type": 0,
        "location": {
            "lat": 25.947709,
            "lng": 112.158181
        },
        "ad_info": {
            "adcode": 431128,
            "province": "湖南省",
            "city": "永州市",
            "district": "新田县"
        }
    },
    {
        "id": "1664694097670593900",
        "title": "公共厕所",
        "address": "湖南省永州市冷水滩区凤凰路与珊瑚路交叉口东南方向56米左右",
        "tel": "",
        "category": "基础设施:公共设施:公共厕所",
        "type": 0,
        "location": {
            "lat": 26.453705,
            "lng": 111.600514
        },
        "ad_info": {
            "adcode": 431103,
            "province": "湖南省",
            "city": "永州市",
            "district": "冷水滩区"
        }
    },
    {
        "id": "12061890469533675916",
        "title": "公共厕所",
        "address": "湖南省永州市祁阳市人民东路与西横街交叉口正南方向30米左右",
        "tel": "",
        "category": "基础设施:公共设施:公共厕所",
        "type": 0,
        "location": {
            "lat": 26.586116,
            "lng": 111.861129
        },
        "ad_info": {
            "adcode": 431181,
            "province": "湖南省",
            "city": "永州市",
            "district": "祁阳市"
        }
    },
    {
        "id": "6149397932925795924",
        "title": "公共厕所",
        "address": "湖南省永州市零陵区李家塘路与黄溪岭路交叉口东北方向198米左右",
        "tel": "",
        "category": "基础设施:公共设施:公共厕所",
        "type": 0,
        "location": {
            "lat": 26.213539,
            "lng": 111.620987
        },
        "ad_info": {
            "adcode": 431102,
            "province": "湖南省",
            "city": "永州市",
            "district": "零陵区"
        }
    },
    {
        "id": "16827690330525240828",
        "title": "肯德基(零陵北路餐厅)-洗手间",
        "address": "湖南省永州市冷水滩区凤凰路与零陵中路交叉口东北方向123米左右",
        "tel": "",
        "category": "基础设施:公共设施:公共厕所",
        "type": 0,
        "location": {
            "lat": 26.449283,
            "lng": 111.602739
        },
        "ad_info": {
            "adcode": 431103,
            "province": "湖南省",
            "city": "永州市",
            "district": "冷水滩区"
        }
    },
    {
        "id": "17878725450185118657",
        "title": "公共厕所",
        "address": "湖南省永州市新田县新华北路与滨河东路交叉口正西方向41米左右",
        "tel": "",
        "category": "基础设施:公共设施:公共厕所",
        "type": 0,
        "location": {
            "lat": 25.913272,
            "lng": 112.216245
        },
        "ad_info": {
            "adcode": 431128,
            "province": "湖南省",
            "city": "永州市",
            "district": "新田县"
        }
    },
    {
        "id": "7908183379239828960",
        "title": "公共厕所",
        "address": "湖南省永州市江华瑶族自治县阳华人家西南侧240米",
        "tel": "",
        "category": "基础设施:公共设施:公共厕所",
        "type": 0,
        "location": {
            "lat": 25.182878,
            "lng": 111.648842
        },
        "ad_info": {
            "adcode": 431129,
            "province": "湖南省",
            "city": "永州市",
            "district": "江华瑶族自治县"
        }
    },
    {
        "id": "4845287170994105207",
        "title": "卫生间",
        "address": "湖南省永州市冷水滩区梧桐路777号愿景国际广场3F",
        "tel": "",
        "category": "基础设施:公共设施:公共厕所",
        "type": 0,
        "location": {
            "lat": 26.458571,
            "lng": 111.596803
        },
        "ad_info": {
            "adcode": 431103,
            "province": "湖南省",
            "city": "永州市",
            "district": "冷水滩区"
        }
    },
    {
        "id": "215074941961334115",
        "title": "无障碍公共厕所",
        "address": "湖南省永州市道县湘源路与营阳大道交叉口东460米",
        "tel": "",
        "category": "基础设施:公共设施:公共厕所",
        "type": 0,
        "location": {
            "lat": 25.538745,
            "lng": 111.615935
        },
        "ad_info": {
            "adcode": 431124,
            "province": "湖南省",
            "city": "永州市",
            "district": "道县"
        }
    },
    {
        "id": "14656858451753797944",
        "title": "公共卫生间",
        "address": "湖南省永州市祁阳市浯溪中路与金龙街交叉口西北方向243米左右",
        "tel": "",
        "category": "基础设施:公共设施:公共厕所",
        "type": 0,
        "location": {
            "lat": 26.575112,
            "lng": 111.849948
        },
        "ad_info": {
            "adcode": 431181,
            "province": "湖南省",
            "city": "永州市",
            "district": "祁阳市"
        }
    },
    {
        "id": "5830535071090409968",
        "title": "公共卫生间隔断",
        "address": "湖南省永州市冷水滩区永达建材市场b4栋8号",
        "tel": "",
        "category": "基础设施:公共设施:公共厕所",
        "type": 0,
        "location": {
            "lat": 26.455511,
            "lng": 111.592669
        },
        "ad_info": {
            "adcode": 431103,
            "province": "湖南省",
            "city": "永州市",
            "district": "冷水滩区"
        }
    },
    {
        "id": "17143576463442971430",
        "title": "公共厕所",
        "address": "湖南省永州市道县G207与道州北路交叉口东南方向111米左右",
        "tel": "",
        "category": "基础设施:公共设施:公共厕所",
        "type": 0,
        "location": {
            "lat": 25.58119,
            "lng": 111.599506
        },
        "ad_info": {
            "adcode": 431124,
            "province": "湖南省",
            "city": "永州市",
            "district": "道县"
        }
    },
    {
        "id": "316094025253493225",
        "title": "公共厕所",
        "address": "湖南省永州市宁远县大界源生态休闲度假村东南侧110米",
        "tel": "",
        "category": "基础设施:公共设施:公共厕所",
        "type": 0,
        "location": {
            "lat": 25.471355,
            "lng": 111.951395
        },
        "ad_info": {
            "adcode": 431126,
            "province": "湖南省",
            "city": "永州市",
            "district": "宁远县"
        }
    },
    {
        "id": "3557469519905979725",
        "title": "公共厕所",
        "address": "湖南省永州市冷水滩区西区路太阳红酒店正对面",
        "tel": "",
        "category": "基础设施:公共设施:公共厕所",
        "type": 0,
        "location": {
            "lat": 26.435688,
            "lng": 111.5831
        },
        "ad_info": {
            "adcode": 431103,
            "province": "湖南省",
            "city": "永州市",
            "district": "冷水滩区"
        }
    },
    {
        "id": "10991985604536217064",
        "title": "公共厕所",
        "address": "湖南省永州市江永县幸福路与知青路交叉口正北方向284米左右",
        "tel": "",
        "category": "基础设施:公共设施:公共厕所",
        "type": 0,
        "location": {
            "lat": 25.272518,
            "lng": 111.351169
        },
        "ad_info": {
            "adcode": 431125,
            "province": "湖南省",
            "city": "永州市",
            "district": "江永县"
        }
    },
    {
        "id": "8548629578526466759",
        "title": "公共厕所",
        "address": "湖南省永州市祁阳市宝塔街与陶铸路交叉口东南方向206米左右",
        "tel": "",
        "category": "基础设施:公共设施:公共厕所",
        "type": 0,
        "location": {
            "lat": 26.586933,
            "lng": 111.880101
        },
        "ad_info": {
            "adcode": 431181,
            "province": "湖南省",
            "city": "永州市",
            "district": "祁阳市"
        }
    },
    {
        "id": "2576815116792233501",
        "title": "卫生间",
        "address": "湖南省永州市冷水滩区梧桐路777号愿景国际广场2F",
        "tel": "",
        "category": "基础设施:公共设施:公共厕所",
        "type": 0,
        "location": {
            "lat": 26.458564,
            "lng": 111.596817
        },
        "ad_info": {
            "adcode": 431103,
            "province": "湖南省",
            "city": "永州市",
            "district": "冷水滩区"
        }
    },
    {
        "id": "210034221464133607",
        "title": "公共厕所",
        "address": "湖南省永州市江永县凤亭路与白龙路交叉口正北方向62米左右",
        "tel": "",
        "category": "基础设施:公共设施:公共厕所",
        "type": 0,
        "location": {
            "lat": 25.259683,
            "lng": 111.359248
        },
        "ad_info": {
            "adcode": 431125,
            "province": "湖南省",
            "city": "永州市",
            "district": "江永县"
        }
    },
    {
        "id": "6481401918001005808",
        "title": "公共厕所",
        "address": "湖南省永州市宁远县九疑中路与建设路交叉口正北方向42米左右",
        "tel": "",
        "category": "基础设施:公共设施:公共厕所",
        "type": 0,
        "location": {
            "lat": 25.58393,
            "lng": 111.945751
        },
        "ad_info": {
            "adcode": 431126,
            "province": "湖南省",
            "city": "永州市",
            "district": "宁远县"
        }
    },
    {
        "id": "14642714796921006884",
        "title": "卫生间",
        "address": "湖南省永州市冷水滩区梧桐路777号愿景国际广场1F",
        "tel": "",
        "category": "基础设施:公共设施:公共厕所",
        "type": 0,
        "location": {
            "lat": 26.458621,
            "lng": 111.596777
        },
        "ad_info": {
            "adcode": 431103,
            "province": "湖南省",
            "city": "永州市",
            "district": "冷水滩区"
        }
    },
    {
        "id": "6666153133075519473",
        "title": "骥村镇李家湾村公厕",
        "address": "湖南省永州市新田县",
        "tel": "",
        "category": "基础设施:公共设施:公共厕所",
        "type": 0,
        "location": {
            "lat": 25.947709,
            "lng": 112.158181
        },
        "ad_info": {
            "adcode": 431128,
            "province": "湖南省",
            "city": "永州市",
            "district": "新田县"
        }
    },
    {
        "id": "1664694097670593900",
        "title": "公共厕所",
        "address": "湖南省永州市冷水滩区凤凰路与珊瑚路交叉口东南方向56米左右",
        "tel": "",
        "category": "基础设施:公共设施:公共厕所",
        "type": 0,
        "location": {
            "lat": 26.453705,
            "lng": 111.600514
        },
        "ad_info": {
            "adcode": 431103,
            "province": "湖南省",
            "city": "永州市",
            "district": "冷水滩区"
        }
    },
    {
        "id": "12061890469533675916",
        "title": "公共厕所",
        "address": "湖南省永州市祁阳市人民东路与西横街交叉口正南方向30米左右",
        "tel": "",
        "category": "基础设施:公共设施:公共厕所",
        "type": 0,
        "location": {
            "lat": 26.586116,
            "lng": 111.861129
        },
        "ad_info": {
            "adcode": 431181,
            "province": "湖南省",
            "city": "永州市",
            "district": "祁阳市"
        }
    },
    {
        "id": "6149397932925795924",
        "title": "公共厕所",
        "address": "湖南省永州市零陵区李家塘路与黄溪岭路交叉口东北方向198米左右",
        "tel": "",
        "category": "基础设施:公共设施:公共厕所",
        "type": 0,
        "location": {
            "lat": 26.213539,
            "lng": 111.620987
        },
        "ad_info": {
            "adcode": 431102,
            "province": "湖南省",
            "city": "永州市",
            "district": "零陵区"
        }
    },
    {
        "id": "16827690330525240828",
        "title": "肯德基(零陵北路餐厅)-洗手间",
        "address": "湖南省永州市冷水滩区凤凰路与零陵中路交叉口东北方向123米左右",
        "tel": "",
        "category": "基础设施:公共设施:公共厕所",
        "type": 0,
        "location": {
            "lat": 26.449283,
            "lng": 111.602739
        },
        "ad_info": {
            "adcode": 431103,
            "province": "湖南省",
            "city": "永州市",
            "district": "冷水滩区"
        }
    },
    {
        "id": "17878725450185118657",
        "title": "公共厕所",
        "address": "湖南省永州市新田县新华北路与滨河东路交叉口正西方向41米左右",
        "tel": "",
        "category": "基础设施:公共设施:公共厕所",
        "type": 0,
        "location": {
            "lat": 25.913272,
            "lng": 112.216245
        },
        "ad_info": {
            "adcode": 431128,
            "province": "湖南省",
            "city": "永州市",
            "district": "新田县"
        }
    },
    {
        "id": "7908183379239828960",
        "title": "公共厕所",
        "address": "湖南省永州市江华瑶族自治县阳华人家西南侧240米",
        "tel": "",
        "category": "基础设施:公共设施:公共厕所",
        "type": 0,
        "location": {
            "lat": 25.182878,
            "lng": 111.648842
        },
        "ad_info": {
            "adcode": 431129,
            "province": "湖南省",
            "city": "永州市",
            "district": "江华瑶族自治县"
        }
    },
    {
        "id": "4845287170994105207",
        "title": "卫生间",
        "address": "湖南省永州市冷水滩区梧桐路777号愿景国际广场3F",
        "tel": "",
        "category": "基础设施:公共设施:公共厕所",
        "type": 0,
        "location": {
            "lat": 26.458571,
            "lng": 111.596803
        },
        "ad_info": {
            "adcode": 431103,
            "province": "湖南省",
            "city": "永州市",
            "district": "冷水滩区"
        }
    },
    {
        "id": "215074941961334115",
        "title": "无障碍公共厕所",
        "address": "湖南省永州市道县湘源路与营阳大道交叉口东460米",
        "tel": "",
        "category": "基础设施:公共设施:公共厕所",
        "type": 0,
        "location": {
            "lat": 25.538745,
            "lng": 111.615935
        },
        "ad_info": {
            "adcode": 431124,
            "province": "湖南省",
            "city": "永州市",
            "district": "道县"
        }
    },
    {
        "id": "14656858451753797944",
        "title": "公共卫生间",
        "address": "湖南省永州市祁阳市浯溪中路与金龙街交叉口西北方向243米左右",
        "tel": "",
        "category": "基础设施:公共设施:公共厕所",
        "type": 0,
        "location": {
            "lat": 26.575112,
            "lng": 111.849948
        },
        "ad_info": {
            "adcode": 431181,
            "province": "湖南省",
            "city": "永州市",
            "district": "祁阳市"
        }
    },
    {
        "id": "5830535071090409968",
        "title": "公共卫生间隔断",
        "address": "湖南省永州市冷水滩区永达建材市场b4栋8号",
        "tel": "",
        "category": "基础设施:公共设施:公共厕所",
        "type": 0,
        "location": {
            "lat": 26.455511,
            "lng": 111.592669
        },
        "ad_info": {
            "adcode": 431103,
            "province": "湖南省",
            "city": "永州市",
            "district": "冷水滩区"
        }
    },
    {
        "id": "17143576463442971430",
        "title": "公共厕所",
        "address": "湖南省永州市道县G207与道州北路交叉口东南方向111米左右",
        "tel": "",
        "category": "基础设施:公共设施:公共厕所",
        "type": 0,
        "location": {
            "lat": 25.58119,
            "lng": 111.599506
        },
        "ad_info": {
            "adcode": 431124,
            "province": "湖南省",
            "city": "永州市",
            "district": "道县"
        }
    },
    {
        "id": "316094025253493225",
        "title": "公共厕所",
        "address": "湖南省永州市宁远县大界源生态休闲度假村东南侧110米",
        "tel": "",
        "category": "基础设施:公共设施:公共厕所",
        "type": 0,
        "location": {
            "lat": 25.471355,
            "lng": 111.951395
        },
        "ad_info": {
            "adcode": 431126,
            "province": "湖南省",
            "city": "永州市",
            "district": "宁远县"
        }
    },
    {
        "id": "3557469519905979725",
        "title": "公共厕所",
        "address": "湖南省永州市冷水滩区西区路太阳红酒店正对面",
        "tel": "",
        "category": "基础设施:公共设施:公共厕所",
        "type": 0,
        "location": {
            "lat": 26.435688,
            "lng": 111.5831
        },
        "ad_info": {
            "adcode": 431103,
            "province": "湖南省",
            "city": "永州市",
            "district": "冷水滩区"
        }
    },
    {
        "id": "10991985604536217064",
        "title": "公共厕所",
        "address": "湖南省永州市江永县幸福路与知青路交叉口正北方向284米左右",
        "tel": "",
        "category": "基础设施:公共设施:公共厕所",
        "type": 0,
        "location": {
            "lat": 25.272518,
            "lng": 111.351169
        },
        "ad_info": {
            "adcode": 431125,
            "province": "湖南省",
            "city": "永州市",
            "district": "江永县"
        }
    },
    {
        "id": "8548629578526466759",
        "title": "公共厕所",
        "address": "湖南省永州市祁阳市宝塔街与陶铸路交叉口东南方向206米左右",
        "tel": "",
        "category": "基础设施:公共设施:公共厕所",
        "type": 0,
        "location": {
            "lat": 26.586933,
            "lng": 111.880101
        },
        "ad_info": {
            "adcode": 431181,
            "province": "湖南省",
            "city": "永州市",
            "district": "祁阳市"
        }
    },
    {
        "id": "2576815116792233501",
        "title": "卫生间",
        "address": "湖南省永州市冷水滩区梧桐路777号愿景国际广场2F",
        "tel": "",
        "category": "基础设施:公共设施:公共厕所",
        "type": 0,
        "location": {
            "lat": 26.458564,
            "lng": 111.596817
        },
        "ad_info": {
            "adcode": 431103,
            "province": "湖南省",
            "city": "永州市",
            "district": "冷水滩区"
        }
    },
    {
        "id": "210034221464133607",
        "title": "公共厕所",
        "address": "湖南省永州市江永县凤亭路与白龙路交叉口正北方向62米左右",
        "tel": "",
        "category": "基础设施:公共设施:公共厕所",
        "type": 0,
        "location": {
            "lat": 25.259683,
            "lng": 111.359248
        },
        "ad_info": {
            "adcode": 431125,
            "province": "湖南省",
            "city": "永州市",
            "district": "江永县"
        }
    },
    {
        "id": "6481401918001005808",
        "title": "公共厕所",
        "address": "湖南省永州市宁远县九疑中路与建设路交叉口正北方向42米左右",
        "tel": "",
        "category": "基础设施:公共设施:公共厕所",
        "type": 0,
        "location": {
            "lat": 25.58393,
            "lng": 111.945751
        },
        "ad_info": {
            "adcode": 431126,
            "province": "湖南省",
            "city": "永州市",
            "district": "宁远县"
        }
    },
    {
        "id": "14642714796921006884",
        "title": "卫生间",
        "address": "湖南省永州市冷水滩区梧桐路777号愿景国际广场1F",
        "tel": "",
        "category": "基础设施:公共设施:公共厕所",
        "type": 0,
        "location": {
            "lat": 26.458621,
            "lng": 111.596777
        },
        "ad_info": {
            "adcode": 431103,
            "province": "湖南省",
            "city": "永州市",
            "district": "冷水滩区"
        }
    },
    {
        "id": "6666153133075519473",
        "title": "骥村镇李家湾村公厕",
        "address": "湖南省永州市新田县",
        "tel": "",
        "category": "基础设施:公共设施:公共厕所",
        "type": 0,
        "location": {
            "lat": 25.947709,
            "lng": 112.158181
        },
        "ad_info": {
            "adcode": 431128,
            "province": "湖南省",
            "city": "永州市",
            "district": "新田县"
        }
    },
    {
        "id": "1664694097670593900",
        "title": "公共厕所",
        "address": "湖南省永州市冷水滩区凤凰路与珊瑚路交叉口东南方向56米左右",
        "tel": "",
        "category": "基础设施:公共设施:公共厕所",
        "type": 0,
        "location": {
            "lat": 26.453705,
            "lng": 111.600514
        },
        "ad_info": {
            "adcode": 431103,
            "province": "湖南省",
            "city": "永州市",
            "district": "冷水滩区"
        }
    },
    {
        "id": "12061890469533675916",
        "title": "公共厕所",
        "address": "湖南省永州市祁阳市人民东路与西横街交叉口正南方向30米左右",
        "tel": "",
        "category": "基础设施:公共设施:公共厕所",
        "type": 0,
        "location": {
            "lat": 26.586116,
            "lng": 111.861129
        },
        "ad_info": {
            "adcode": 431181,
            "province": "湖南省",
            "city": "永州市",
            "district": "祁阳市"
        }
    },
    {
        "id": "6149397932925795924",
        "title": "公共厕所",
        "address": "湖南省永州市零陵区李家塘路与黄溪岭路交叉口东北方向198米左右",
        "tel": "",
        "category": "基础设施:公共设施:公共厕所",
        "type": 0,
        "location": {
            "lat": 26.213539,
            "lng": 111.620987
        },
        "ad_info": {
            "adcode": 431102,
            "province": "湖南省",
            "city": "永州市",
            "district": "零陵区"
        }
    },
    {
        "id": "16827690330525240828",
        "title": "肯德基(零陵北路餐厅)-洗手间",
        "address": "湖南省永州市冷水滩区凤凰路与零陵中路交叉口东北方向123米左右",
        "tel": "",
        "category": "基础设施:公共设施:公共厕所",
        "type": 0,
        "location": {
            "lat": 26.449283,
            "lng": 111.602739
        },
        "ad_info": {
            "adcode": 431103,
            "province": "湖南省",
            "city": "永州市",
            "district": "冷水滩区"
        }
    },
    {
        "id": "17878725450185118657",
        "title": "公共厕所",
        "address": "湖南省永州市新田县新华北路与滨河东路交叉口正西方向41米左右",
        "tel": "",
        "category": "基础设施:公共设施:公共厕所",
        "type": 0,
        "location": {
            "lat": 25.913272,
            "lng": 112.216245
        },
        "ad_info": {
            "adcode": 431128,
            "province": "湖南省",
            "city": "永州市",
            "district": "新田县"
        }
    },
    {
        "id": "7908183379239828960",
        "title": "公共厕所",
        "address": "湖南省永州市江华瑶族自治县阳华人家西南侧240米",
        "tel": "",
        "category": "基础设施:公共设施:公共厕所",
        "type": 0,
        "location": {
            "lat": 25.182878,
            "lng": 111.648842
        },
        "ad_info": {
            "adcode": 431129,
            "province": "湖南省",
            "city": "永州市",
            "district": "江华瑶族自治县"
        }
    },
    {
        "id": "4845287170994105207",
        "title": "卫生间",
        "address": "湖南省永州市冷水滩区梧桐路777号愿景国际广场3F",
        "tel": "",
        "category": "基础设施:公共设施:公共厕所",
        "type": 0,
        "location": {
            "lat": 26.458571,
            "lng": 111.596803
        },
        "ad_info": {
            "adcode": 431103,
            "province": "湖南省",
            "city": "永州市",
            "district": "冷水滩区"
        }
    },
    {
        "id": "215074941961334115",
        "title": "无障碍公共厕所",
        "address": "湖南省永州市道县湘源路与营阳大道交叉口东460米",
        "tel": "",
        "category": "基础设施:公共设施:公共厕所",
        "type": 0,
        "location": {
            "lat": 25.538745,
            "lng": 111.615935
        },
        "ad_info": {
            "adcode": 431124,
            "province": "湖南省",
            "city": "永州市",
            "district": "道县"
        }
    },
    {
        "id": "14656858451753797944",
        "title": "公共卫生间",
        "address": "湖南省永州市祁阳市浯溪中路与金龙街交叉口西北方向243米左右",
        "tel": "",
        "category": "基础设施:公共设施:公共厕所",
        "type": 0,
        "location": {
            "lat": 26.575112,
            "lng": 111.849948
        },
        "ad_info": {
            "adcode": 431181,
            "province": "湖南省",
            "city": "永州市",
            "district": "祁阳市"
        }
    },
    {
        "id": "5830535071090409968",
        "title": "公共卫生间隔断",
        "address": "湖南省永州市冷水滩区永达建材市场b4栋8号",
        "tel": "",
        "category": "基础设施:公共设施:公共厕所",
        "type": 0,
        "location": {
            "lat": 26.455511,
            "lng": 111.592669
        },
        "ad_info": {
            "adcode": 431103,
            "province": "湖南省",
            "city": "永州市",
            "district": "冷水滩区"
        }
    },
    {
        "id": "17143576463442971430",
        "title": "公共厕所",
        "address": "湖南省永州市道县G207与道州北路交叉口东南方向111米左右",
        "tel": "",
        "category": "基础设施:公共设施:公共厕所",
        "type": 0,
        "location": {
            "lat": 25.58119,
            "lng": 111.599506
        },
        "ad_info": {
            "adcode": 431124,
            "province": "湖南省",
            "city": "永州市",
            "district": "道县"
        }
    },
    {
        "id": "316094025253493225",
        "title": "公共厕所",
        "address": "湖南省永州市宁远县大界源生态休闲度假村东南侧110米",
        "tel": "",
        "category": "基础设施:公共设施:公共厕所",
        "type": 0,
        "location": {
            "lat": 25.471355,
            "lng": 111.951395
        },
        "ad_info": {
            "adcode": 431126,
            "province": "湖南省",
            "city": "永州市",
            "district": "宁远县"
        }
    },
    {
        "id": "3557469519905979725",
        "title": "公共厕所",
        "address": "湖南省永州市冷水滩区西区路太阳红酒店正对面",
        "tel": "",
        "category": "基础设施:公共设施:公共厕所",
        "type": 0,
        "location": {
            "lat": 26.435688,
            "lng": 111.5831
        },
        "ad_info": {
            "adcode": 431103,
            "province": "湖南省",
            "city": "永州市",
            "district": "冷水滩区"
        }
    },
    {
        "id": "10991985604536217064",
        "title": "公共厕所",
        "address": "湖南省永州市江永县幸福路与知青路交叉口正北方向284米左右",
        "tel": "",
        "category": "基础设施:公共设施:公共厕所",
        "type": 0,
        "location": {
            "lat": 25.272518,
            "lng": 111.351169
        },
        "ad_info": {
            "adcode": 431125,
            "province": "湖南省",
            "city": "永州市",
            "district": "江永县"
        }
    },
    {
        "id": "8548629578526466759",
        "title": "公共厕所",
        "address": "湖南省永州市祁阳市宝塔街与陶铸路交叉口东南方向206米左右",
        "tel": "",
        "category": "基础设施:公共设施:公共厕所",
        "type": 0,
        "location": {
            "lat": 26.586933,
            "lng": 111.880101
        },
        "ad_info": {
            "adcode": 431181,
            "province": "湖南省",
            "city": "永州市",
            "district": "祁阳市"
        }
    },
    {
        "id": "2576815116792233501",
        "title": "卫生间",
        "address": "湖南省永州市冷水滩区梧桐路777号愿景国际广场2F",
        "tel": "",
        "category": "基础设施:公共设施:公共厕所",
        "type": 0,
        "location": {
            "lat": 26.458564,
            "lng": 111.596817
        },
        "ad_info": {
            "adcode": 431103,
            "province": "湖南省",
            "city": "永州市",
            "district": "冷水滩区"
        }
    },
    {
        "id": "210034221464133607",
        "title": "公共厕所",
        "address": "湖南省永州市江永县凤亭路与白龙路交叉口正北方向62米左右",
        "tel": "",
        "category": "基础设施:公共设施:公共厕所",
        "type": 0,
        "location": {
            "lat": 25.259683,
            "lng": 111.359248
        },
        "ad_info": {
            "adcode": 431125,
            "province": "湖南省",
            "city": "永州市",
            "district": "江永县"
        }
    },
    {
        "id": "6481401918001005808",
        "title": "公共厕所",
        "address": "湖南省永州市宁远县九疑中路与建设路交叉口正北方向42米左右",
        "tel": "",
        "category": "基础设施:公共设施:公共厕所",
        "type": 0,
        "location": {
            "lat": 25.58393,
            "lng": 111.945751
        },
        "ad_info": {
            "adcode": 431126,
            "province": "湖南省",
            "city": "永州市",
            "district": "宁远县"
        }
    },
    {
        "id": "14642714796921006884",
        "title": "卫生间",
        "address": "湖南省永州市冷水滩区梧桐路777号愿景国际广场1F",
        "tel": "",
        "category": "基础设施:公共设施:公共厕所",
        "type": 0,
        "location": {
            "lat": 26.458621,
            "lng": 111.596777
        },
        "ad_info": {
            "adcode": 431103,
            "province": "湖南省",
            "city": "永州市",
            "district": "冷水滩区"
        }
    },
    {
        "id": "6666153133075519473",
        "title": "骥村镇李家湾村公厕",
        "address": "湖南省永州市新田县",
        "tel": "",
        "category": "基础设施:公共设施:公共厕所",
        "type": 0,
        "location": {
            "lat": 25.947709,
            "lng": 112.158181
        },
        "ad_info": {
            "adcode": 431128,
            "province": "湖南省",
            "city": "永州市",
            "district": "新田县"
        }
    },
    {
        "id": "1664694097670593900",
        "title": "公共厕所",
        "address": "湖南省永州市冷水滩区凤凰路与珊瑚路交叉口东南方向56米左右",
        "tel": "",
        "category": "基础设施:公共设施:公共厕所",
        "type": 0,
        "location": {
            "lat": 26.453705,
            "lng": 111.600514
        },
        "ad_info": {
            "adcode": 431103,
            "province": "湖南省",
            "city": "永州市",
            "district": "冷水滩区"
        }
    },
    {
        "id": "12061890469533675916",
        "title": "公共厕所",
        "address": "湖南省永州市祁阳市人民东路与西横街交叉口正南方向30米左右",
        "tel": "",
        "category": "基础设施:公共设施:公共厕所",
        "type": 0,
        "location": {
            "lat": 26.586116,
            "lng": 111.861129
        },
        "ad_info": {
            "adcode": 431181,
            "province": "湖南省",
            "city": "永州市",
            "district": "祁阳市"
        }
    },
    {
        "id": "6149397932925795924",
        "title": "公共厕所",
        "address": "湖南省永州市零陵区李家塘路与黄溪岭路交叉口东北方向198米左右",
        "tel": "",
        "category": "基础设施:公共设施:公共厕所",
        "type": 0,
        "location": {
            "lat": 26.213539,
            "lng": 111.620987
        },
        "ad_info": {
            "adcode": 431102,
            "province": "湖南省",
            "city": "永州市",
            "district": "零陵区"
        }
    },
    {
        "id": "16827690330525240828",
        "title": "肯德基(零陵北路餐厅)-洗手间",
        "address": "湖南省永州市冷水滩区凤凰路与零陵中路交叉口东北方向123米左右",
        "tel": "",
        "category": "基础设施:公共设施:公共厕所",
        "type": 0,
        "location": {
            "lat": 26.449283,
            "lng": 111.602739
        },
        "ad_info": {
            "adcode": 431103,
            "province": "湖南省",
            "city": "永州市",
            "district": "冷水滩区"
        }
    },
    {
        "id": "17878725450185118657",
        "title": "公共厕所",
        "address": "湖南省永州市新田县新华北路与滨河东路交叉口正西方向41米左右",
        "tel": "",
        "category": "基础设施:公共设施:公共厕所",
        "type": 0,
        "location": {
            "lat": 25.913272,
            "lng": 112.216245
        },
        "ad_info": {
            "adcode": 431128,
            "province": "湖南省",
            "city": "永州市",
            "district": "新田县"
        }
    },
    {
        "id": "7908183379239828960",
        "title": "公共厕所",
        "address": "湖南省永州市江华瑶族自治县阳华人家西南侧240米",
        "tel": "",
        "category": "基础设施:公共设施:公共厕所",
        "type": 0,
        "location": {
            "lat": 25.182878,
            "lng": 111.648842
        },
        "ad_info": {
            "adcode": 431129,
            "province": "湖南省",
            "city": "永州市",
            "district": "江华瑶族自治县"
        }
    },
    {
        "id": "4845287170994105207",
        "title": "卫生间",
        "address": "湖南省永州市冷水滩区梧桐路777号愿景国际广场3F",
        "tel": "",
        "category": "基础设施:公共设施:公共厕所",
        "type": 0,
        "location": {
            "lat": 26.458571,
            "lng": 111.596803
        },
        "ad_info": {
            "adcode": 431103,
            "province": "湖南省",
            "city": "永州市",
            "district": "冷水滩区"
        }
    },
    {
        "id": "215074941961334115",
        "title": "无障碍公共厕所",
        "address": "湖南省永州市道县湘源路与营阳大道交叉口东460米",
        "tel": "",
        "category": "基础设施:公共设施:公共厕所",
        "type": 0,
        "location": {
            "lat": 25.538745,
            "lng": 111.615935
        },
        "ad_info": {
            "adcode": 431124,
            "province": "湖南省",
            "city": "永州市",
            "district": "道县"
        }
    },
    {
        "id": "14656858451753797944",
        "title": "公共卫生间",
        "address": "湖南省永州市祁阳市浯溪中路与金龙街交叉口西北方向243米左右",
        "tel": "",
        "category": "基础设施:公共设施:公共厕所",
        "type": 0,
        "location": {
            "lat": 26.575112,
            "lng": 111.849948
        },
        "ad_info": {
            "adcode": 431181,
            "province": "湖南省",
            "city": "永州市",
            "district": "祁阳市"
        }
    },
    {
        "id": "5830535071090409968",
        "title": "公共卫生间隔断",
        "address": "湖南省永州市冷水滩区永达建材市场b4栋8号",
        "tel": "",
        "category": "基础设施:公共设施:公共厕所",
        "type": 0,
        "location": {
            "lat": 26.455511,
            "lng": 111.592669
        },
        "ad_info": {
            "adcode": 431103,
            "province": "湖南省",
            "city": "永州市",
            "district": "冷水滩区"
        }
    },
    {
        "id": "17143576463442971430",
        "title": "公共厕所",
        "address": "湖南省永州市道县G207与道州北路交叉口东南方向111米左右",
        "tel": "",
        "category": "基础设施:公共设施:公共厕所",
        "type": 0,
        "location": {
            "lat": 25.58119,
            "lng": 111.599506
        },
        "ad_info": {
            "adcode": 431124,
            "province": "湖南省",
            "city": "永州市",
            "district": "道县"
        }
    },
    {
        "id": "316094025253493225",
        "title": "公共厕所",
        "address": "湖南省永州市宁远县大界源生态休闲度假村东南侧110米",
        "tel": "",
        "category": "基础设施:公共设施:公共厕所",
        "type": 0,
        "location": {
            "lat": 25.471355,
            "lng": 111.951395
        },
        "ad_info": {
            "adcode": 431126,
            "province": "湖南省",
            "city": "永州市",
            "district": "宁远县"
        }
    },
    {
        "id": "3557469519905979725",
        "title": "公共厕所",
        "address": "湖南省永州市冷水滩区西区路太阳红酒店正对面",
        "tel": "",
        "category": "基础设施:公共设施:公共厕所",
        "type": 0,
        "location": {
            "lat": 26.435688,
            "lng": 111.5831
        },
        "ad_info": {
            "adcode": 431103,
            "province": "湖南省",
            "city": "永州市",
            "district": "冷水滩区"
        }
    },
    {
        "id": "10991985604536217064",
        "title": "公共厕所",
        "address": "湖南省永州市江永县幸福路与知青路交叉口正北方向284米左右",
        "tel": "",
        "category": "基础设施:公共设施:公共厕所",
        "type": 0,
        "location": {
            "lat": 25.272518,
            "lng": 111.351169
        },
        "ad_info": {
            "adcode": 431125,
            "province": "湖南省",
            "city": "永州市",
            "district": "江永县"
        }
    },
    {
        "id": "8548629578526466759",
        "title": "公共厕所",
        "address": "湖南省永州市祁阳市宝塔街与陶铸路交叉口东南方向206米左右",
        "tel": "",
        "category": "基础设施:公共设施:公共厕所",
        "type": 0,
        "location": {
            "lat": 26.586933,
            "lng": 111.880101
        },
        "ad_info": {
            "adcode": 431181,
            "province": "湖南省",
            "city": "永州市",
            "district": "祁阳市"
        }
    },
    {
        "id": "2576815116792233501",
        "title": "卫生间",
        "address": "湖南省永州市冷水滩区梧桐路777号愿景国际广场2F",
        "tel": "",
        "category": "基础设施:公共设施:公共厕所",
        "type": 0,
        "location": {
            "lat": 26.458564,
            "lng": 111.596817
        },
        "ad_info": {
            "adcode": 431103,
            "province": "湖南省",
            "city": "永州市",
            "district": "冷水滩区"
        }
    },
    {
        "id": "210034221464133607",
        "title": "公共厕所",
        "address": "湖南省永州市江永县凤亭路与白龙路交叉口正北方向62米左右",
        "tel": "",
        "category": "基础设施:公共设施:公共厕所",
        "type": 0,
        "location": {
            "lat": 25.259683,
            "lng": 111.359248
        },
        "ad_info": {
            "adcode": 431125,
            "province": "湖南省",
            "city": "永州市",
            "district": "江永县"
        }
    },
    {
        "id": "6481401918001005808",
        "title": "公共厕所",
        "address": "湖南省永州市宁远县九疑中路与建设路交叉口正北方向42米左右",
        "tel": "",
        "category": "基础设施:公共设施:公共厕所",
        "type": 0,
        "location": {
            "lat": 25.58393,
            "lng": 111.945751
        },
        "ad_info": {
            "adcode": 431126,
            "province": "湖南省",
            "city": "永州市",
            "district": "宁远县"
        }
    },
    {
        "id": "14642714796921006884",
        "title": "卫生间",
        "address": "湖南省永州市冷水滩区梧桐路777号愿景国际广场1F",
        "tel": "",
        "category": "基础设施:公共设施:公共厕所",
        "type": 0,
        "location": {
            "lat": 26.458621,
            "lng": 111.596777
        },
        "ad_info": {
            "adcode": 431103,
            "province": "湖南省",
            "city": "永州市",
            "district": "冷水滩区"
        }
    },
    {
        "id": "6666153133075519473",
        "title": "骥村镇李家湾村公厕",
        "address": "湖南省永州市新田县",
        "tel": "",
        "category": "基础设施:公共设施:公共厕所",
        "type": 0,
        "location": {
            "lat": 25.947709,
            "lng": 112.158181
        },
        "ad_info": {
            "adcode": 431128,
            "province": "湖南省",
            "city": "永州市",
            "district": "新田县"
        }
    },
    {
        "id": "1664694097670593900",
        "title": "公共厕所",
        "address": "湖南省永州市冷水滩区凤凰路与珊瑚路交叉口东南方向56米左右",
        "tel": "",
        "category": "基础设施:公共设施:公共厕所",
        "type": 0,
        "location": {
            "lat": 26.453705,
            "lng": 111.600514
        },
        "ad_info": {
            "adcode": 431103,
            "province": "湖南省",
            "city": "永州市",
            "district": "冷水滩区"
        }
    },
    {
        "id": "12061890469533675916",
        "title": "公共厕所",
        "address": "湖南省永州市祁阳市人民东路与西横街交叉口正南方向30米左右",
        "tel": "",
        "category": "基础设施:公共设施:公共厕所",
        "type": 0,
        "location": {
            "lat": 26.586116,
            "lng": 111.861129
        },
        "ad_info": {
            "adcode": 431181,
            "province": "湖南省",
            "city": "永州市",
            "district": "祁阳市"
        }
    },
    {
        "id": "6149397932925795924",
        "title": "公共厕所",
        "address": "湖南省永州市零陵区李家塘路与黄溪岭路交叉口东北方向198米左右",
        "tel": "",
        "category": "基础设施:公共设施:公共厕所",
        "type": 0,
        "location": {
            "lat": 26.213539,
            "lng": 111.620987
        },
        "ad_info": {
            "adcode": 431102,
            "province": "湖南省",
            "city": "永州市",
            "district": "零陵区"
        }
    },
    {
        "id": "16827690330525240828",
        "title": "肯德基(零陵北路餐厅)-洗手间",
        "address": "湖南省永州市冷水滩区凤凰路与零陵中路交叉口东北方向123米左右",
        "tel": "",
        "category": "基础设施:公共设施:公共厕所",
        "type": 0,
        "location": {
            "lat": 26.449283,
            "lng": 111.602739
        },
        "ad_info": {
            "adcode": 431103,
            "province": "湖南省",
            "city": "永州市",
            "district": "冷水滩区"
        }
    },
    {
        "id": "17878725450185118657",
        "title": "公共厕所",
        "address": "湖南省永州市新田县新华北路与滨河东路交叉口正西方向41米左右",
        "tel": "",
        "category": "基础设施:公共设施:公共厕所",
        "type": 0,
        "location": {
            "lat": 25.913272,
            "lng": 112.216245
        },
        "ad_info": {
            "adcode": 431128,
            "province": "湖南省",
            "city": "永州市",
            "district": "新田县"
        }
    },
    {
        "id": "7908183379239828960",
        "title": "公共厕所",
        "address": "湖南省永州市江华瑶族自治县阳华人家西南侧240米",
        "tel": "",
        "category": "基础设施:公共设施:公共厕所",
        "type": 0,
        "location": {
            "lat": 25.182878,
            "lng": 111.648842
        },
        "ad_info": {
            "adcode": 431129,
            "province": "湖南省",
            "city": "永州市",
            "district": "江华瑶族自治县"
        }
    },
    {
        "id": "4845287170994105207",
        "title": "卫生间",
        "address": "湖南省永州市冷水滩区梧桐路777号愿景国际广场3F",
        "tel": "",
        "category": "基础设施:公共设施:公共厕所",
        "type": 0,
        "location": {
            "lat": 26.458571,
            "lng": 111.596803
        },
        "ad_info": {
            "adcode": 431103,
            "province": "湖南省",
            "city": "永州市",
            "district": "冷水滩区"
        }
    },
    {
        "id": "215074941961334115",
        "title": "无障碍公共厕所",
        "address": "湖南省永州市道县湘源路与营阳大道交叉口东460米",
        "tel": "",
        "category": "基础设施:公共设施:公共厕所",
        "type": 0,
        "location": {
            "lat": 25.538745,
            "lng": 111.615935
        },
        "ad_info": {
            "adcode": 431124,
            "province": "湖南省",
            "city": "永州市",
            "district": "道县"
        }
    },
    {
        "id": "14656858451753797944",
        "title": "公共卫生间",
        "address": "湖南省永州市祁阳市浯溪中路与金龙街交叉口西北方向243米左右",
        "tel": "",
        "category": "基础设施:公共设施:公共厕所",
        "type": 0,
        "location": {
            "lat": 26.575112,
            "lng": 111.849948
        },
        "ad_info": {
            "adcode": 431181,
            "province": "湖南省",
            "city": "永州市",
            "district": "祁阳市"
        }
    },
    {
        "id": "5830535071090409968",
        "title": "公共卫生间隔断",
        "address": "湖南省永州市冷水滩区永达建材市场b4栋8号",
        "tel": "",
        "category": "基础设施:公共设施:公共厕所",
        "type": 0,
        "location": {
            "lat": 26.455511,
            "lng": 111.592669
        },
        "ad_info": {
            "adcode": 431103,
            "province": "湖南省",
            "city": "永州市",
            "district": "冷水滩区"
        }
    },
    {
        "id": "17143576463442971430",
        "title": "公共厕所",
        "address": "湖南省永州市道县G207与道州北路交叉口东南方向111米左右",
        "tel": "",
        "category": "基础设施:公共设施:公共厕所",
        "type": 0,
        "location": {
            "lat": 25.58119,
            "lng": 111.599506
        },
        "ad_info": {
            "adcode": 431124,
            "province": "湖南省",
            "city": "永州市",
            "district": "道县"
        }
    },
    {
        "id": "316094025253493225",
        "title": "公共厕所",
        "address": "湖南省永州市宁远县大界源生态休闲度假村东南侧110米",
        "tel": "",
        "category": "基础设施:公共设施:公共厕所",
        "type": 0,
        "location": {
            "lat": 25.471355,
            "lng": 111.951395
        },
        "ad_info": {
            "adcode": 431126,
            "province": "湖南省",
            "city": "永州市",
            "district": "宁远县"
        }
    },
    {
        "id": "3557469519905979725",
        "title": "公共厕所",
        "address": "湖南省永州市冷水滩区西区路太阳红酒店正对面",
        "tel": "",
        "category": "基础设施:公共设施:公共厕所",
        "type": 0,
        "location": {
            "lat": 26.435688,
            "lng": 111.5831
        },
        "ad_info": {
            "adcode": 431103,
            "province": "湖南省",
            "city": "永州市",
            "district": "冷水滩区"
        }
    },
    {
        "id": "10991985604536217064",
        "title": "公共厕所",
        "address": "湖南省永州市江永县幸福路与知青路交叉口正北方向284米左右",
        "tel": "",
        "category": "基础设施:公共设施:公共厕所",
        "type": 0,
        "location": {
            "lat": 25.272518,
            "lng": 111.351169
        },
        "ad_info": {
            "adcode": 431125,
            "province": "湖南省",
            "city": "永州市",
            "district": "江永县"
        }
    },
    {
        "id": "8548629578526466759",
        "title": "公共厕所",
        "address": "湖南省永州市祁阳市宝塔街与陶铸路交叉口东南方向206米左右",
        "tel": "",
        "category": "基础设施:公共设施:公共厕所",
        "type": 0,
        "location": {
            "lat": 26.586933,
            "lng": 111.880101
        },
        "ad_info": {
            "adcode": 431181,
            "province": "湖南省",
            "city": "永州市",
            "district": "祁阳市"
        }
    },
    {
        "id": "2576815116792233501",
        "title": "卫生间",
        "address": "湖南省永州市冷水滩区梧桐路777号愿景国际广场2F",
        "tel": "",
        "category": "基础设施:公共设施:公共厕所",
        "type": 0,
        "location": {
            "lat": 26.458564,
            "lng": 111.596817
        },
        "ad_info": {
            "adcode": 431103,
            "province": "湖南省",
            "city": "永州市",
            "district": "冷水滩区"
        }
    },
    {
        "id": "210034221464133607",
        "title": "公共厕所",
        "address": "湖南省永州市江永县凤亭路与白龙路交叉口正北方向62米左右",
        "tel": "",
        "category": "基础设施:公共设施:公共厕所",
        "type": 0,
        "location": {
            "lat": 25.259683,
            "lng": 111.359248
        },
        "ad_info": {
            "adcode": 431125,
            "province": "湖南省",
            "city": "永州市",
            "district": "江永县"
        }
    },
    {
        "id": "6481401918001005808",
        "title": "公共厕所",
        "address": "湖南省永州市宁远县九疑中路与建设路交叉口正北方向42米左右",
        "tel": "",
        "category": "基础设施:公共设施:公共厕所",
        "type": 0,
        "location": {
            "lat": 25.58393,
            "lng": 111.945751
        },
        "ad_info": {
            "adcode": 431126,
            "province": "湖南省",
            "city": "永州市",
            "district": "宁远县"
        }
    },
    {
        "id": "14642714796921006884",
        "title": "卫生间",
        "address": "湖南省永州市冷水滩区梧桐路777号愿景国际广场1F",
        "tel": "",
        "category": "基础设施:公共设施:公共厕所",
        "type": 0,
        "location": {
            "lat": 26.458621,
            "lng": 111.596777
        },
        "ad_info": {
            "adcode": 431103,
            "province": "湖南省",
            "city": "永州市",
            "district": "冷水滩区"
        }
    },
    {
        "id": "6666153133075519473",
        "title": "骥村镇李家湾村公厕",
        "address": "湖南省永州市新田县",
        "tel": "",
        "category": "基础设施:公共设施:公共厕所",
        "type": 0,
        "location": {
            "lat": 25.947709,
            "lng": 112.158181
        },
        "ad_info": {
            "adcode": 431128,
            "province": "湖南省",
            "city": "永州市",
            "district": "新田县"
        }
    },
    {
        "id": "1664694097670593900",
        "title": "公共厕所",
        "address": "湖南省永州市冷水滩区凤凰路与珊瑚路交叉口东南方向56米左右",
        "tel": "",
        "category": "基础设施:公共设施:公共厕所",
        "type": 0,
        "location": {
            "lat": 26.453705,
            "lng": 111.600514
        },
        "ad_info": {
            "adcode": 431103,
            "province": "湖南省",
            "city": "永州市",
            "district": "冷水滩区"
        }
    },
    {
        "id": "12061890469533675916",
        "title": "公共厕所",
        "address": "湖南省永州市祁阳市人民东路与西横街交叉口正南方向30米左右",
        "tel": "",
        "category": "基础设施:公共设施:公共厕所",
        "type": 0,
        "location": {
            "lat": 26.586116,
            "lng": 111.861129
        },
        "ad_info": {
            "adcode": 431181,
            "province": "湖南省",
            "city": "永州市",
            "district": "祁阳市"
        }
    },
    {
        "id": "6149397932925795924",
        "title": "公共厕所",
        "address": "湖南省永州市零陵区李家塘路与黄溪岭路交叉口东北方向198米左右",
        "tel": "",
        "category": "基础设施:公共设施:公共厕所",
        "type": 0,
        "location": {
            "lat": 26.213539,
            "lng": 111.620987
        },
        "ad_info": {
            "adcode": 431102,
            "province": "湖南省",
            "city": "永州市",
            "district": "零陵区"
        }
    },
    {
        "id": "16827690330525240828",
        "title": "肯德基(零陵北路餐厅)-洗手间",
        "address": "湖南省永州市冷水滩区凤凰路与零陵中路交叉口东北方向123米左右",
        "tel": "",
        "category": "基础设施:公共设施:公共厕所",
        "type": 0,
        "location": {
            "lat": 26.449283,
            "lng": 111.602739
        },
        "ad_info": {
            "adcode": 431103,
            "province": "湖南省",
            "city": "永州市",
            "district": "冷水滩区"
        }
    },
    {
        "id": "17878725450185118657",
        "title": "公共厕所",
        "address": "湖南省永州市新田县新华北路与滨河东路交叉口正西方向41米左右",
        "tel": "",
        "category": "基础设施:公共设施:公共厕所",
        "type": 0,
        "location": {
            "lat": 25.913272,
            "lng": 112.216245
        },
        "ad_info": {
            "adcode": 431128,
            "province": "湖南省",
            "city": "永州市",
            "district": "新田县"
        }
    },
    {
        "id": "7908183379239828960",
        "title": "公共厕所",
        "address": "湖南省永州市江华瑶族自治县阳华人家西南侧240米",
        "tel": "",
        "category": "基础设施:公共设施:公共厕所",
        "type": 0,
        "location": {
            "lat": 25.182878,
            "lng": 111.648842
        },
        "ad_info": {
            "adcode": 431129,
            "province": "湖南省",
            "city": "永州市",
            "district": "江华瑶族自治县"
        }
    },
    {
        "id": "4845287170994105207",
        "title": "卫生间",
        "address": "湖南省永州市冷水滩区梧桐路777号愿景国际广场3F",
        "tel": "",
        "category": "基础设施:公共设施:公共厕所",
        "type": 0,
        "location": {
            "lat": 26.458571,
            "lng": 111.596803
        },
        "ad_info": {
            "adcode": 431103,
            "province": "湖南省",
            "city": "永州市",
            "district": "冷水滩区"
        }
    },
    {
        "id": "215074941961334115",
        "title": "无障碍公共厕所",
        "address": "湖南省永州市道县湘源路与营阳大道交叉口东460米",
        "tel": "",
        "category": "基础设施:公共设施:公共厕所",
        "type": 0,
        "location": {
            "lat": 25.538745,
            "lng": 111.615935
        },
        "ad_info": {
            "adcode": 431124,
            "province": "湖南省",
            "city": "永州市",
            "district": "道县"
        }
    },
    {
        "id": "14656858451753797944",
        "title": "公共卫生间",
        "address": "湖南省永州市祁阳市浯溪中路与金龙街交叉口西北方向243米左右",
        "tel": "",
        "category": "基础设施:公共设施:公共厕所",
        "type": 0,
        "location": {
            "lat": 26.575112,
            "lng": 111.849948
        },
        "ad_info": {
            "adcode": 431181,
            "province": "湖南省",
            "city": "永州市",
            "district": "祁阳市"
        }
    },
    {
        "id": "5830535071090409968",
        "title": "公共卫生间隔断",
        "address": "湖南省永州市冷水滩区永达建材市场b4栋8号",
        "tel": "",
        "category": "基础设施:公共设施:公共厕所",
        "type": 0,
        "location": {
            "lat": 26.455511,
            "lng": 111.592669
        },
        "ad_info": {
            "adcode": 431103,
            "province": "湖南省",
            "city": "永州市",
            "district": "冷水滩区"
        }
    },
    {
        "id": "17143576463442971430",
        "title": "公共厕所",
        "address": "湖南省永州市道县G207与道州北路交叉口东南方向111米左右",
        "tel": "",
        "category": "基础设施:公共设施:公共厕所",
        "type": 0,
        "location": {
            "lat": 25.58119,
            "lng": 111.599506
        },
        "ad_info": {
            "adcode": 431124,
            "province": "湖南省",
            "city": "永州市",
            "district": "道县"
        }
    },
    {
        "id": "316094025253493225",
        "title": "公共厕所",
        "address": "湖南省永州市宁远县大界源生态休闲度假村东南侧110米",
        "tel": "",
        "category": "基础设施:公共设施:公共厕所",
        "type": 0,
        "location": {
            "lat": 25.471355,
            "lng": 111.951395
        },
        "ad_info": {
            "adcode": 431126,
            "province": "湖南省",
            "city": "永州市",
            "district": "宁远县"
        }
    },
    {
        "id": "3557469519905979725",
        "title": "公共厕所",
        "address": "湖南省永州市冷水滩区西区路太阳红酒店正对面",
        "tel": "",
        "category": "基础设施:公共设施:公共厕所",
        "type": 0,
        "location": {
            "lat": 26.435688,
            "lng": 111.5831
        },
        "ad_info": {
            "adcode": 431103,
            "province": "湖南省",
            "city": "永州市",
            "district": "冷水滩区"
        }
    },
    {
        "id": "10991985604536217064",
        "title": "公共厕所",
        "address": "湖南省永州市江永县幸福路与知青路交叉口正北方向284米左右",
        "tel": "",
        "category": "基础设施:公共设施:公共厕所",
        "type": 0,
        "location": {
            "lat": 25.272518,
            "lng": 111.351169
        },
        "ad_info": {
            "adcode": 431125,
            "province": "湖南省",
            "city": "永州市",
            "district": "江永县"
        }
    },
    {
        "id": "8548629578526466759",
        "title": "公共厕所",
        "address": "湖南省永州市祁阳市宝塔街与陶铸路交叉口东南方向206米左右",
        "tel": "",
        "category": "基础设施:公共设施:公共厕所",
        "type": 0,
        "location": {
            "lat": 26.586933,
            "lng": 111.880101
        },
        "ad_info": {
            "adcode": 431181,
            "province": "湖南省",
            "city": "永州市",
            "district": "祁阳市"
        }
    },
    {
        "id": "2576815116792233501",
        "title": "卫生间",
        "address": "湖南省永州市冷水滩区梧桐路777号愿景国际广场2F",
        "tel": "",
        "category": "基础设施:公共设施:公共厕所",
        "type": 0,
        "location": {
            "lat": 26.458564,
            "lng": 111.596817
        },
        "ad_info": {
            "adcode": 431103,
            "province": "湖南省",
            "city": "永州市",
            "district": "冷水滩区"
        }
    },
    {
        "id": "210034221464133607",
        "title": "公共厕所",
        "address": "湖南省永州市江永县凤亭路与白龙路交叉口正北方向62米左右",
        "tel": "",
        "category": "基础设施:公共设施:公共厕所",
        "type": 0,
        "location": {
            "lat": 25.259683,
            "lng": 111.359248
        },
        "ad_info": {
            "adcode": 431125,
            "province": "湖南省",
            "city": "永州市",
            "district": "江永县"
        }
    },
    {
        "id": "6481401918001005808",
        "title": "公共厕所",
        "address": "湖南省永州市宁远县九疑中路与建设路交叉口正北方向42米左右",
        "tel": "",
        "category": "基础设施:公共设施:公共厕所",
        "type": 0,
        "location": {
            "lat": 25.58393,
            "lng": 111.945751
        },
        "ad_info": {
            "adcode": 431126,
            "province": "湖南省",
            "city": "永州市",
            "district": "宁远县"
        }
    },
    {
        "id": "14642714796921006884",
        "title": "卫生间",
        "address": "湖南省永州市冷水滩区梧桐路777号愿景国际广场1F",
        "tel": "",
        "category": "基础设施:公共设施:公共厕所",
        "type": 0,
        "location": {
            "lat": 26.458621,
            "lng": 111.596777
        },
        "ad_info": {
            "adcode": 431103,
            "province": "湖南省",
            "city": "永州市",
            "district": "冷水滩区"
        }
    },
    {
        "id": "6666153133075519473",
        "title": "骥村镇李家湾村公厕",
        "address": "湖南省永州市新田县",
        "tel": "",
        "category": "基础设施:公共设施:公共厕所",
        "type": 0,
        "location": {
            "lat": 25.947709,
            "lng": 112.158181
        },
        "ad_info": {
            "adcode": 431128,
            "province": "湖南省",
            "city": "永州市",
            "district": "新田县"
        }
    },
    {
        "id": "1664694097670593900",
        "title": "公共厕所",
        "address": "湖南省永州市冷水滩区凤凰路与珊瑚路交叉口东南方向56米左右",
        "tel": "",
        "category": "基础设施:公共设施:公共厕所",
        "type": 0,
        "location": {
            "lat": 26.453705,
            "lng": 111.600514
        },
        "ad_info": {
            "adcode": 431103,
            "province": "湖南省",
            "city": "永州市",
            "district": "冷水滩区"
        }
    },
    {
        "id": "12061890469533675916",
        "title": "公共厕所",
        "address": "湖南省永州市祁阳市人民东路与西横街交叉口正南方向30米左右",
        "tel": "",
        "category": "基础设施:公共设施:公共厕所",
        "type": 0,
        "location": {
            "lat": 26.586116,
            "lng": 111.861129
        },
        "ad_info": {
            "adcode": 431181,
            "province": "湖南省",
            "city": "永州市",
            "district": "祁阳市"
        }
    },
    {
        "id": "6149397932925795924",
        "title": "公共厕所",
        "address": "湖南省永州市零陵区李家塘路与黄溪岭路交叉口东北方向198米左右",
        "tel": "",
        "category": "基础设施:公共设施:公共厕所",
        "type": 0,
        "location": {
            "lat": 26.213539,
            "lng": 111.620987
        },
        "ad_info": {
            "adcode": 431102,
            "province": "湖南省",
            "city": "永州市",
            "district": "零陵区"
        }
    }
]