[
    {
        "id": "11732013233652410109",
        "title": "公共厕所",
        "address": "广东省汕尾市城区渔村中路九楼三栋",
        "tel": "",
        "category": "基础设施:公共设施:公共厕所",
        "type": 0,
        "location": {
            "lat": 22.771114,
            "lng": 115.358701
        },
        "ad_info": {
            "adcode": 441502,
            "province": "广东省",
            "city": "汕尾市",
            "district": "城区"
        }
    },
    {
        "id": "9559555621211790032",
        "title": "公共厕所",
        "address": "广东省汕尾市城区听涛路与幸福街交叉口东南方向96米左右",
        "tel": "",
        "category": "基础设施:公共设施:公共厕所",
        "type": 0,
        "location": {
            "lat": 22.794501,
            "lng": 115.29276
        },
        "ad_info": {
            "adcode": 441502,
            "province": "广东省",
            "city": "汕尾市",
            "district": "城区"
        }
    },
    {
        "id": "16481284556717500187",
        "title": "公共厕所",
        "address": "广东省汕尾市城区S241汕尾站停车场",
        "tel": "",
        "category": "基础设施:公共设施:公共厕所",
        "type": 0,
        "location": {
            "lat": 22.810912,
            "lng": 115.426266
        },
        "ad_info": {
            "adcode": 441502,
            "province": "广东省",
            "city": "汕尾市",
            "district": "城区"
        }
    },
    {
        "id": "8791613408506975714",
        "title": "公共厕所",
        "address": "广东省汕尾市城区海滨大道与环湖路交叉口正东方向418米左右",
        "tel": "",
        "category": "基础设施:公共设施:公共厕所",
        "type": 0,
        "location": {
            "lat": 22.774658,
            "lng": 115.382683
        },
        "ad_info": {
            "adcode": 441502,
            "province": "广东省",
            "city": "汕尾市",
            "district": "城区"
        }
    },
    {
        "id": "10759733100248407891",
        "title": "公共厕所",
        "address": "广东省汕尾市城区红海大道奎山公园(西北角)",
        "tel": "",
        "category": "基础设施:公共设施:公共厕所",
        "type": 0,
        "location": {
            "lat": 22.784968,
            "lng": 115.366997
        },
        "ad_info": {
            "adcode": 441502,
            "province": "广东省",
            "city": "汕尾市",
            "district": "城区"
        }
    },
    {
        "id": "16799967223433507357",
        "title": "公共厕所",
        "address": "广东省汕尾市城区香江大道与马宫大道交叉口正东方向92米左右",
        "tel": "",
        "category": "基础设施:公共设施:公共厕所",
        "type": 0,
        "location": {
            "lat": 22.803094,
            "lng": 115.285201
        },
        "ad_info": {
            "adcode": 441502,
            "province": "广东省",
            "city": "汕尾市",
            "district": "城区"
        }
    },
    {
        "id": "5882074852226657881",
        "title": "公共厕所",
        "address": "广东省汕尾市城区南堤东路与青新路交叉口西南方向130米左右",
        "tel": "",
        "category": "基础设施:公共设施:公共厕所",
        "type": 0,
        "location": {
            "lat": 22.840471,
            "lng": 115.35495
        },
        "ad_info": {
            "adcode": 441502,
            "province": "广东省",
            "city": "汕尾市",
            "district": "城区"
        }
    },
    {
        "id": "13091026214777694697",
        "title": "公共厕所",
        "address": "广东省汕尾市城区公园路与海滨大道交叉口正北方向47米左右",
        "tel": "",
        "category": "基础设施:公共设施:公共厕所",
        "type": 0,
        "location": {
            "lat": 22.775583,
            "lng": 115.37586
        },
        "ad_info": {
            "adcode": 441502,
            "province": "广东省",
            "city": "汕尾市",
            "district": "城区"
        }
    },
    {
        "id": "1181000887000817004",
        "title": "公共厕所",
        "address": "广东省汕尾市城区体育南路与体育路交叉口西南方向98米左右",
        "tel": "",
        "category": "基础设施:公共设施:公共厕所",
        "type": 0,
        "location": {
            "lat": 22.778489,
            "lng": 115.372585
        },
        "ad_info": {
            "adcode": 441502,
            "province": "广东省",
            "city": "汕尾市",
            "district": "城区"
        }
    },
    {
        "id": "5890274711853564486",
        "title": "卫生间",
        "address": "广东省汕尾市城区香江大道西142县",
        "tel": "",
        "category": "基础设施:公共设施:公共厕所",
        "type": 0,
        "location": {
            "lat": 22.795502,
            "lng": 115.299481
        },
        "ad_info": {
            "adcode": 441502,
            "province": "广东省",
            "city": "汕尾市",
            "district": "城区"
        }
    },
    {
        "id": "1055725481664863350",
        "title": "公共厕所",
        "address": "广东省汕尾市城区新衢路与香江大道交叉口正西方向660米左右",
        "tel": "",
        "category": "基础设施:公共设施:公共厕所",
        "type": 0,
        "location": {
            "lat": 22.79539,
            "lng": 115.312594
        },
        "ad_info": {
            "adcode": 441502,
            "province": "广东省",
            "city": "汕尾市",
            "district": "城区"
        }
    },
    {
        "id": "14381525045101753157",
        "title": "公共厕所",
        "address": "广东省汕尾市城区品清一路与站前横二路交叉口东南方向251米左右",
        "tel": "",
        "category": "基础设施:公共设施:公共厕所",
        "type": 0,
        "location": {
            "lat": 22.806278,
            "lng": 115.417038
        },
        "ad_info": {
            "adcode": 441502,
            "province": "广东省",
            "city": "汕尾市",
            "district": "城区"
        }
    },
    {
        "id": "15159623434657127585",
        "title": "公共厕所",
        "address": "广东省汕尾市城区S241与西河路交叉口东北方向185米左右",
        "tel": "",
        "category": "基础设施:公共设施:公共厕所",
        "type": 0,
        "location": {
            "lat": 22.832468,
            "lng": 115.347818
        },
        "ad_info": {
            "adcode": 441502,
            "province": "广东省",
            "city": "汕尾市",
            "district": "城区"
        }
    },
    {
        "id": "14557896169239484055",
        "title": "公共厕所",
        "address": "广东省汕尾市城区X129与汕尾大道辅路交叉口西南方向79米左右",
        "tel": "",
        "category": "基础设施:公共设施:公共厕所",
        "type": 0,
        "location": {
            "lat": 22.884646,
            "lng": 115.343382
        },
        "ad_info": {
            "adcode": 441502,
            "province": "广东省",
            "city": "汕尾市",
            "district": "城区"
        }
    },
    {
        "id": "8486313166354553469",
        "title": "公共厕所",
        "address": "广东省汕尾市城区中一大厦(通航路)东北侧160米",
        "tel": "",
        "category": "基础设施:公共设施:公共厕所",
        "type": 0,
        "location": {
            "lat": 22.789837,
            "lng": 115.338041
        },
        "ad_info": {
            "adcode": 441502,
            "province": "广东省",
            "city": "汕尾市",
            "district": "城区"
        }
    },
    {
        "id": "3384553452770739814",
        "title": "公共厕所",
        "address": "广东省汕尾市海丰县二环北路与海紫路交叉口东北方向54米左右",
        "tel": "",
        "category": "基础设施:公共设施:公共厕所",
        "type": 0,
        "location": {
            "lat": 22.982144,
            "lng": 115.347906
        },
        "ad_info": {
            "adcode": 441521,
            "province": "广东省",
            "city": "汕尾市",
            "district": "海丰县"
        }
    },
    {
        "id": "11287707245346978360",
        "title": "公共厕所",
        "address": "广东省汕尾市城区东城路与品清三路交叉口正南方向36米左右",
        "tel": "",
        "category": "基础设施:公共设施:公共厕所",
        "type": 0,
        "location": {
            "lat": 22.795459,
            "lng": 115.410148
        },
        "ad_info": {
            "adcode": 441502,
            "province": "广东省",
            "city": "汕尾市",
            "district": "城区"
        }
    },
    {
        "id": "1254085022897289700",
        "title": "公共厕所",
        "address": "广东省汕尾市城区公园路与通港路交叉口西北方向93米左右",
        "tel": "",
        "category": "基础设施:公共设施:公共厕所",
        "type": 0,
        "location": {
            "lat": 22.782859,
            "lng": 115.366954
        },
        "ad_info": {
            "adcode": 441502,
            "province": "广东省",
            "city": "汕尾市",
            "district": "城区"
        }
    },
    {
        "id": "11412106917074018889",
        "title": "公共厕所",
        "address": "广东省汕尾市城区嘉伦服装有限公司捷胜服装厂南侧100米",
        "tel": "",
        "category": "基础设施:公共设施:公共厕所",
        "type": 0,
        "location": {
            "lat": 22.726014,
            "lng": 115.45635
        },
        "ad_info": {
            "adcode": 441502,
            "province": "广东省",
            "city": "汕尾市",
            "district": "城区"
        }
    },
    {
        "id": "5360355004862500950",
        "title": "公共厕所",
        "address": "广东省汕尾市陆河县河中桥与河西公路交叉口西北方向141米左右",
        "tel": "",
        "category": "基础设施:公共设施:公共厕所",
        "type": 0,
        "location": {
            "lat": 23.284661,
            "lng": 115.656935
        },
        "ad_info": {
            "adcode": 441523,
            "province": "广东省",
            "city": "汕尾市",
            "district": "陆河县"
        }
    },
    {
        "id": "2779695740282221537",
        "title": "公共厕所",
        "address": "广东省汕尾市城区东方铭海蚝业种苗基地东北侧150米",
        "tel": "",
        "category": "基础设施:公共设施:公共厕所",
        "type": 0,
        "location": {
            "lat": 22.785664,
            "lng": 115.250016
        },
        "ad_info": {
            "adcode": 441502,
            "province": "广东省",
            "city": "汕尾市",
            "district": "城区"
        }
    },
    {
        "id": "16668395568269005649",
        "title": "公共厕所",
        "address": "广东省汕尾市城区南汾东路与南汾中路交叉口正东方向356米左右",
        "tel": "",
        "category": "基础设施:公共设施:公共厕所",
        "type": 0,
        "location": {
            "lat": 22.837517,
            "lng": 115.328768
        },
        "ad_info": {
            "adcode": 441502,
            "province": "广东省",
            "city": "汕尾市",
            "district": "城区"
        }
    },
    {
        "id": "4221667768736717173",
        "title": "公共厕所",
        "address": "广东省汕尾市城区捷胜镇",
        "tel": "",
        "category": "基础设施:公共设施:公共厕所",
        "type": 0,
        "location": {
            "lat": 22.715167,
            "lng": 115.447791
        },
        "ad_info": {
            "adcode": 441502,
            "province": "广东省",
            "city": "汕尾市",
            "district": "城区"
        }
    },
    {
        "id": "4480367707104807458",
        "title": "公共厕所",
        "address": "广东省汕尾市城区创业路2号",
        "tel": "",
        "category": "基础设施:公共设施:公共厕所",
        "type": 0,
        "location": {
            "lat": 22.855212,
            "lng": 115.324733
        },
        "ad_info": {
            "adcode": 441502,
            "province": "广东省",
            "city": "汕尾市",
            "district": "城区"
        }
    },
    {
        "id": "8211543226944883566",
        "title": "公共厕所",
        "address": "广东省汕尾市城区福德公墓陵园管理处北侧",
        "tel": "",
        "category": "基础设施:公共设施:公共厕所",
        "type": 0,
        "location": {
            "lat": 22.800208,
            "lng": 115.55943
        },
        "ad_info": {
            "adcode": 441502,
            "province": "广东省",
            "city": "汕尾市",
            "district": "城区"
        }
    },
    {
        "id": "10010118796732446793",
        "title": "公共厕所",
        "address": "广东省汕尾市城区南町北路与南联路交叉口西南方向503米左右",
        "tel": "",
        "category": "基础设施:公共设施:公共厕所",
        "type": 0,
        "location": {
            "lat": 22.724823,
            "lng": 115.517176
        },
        "ad_info": {
            "adcode": 441502,
            "province": "广东省",
            "city": "汕尾市",
            "district": "城区"
        }
    },
    {
        "id": "11607986308755921172",
        "title": "公共厕所",
        "address": "广东省汕尾市陆河县广新一街新城市场北侧约80米",
        "tel": "",
        "category": "基础设施:公共设施:公共厕所",
        "type": 0,
        "location": {
            "lat": 23.301056,
            "lng": 115.657367
        },
        "ad_info": {
            "adcode": 441523,
            "province": "广东省",
            "city": "汕尾市",
            "district": "陆河县"
        }
    },
    {
        "id": "5050949737417257836",
        "title": "公共厕所",
        "address": "广东省汕尾市城区北山中路与红海湾大道交叉口正东方向145米左右",
        "tel": "",
        "category": "基础设施:公共设施:公共厕所",
        "type": 0,
        "location": {
            "lat": 22.733556,
            "lng": 115.4882
        },
        "ad_info": {
            "adcode": 441502,
            "province": "广东省",
            "city": "汕尾市",
            "district": "城区"
        }
    },
    {
        "id": "7355761666857291920",
        "title": "公共厕所",
        "address": "广东省汕尾市城区122乡道附近",
        "tel": "",
        "category": "基础设施:公共设施:公共厕所",
        "type": 0,
        "location": {
            "lat": 22.789271,
            "lng": 115.476929
        },
        "ad_info": {
            "adcode": 441502,
            "province": "广东省",
            "city": "汕尾市",
            "district": "城区"
        }
    },
    {
        "id": "522782572002956964",
        "title": "后策国际公共厕所",
        "address": "广东省汕尾市城区X141与白沙路交叉口正南方向222米左右",
        "tel": "",
        "category": "基础设施:公共设施:公共厕所",
        "type": 0,
        "location": {
            "lat": 22.720337,
            "lng": 115.511627
        },
        "ad_info": {
            "adcode": 441502,
            "province": "广东省",
            "city": "汕尾市",
            "district": "城区"
        }
    },
    {
        "id": "10204069136381728501",
        "title": "公共厕所",
        "address": "广东省汕尾市陆河县G235与X134交叉口西北方向335米左右",
        "tel": "",
        "category": "基础设施:公共设施:公共厕所",
        "type": 0,
        "location": {
            "lat": 23.229129,
            "lng": 115.615466
        },
        "ad_info": {
            "adcode": 441523,
            "province": "广东省",
            "city": "汕尾市",
            "district": "陆河县"
        }
    },
    {
        "id": "17760129892155836959",
        "title": "公共厕所",
        "address": "广东省汕尾市陆丰市G228与菜园路交叉口西南方向232米左右",
        "tel": "",
        "category": "基础设施:公共设施:公共厕所",
        "type": 0,
        "location": {
            "lat": 22.822067,
            "lng": 115.839369
        },
        "ad_info": {
            "adcode": 441581,
            "province": "广东省",
            "city": "汕尾市",
            "district": "陆丰市"
        }
    },
    {
        "id": "16843615937764209930",
        "title": "公共厕所",
        "address": "广东省汕尾市陆丰市东海大道与银华路交叉口正东方向78米左右",
        "tel": "",
        "category": "基础设施:公共设施:公共厕所",
        "type": 0,
        "location": {
            "lat": 22.943998,
            "lng": 115.631309
        },
        "ad_info": {
            "adcode": 441581,
            "province": "广东省",
            "city": "汕尾市",
            "district": "陆丰市"
        }
    },
    {
        "id": "10921306404173175154",
        "title": "公共厕所",
        "address": "广东省汕尾市陆丰市金碣路与马街交叉口正西方向62米左右",
        "tel": "",
        "category": "基础设施:公共设施:公共厕所",
        "type": 0,
        "location": {
            "lat": 22.945673,
            "lng": 115.651893
        },
        "ad_info": {
            "adcode": 441581,
            "province": "广东省",
            "city": "汕尾市",
            "district": "陆丰市"
        }
    },
    {
        "id": "12396556246553395827",
        "title": "新港垃圾中转站公共厕所",
        "address": "广东省汕尾市城区汕尾大道与海滨大道交叉口西北方向119米左右",
        "tel": "",
        "category": "基础设施:公共设施:公共厕所",
        "type": 0,
        "location": {
            "lat": 22.77107,
            "lng": 115.355804
        },
        "ad_info": {
            "adcode": 441502,
            "province": "广东省",
            "city": "汕尾市",
            "district": "城区"
        }
    },
    {
        "id": "16773106511793382332",
        "title": "公共厕所",
        "address": "广东省汕尾市陆丰市六社七巷与新马路交叉口东南方向175米左右",
        "tel": "",
        "category": "基础设施:公共设施:公共厕所",
        "type": 0,
        "location": {
            "lat": 22.946556,
            "lng": 115.64506
        },
        "ad_info": {
            "adcode": 441581,
            "province": "广东省",
            "city": "汕尾市",
            "district": "陆丰市"
        }
    },
    {
        "id": "6940774418003585630",
        "title": "公共厕所",
        "address": "广东省汕尾市海丰县育英路海丰县体育馆",
        "tel": "",
        "category": "基础设施:公共设施:公共厕所",
        "type": 0,
        "location": {
            "lat": 22.981194,
            "lng": 115.327354
        },
        "ad_info": {
            "adcode": 441521,
            "province": "广东省",
            "city": "汕尾市",
            "district": "海丰县"
        }
    },
    {
        "id": "4570679782451159342",
        "title": "公共厕所",
        "address": "广东省汕尾市陆河县横龙学校西北侧",
        "tel": "",
        "category": "基础设施:公共设施:公共厕所",
        "type": 0,
        "location": {
            "lat": 23.154447,
            "lng": 115.652676
        },
        "ad_info": {
            "adcode": 441523,
            "province": "广东省",
            "city": "汕尾市",
            "district": "陆河县"
        }
    },
    {
        "id": "10376236862251213628",
        "title": "公共厕所",
        "address": "广东省汕尾市陆河县大富路与连塘街交叉口东北方向60米左右",
        "tel": "",
        "category": "基础设施:公共设施:公共厕所",
        "type": 0,
        "location": {
            "lat": 23.253572,
            "lng": 115.589363
        },
        "ad_info": {
            "adcode": 441523,
            "province": "广东省",
            "city": "汕尾市",
            "district": "陆河县"
        }
    },
    {
        "id": "13713734412198235332",
        "title": "公共厕所",
        "address": "广东省汕尾市城区政和路与文明路交叉口正西方向54米左右",
        "tel": "",
        "category": "基础设施:公共设施:公共厕所",
        "type": 0,
        "location": {
            "lat": 22.781439,
            "lng": 115.371374
        },
        "ad_info": {
            "adcode": 441502,
            "province": "广东省",
            "city": "汕尾市",
            "district": "城区"
        }
    },
    {
        "id": "2494397423162511873",
        "title": "公共厕所",
        "address": "广东省汕尾市城区成业路与海滨大道交叉口正东方向202米左右",
        "tel": "",
        "category": "基础设施:公共设施:公共厕所",
        "type": 0,
        "location": {
            "lat": 22.786948,
            "lng": 115.404938
        },
        "ad_info": {
            "adcode": 441502,
            "province": "广东省",
            "city": "汕尾市",
            "district": "城区"
        }
    },
    {
        "id": "12227420942553338250",
        "title": "公共厕所",
        "address": "广东省汕尾市城区商业街路与新街交叉口东南方向121米左右",
        "tel": "15947187387",
        "category": "基础设施:公共设施:公共厕所",
        "type": 0,
        "location": {
            "lat": 22.668012,
            "lng": 115.563105
        },
        "ad_info": {
            "adcode": 441502,
            "province": "广东省",
            "city": "汕尾市",
            "district": "城区"
        }
    },
    {
        "id": "14181776714398878041",
        "title": "公共厕所",
        "address": "广东省汕尾市海丰县福昆线粤海油站",
        "tel": "",
        "category": "基础设施:公共设施:公共厕所",
        "type": 0,
        "location": {
            "lat": 22.817325,
            "lng": 115.07369
        },
        "ad_info": {
            "adcode": 441521,
            "province": "广东省",
            "city": "汕尾市",
            "district": "海丰县"
        }
    },
    {
        "id": "264415754609549164",
        "title": "公共厕所",
        "address": "广东省汕尾市陆河县123县道西50米",
        "tel": "",
        "category": "基础设施:公共设施:公共厕所",
        "type": 0,
        "location": {
            "lat": 23.35332,
            "lng": 115.523117
        },
        "ad_info": {
            "adcode": 441523,
            "province": "广东省",
            "city": "汕尾市",
            "district": "陆河县"
        }
    },
    {
        "id": "8327037908263526700",
        "title": "公共厕所",
        "address": "广东省汕尾市海丰县G228与水美路交叉口正西方向363米左右",
        "tel": "",
        "category": "基础设施:公共设施:公共厕所",
        "type": 0,
        "location": {
            "lat": 22.958724,
            "lng": 115.460433
        },
        "ad_info": {
            "adcode": 441521,
            "province": "广东省",
            "city": "汕尾市",
            "district": "海丰县"
        }
    },
    {
        "id": "5321640396744343961",
        "title": "公共厕所",
        "address": "广东省汕尾市陆河县岁宝路与螺河东路交叉口东北方向22米左右",
        "tel": "",
        "category": "基础设施:公共设施:公共厕所",
        "type": 0,
        "location": {
            "lat": 23.297986,
            "lng": 115.65641
        },
        "ad_info": {
            "adcode": 441523,
            "province": "广东省",
            "city": "汕尾市",
            "district": "陆河县"
        }
    },
    {
        "id": "11412246338052714503",
        "title": "公共厕所",
        "address": "广东省汕尾市海丰县古流村卫生站东侧100米",
        "tel": "",
        "category": "基础设施:公共设施:公共厕所",
        "type": 0,
        "location": {
            "lat": 22.898749,
            "lng": 115.469286
        },
        "ad_info": {
            "adcode": 441521,
            "province": "广东省",
            "city": "汕尾市",
            "district": "海丰县"
        }
    },
    {
        "id": "11594315583984022318",
        "title": "公共厕所",
        "address": "广东省汕尾市海丰县新邨二巷与赤山路交叉口正南方向71米左右",
        "tel": "",
        "category": "基础设施:公共设施:公共厕所",
        "type": 0,
        "location": {
            "lat": 22.969042,
            "lng": 115.348085
        },
        "ad_info": {
            "adcode": 441521,
            "province": "广东省",
            "city": "汕尾市",
            "district": "海丰县"
        }
    },
    {
        "id": "2443309463334186807",
        "title": "公共厕所",
        "address": "广东省汕尾市海丰县厦可塘通和路与241省道交叉口东140米",
        "tel": "",
        "category": "基础设施:公共设施:公共厕所",
        "type": 0,
        "location": {
            "lat": 22.936082,
            "lng": 115.454255
        },
        "ad_info": {
            "adcode": 441521,
            "province": "广东省",
            "city": "汕尾市",
            "district": "海丰县"
        }
    },
    {
        "id": "350582141513669185",
        "title": "公共厕所",
        "address": "广东省汕尾市海丰县G228与大液二桥交叉口东北方向903米左右",
        "tel": "",
        "category": "基础设施:公共设施:公共厕所",
        "type": 0,
        "location": {
            "lat": 22.941401,
            "lng": 115.260171
        },
        "ad_info": {
            "adcode": 441521,
            "province": "广东省",
            "city": "汕尾市",
            "district": "海丰县"
        }
    },
    {
        "id": "15464904798739021908",
        "title": "公共厕所",
        "address": "广东省汕尾市陆河县石船农家乐西侧280米",
        "tel": "",
        "category": "基础设施:公共设施:公共厕所",
        "type": 0,
        "location": {
            "lat": 23.298447,
            "lng": 115.777851
        },
        "ad_info": {
            "adcode": 441523,
            "province": "广东省",
            "city": "汕尾市",
            "district": "陆河县"
        }
    },
    {
        "id": "2507803983028481295",
        "title": "公共厕所",
        "address": "广东省汕尾市陆丰市新马路与玄武路交叉口正东方向26米左右",
        "tel": "",
        "category": "基础设施:公共设施:公共厕所",
        "type": 0,
        "location": {
            "lat": 22.811885,
            "lng": 115.827043
        },
        "ad_info": {
            "adcode": 441581,
            "province": "广东省",
            "city": "汕尾市",
            "district": "陆丰市"
        }
    },
    {
        "id": "11662857489590747574",
        "title": "公共厕所",
        "address": "广东省汕尾市海丰县G228与科教大道交叉口正东方向383米左右",
        "tel": "",
        "category": "基础设施:公共设施:公共厕所",
        "type": 0,
        "location": {
            "lat": 22.80449,
            "lng": 115.103555
        },
        "ad_info": {
            "adcode": 441521,
            "province": "广东省",
            "city": "汕尾市",
            "district": "海丰县"
        }
    },
    {
        "id": "8550028207040359423",
        "title": "公共厕所",
        "address": "广东省汕尾市海丰县G228与红城大道交叉口东北方向336米左右",
        "tel": "",
        "category": "基础设施:公共设施:公共厕所",
        "type": 0,
        "location": {
            "lat": 22.951329,
            "lng": 115.304822
        },
        "ad_info": {
            "adcode": 441521,
            "province": "广东省",
            "city": "汕尾市",
            "district": "海丰县"
        }
    },
    {
        "id": "11380389969828858888",
        "title": "公共厕所",
        "address": "广东省汕尾市海丰县228国道与G15沈海高速出口交叉口东380米",
        "tel": "",
        "category": "基础设施:公共设施:公共厕所",
        "type": 0,
        "location": {
            "lat": 22.840991,
            "lng": 115.174026
        },
        "ad_info": {
            "adcode": 441521,
            "province": "广东省",
            "city": "汕尾市",
            "district": "海丰县"
        }
    },
    {
        "id": "12020076390672740521",
        "title": "公共厕所",
        "address": "广东省汕尾市海丰县联安镇田心乡小学东南侧170米",
        "tel": "",
        "category": "基础设施:公共设施:公共厕所",
        "type": 0,
        "location": {
            "lat": 22.919934,
            "lng": 115.272675
        },
        "ad_info": {
            "adcode": 441521,
            "province": "广东省",
            "city": "汕尾市",
            "district": "海丰县"
        }
    },
    {
        "id": "16250487286802802084",
        "title": "公共厕所",
        "address": "广东省汕尾市海丰县S241与尊尧陂一路交叉口东北方向773米左右",
        "tel": "",
        "category": "基础设施:公共设施:公共厕所",
        "type": 0,
        "location": {
            "lat": 22.844993,
            "lng": 115.461044
        },
        "ad_info": {
            "adcode": 441521,
            "province": "广东省",
            "city": "汕尾市",
            "district": "海丰县"
        }
    },
    {
        "id": "4350443097490229949",
        "title": "公共厕所",
        "address": "广东省汕尾市海丰县公园中路与龙津西路交叉口正南方向134米左右",
        "tel": "",
        "category": "基础设施:公共设施:公共厕所",
        "type": 0,
        "location": {
            "lat": 22.986059,
            "lng": 115.339635
        },
        "ad_info": {
            "adcode": 441521,
            "province": "广东省",
            "city": "汕尾市",
            "district": "海丰县"
        }
    },
    {
        "id": "5547870473653684179",
        "title": "公共厕所",
        "address": "广东省汕尾市海丰县桥新路与龙津东二路交叉口正西方向144米左右",
        "tel": "",
        "category": "基础设施:公共设施:公共厕所",
        "type": 0,
        "location": {
            "lat": 22.969824,
            "lng": 115.34556
        },
        "ad_info": {
            "adcode": 441521,
            "province": "广东省",
            "city": "汕尾市",
            "district": "海丰县"
        }
    },
    {
        "id": "8245170518772855108",
        "title": "公共厕所",
        "address": "广东省汕尾市海丰县黄羌镇附近",
        "tel": "",
        "category": "基础设施:公共设施:公共厕所",
        "type": 0,
        "location": {
            "lat": 23.117197,
            "lng": 115.411593
        },
        "ad_info": {
            "adcode": 441521,
            "province": "广东省",
            "city": "汕尾市",
            "district": "海丰县"
        }
    },
    {
        "id": "3278550573377919598",
        "title": "公共厕所",
        "address": "广东省汕尾市海丰县新兴路与通和路交叉口正西方向34米左右",
        "tel": "",
        "category": "基础设施:公共设施:公共厕所",
        "type": 0,
        "location": {
            "lat": 22.93629,
            "lng": 115.455398
        },
        "ad_info": {
            "adcode": 441521,
            "province": "广东省",
            "city": "汕尾市",
            "district": "海丰县"
        }
    },
    {
        "id": "7197881780398511081",
        "title": "公共厕所",
        "address": "广东省汕尾市海丰县X128与顾莲峙村路交叉口正南方向355米左右",
        "tel": "",
        "category": "基础设施:公共设施:公共厕所",
        "type": 0,
        "location": {
            "lat": 23.010616,
            "lng": 115.2928
        },
        "ad_info": {
            "adcode": 441521,
            "province": "广东省",
            "city": "汕尾市",
            "district": "海丰县"
        }
    },
    {
        "id": "8871053951475192511",
        "title": "公共厕所",
        "address": "广东省汕尾市海丰县G228与Y365交叉口正东方向175米左右",
        "tel": "",
        "category": "基础设施:公共设施:公共厕所",
        "type": 0,
        "location": {
            "lat": 22.973061,
            "lng": 115.401821
        },
        "ad_info": {
            "adcode": 441521,
            "province": "广东省",
            "city": "汕尾市",
            "district": "海丰县"
        }
    },
    {
        "id": "15666996509693813980",
        "title": "公共厕所",
        "address": "广东省汕尾市海丰县Y351与Y408交叉口正西方向788米左右",
        "tel": "",
        "category": "基础设施:公共设施:公共厕所",
        "type": 0,
        "location": {
            "lat": 23.03464,
            "lng": 115.273344
        },
        "ad_info": {
            "adcode": 441521,
            "province": "广东省",
            "city": "汕尾市",
            "district": "海丰县"
        }
    },
    {
        "id": "17981858005930364028",
        "title": "公共厕所",
        "address": "广东省汕尾市海丰县X127与Y205交叉口东北方向970米左右",
        "tel": "",
        "category": "基础设施:公共设施:公共厕所",
        "type": 0,
        "location": {
            "lat": 22.88797,
            "lng": 115.254652
        },
        "ad_info": {
            "adcode": 441521,
            "province": "广东省",
            "city": "汕尾市",
            "district": "海丰县"
        }
    },
    {
        "id": "10202424540950513689",
        "title": "公共厕所",
        "address": "广东省汕尾市城区启德口腔诊所西南侧220米",
        "tel": "",
        "category": "基础设施:公共设施:公共厕所",
        "type": 0,
        "location": {
            "lat": 22.717201,
            "lng": 115.45151
        },
        "ad_info": {
            "adcode": 441502,
            "province": "广东省",
            "city": "汕尾市",
            "district": "城区"
        }
    },
    {
        "id": "13640730352308952188",
        "title": "公共厕所",
        "address": "广东省汕尾市陆丰市",
        "tel": "",
        "category": "基础设施:公共设施:公共厕所",
        "type": 0,
        "location": {
            "lat": 22.946373,
            "lng": 115.836346
        },
        "ad_info": {
            "adcode": 441581,
            "province": "广东省",
            "city": "汕尾市",
            "district": "陆丰市"
        }
    },
    {
        "id": "16337846517308579243",
        "title": "公共厕所",
        "address": "广东省汕尾市海丰县Y316与大化中路交叉口东北方向163米左右",
        "tel": "",
        "category": "基础设施:公共设施:公共厕所",
        "type": 0,
        "location": {
            "lat": 22.840957,
            "lng": 115.518329
        },
        "ad_info": {
            "adcode": 441521,
            "province": "广东省",
            "city": "汕尾市",
            "district": "海丰县"
        }
    },
    {
        "id": "14271019525276339705",
        "title": "公共厕所",
        "address": "广东省汕尾市陆丰市东环大道与环城路交叉口东南方向54米左右",
        "tel": "",
        "category": "基础设施:公共设施:公共厕所",
        "type": 0,
        "location": {
            "lat": 22.93719,
            "lng": 115.652603
        },
        "ad_info": {
            "adcode": 441581,
            "province": "广东省",
            "city": "汕尾市",
            "district": "陆丰市"
        }
    },
    {
        "id": "9455411455237494790",
        "title": "公共厕所",
        "address": "广东省汕尾市海丰县S241与X129交叉口正南方向254米左右",
        "tel": "",
        "category": "基础设施:公共设施:公共厕所",
        "type": 0,
        "location": {
            "lat": 22.858785,
            "lng": 115.461858
        },
        "ad_info": {
            "adcode": 441521,
            "province": "广东省",
            "city": "汕尾市",
            "district": "海丰县"
        }
    },
    {
        "id": "11430390960753134003",
        "title": "公共厕所",
        "address": "广东省汕尾市陆丰市峰山小学西南侧150米",
        "tel": "",
        "category": "基础设施:公共设施:公共厕所",
        "type": 0,
        "location": {
            "lat": 22.967185,
            "lng": 115.595937
        },
        "ad_info": {
            "adcode": 441581,
            "province": "广东省",
            "city": "汕尾市",
            "district": "陆丰市"
        }
    },
    {
        "id": "9382245954262503232",
        "title": "公共厕所",
        "address": "广东省汕尾市陆丰市G228与乌坎大桥交叉口正西方向807米左右",
        "tel": "",
        "category": "基础设施:公共设施:公共厕所",
        "type": 0,
        "location": {
            "lat": 22.887925,
            "lng": 115.669954
        },
        "ad_info": {
            "adcode": 441581,
            "province": "广东省",
            "city": "汕尾市",
            "district": "陆丰市"
        }
    },
    {
        "id": "8909841316224314963",
        "title": "公共厕所",
        "address": "广东省汕尾市陆丰市东港立交与东港立架桥交叉口正东方向268米左右",
        "tel": "",
        "category": "基础设施:公共设施:公共厕所",
        "type": 0,
        "location": {
            "lat": 22.965204,
            "lng": 115.972365
        },
        "ad_info": {
            "adcode": 441581,
            "province": "广东省",
            "city": "汕尾市",
            "district": "陆丰市"
        }
    },
    {
        "id": "13017438485518164436",
        "title": "公共厕所",
        "address": "广东省汕尾市海丰县X127与新作溪路交叉口西北方向776米左右",
        "tel": "",
        "category": "基础设施:公共设施:公共厕所",
        "type": 0,
        "location": {
            "lat": 22.940992,
            "lng": 115.309939
        },
        "ad_info": {
            "adcode": 441521,
            "province": "广东省",
            "city": "汕尾市",
            "district": "海丰县"
        }
    },
    {
        "id": "6202048858325408507",
        "title": "公共厕所",
        "address": "广东省汕尾市陆丰市甲西镇范厝小学东北侧270米",
        "tel": "",
        "category": "基础设施:公共设施:公共厕所",
        "type": 0,
        "location": {
            "lat": 22.896154,
            "lng": 116.017691
        },
        "ad_info": {
            "adcode": 441581,
            "province": "广东省",
            "city": "汕尾市",
            "district": "陆丰市"
        }
    },
    {
        "id": "3395557162054301297",
        "title": "公共厕所",
        "address": "广东省汕尾市海丰县Y377与新山中路交叉口东南方向319米左右",
        "tel": "",
        "category": "基础设施:公共设施:公共厕所",
        "type": 0,
        "location": {
            "lat": 22.929278,
            "lng": 115.35924
        },
        "ad_info": {
            "adcode": 441521,
            "province": "广东省",
            "city": "汕尾市",
            "district": "海丰县"
        }
    },
    {
        "id": "1511353820452459350",
        "title": "公共厕所",
        "address": "广东省汕尾市海丰县G228与南山立交桥交叉口正南方向349米左右",
        "tel": "",
        "category": "基础设施:公共设施:公共厕所",
        "type": 0,
        "location": {
            "lat": 22.824235,
            "lng": 115.174373
        },
        "ad_info": {
            "adcode": 441521,
            "province": "广东省",
            "city": "汕尾市",
            "district": "海丰县"
        }
    },
    {
        "id": "10998360147391909597",
        "title": "公共厕所",
        "address": "广东省汕尾市海丰县G228与汕尾大道北交叉口东北方向82米左右",
        "tel": "",
        "category": "基础设施:公共设施:公共厕所",
        "type": 0,
        "location": {
            "lat": 22.953193,
            "lng": 115.334165
        },
        "ad_info": {
            "adcode": 441521,
            "province": "广东省",
            "city": "汕尾市",
            "district": "海丰县"
        }
    },
    {
        "id": "13487830240012868438",
        "title": "公共厕所",
        "address": "广东省汕尾市海丰县Y377与新山中路交叉口东南方向400米左右",
        "tel": "",
        "category": "基础设施:公共设施:公共厕所",
        "type": 0,
        "location": {
            "lat": 22.930069,
            "lng": 115.361068
        },
        "ad_info": {
            "adcode": 441521,
            "province": "广东省",
            "city": "汕尾市",
            "district": "海丰县"
        }
    },
    {
        "id": "7154318727146372822",
        "title": "公共厕所",
        "address": "广东省汕尾市海丰县G228与洋甲洲乡东路交叉口正东方向1253米左右",
        "tel": "",
        "category": "基础设施:公共设施:公共厕所",
        "type": 0,
        "location": {
            "lat": 22.966148,
            "lng": 115.43713
        },
        "ad_info": {
            "adcode": 441521,
            "province": "广东省",
            "city": "汕尾市",
            "district": "海丰县"
        }
    },
    {
        "id": "5635249329625756014",
        "title": "公共厕所",
        "address": "广东省汕尾市海丰县Y246与洋甲洲乡东路交叉口东南方向210米左右",
        "tel": "",
        "category": "基础设施:公共设施:公共厕所",
        "type": 0,
        "location": {
            "lat": 22.957778,
            "lng": 115.425025
        },
        "ad_info": {
            "adcode": 441521,
            "province": "广东省",
            "city": "汕尾市",
            "district": "海丰县"
        }
    },
    {
        "id": "13475618019279783501",
        "title": "公共厕所",
        "address": "广东省汕尾市海丰县",
        "tel": "",
        "category": "基础设施:公共设施:公共厕所",
        "type": 0,
        "location": {
            "lat": 22.917619,
            "lng": 115.431799
        },
        "ad_info": {
            "adcode": 441521,
            "province": "广东省",
            "city": "汕尾市",
            "district": "海丰县"
        }
    },
    {
        "id": "4945660648782881037",
        "title": "公共厕所",
        "address": "广东省汕尾市海丰县福昆线中国石化加油站",
        "tel": "",
        "category": "基础设施:公共设施:公共厕所",
        "type": 0,
        "location": {
            "lat": 22.802069,
            "lng": 115.098304
        },
        "ad_info": {
            "adcode": 441521,
            "province": "广东省",
            "city": "汕尾市",
            "district": "海丰县"
        }
    },
    {
        "id": "2468808261331606296",
        "title": "公共厕所",
        "address": "广东省汕尾市海丰县Y377与新山中路交叉口东南方向531米左右",
        "tel": "",
        "category": "基础设施:公共设施:公共厕所",
        "type": 0,
        "location": {
            "lat": 22.928744,
            "lng": 115.361657
        },
        "ad_info": {
            "adcode": 441521,
            "province": "广东省",
            "city": "汕尾市",
            "district": "海丰县"
        }
    },
    {
        "id": "3473853030995030916",
        "title": "公共厕所",
        "address": "广东省汕尾市海丰县Y246与楼雅乡西路交叉口正西方向116米左右",
        "tel": "",
        "category": "基础设施:公共设施:公共厕所",
        "type": 0,
        "location": {
            "lat": 22.963852,
            "lng": 115.409389
        },
        "ad_info": {
            "adcode": 441521,
            "province": "广东省",
            "city": "汕尾市",
            "district": "海丰县"
        }
    },
    {
        "id": "2008257906140957211",
        "title": "女洗手间",
        "address": "广东省汕尾市城区X141与北山中路交叉口正东方向224米左右",
        "tel": "",
        "category": "基础设施:公共设施:公共厕所",
        "type": 0,
        "location": {
            "lat": 22.73512,
            "lng": 115.488631
        },
        "ad_info": {
            "adcode": 441502,
            "province": "广东省",
            "city": "汕尾市",
            "district": "城区"
        }
    },
    {
        "id": "5523813338103186669",
        "title": "公共厕所",
        "address": "广东省汕尾市陆丰市东海大道与广汕公路交叉口东南方向92米左右",
        "tel": "",
        "category": "基础设施:公共设施:公共厕所",
        "type": 0,
        "location": {
            "lat": 22.95237,
            "lng": 115.631324
        },
        "ad_info": {
            "adcode": 441581,
            "province": "广东省",
            "city": "汕尾市",
            "district": "陆丰市"
        }
    },
    {
        "id": "8361136849320175741",
        "title": "公共厕所",
        "address": "广东省汕尾市海丰县联西村卫生站北侧140米",
        "tel": "",
        "category": "基础设施:公共设施:公共厕所",
        "type": 0,
        "location": {
            "lat": 22.945651,
            "lng": 115.306715
        },
        "ad_info": {
            "adcode": 441521,
            "province": "广东省",
            "city": "汕尾市",
            "district": "海丰县"
        }
    },
    {
        "id": "11820697570475552990",
        "title": "公共厕所",
        "address": "广东省汕尾市海丰县西中街与西华十一巷交叉口正南方向31米左右",
        "tel": "",
        "category": "基础设施:公共设施:公共厕所",
        "type": 0,
        "location": {
            "lat": 22.963009,
            "lng": 115.328888
        },
        "ad_info": {
            "adcode": 441521,
            "province": "广东省",
            "city": "汕尾市",
            "district": "海丰县"
        }
    },
    {
        "id": "11563617272691206519",
        "title": "公共厕所",
        "address": "广东省汕尾市海丰县G228与族夹大道交叉口西南方向555米左右",
        "tel": "",
        "category": "基础设施:公共设施:公共厕所",
        "type": 0,
        "location": {
            "lat": 22.851145,
            "lng": 115.176271
        },
        "ad_info": {
            "adcode": 441521,
            "province": "广东省",
            "city": "汕尾市",
            "district": "海丰县"
        }
    },
    {
        "id": "3940164176225488010",
        "title": "公共厕所",
        "address": "广东省汕尾市陆丰市G228与Y622交叉口正南方向420米左右",
        "tel": "",
        "category": "基础设施:公共设施:公共厕所",
        "type": 0,
        "location": {
            "lat": 22.892037,
            "lng": 115.963141
        },
        "ad_info": {
            "adcode": 441581,
            "province": "广东省",
            "city": "汕尾市",
            "district": "陆丰市"
        }
    },
    {
        "id": "4374489321335562823",
        "title": "公共厕所",
        "address": "广东省汕尾市陆丰市Y512与Y574交叉口正西方向255米左右",
        "tel": "",
        "category": "基础设施:公共设施:公共厕所",
        "type": 0,
        "location": {
            "lat": 23.087582,
            "lng": 115.5664
        },
        "ad_info": {
            "adcode": 441581,
            "province": "广东省",
            "city": "汕尾市",
            "district": "陆丰市"
        }
    },
    {
        "id": "744203134875949422",
        "title": "公共厕所",
        "address": "广东省汕尾市海丰县新建街与通港路交叉口正北方向86米左右",
        "tel": "",
        "category": "基础设施:公共设施:公共厕所",
        "type": 0,
        "location": {
            "lat": 22.809394,
            "lng": 115.162419
        },
        "ad_info": {
            "adcode": 441521,
            "province": "广东省",
            "city": "汕尾市",
            "district": "海丰县"
        }
    },
    {
        "id": "4554555595472170064",
        "title": "公共厕所",
        "address": "广东省汕尾市陆河县吉新街与横街交叉口正西方向221米左右",
        "tel": "",
        "category": "基础设施:公共设施:公共厕所",
        "type": 0,
        "location": {
            "lat": 23.302883,
            "lng": 115.652089
        },
        "ad_info": {
            "adcode": 441523,
            "province": "广东省",
            "city": "汕尾市",
            "district": "陆河县"
        }
    },
    {
        "id": "11035120709756947320",
        "title": "鲘门服务区第一公共厕所",
        "address": "广东省汕尾市海丰县鲘门街道沈海高速公路鲘门南加油站东北",
        "tel": "",
        "category": "基础设施:公共设施:公共厕所",
        "type": 0,
        "location": {
            "lat": 22.80023,
            "lng": 115.100391
        },
        "ad_info": {
            "adcode": 441521,
            "province": "广东省",
            "city": "汕尾市",
            "district": "海丰县"
        }
    },
    {
        "id": "14744469346837027984",
        "title": "公共厕所",
        "address": "广东省汕尾市陆丰市北堤路与广汕公路交叉口东北方向397米左右",
        "tel": "",
        "category": "基础设施:公共设施:公共厕所",
        "type": 0,
        "location": {
            "lat": 22.953589,
            "lng": 115.655079
        },
        "ad_info": {
            "adcode": 441581,
            "province": "广东省",
            "city": "汕尾市",
            "district": "陆丰市"
        }
    },
    {
        "id": "6020819567489297665",
        "title": "公共厕所",
        "address": "广东省汕尾市陆丰市G228与广汕公路交叉口正东方向337米左右",
        "tel": "",
        "category": "基础设施:公共设施:公共厕所",
        "type": 0,
        "location": {
            "lat": 22.953917,
            "lng": 115.60803
        },
        "ad_info": {
            "adcode": 441581,
            "province": "广东省",
            "city": "汕尾市",
            "district": "陆丰市"
        }
    },
    {
        "id": "9269650110418242718",
        "title": "公共厕所",
        "address": "广东省汕尾市陆丰市S240与陆安路交叉口正南方向931米左右",
        "tel": "",
        "category": "基础设施:公共设施:公共厕所",
        "type": 0,
        "location": {
            "lat": 23.061211,
            "lng": 115.632358
        },
        "ad_info": {
            "adcode": 441581,
            "province": "广东省",
            "city": "汕尾市",
            "district": "陆丰市"
        }
    },
    {
        "id": "5795151269332724666",
        "title": "公共厕所(水底山旅游度假区停车场)",
        "address": "广东省汕尾市海丰县印象深汕叶记农庄东南侧",
        "tel": "",
        "category": "基础设施:公共设施:公共厕所",
        "type": 0,
        "location": {
            "lat": 22.899669,
            "lng": 115.004217
        },
        "ad_info": {
            "adcode": 441521,
            "province": "广东省",
            "city": "汕尾市",
            "district": "海丰县"
        }
    },
    {
        "id": "17125760077934894375",
        "title": "公共厕所",
        "address": "广东省汕尾市海丰县海龙路与龙山路交叉口正东方向162米左右",
        "tel": "",
        "category": "基础设施:公共设施:公共厕所",
        "type": 0,
        "location": {
            "lat": 22.965651,
            "lng": 115.35909
        },
        "ad_info": {
            "adcode": 441521,
            "province": "广东省",
            "city": "汕尾市",
            "district": "海丰县"
        }
    },
    {
        "id": "1032129147766807079",
        "title": "公共厕所",
        "address": "广东省汕尾市陆丰市大安镇安东小学南侧60米",
        "tel": "",
        "category": "基础设施:公共设施:公共厕所",
        "type": 0,
        "location": {
            "lat": 23.048359,
            "lng": 115.671947
        },
        "ad_info": {
            "adcode": 441581,
            "province": "广东省",
            "city": "汕尾市",
            "district": "陆丰市"
        }
    },
    {
        "id": "9571714938064929003",
        "title": "公共厕所",
        "address": "广东省汕尾市陆丰市东新路北五巷与六驿路交叉口正东方向44米左右",
        "tel": "",
        "category": "基础设施:公共设施:公共厕所",
        "type": 0,
        "location": {
            "lat": 22.942719,
            "lng": 115.639219
        },
        "ad_info": {
            "adcode": 441581,
            "province": "广东省",
            "city": "汕尾市",
            "district": "陆丰市"
        }
    },
    {
        "id": "3865775579603018074",
        "title": "汕尾海丰县嘉年华休闲会所-洗手间",
        "address": "广东省汕尾市海丰县中油BP海丰南线加油站东北侧70米",
        "tel": "",
        "category": "基础设施:公共设施:公共厕所",
        "type": 0,
        "location": {
            "lat": 22.950456,
            "lng": 115.334824
        },
        "ad_info": {
            "adcode": 441521,
            "province": "广东省",
            "city": "汕尾市",
            "district": "海丰县"
        }
    },
    {
        "id": "12591287368042075772",
        "title": "公共厕所",
        "address": "广东省汕尾市海丰县中山西路与北门新街交叉口正东方向114米左右",
        "tel": "",
        "category": "基础设施:公共设施:公共厕所",
        "type": 0,
        "location": {
            "lat": 22.969223,
            "lng": 115.337301
        },
        "ad_info": {
            "adcode": 441521,
            "province": "广东省",
            "city": "汕尾市",
            "district": "海丰县"
        }
    },
    {
        "id": "1794708317276001048",
        "title": "公共厕所",
        "address": "广东省汕尾市海丰县农林路与西中街交叉口正北方向26米左右",
        "tel": "",
        "category": "基础设施:公共设施:公共厕所",
        "type": 0,
        "location": {
            "lat": 22.965917,
            "lng": 115.332422
        },
        "ad_info": {
            "adcode": 441521,
            "province": "广东省",
            "city": "汕尾市",
            "district": "海丰县"
        }
    },
    {
        "id": "12477671256758311458",
        "title": "鲘门服务区公共厕所",
        "address": "广东省汕尾市海丰县G228与科教大道交叉口西南方向300米左右",
        "tel": "",
        "category": "基础设施:公共设施:公共厕所",
        "type": 0,
        "location": {
            "lat": 22.801201,
            "lng": 115.09816
        },
        "ad_info": {
            "adcode": 441521,
            "province": "广东省",
            "city": "汕尾市",
            "district": "海丰县"
        }
    },
    {
        "id": "8785265824536878911",
        "title": "公共厕所",
        "address": "广东省汕尾市陆丰市人民路与光明路东交叉口南260米",
        "tel": "",
        "category": "基础设施:公共设施:公共厕所",
        "type": 0,
        "location": {
            "lat": 22.869667,
            "lng": 116.072415
        },
        "ad_info": {
            "adcode": 441581,
            "province": "广东省",
            "city": "汕尾市",
            "district": "陆丰市"
        }
    },
    {
        "id": "14754214278613580610",
        "title": "陆河服务区公共厕所",
        "address": "广东省汕尾市陆河县G235与人民路交叉口东南方向1088米左右",
        "tel": "",
        "category": "基础设施:公共设施:公共厕所",
        "type": 0,
        "location": {
            "lat": 23.161192,
            "lng": 115.552174
        },
        "ad_info": {
            "adcode": 441523,
            "province": "广东省",
            "city": "汕尾市",
            "district": "陆河县"
        }
    },
    {
        "id": "6928956896953188627",
        "title": "后山公共厕所",
        "address": "广东省汕尾市陆丰市玄武路197号",
        "tel": "",
        "category": "基础设施:公共设施:公共厕所",
        "type": 0,
        "location": {
            "lat": 22.818064,
            "lng": 115.833525
        },
        "ad_info": {
            "adcode": 441581,
            "province": "广东省",
            "city": "汕尾市",
            "district": "陆丰市"
        }
    },
    {
        "id": "16602106533533060755",
        "title": "公共厕所",
        "address": "广东省汕尾市陆丰市S240与龙山大道交叉口西南方向65米左右",
        "tel": "",
        "category": "基础设施:公共设施:公共厕所",
        "type": 0,
        "location": {
            "lat": 22.947784,
            "lng": 115.651967
        },
        "ad_info": {
            "adcode": 441581,
            "province": "广东省",
            "city": "汕尾市",
            "district": "陆丰市"
        }
    },
    {
        "id": "3878950741257628372",
        "title": "鲘门服务区第二公共厕所",
        "address": "广东省汕尾市海丰县真功夫(鲘门一店)",
        "tel": "",
        "category": "基础设施:公共设施:公共厕所",
        "type": 0,
        "location": {
            "lat": 22.799278,
            "lng": 115.098678
        },
        "ad_info": {
            "adcode": 441521,
            "province": "广东省",
            "city": "汕尾市",
            "district": "海丰县"
        }
    },
    {
        "id": "8709449646318815650",
        "title": "公共厕所",
        "address": "广东省汕尾市陆丰市对面埔中巷与石路仔一巷交叉口正南方向19米左右",
        "tel": "",
        "category": "基础设施:公共设施:公共厕所",
        "type": 0,
        "location": {
            "lat": 22.948508,
            "lng": 115.639434
        },
        "ad_info": {
            "adcode": 441581,
            "province": "广东省",
            "city": "汕尾市",
            "district": "陆丰市"
        }
    },
    {
        "id": "8160865974112034327",
        "title": "赤花楼公共厕所",
        "address": "广东省汕尾市海丰县S241与X129交叉口正东方向1845米左右",
        "tel": "",
        "category": "基础设施:公共设施:公共厕所",
        "type": 0,
        "location": {
            "lat": 22.864836,
            "lng": 115.480149
        },
        "ad_info": {
            "adcode": 441521,
            "province": "广东省",
            "city": "汕尾市",
            "district": "海丰县"
        }
    },
    {
        "id": "3941268891673961933",
        "title": "陆丰服务区公共厕所",
        "address": "广东省汕尾市陆丰市G15沈海高速与G15沈海高速入口交叉口东420米",
        "tel": "",
        "category": "基础设施:公共设施:公共厕所",
        "type": 0,
        "location": {
            "lat": 22.958314,
            "lng": 115.665245
        },
        "ad_info": {
            "adcode": 441581,
            "province": "广东省",
            "city": "汕尾市",
            "district": "陆丰市"
        }
    },
    {
        "id": "510559475263243168",
        "title": "陆丰服务区第一公共厕所",
        "address": "广东省汕尾市陆丰市G324与城东大道交叉口正北方向1092米左右",
        "tel": "",
        "category": "基础设施:公共设施:公共厕所",
        "type": 0,
        "location": {
            "lat": 22.956164,
            "lng": 115.665575
        },
        "ad_info": {
            "adcode": 441581,
            "province": "广东省",
            "city": "汕尾市",
            "district": "陆丰市"
        }
    },
    {
        "id": "3341189146014868447",
        "title": "内湖服务区第二公共厕所",
        "address": "广东省汕尾市陆丰市内湖服务区与G15沈海高速出口交叉口东120米",
        "tel": "",
        "category": "基础设施:公共设施:公共厕所",
        "type": 0,
        "location": {
            "lat": 22.95658,
            "lng": 115.842476
        },
        "ad_info": {
            "adcode": 441581,
            "province": "广东省",
            "city": "汕尾市",
            "district": "陆丰市"
        }
    },
    {
        "id": "3110115950210440629",
        "title": "陆丰服务区第二公共厕所",
        "address": "广东省汕尾市陆丰市G324与城东大道交叉口正北方向1037米左右",
        "tel": "",
        "category": "基础设施:公共设施:公共厕所",
        "type": 0,
        "location": {
            "lat": 22.955707,
            "lng": 115.666459
        },
        "ad_info": {
            "adcode": 441581,
            "province": "广东省",
            "city": "汕尾市",
            "district": "陆丰市"
        }
    },
    {
        "id": "10624458990078631349",
        "title": "女洗手间(信利·城市广场)",
        "address": "广东省汕尾市城区香洲街道园林社区汕尾大道220号信利城市广场F7",
        "tel": "",
        "category": "基础设施:公共设施:女洗手间",
        "type": 0,
        "location": {
            "lat": 22.773457,
            "lng": 115.362799
        },
        "ad_info": {
            "adcode": 441502,
            "province": "广东省",
            "city": "汕尾市",
            "district": "城区"
        }
    },
    {
        "id": "16328956079318621393",
        "title": "公共厕所",
        "address": "广东省汕尾市城区X141与北山中路交叉口正东方向229米左右",
        "tel": "",
        "category": "基础设施:公共设施:公共厕所",
        "type": 0,
        "location": {
            "lat": 22.735432,
            "lng": 115.488572
        },
        "ad_info": {
            "adcode": 441502,
            "province": "广东省",
            "city": "汕尾市",
            "district": "城区"
        }
    },
    {
        "id": "1152823035557959617",
        "title": "游客中心洗手间",
        "address": "广东省汕尾市海丰县Y377与新山中路交叉口东南方向272米左右",
        "tel": "",
        "category": "基础设施:公共设施:公共厕所",
        "type": 0,
        "location": {
            "lat": 22.930345,
            "lng": 115.359792
        },
        "ad_info": {
            "adcode": 441521,
            "province": "广东省",
            "city": "汕尾市",
            "district": "海丰县"
        }
    },
    {
        "id": "6165354235214779998",
        "title": "可塘服务区公共厕所",
        "address": "广东省汕尾市海丰县粤运能源广东交通集团可塘服务区加油站西北侧90米",
        "tel": "",
        "category": "基础设施:公共设施:公共厕所",
        "type": 0,
        "location": {
            "lat": 22.969729,
            "lng": 115.490827
        },
        "ad_info": {
            "adcode": 441521,
            "province": "广东省",
            "city": "汕尾市",
            "district": "海丰县"
        }
    },
    {
        "id": "13756271653994870213",
        "title": "公共厕所",
        "address": "广东省汕尾市陆丰市河西镇卧龙村卫生站西侧140米",
        "tel": "",
        "category": "基础设施:公共设施:公共厕所",
        "type": 0,
        "location": {
            "lat": 22.977661,
            "lng": 115.58419
        },
        "ad_info": {
            "adcode": 441581,
            "province": "广东省",
            "city": "汕尾市",
            "district": "陆丰市"
        }
    },
    {
        "id": "8997931165930949893",
        "title": "下坊塘村公共厕所",
        "address": "广东省汕尾市陆丰市大安镇",
        "tel": "",
        "category": "基础设施:公共设施:公共厕所",
        "type": 0,
        "location": {
            "lat": 23.050381,
            "lng": 115.65273
        },
        "ad_info": {
            "adcode": 441581,
            "province": "广东省",
            "city": "汕尾市",
            "district": "陆丰市"
        }
    },
    {
        "id": "10276840086205324008",
        "title": "公共厕所",
        "address": "广东省汕尾市陆丰市寨仔路与环城路交叉口西北方向210米左右",
        "tel": "",
        "category": "基础设施:公共设施:公共厕所",
        "type": 0,
        "location": {
            "lat": 22.938942,
            "lng": 115.646083
        },
        "ad_info": {
            "adcode": 441581,
            "province": "广东省",
            "city": "汕尾市",
            "district": "陆丰市"
        }
    },
    {
        "id": "12596980737732034494",
        "title": "新寮村口公共厕所",
        "address": "广东省汕尾市海丰县四环北路与海银路交叉口正西方向341米左右",
        "tel": "",
        "category": "基础设施:公共设施:公共厕所",
        "type": 0,
        "location": {
            "lat": 22.994251,
            "lng": 115.315761
        },
        "ad_info": {
            "adcode": 441521,
            "province": "广东省",
            "city": "汕尾市",
            "district": "海丰县"
        }
    },
    {
        "id": "17275654081330020897",
        "title": "公共厕所",
        "address": "广东省汕尾市陆河县禾坪村",
        "tel": "",
        "category": "基础设施:公共设施:公共厕所",
        "type": 0,
        "location": {
            "lat": 23.232126,
            "lng": 115.681376
        },
        "ad_info": {
            "adcode": 441523,
            "province": "广东省",
            "city": "汕尾市",
            "district": "陆河县"
        }
    },
    {
        "id": "12060697126432307920",
        "title": "松林桥公共厕所",
        "address": "广东省汕尾市海丰县X126与Y391交叉口正西方向966米左右",
        "tel": "",
        "category": "基础设施:公共设施:公共厕所",
        "type": 0,
        "location": {
            "lat": 23.150516,
            "lng": 115.371187
        },
        "ad_info": {
            "adcode": 441521,
            "province": "广东省",
            "city": "汕尾市",
            "district": "海丰县"
        }
    },
    {
        "id": "6868687468562078670",
        "title": "公共厕所",
        "address": "广东省汕尾市城区成业路与海滨大道交叉口西北方向152米左右",
        "tel": "",
        "category": "基础设施:公共设施:公共厕所",
        "type": 0,
        "location": {
            "lat": 22.78786,
            "lng": 115.401689
        },
        "ad_info": {
            "adcode": 441502,
            "province": "广东省",
            "city": "汕尾市",
            "district": "城区"
        }
    },
    {
        "id": "12017998749739777492",
        "title": "公共厕所",
        "address": "广东省汕尾市城区环湖路与红海大道交叉口正北方向232米左右",
        "tel": "",
        "category": "基础设施:公共设施:公共厕所",
        "type": 0,
        "location": {
            "lat": 22.776917,
            "lng": 115.387364
        },
        "ad_info": {
            "adcode": 441502,
            "province": "广东省",
            "city": "汕尾市",
            "district": "城区"
        }
    },
    {
        "id": "9241861813873986827",
        "title": "女洗手间(信利·城市广场)",
        "address": "广东省汕尾市城区香洲街道园林社区汕尾大道220号信利城市广场F3",
        "tel": "",
        "category": "基础设施:公共设施:女洗手间",
        "type": 0,
        "location": {
            "lat": 22.77385,
            "lng": 115.361995
        },
        "ad_info": {
            "adcode": 441502,
            "province": "广东省",
            "city": "汕尾市",
            "district": "城区"
        }
    },
    {
        "id": "4854373772065319304",
        "title": "公共厕所",
        "address": "广东省汕尾市城区文德路与金鹏路交叉口正北方向105米左右",
        "tel": "",
        "category": "基础设施:公共设施:公共厕所",
        "type": 0,
        "location": {
            "lat": 22.79278,
            "lng": 115.370091
        },
        "ad_info": {
            "adcode": 441502,
            "province": "广东省",
            "city": "汕尾市",
            "district": "城区"
        }
    },
    {
        "id": "13539633817314173034",
        "title": "公共厕所",
        "address": "广东省汕尾市陆丰市上英快递代收点北侧290米",
        "tel": "",
        "category": "基础设施:公共设施:公共厕所",
        "type": 0,
        "location": {
            "lat": 22.888747,
            "lng": 115.564053
        },
        "ad_info": {
            "adcode": 441581,
            "province": "广东省",
            "city": "汕尾市",
            "district": "陆丰市"
        }
    },
    {
        "id": "2739051977317061282",
        "title": "公共厕所",
        "address": "广东省汕尾市海丰县顾莲峙村路与128县道交叉口东北180米",
        "tel": "",
        "category": "基础设施:公共设施:公共厕所",
        "type": 0,
        "location": {
            "lat": 23.006245,
            "lng": 115.287866
        },
        "ad_info": {
            "adcode": 441521,
            "province": "广东省",
            "city": "汕尾市",
            "district": "海丰县"
        }
    },
    {
        "id": "6500920647327499193",
        "title": "公共厕所",
        "address": "广东省汕尾市海丰县Y322与风须笏路交叉口西北方向1282米左右",
        "tel": "",
        "category": "基础设施:公共设施:公共厕所",
        "type": 0,
        "location": {
            "lat": 22.928593,
            "lng": 115.280506
        },
        "ad_info": {
            "adcode": 441521,
            "province": "广东省",
            "city": "汕尾市",
            "district": "海丰县"
        }
    },
    {
        "id": "17529423133039099005",
        "title": "公共厕所",
        "address": "广东省汕尾市陆河县X123与北环路交叉口西南方向1515米左右",
        "tel": "",
        "category": "基础设施:公共设施:公共厕所",
        "type": 0,
        "location": {
            "lat": 23.316646,
            "lng": 115.631175
        },
        "ad_info": {
            "adcode": 441523,
            "province": "广东省",
            "city": "汕尾市",
            "district": "陆河县"
        }
    },
    {
        "id": "9629211036975509690",
        "title": "公共厕所",
        "address": "广东省汕尾市海丰县附城镇新北卫生站东北侧250米",
        "tel": "",
        "category": "基础设施:公共设施:公共厕所",
        "type": 0,
        "location": {
            "lat": 22.93536,
            "lng": 115.368169
        },
        "ad_info": {
            "adcode": 441521,
            "province": "广东省",
            "city": "汕尾市",
            "district": "海丰县"
        }
    },
    {
        "id": "9171325876332742522",
        "title": "公共厕所",
        "address": "广东省汕尾市陆丰市S240与龙山大道交叉口东北方向82米左右",
        "tel": "",
        "category": "基础设施:公共设施:公共厕所",
        "type": 0,
        "location": {
            "lat": 22.948567,
            "lng": 115.6531
        },
        "ad_info": {
            "adcode": 441581,
            "province": "广东省",
            "city": "汕尾市",
            "district": "陆丰市"
        }
    },
    {
        "id": "5494070190884189278",
        "title": "公共厕所",
        "address": "广东省汕尾市海丰县全通训练基地东侧190米",
        "tel": "",
        "category": "基础设施:公共设施:公共厕所",
        "type": 0,
        "location": {
            "lat": 23.007478,
            "lng": 115.321979
        },
        "ad_info": {
            "adcode": 441521,
            "province": "广东省",
            "city": "汕尾市",
            "district": "海丰县"
        }
    },
    {
        "id": "14075357169730326389",
        "title": "公共厕所(水底山旅游度假区九龙潭)",
        "address": "广东省汕尾市海丰县水底山旅游度假区九龙潭",
        "tel": "",
        "category": "基础设施:公共设施:公共厕所",
        "type": 0,
        "location": {
            "lat": 22.897331,
            "lng": 114.998887
        },
        "ad_info": {
            "adcode": 441521,
            "province": "广东省",
            "city": "汕尾市",
            "district": "海丰县"
        }
    },
    {
        "id": "11024462747027297509",
        "title": "公共厕所(水底山旅游度假区九龙潭二)",
        "address": "广东省汕尾市海丰县水底山旅游度假区九龙潭",
        "tel": "",
        "category": "基础设施:公共设施:公共厕所",
        "type": 0,
        "location": {
            "lat": 22.89647,
            "lng": 115.001663
        },
        "ad_info": {
            "adcode": 441521,
            "province": "广东省",
            "city": "汕尾市",
            "district": "海丰县"
        }
    },
    {
        "id": "6806694821382192801",
        "title": "公共厕所",
        "address": "广东省汕尾市陆河县梯田山庄西南侧60米",
        "tel": "",
        "category": "基础设施:公共设施:公共厕所",
        "type": 0,
        "location": {
            "lat": 23.264102,
            "lng": 115.617307
        },
        "ad_info": {
            "adcode": 441523,
            "province": "广东省",
            "city": "汕尾市",
            "district": "陆河县"
        }
    },
    {
        "id": "17810137881342461802",
        "title": "趣味廊卫生间",
        "address": "广东省汕尾市城区S241与汕尾大道交叉口东南方向1745米左右",
        "tel": "",
        "category": "基础设施:公共设施:公共厕所",
        "type": 0,
        "location": {
            "lat": 22.817229,
            "lng": 115.365515
        },
        "ad_info": {
            "adcode": 441502,
            "province": "广东省",
            "city": "汕尾市",
            "district": "城区"
        }
    },
    {
        "id": "12973264085571750736",
        "title": "公共厕所",
        "address": "广东省汕尾市陆河县通达路与陆河大道交叉口西南方向20米左右",
        "tel": "",
        "category": "基础设施:公共设施:公共厕所",
        "type": 0,
        "location": {
            "lat": 23.297267,
            "lng": 115.662633
        },
        "ad_info": {
            "adcode": 441523,
            "province": "广东省",
            "city": "汕尾市",
            "district": "陆河县"
        }
    },
    {
        "id": "11766158407814520774",
        "title": "公共厕所",
        "address": "广东省汕尾市城区金町湾沙滩东北侧260米",
        "tel": "",
        "category": "基础设施:公共设施:公共厕所",
        "type": 0,
        "location": {
            "lat": 22.792727,
            "lng": 115.302515
        },
        "ad_info": {
            "adcode": 441502,
            "province": "广东省",
            "city": "汕尾市",
            "district": "城区"
        }
    },
    {
        "id": "11975327856972589235",
        "title": "公共厕所(P1停车场)",
        "address": "广东省汕尾市城区施公寮风车岛浅水湾",
        "tel": "",
        "category": "基础设施:公共设施:公共厕所",
        "type": 0,
        "location": {
            "lat": 22.73759,
            "lng": 115.586186
        },
        "ad_info": {
            "adcode": 441502,
            "province": "广东省",
            "city": "汕尾市",
            "district": "城区"
        }
    },
    {
        "id": "6447004892768657508",
        "title": "公共厕所",
        "address": "广东省汕尾市海丰县G228与龙津大桥交叉口正北方向256米左右",
        "tel": "",
        "category": "基础设施:公共设施:公共厕所",
        "type": 0,
        "location": {
            "lat": 22.961109,
            "lng": 115.355629
        },
        "ad_info": {
            "adcode": 441521,
            "province": "广东省",
            "city": "汕尾市",
            "district": "海丰县"
        }
    },
    {
        "id": "13158048472345874849",
        "title": "公共厕所",
        "address": "广东省汕尾市陆丰市上海路与东海大道交叉口正东方向207米左右",
        "tel": "",
        "category": "基础设施:公共设施:公共厕所",
        "type": 0,
        "location": {
            "lat": 22.92985,
            "lng": 115.645625
        },
        "ad_info": {
            "adcode": 441581,
            "province": "广东省",
            "city": "汕尾市",
            "district": "陆丰市"
        }
    },
    {
        "id": "10531607900854307000",
        "title": "公共厕所",
        "address": "广东省汕尾市城区236国道与人民路交叉口西160米",
        "tel": "",
        "category": "基础设施:公共设施:公共厕所",
        "type": 0,
        "location": {
            "lat": 22.73159,
            "lng": 115.498633
        },
        "ad_info": {
            "adcode": 441502,
            "province": "广东省",
            "city": "汕尾市",
            "district": "城区"
        }
    },
    {
        "id": "11385828226721152327",
        "title": "公共厕所(红罗畲族村)",
        "address": "广东省汕尾市海丰县深汕特别合作区鹅埠镇红罗畲族村",
        "tel": "",
        "category": "基础设施:公共设施:公共厕所",
        "type": 0,
        "location": {
            "lat": 22.863163,
            "lng": 114.995357
        },
        "ad_info": {
            "adcode": 441521,
            "province": "广东省",
            "city": "汕尾市",
            "district": "海丰县"
        }
    },
    {
        "id": "16358661223191809239",
        "title": "公共厕所",
        "address": "广东省汕尾市海丰县红城大道西71号",
        "tel": "",
        "category": "基础设施:公共设施:公共厕所",
        "type": 0,
        "location": {
            "lat": 22.97053,
            "lng": 115.331704
        },
        "ad_info": {
            "adcode": 441521,
            "province": "广东省",
            "city": "汕尾市",
            "district": "海丰县"
        }
    },
    {
        "id": "9904276406962574456",
        "title": "停车场厕所",
        "address": "广东省汕尾市城区迎宾大道1号",
        "tel": "",
        "category": "基础设施:公共设施:公共厕所",
        "type": 0,
        "location": {
            "lat": 22.784335,
            "lng": 115.417114
        },
        "ad_info": {
            "adcode": 441502,
            "province": "广东省",
            "city": "汕尾市",
            "district": "城区"
        }
    },
    {
        "id": "3999831229694654190",
        "title": "公共厕所",
        "address": "广东省汕尾市城区胜安机动车驾驶培训学校有限公司东南侧230米",
        "tel": "",
        "category": "基础设施:公共设施:公共厕所",
        "type": 0,
        "location": {
            "lat": 22.735637,
            "lng": 115.474784
        },
        "ad_info": {
            "adcode": 441502,
            "province": "广东省",
            "city": "汕尾市",
            "district": "城区"
        }
    },
    {
        "id": "402386039387565769",
        "title": "保卫你家卫浴间回填",
        "address": "广东省汕尾市城区城北路与红海大道交叉口正东方向79米左右",
        "tel": "",
        "category": "基础设施:公共设施:公共厕所",
        "type": 0,
        "location": {
            "lat": 22.785488,
            "lng": 115.363111
        },
        "ad_info": {
            "adcode": 441502,
            "province": "广东省",
            "city": "汕尾市",
            "district": "城区"
        }
    },
    {
        "id": "2444788208874099836",
        "title": "女洗手间(信利·城市广场)",
        "address": "广东省汕尾市城区香洲街道园林社区汕尾大道220号信利城市广场F5",
        "tel": "",
        "category": "基础设施:公共设施:女洗手间",
        "type": 0,
        "location": {
            "lat": 22.77385,
            "lng": 115.361996
        },
        "ad_info": {
            "adcode": 441502,
            "province": "广东省",
            "city": "汕尾市",
            "district": "城区"
        }
    },
    {
        "id": "15831991040848289905",
        "title": "公共厕所",
        "address": "广东省汕尾市城区新衢路与香江大道交叉口西北方向465米左右",
        "tel": "",
        "category": "基础设施:公共设施:公共厕所",
        "type": 0,
        "location": {
            "lat": 22.796564,
            "lng": 115.315765
        },
        "ad_info": {
            "adcode": 441502,
            "province": "广东省",
            "city": "汕尾市",
            "district": "城区"
        }
    },
    {
        "id": "4919902952676518392",
        "title": "公共厕所",
        "address": "广东省汕尾市陆河县附近",
        "tel": "",
        "category": "基础设施:公共设施:公共厕所",
        "type": 0,
        "location": {
            "lat": 23.244587,
            "lng": 115.665951
        },
        "ad_info": {
            "adcode": 441523,
            "province": "广东省",
            "city": "汕尾市",
            "district": "陆河县"
        }
    },
    {
        "id": "6534053098321588431",
        "title": "公共厕所(汕尾市绿汇)",
        "address": "广东省汕尾市陆丰市华侨管理区第四社区绿汇有限公司",
        "tel": "",
        "category": "基础设施:公共设施:公共厕所",
        "type": 0,
        "location": {
            "lat": 22.943041,
            "lng": 115.917828
        },
        "ad_info": {
            "adcode": 441581,
            "province": "广东省",
            "city": "汕尾市",
            "district": "陆丰市"
        }
    },
    {
        "id": "13540492318147190548",
        "title": "公共厕所",
        "address": "广东省汕尾市城区尤秀乡门前路与广场路交叉口东北方向223米左右",
        "tel": "",
        "category": "基础设施:公共设施:公共厕所",
        "type": 0,
        "location": {
            "lat": 22.710155,
            "lng": 115.537228
        },
        "ad_info": {
            "adcode": 441502,
            "province": "广东省",
            "city": "汕尾市",
            "district": "城区"
        }
    },
    {
        "id": "15475546219071743055",
        "title": "渡仔头村公共厕所",
        "address": "广东省汕尾市陆河县新田镇联安小学东侧160米",
        "tel": "",
        "category": "基础设施:公共设施:公共厕所",
        "type": 0,
        "location": {
            "lat": 23.135527,
            "lng": 115.579771
        },
        "ad_info": {
            "adcode": 441523,
            "province": "广东省",
            "city": "汕尾市",
            "district": "陆河县"
        }
    },
    {
        "id": "16286765717639399623",
        "title": "公共厕所",
        "address": "广东省汕尾市陆丰市广汕公路与连厝围商场五巷交叉口正东方向166米左右",
        "tel": "",
        "category": "基础设施:公共设施:公共厕所",
        "type": 0,
        "location": {
            "lat": 22.952035,
            "lng": 115.648319
        },
        "ad_info": {
            "adcode": 441581,
            "province": "广东省",
            "city": "汕尾市",
            "district": "陆丰市"
        }
    },
    {
        "id": "7248189948577962059",
        "title": "洗手间(酒店内)",
        "address": "广东省汕尾市城区玫瑰银滩旅游区",
        "tel": "",
        "category": "基础设施:公共设施:公共厕所",
        "type": 0,
        "location": {
            "lat": 22.697087,
            "lng": 115.437288
        },
        "ad_info": {
            "adcode": 441502,
            "province": "广东省",
            "city": "汕尾市",
            "district": "城区"
        }
    },
    {
        "id": "17510395719663483845",
        "title": "莲花山服务区公共厕所",
        "address": "广东省汕尾市海丰县莲花山服务区东南侧",
        "tel": "",
        "category": "基础设施:公共设施:公共厕所",
        "type": 0,
        "location": {
            "lat": 22.949592,
            "lng": 115.116443
        },
        "ad_info": {
            "adcode": 441521,
            "province": "广东省",
            "city": "汕尾市",
            "district": "海丰县"
        }
    },
    {
        "id": "17282809633795638430",
        "title": "铜鼎盛世洗手间",
        "address": "广东省汕尾市城区西河路1号",
        "tel": "",
        "category": "基础设施:公共设施:公共厕所",
        "type": 0,
        "location": {
            "lat": 22.821609,
            "lng": 115.368159
        },
        "ad_info": {
            "adcode": 441502,
            "province": "广东省",
            "city": "汕尾市",
            "district": "城区"
        }
    },
    {
        "id": "13320205537794892020",
        "title": "公共厕所",
        "address": "广东省汕尾市陆丰市S549与Y602交叉口正南方向1146米左右",
        "tel": "",
        "category": "基础设施:公共设施:公共厕所",
        "type": 0,
        "location": {
            "lat": 22.863925,
            "lng": 116.133942
        },
        "ad_info": {
            "adcode": 441581,
            "province": "广东省",
            "city": "汕尾市",
            "district": "陆丰市"
        }
    },
    {
        "id": "17868259067627677186",
        "title": "公共厕所",
        "address": "广东省汕尾市陆丰市G324与图美村大道交叉口东南方向203米左右",
        "tel": "",
        "category": "基础设施:公共设施:公共厕所",
        "type": 0,
        "location": {
            "lat": 22.960193,
            "lng": 115.814394
        },
        "ad_info": {
            "adcode": 441581,
            "province": "广东省",
            "city": "汕尾市",
            "district": "陆丰市"
        }
    },
    {
        "id": "8936114890558725131",
        "title": "红宫洗手间",
        "address": "广东省汕尾市海丰县红场路8号",
        "tel": "",
        "category": "基础设施:公共设施:公共厕所",
        "type": 0,
        "location": {
            "lat": 22.967439,
            "lng": 115.335477
        },
        "ad_info": {
            "adcode": 441521,
            "province": "广东省",
            "city": "汕尾市",
            "district": "海丰县"
        }
    },
    {
        "id": "5452545404470381934",
        "title": "文献堂洗手间",
        "address": "广东省汕尾市海丰县新山村金龙中路东片",
        "tel": "",
        "category": "基础设施:公共设施:公共厕所",
        "type": 0,
        "location": {
            "lat": 22.927033,
            "lng": 115.35945
        },
        "ad_info": {
            "adcode": 441521,
            "province": "广东省",
            "city": "汕尾市",
            "district": "海丰县"
        }
    },
    {
        "id": "2252480585841233031",
        "title": "广场公共厕所",
        "address": "广东省汕尾市陆丰市玄武路与龙泉新村南一巷交叉口西南方向132米左右",
        "tel": "",
        "category": "基础设施:公共设施:公共厕所",
        "type": 0,
        "location": {
            "lat": 22.8156,
            "lng": 115.834388
        },
        "ad_info": {
            "adcode": 441581,
            "province": "广东省",
            "city": "汕尾市",
            "district": "陆丰市"
        }
    },
    {
        "id": "12483305198250922641",
        "title": "公共厕所",
        "address": "广东省汕尾市海丰县可塘镇仓前村卫生站西侧",
        "tel": "",
        "category": "基础设施:公共设施:公共厕所",
        "type": 0,
        "location": {
            "lat": 22.937366,
            "lng": 115.44314
        },
        "ad_info": {
            "adcode": 441521,
            "province": "广东省",
            "city": "汕尾市",
            "district": "海丰县"
        }
    },
    {
        "id": "15404754124818805147",
        "title": "公共厕所",
        "address": "广东省汕尾市城区X141与迎宾大道交叉口正北方向69米左右",
        "tel": "",
        "category": "基础设施:公共设施:公共厕所",
        "type": 0,
        "location": {
            "lat": 22.789637,
            "lng": 115.423358
        },
        "ad_info": {
            "adcode": 441502,
            "province": "广东省",
            "city": "汕尾市",
            "district": "城区"
        }
    },
    {
        "id": "18305664125887167747",
        "title": "公共厕所",
        "address": "广东省汕尾市海丰县G228与Y372交叉口正北方向204米左右",
        "tel": "",
        "category": "基础设施:公共设施:公共厕所",
        "type": 0,
        "location": {
            "lat": 22.954598,
            "lng": 115.477957
        },
        "ad_info": {
            "adcode": 441521,
            "province": "广东省",
            "city": "汕尾市",
            "district": "海丰县"
        }
    },
    {
        "id": "10975445507412847142",
        "title": "温泉广场前卫生间",
        "address": "广东省汕尾市海丰县莲花山旅游区",
        "tel": "",
        "category": "基础设施:公共设施:公共厕所",
        "type": 0,
        "location": {
            "lat": 23.043787,
            "lng": 115.25911
        },
        "ad_info": {
            "adcode": 441521,
            "province": "广东省",
            "city": "汕尾市",
            "district": "海丰县"
        }
    },
    {
        "id": "13039796370555007299",
        "title": "游客服务站北区公共厕所",
        "address": "广东省汕尾市陆丰市228国道37号",
        "tel": "",
        "category": "基础设施:公共设施:公共厕所",
        "type": 0,
        "location": {
            "lat": 22.869374,
            "lng": 115.744618
        },
        "ad_info": {
            "adcode": 441581,
            "province": "广东省",
            "city": "汕尾市",
            "district": "陆丰市"
        }
    },
    {
        "id": "16524766734171010310",
        "title": "P1停车场公共厕所",
        "address": "广东省汕尾市城区妈祖路与通南路交叉口正东方向123米左右",
        "tel": "",
        "category": "基础设施:公共设施:公共厕所",
        "type": 0,
        "location": {
            "lat": 22.662289,
            "lng": 115.56936
        },
        "ad_info": {
            "adcode": 441502,
            "province": "广东省",
            "city": "汕尾市",
            "district": "城区"
        }
    },
    {
        "id": "12021395888392519709",
        "title": "城南便民公共洗手间",
        "address": "广东省汕尾市陆河县下圩二街与安南街交叉口正西方向199米左右",
        "tel": "",
        "category": "基础设施:公共设施:公共厕所",
        "type": 0,
        "location": {
            "lat": 23.288109,
            "lng": 115.657086
        },
        "ad_info": {
            "adcode": 441523,
            "province": "广东省",
            "city": "汕尾市",
            "district": "陆河县"
        }
    },
    {
        "id": "10134128340576978374",
        "title": "洗手间",
        "address": "广东省汕尾市陆丰市垦源商店东侧260米",
        "tel": "",
        "category": "基础设施:公共设施:公共厕所",
        "type": 0,
        "location": {
            "lat": 22.804881,
            "lng": 115.957782
        },
        "ad_info": {
            "adcode": 441581,
            "province": "广东省",
            "city": "汕尾市",
            "district": "陆丰市"
        }
    },
    {
        "id": "3346199791026217338",
        "title": "公共厕所",
        "address": "广东省汕尾市海丰县Y246与楼雅乡西路交叉口正西方向494米左右",
        "tel": "",
        "category": "基础设施:公共设施:公共厕所",
        "type": 0,
        "location": {
            "lat": 22.96297,
            "lng": 115.405772
        },
        "ad_info": {
            "adcode": 441521,
            "province": "广东省",
            "city": "汕尾市",
            "district": "海丰县"
        }
    },
    {
        "id": "15069951641907511211",
        "title": "公共厕所",
        "address": "广东省汕尾市海丰县X129与X135交叉口西南方向490米左右",
        "tel": "",
        "category": "基础设施:公共设施:公共厕所",
        "type": 0,
        "location": {
            "lat": 22.829944,
            "lng": 115.566643
        },
        "ad_info": {
            "adcode": 441521,
            "province": "广东省",
            "city": "汕尾市",
            "district": "海丰县"
        }
    },
    {
        "id": "9039932545530877276",
        "title": "公共厕所(水底山旅游度假区生态园)",
        "address": "广东省汕尾市海丰县汤湖农家庄西南侧230米",
        "tel": "",
        "category": "基础设施:公共设施:公共厕所",
        "type": 0,
        "location": {
            "lat": 22.896474,
            "lng": 115.001013
        },
        "ad_info": {
            "adcode": 441521,
            "province": "广东省",
            "city": "汕尾市",
            "district": "海丰县"
        }
    },
    {
        "id": "16098660937543706792",
        "title": "公共卫生间",
        "address": "广东省汕尾市海丰县振业时代花园2期西南侧480米",
        "tel": "",
        "category": "基础设施:公共设施:公共厕所",
        "type": 0,
        "location": {
            "lat": 22.823979,
            "lng": 114.980713
        },
        "ad_info": {
            "adcode": 441521,
            "province": "广东省",
            "city": "汕尾市",
            "district": "海丰县"
        }
    },
    {
        "id": "15689810111116225257",
        "title": "可塘服务区公共厕所",
        "address": "广东省汕尾市海丰县粤运能源广东交通集团可塘服务区加油站东南侧100米",
        "tel": "",
        "category": "基础设施:公共设施:公共厕所",
        "type": 0,
        "location": {
            "lat": 22.969768,
            "lng": 115.493239
        },
        "ad_info": {
            "adcode": 441521,
            "province": "广东省",
            "city": "汕尾市",
            "district": "海丰县"
        }
    },
    {
        "id": "13569176844516980941",
        "title": "公共厕所",
        "address": "广东省汕尾市陆丰市安泰二路与民安路交叉口正北方向114米左右",
        "tel": "",
        "category": "基础设施:公共设施:公共厕所",
        "type": 0,
        "location": {
            "lat": 22.946832,
            "lng": 115.668722
        },
        "ad_info": {
            "adcode": 441581,
            "province": "广东省",
            "city": "汕尾市",
            "district": "陆丰市"
        }
    },
    {
        "id": "10914472365128350052",
        "title": "公共厕所",
        "address": "广东省汕尾市海丰县Y205与南笏路交叉口正北方向1075米左右",
        "tel": "",
        "category": "基础设施:公共设施:公共厕所",
        "type": 0,
        "location": {
            "lat": 22.925313,
            "lng": 115.27387
        },
        "ad_info": {
            "adcode": 441521,
            "province": "广东省",
            "city": "汕尾市",
            "district": "海丰县"
        }
    },
    {
        "id": "18334334854526132661",
        "title": "文化广场公共厕所",
        "address": "广东省汕尾市海丰县Y377与新山中路交叉口东南方向503米左右",
        "tel": "",
        "category": "基础设施:公共设施:公共厕所",
        "type": 0,
        "location": {
            "lat": 22.928976,
            "lng": 115.3615
        },
        "ad_info": {
            "adcode": 441521,
            "province": "广东省",
            "city": "汕尾市",
            "district": "海丰县"
        }
    },
    {
        "id": "5983916688617617851",
        "title": "女洗手间(信利·城市广场)",
        "address": "广东省汕尾市城区香洲街道园林社区汕尾大道220号信利城市广场F4",
        "tel": "",
        "category": "基础设施:公共设施:公共厕所",
        "type": 0,
        "location": {
            "lat": 22.773851,
            "lng": 115.361995
        },
        "ad_info": {
            "adcode": 441502,
            "province": "广东省",
            "city": "汕尾市",
            "district": "城区"
        }
    },
    {
        "id": "2223640318261344535",
        "title": "公共厕所(汕尾市华侨管理区前海)",
        "address": "广东省汕尾市陆丰市华侨管理区前海综合市场内",
        "tel": "",
        "category": "基础设施:公共设施:公共厕所",
        "type": 0,
        "location": {
            "lat": 22.992377,
            "lng": 115.927351
        },
        "ad_info": {
            "adcode": 441581,
            "province": "广东省",
            "city": "汕尾市",
            "district": "陆丰市"
        }
    },
    {
        "id": "2082882415551540794",
        "title": "男士卫生间",
        "address": "广东省汕尾市海丰县海陆紫苏维埃政府展览馆西侧120米",
        "tel": "",
        "category": "基础设施:公共设施:公共厕所",
        "type": 0,
        "location": {
            "lat": 23.191217,
            "lng": 115.369371
        },
        "ad_info": {
            "adcode": 441521,
            "province": "广东省",
            "city": "汕尾市",
            "district": "海丰县"
        }
    },
    {
        "id": "4092663414382619931",
        "title": "公共厕所",
        "address": "广东省汕尾市陆丰市蔡氏宗祠东侧50米",
        "tel": "",
        "category": "基础设施:公共设施:公共厕所",
        "type": 0,
        "location": {
            "lat": 23.071205,
            "lng": 115.63801
        },
        "ad_info": {
            "adcode": 441581,
            "province": "广东省",
            "city": "汕尾市",
            "district": "陆丰市"
        }
    },
    {
        "id": "4332701431922677171",
        "title": "公共厕所",
        "address": "广东省汕尾市海丰县南雅路",
        "tel": "",
        "category": "基础设施:公共设施:公共厕所",
        "type": 0,
        "location": {
            "lat": 22.902018,
            "lng": 115.480131
        },
        "ad_info": {
            "adcode": 441521,
            "province": "广东省",
            "city": "汕尾市",
            "district": "海丰县"
        }
    },
    {
        "id": "10362044394314121370",
        "title": "公共厕所",
        "address": "广东省汕尾市海丰县Y211与科教大道交叉口正北方向1745米左右",
        "tel": "",
        "category": "基础设施:公共设施:公共厕所",
        "type": 0,
        "location": {
            "lat": 22.839731,
            "lng": 115.09016
        },
        "ad_info": {
            "adcode": 441521,
            "province": "广东省",
            "city": "汕尾市",
            "district": "海丰县"
        }
    },
    {
        "id": "6759360809405518473",
        "title": "公共厕所",
        "address": "广东省汕尾市陆丰市G228与Y509交叉口东北方向1002米左右",
        "tel": "",
        "category": "基础设施:公共设施:公共厕所",
        "type": 0,
        "location": {
            "lat": 22.882472,
            "lng": 115.704884
        },
        "ad_info": {
            "adcode": 441581,
            "province": "广东省",
            "city": "汕尾市",
            "district": "陆丰市"
        }
    },
    {
        "id": "501430071697497330",
        "title": "南洋村公共厕所",
        "address": "广东省汕尾市城区南洋村北门",
        "tel": "",
        "category": "基础设施:公共设施:公共厕所",
        "type": 0,
        "location": {
            "lat": 22.850617,
            "lng": 115.355573
        },
        "ad_info": {
            "adcode": 441502,
            "province": "广东省",
            "city": "汕尾市",
            "district": "城区"
        }
    },
    {
        "id": "7783074659139293296",
        "title": "公共厕所",
        "address": "广东省汕尾市城区东宫路与汕尾大道辅路交叉口正东方向215米左右",
        "tel": "",
        "category": "基础设施:公共设施:公共厕所",
        "type": 0,
        "location": {
            "lat": 22.858918,
            "lng": 115.349169
        },
        "ad_info": {
            "adcode": 441502,
            "province": "广东省",
            "city": "汕尾市",
            "district": "城区"
        }
    },
    {
        "id": "17540217497961303157",
        "title": "公共厕所",
        "address": "广东省汕尾市陆丰市南堤路与环城路交叉口正北方向92米左右",
        "tel": "",
        "category": "基础设施:公共设施:公共厕所",
        "type": 0,
        "location": {
            "lat": 22.937992,
            "lng": 115.64501
        },
        "ad_info": {
            "adcode": 441581,
            "province": "广东省",
            "city": "汕尾市",
            "district": "陆丰市"
        }
    },
    {
        "id": "14630155978723012720",
        "title": "公共厕所",
        "address": "广东省汕尾市陆丰市新厝仔八巷与新厝村八巷交叉口东南方向177米左右",
        "tel": "",
        "category": "基础设施:公共设施:公共厕所",
        "type": 0,
        "location": {
            "lat": 22.950875,
            "lng": 115.639602
        },
        "ad_info": {
            "adcode": 441581,
            "province": "广东省",
            "city": "汕尾市",
            "district": "陆丰市"
        }
    },
    {
        "id": "5548673086377499294",
        "title": "公共厕所",
        "address": "广东省汕尾市城区二马路109号",
        "tel": "",
        "category": "基础设施:公共设施:公共厕所",
        "type": 0,
        "location": {
            "lat": 22.763998,
            "lng": 115.365444
        },
        "ad_info": {
            "adcode": 441502,
            "province": "广东省",
            "city": "汕尾市",
            "district": "城区"
        }
    },
    {
        "id": "12223413649826936845",
        "title": "公共厕所",
        "address": "广东省汕尾市海丰县G228与汕尾大道北交叉口正南方向261米左右",
        "tel": "",
        "category": "基础设施:公共设施:公共厕所",
        "type": 0,
        "location": {
            "lat": 22.950153,
            "lng": 115.333909
        },
        "ad_info": {
            "adcode": 441521,
            "province": "广东省",
            "city": "汕尾市",
            "district": "海丰县"
        }
    },
    {
        "id": "9217646189656425868",
        "title": "洗手间",
        "address": "广东省汕尾市城区海滨大道与环湖路交叉口西北方向108米左右",
        "tel": "",
        "category": "基础设施:公共设施:公共厕所",
        "type": 0,
        "location": {
            "lat": 22.776192,
            "lng": 115.378217
        },
        "ad_info": {
            "adcode": 441502,
            "province": "广东省",
            "city": "汕尾市",
            "district": "城区"
        }
    },
    {
        "id": "9732410119403830457",
        "title": "港尾村公共厕所",
        "address": "广东省汕尾市海丰县G228与X121交叉口正西方向340米左右",
        "tel": "",
        "category": "基础设施:公共设施:公共厕所",
        "type": 0,
        "location": {
            "lat": 22.800377,
            "lng": 115.08191
        },
        "ad_info": {
            "adcode": 441521,
            "province": "广东省",
            "city": "汕尾市",
            "district": "海丰县"
        }
    },
    {
        "id": "3960973844056575993",
        "title": "公共厕所",
        "address": "广东省汕尾市城区东城大道与成业路交叉口正南方向194米左右",
        "tel": "",
        "category": "基础设施:公共设施:公共厕所",
        "type": 0,
        "location": {
            "lat": 22.78968,
            "lng": 115.401199
        },
        "ad_info": {
            "adcode": 441502,
            "province": "广东省",
            "city": "汕尾市",
            "district": "城区"
        }
    },
    {
        "id": "15689810111116225257",
        "title": "可塘服务区公共厕所",
        "address": "广东省汕尾市海丰县粤运能源广东交通集团可塘服务区加油站东南侧100米",
        "tel": "",
        "category": "基础设施:公共设施:公共厕所",
        "type": 0,
        "location": {
            "lat": 22.969768,
            "lng": 115.493239
        },
        "ad_info": {
            "adcode": 441521,
            "province": "广东省",
            "city": "汕尾市",
            "district": "海丰县"
        }
    },
    {
        "id": "13569176844516980941",
        "title": "公共厕所",
        "address": "广东省汕尾市陆丰市安泰二路与民安路交叉口正北方向114米左右",
        "tel": "",
        "category": "基础设施:公共设施:公共厕所",
        "type": 0,
        "location": {
            "lat": 22.946832,
            "lng": 115.668722
        },
        "ad_info": {
            "adcode": 441581,
            "province": "广东省",
            "city": "汕尾市",
            "district": "陆丰市"
        }
    },
    {
        "id": "10914472365128350052",
        "title": "公共厕所",
        "address": "广东省汕尾市海丰县Y205与南笏路交叉口正北方向1075米左右",
        "tel": "",
        "category": "基础设施:公共设施:公共厕所",
        "type": 0,
        "location": {
            "lat": 22.925313,
            "lng": 115.27387
        },
        "ad_info": {
            "adcode": 441521,
            "province": "广东省",
            "city": "汕尾市",
            "district": "海丰县"
        }
    },
    {
        "id": "18334334854526132661",
        "title": "文化广场公共厕所",
        "address": "广东省汕尾市海丰县Y377与新山中路交叉口东南方向503米左右",
        "tel": "",
        "category": "基础设施:公共设施:公共厕所",
        "type": 0,
        "location": {
            "lat": 22.928976,
            "lng": 115.3615
        },
        "ad_info": {
            "adcode": 441521,
            "province": "广东省",
            "city": "汕尾市",
            "district": "海丰县"
        }
    },
    {
        "id": "5983916688617617851",
        "title": "女洗手间(信利·城市广场)",
        "address": "广东省汕尾市城区香洲街道园林社区汕尾大道220号信利城市广场F4",
        "tel": "",
        "category": "基础设施:公共设施:公共厕所",
        "type": 0,
        "location": {
            "lat": 22.773851,
            "lng": 115.361995
        },
        "ad_info": {
            "adcode": 441502,
            "province": "广东省",
            "city": "汕尾市",
            "district": "城区"
        }
    },
    {
        "id": "2223640318261344535",
        "title": "公共厕所(汕尾市华侨管理区前海)",
        "address": "广东省汕尾市陆丰市华侨管理区前海综合市场内",
        "tel": "",
        "category": "基础设施:公共设施:公共厕所",
        "type": 0,
        "location": {
            "lat": 22.992377,
            "lng": 115.927351
        },
        "ad_info": {
            "adcode": 441581,
            "province": "广东省",
            "city": "汕尾市",
            "district": "陆丰市"
        }
    },
    {
        "id": "2082882415551540794",
        "title": "男士卫生间",
        "address": "广东省汕尾市海丰县海陆紫苏维埃政府展览馆西侧120米",
        "tel": "",
        "category": "基础设施:公共设施:公共厕所",
        "type": 0,
        "location": {
            "lat": 23.191217,
            "lng": 115.369371
        },
        "ad_info": {
            "adcode": 441521,
            "province": "广东省",
            "city": "汕尾市",
            "district": "海丰县"
        }
    },
    {
        "id": "4092663414382619931",
        "title": "公共厕所",
        "address": "广东省汕尾市陆丰市蔡氏宗祠东侧50米",
        "tel": "",
        "category": "基础设施:公共设施:公共厕所",
        "type": 0,
        "location": {
            "lat": 23.071205,
            "lng": 115.63801
        },
        "ad_info": {
            "adcode": 441581,
            "province": "广东省",
            "city": "汕尾市",
            "district": "陆丰市"
        }
    },
    {
        "id": "4332701431922677171",
        "title": "公共厕所",
        "address": "广东省汕尾市海丰县南雅路",
        "tel": "",
        "category": "基础设施:公共设施:公共厕所",
        "type": 0,
        "location": {
            "lat": 22.902018,
            "lng": 115.480131
        },
        "ad_info": {
            "adcode": 441521,
            "province": "广东省",
            "city": "汕尾市",
            "district": "海丰县"
        }
    },
    {
        "id": "10362044394314121370",
        "title": "公共厕所",
        "address": "广东省汕尾市海丰县Y211与科教大道交叉口正北方向1745米左右",
        "tel": "",
        "category": "基础设施:公共设施:公共厕所",
        "type": 0,
        "location": {
            "lat": 22.839731,
            "lng": 115.09016
        },
        "ad_info": {
            "adcode": 441521,
            "province": "广东省",
            "city": "汕尾市",
            "district": "海丰县"
        }
    },
    {
        "id": "6759360809405518473",
        "title": "公共厕所",
        "address": "广东省汕尾市陆丰市G228与Y509交叉口东北方向1002米左右",
        "tel": "",
        "category": "基础设施:公共设施:公共厕所",
        "type": 0,
        "location": {
            "lat": 22.882472,
            "lng": 115.704884
        },
        "ad_info": {
            "adcode": 441581,
            "province": "广东省",
            "city": "汕尾市",
            "district": "陆丰市"
        }
    },
    {
        "id": "501430071697497330",
        "title": "南洋村公共厕所",
        "address": "广东省汕尾市城区南洋村北门",
        "tel": "",
        "category": "基础设施:公共设施:公共厕所",
        "type": 0,
        "location": {
            "lat": 22.850617,
            "lng": 115.355573
        },
        "ad_info": {
            "adcode": 441502,
            "province": "广东省",
            "city": "汕尾市",
            "district": "城区"
        }
    },
    {
        "id": "7783074659139293296",
        "title": "公共厕所",
        "address": "广东省汕尾市城区东宫路与汕尾大道辅路交叉口正东方向215米左右",
        "tel": "",
        "category": "基础设施:公共设施:公共厕所",
        "type": 0,
        "location": {
            "lat": 22.858918,
            "lng": 115.349169
        },
        "ad_info": {
            "adcode": 441502,
            "province": "广东省",
            "city": "汕尾市",
            "district": "城区"
        }
    },
    {
        "id": "17540217497961303157",
        "title": "公共厕所",
        "address": "广东省汕尾市陆丰市南堤路与环城路交叉口正北方向92米左右",
        "tel": "",
        "category": "基础设施:公共设施:公共厕所",
        "type": 0,
        "location": {
            "lat": 22.937992,
            "lng": 115.64501
        },
        "ad_info": {
            "adcode": 441581,
            "province": "广东省",
            "city": "汕尾市",
            "district": "陆丰市"
        }
    },
    {
        "id": "14630155978723012720",
        "title": "公共厕所",
        "address": "广东省汕尾市陆丰市新厝仔八巷与新厝村八巷交叉口东南方向177米左右",
        "tel": "",
        "category": "基础设施:公共设施:公共厕所",
        "type": 0,
        "location": {
            "lat": 22.950875,
            "lng": 115.639602
        },
        "ad_info": {
            "adcode": 441581,
            "province": "广东省",
            "city": "汕尾市",
            "district": "陆丰市"
        }
    },
    {
        "id": "5548673086377499294",
        "title": "公共厕所",
        "address": "广东省汕尾市城区二马路109号",
        "tel": "",
        "category": "基础设施:公共设施:公共厕所",
        "type": 0,
        "location": {
            "lat": 22.763998,
            "lng": 115.365444
        },
        "ad_info": {
            "adcode": 441502,
            "province": "广东省",
            "city": "汕尾市",
            "district": "城区"
        }
    },
    {
        "id": "12223413649826936845",
        "title": "公共厕所",
        "address": "广东省汕尾市海丰县G228与汕尾大道北交叉口正南方向261米左右",
        "tel": "",
        "category": "基础设施:公共设施:公共厕所",
        "type": 0,
        "location": {
            "lat": 22.950153,
            "lng": 115.333909
        },
        "ad_info": {
            "adcode": 441521,
            "province": "广东省",
            "city": "汕尾市",
            "district": "海丰县"
        }
    },
    {
        "id": "9217646189656425868",
        "title": "洗手间",
        "address": "广东省汕尾市城区海滨大道与环湖路交叉口西北方向108米左右",
        "tel": "",
        "category": "基础设施:公共设施:公共厕所",
        "type": 0,
        "location": {
            "lat": 22.776192,
            "lng": 115.378217
        },
        "ad_info": {
            "adcode": 441502,
            "province": "广东省",
            "city": "汕尾市",
            "district": "城区"
        }
    },
    {
        "id": "9732410119403830457",
        "title": "港尾村公共厕所",
        "address": "广东省汕尾市海丰县G228与X121交叉口正西方向340米左右",
        "tel": "",
        "category": "基础设施:公共设施:公共厕所",
        "type": 0,
        "location": {
            "lat": 22.800377,
            "lng": 115.08191
        },
        "ad_info": {
            "adcode": 441521,
            "province": "广东省",
            "city": "汕尾市",
            "district": "海丰县"
        }
    },
    {
        "id": "3960973844056575993",
        "title": "公共厕所",
        "address": "广东省汕尾市城区东城大道与成业路交叉口正南方向194米左右",
        "tel": "",
        "category": "基础设施:公共设施:公共厕所",
        "type": 0,
        "location": {
            "lat": 22.78968,
            "lng": 115.401199
        },
        "ad_info": {
            "adcode": 441502,
            "province": "广东省",
            "city": "汕尾市",
            "district": "城区"
        }
    },
    {
        "id": "15689810111116225257",
        "title": "可塘服务区公共厕所",
        "address": "广东省汕尾市海丰县粤运能源广东交通集团可塘服务区加油站东南侧100米",
        "tel": "",
        "category": "基础设施:公共设施:公共厕所",
        "type": 0,
        "location": {
            "lat": 22.969768,
            "lng": 115.493239
        },
        "ad_info": {
            "adcode": 441521,
            "province": "广东省",
            "city": "汕尾市",
            "district": "海丰县"
        }
    },
    {
        "id": "13569176844516980941",
        "title": "公共厕所",
        "address": "广东省汕尾市陆丰市安泰二路与民安路交叉口正北方向114米左右",
        "tel": "",
        "category": "基础设施:公共设施:公共厕所",
        "type": 0,
        "location": {
            "lat": 22.946832,
            "lng": 115.668722
        },
        "ad_info": {
            "adcode": 441581,
            "province": "广东省",
            "city": "汕尾市",
            "district": "陆丰市"
        }
    },
    {
        "id": "10914472365128350052",
        "title": "公共厕所",
        "address": "广东省汕尾市海丰县Y205与南笏路交叉口正北方向1075米左右",
        "tel": "",
        "category": "基础设施:公共设施:公共厕所",
        "type": 0,
        "location": {
            "lat": 22.925313,
            "lng": 115.27387
        },
        "ad_info": {
            "adcode": 441521,
            "province": "广东省",
            "city": "汕尾市",
            "district": "海丰县"
        }
    },
    {
        "id": "18334334854526132661",
        "title": "文化广场公共厕所",
        "address": "广东省汕尾市海丰县Y377与新山中路交叉口东南方向503米左右",
        "tel": "",
        "category": "基础设施:公共设施:公共厕所",
        "type": 0,
        "location": {
            "lat": 22.928976,
            "lng": 115.3615
        },
        "ad_info": {
            "adcode": 441521,
            "province": "广东省",
            "city": "汕尾市",
            "district": "海丰县"
        }
    },
    {
        "id": "5983916688617617851",
        "title": "女洗手间(信利·城市广场)",
        "address": "广东省汕尾市城区香洲街道园林社区汕尾大道220号信利城市广场F4",
        "tel": "",
        "category": "基础设施:公共设施:公共厕所",
        "type": 0,
        "location": {
            "lat": 22.773851,
            "lng": 115.361995
        },
        "ad_info": {
            "adcode": 441502,
            "province": "广东省",
            "city": "汕尾市",
            "district": "城区"
        }
    },
    {
        "id": "2223640318261344535",
        "title": "公共厕所(汕尾市华侨管理区前海)",
        "address": "广东省汕尾市陆丰市华侨管理区前海综合市场内",
        "tel": "",
        "category": "基础设施:公共设施:公共厕所",
        "type": 0,
        "location": {
            "lat": 22.992377,
            "lng": 115.927351
        },
        "ad_info": {
            "adcode": 441581,
            "province": "广东省",
            "city": "汕尾市",
            "district": "陆丰市"
        }
    },
    {
        "id": "2082882415551540794",
        "title": "男士卫生间",
        "address": "广东省汕尾市海丰县海陆紫苏维埃政府展览馆西侧120米",
        "tel": "",
        "category": "基础设施:公共设施:公共厕所",
        "type": 0,
        "location": {
            "lat": 23.191217,
            "lng": 115.369371
        },
        "ad_info": {
            "adcode": 441521,
            "province": "广东省",
            "city": "汕尾市",
            "district": "海丰县"
        }
    },
    {
        "id": "4092663414382619931",
        "title": "公共厕所",
        "address": "广东省汕尾市陆丰市蔡氏宗祠东侧50米",
        "tel": "",
        "category": "基础设施:公共设施:公共厕所",
        "type": 0,
        "location": {
            "lat": 23.071205,
            "lng": 115.63801
        },
        "ad_info": {
            "adcode": 441581,
            "province": "广东省",
            "city": "汕尾市",
            "district": "陆丰市"
        }
    },
    {
        "id": "4332701431922677171",
        "title": "公共厕所",
        "address": "广东省汕尾市海丰县南雅路",
        "tel": "",
        "category": "基础设施:公共设施:公共厕所",
        "type": 0,
        "location": {
            "lat": 22.902018,
            "lng": 115.480131
        },
        "ad_info": {
            "adcode": 441521,
            "province": "广东省",
            "city": "汕尾市",
            "district": "海丰县"
        }
    },
    {
        "id": "10362044394314121370",
        "title": "公共厕所",
        "address": "广东省汕尾市海丰县Y211与科教大道交叉口正北方向1745米左右",
        "tel": "",
        "category": "基础设施:公共设施:公共厕所",
        "type": 0,
        "location": {
            "lat": 22.839731,
            "lng": 115.09016
        },
        "ad_info": {
            "adcode": 441521,
            "province": "广东省",
            "city": "汕尾市",
            "district": "海丰县"
        }
    },
    {
        "id": "6759360809405518473",
        "title": "公共厕所",
        "address": "广东省汕尾市陆丰市G228与Y509交叉口东北方向1002米左右",
        "tel": "",
        "category": "基础设施:公共设施:公共厕所",
        "type": 0,
        "location": {
            "lat": 22.882472,
            "lng": 115.704884
        },
        "ad_info": {
            "adcode": 441581,
            "province": "广东省",
            "city": "汕尾市",
            "district": "陆丰市"
        }
    },
    {
        "id": "501430071697497330",
        "title": "南洋村公共厕所",
        "address": "广东省汕尾市城区南洋村北门",
        "tel": "",
        "category": "基础设施:公共设施:公共厕所",
        "type": 0,
        "location": {
            "lat": 22.850617,
            "lng": 115.355573
        },
        "ad_info": {
            "adcode": 441502,
            "province": "广东省",
            "city": "汕尾市",
            "district": "城区"
        }
    },
    {
        "id": "7783074659139293296",
        "title": "公共厕所",
        "address": "广东省汕尾市城区东宫路与汕尾大道辅路交叉口正东方向215米左右",
        "tel": "",
        "category": "基础设施:公共设施:公共厕所",
        "type": 0,
        "location": {
            "lat": 22.858918,
            "lng": 115.349169
        },
        "ad_info": {
            "adcode": 441502,
            "province": "广东省",
            "city": "汕尾市",
            "district": "城区"
        }
    },
    {
        "id": "17540217497961303157",
        "title": "公共厕所",
        "address": "广东省汕尾市陆丰市南堤路与环城路交叉口正北方向92米左右",
        "tel": "",
        "category": "基础设施:公共设施:公共厕所",
        "type": 0,
        "location": {
            "lat": 22.937992,
            "lng": 115.64501
        },
        "ad_info": {
            "adcode": 441581,
            "province": "广东省",
            "city": "汕尾市",
            "district": "陆丰市"
        }
    },
    {
        "id": "14630155978723012720",
        "title": "公共厕所",
        "address": "广东省汕尾市陆丰市新厝仔八巷与新厝村八巷交叉口东南方向177米左右",
        "tel": "",
        "category": "基础设施:公共设施:公共厕所",
        "type": 0,
        "location": {
            "lat": 22.950875,
            "lng": 115.639602
        },
        "ad_info": {
            "adcode": 441581,
            "province": "广东省",
            "city": "汕尾市",
            "district": "陆丰市"
        }
    },
    {
        "id": "5548673086377499294",
        "title": "公共厕所",
        "address": "广东省汕尾市城区二马路109号",
        "tel": "",
        "category": "基础设施:公共设施:公共厕所",
        "type": 0,
        "location": {
            "lat": 22.763998,
            "lng": 115.365444
        },
        "ad_info": {
            "adcode": 441502,
            "province": "广东省",
            "city": "汕尾市",
            "district": "城区"
        }
    },
    {
        "id": "12223413649826936845",
        "title": "公共厕所",
        "address": "广东省汕尾市海丰县G228与汕尾大道北交叉口正南方向261米左右",
        "tel": "",
        "category": "基础设施:公共设施:公共厕所",
        "type": 0,
        "location": {
            "lat": 22.950153,
            "lng": 115.333909
        },
        "ad_info": {
            "adcode": 441521,
            "province": "广东省",
            "city": "汕尾市",
            "district": "海丰县"
        }
    },
    {
        "id": "9217646189656425868",
        "title": "洗手间",
        "address": "广东省汕尾市城区海滨大道与环湖路交叉口西北方向108米左右",
        "tel": "",
        "category": "基础设施:公共设施:公共厕所",
        "type": 0,
        "location": {
            "lat": 22.776192,
            "lng": 115.378217
        },
        "ad_info": {
            "adcode": 441502,
            "province": "广东省",
            "city": "汕尾市",
            "district": "城区"
        }
    },
    {
        "id": "9732410119403830457",
        "title": "港尾村公共厕所",
        "address": "广东省汕尾市海丰县G228与X121交叉口正西方向340米左右",
        "tel": "",
        "category": "基础设施:公共设施:公共厕所",
        "type": 0,
        "location": {
            "lat": 22.800377,
            "lng": 115.08191
        },
        "ad_info": {
            "adcode": 441521,
            "province": "广东省",
            "city": "汕尾市",
            "district": "海丰县"
        }
    },
    {
        "id": "3960973844056575993",
        "title": "公共厕所",
        "address": "广东省汕尾市城区东城大道与成业路交叉口正南方向194米左右",
        "tel": "",
        "category": "基础设施:公共设施:公共厕所",
        "type": 0,
        "location": {
            "lat": 22.78968,
            "lng": 115.401199
        },
        "ad_info": {
            "adcode": 441502,
            "province": "广东省",
            "city": "汕尾市",
            "district": "城区"
        }
    },
    {
        "id": "15689810111116225257",
        "title": "可塘服务区公共厕所",
        "address": "广东省汕尾市海丰县粤运能源广东交通集团可塘服务区加油站东南侧100米",
        "tel": "",
        "category": "基础设施:公共设施:公共厕所",
        "type": 0,
        "location": {
            "lat": 22.969768,
            "lng": 115.493239
        },
        "ad_info": {
            "adcode": 441521,
            "province": "广东省",
            "city": "汕尾市",
            "district": "海丰县"
        }
    },
    {
        "id": "13569176844516980941",
        "title": "公共厕所",
        "address": "广东省汕尾市陆丰市安泰二路与民安路交叉口正北方向114米左右",
        "tel": "",
        "category": "基础设施:公共设施:公共厕所",
        "type": 0,
        "location": {
            "lat": 22.946832,
            "lng": 115.668722
        },
        "ad_info": {
            "adcode": 441581,
            "province": "广东省",
            "city": "汕尾市",
            "district": "陆丰市"
        }
    },
    {
        "id": "10914472365128350052",
        "title": "公共厕所",
        "address": "广东省汕尾市海丰县Y205与南笏路交叉口正北方向1075米左右",
        "tel": "",
        "category": "基础设施:公共设施:公共厕所",
        "type": 0,
        "location": {
            "lat": 22.925313,
            "lng": 115.27387
        },
        "ad_info": {
            "adcode": 441521,
            "province": "广东省",
            "city": "汕尾市",
            "district": "海丰县"
        }
    },
    {
        "id": "18334334854526132661",
        "title": "文化广场公共厕所",
        "address": "广东省汕尾市海丰县Y377与新山中路交叉口东南方向503米左右",
        "tel": "",
        "category": "基础设施:公共设施:公共厕所",
        "type": 0,
        "location": {
            "lat": 22.928976,
            "lng": 115.3615
        },
        "ad_info": {
            "adcode": 441521,
            "province": "广东省",
            "city": "汕尾市",
            "district": "海丰县"
        }
    },
    {
        "id": "5983916688617617851",
        "title": "女洗手间(信利·城市广场)",
        "address": "广东省汕尾市城区香洲街道园林社区汕尾大道220号信利城市广场F4",
        "tel": "",
        "category": "基础设施:公共设施:公共厕所",
        "type": 0,
        "location": {
            "lat": 22.773851,
            "lng": 115.361995
        },
        "ad_info": {
            "adcode": 441502,
            "province": "广东省",
            "city": "汕尾市",
            "district": "城区"
        }
    },
    {
        "id": "2223640318261344535",
        "title": "公共厕所(汕尾市华侨管理区前海)",
        "address": "广东省汕尾市陆丰市华侨管理区前海综合市场内",
        "tel": "",
        "category": "基础设施:公共设施:公共厕所",
        "type": 0,
        "location": {
            "lat": 22.992377,
            "lng": 115.927351
        },
        "ad_info": {
            "adcode": 441581,
            "province": "广东省",
            "city": "汕尾市",
            "district": "陆丰市"
        }
    },
    {
        "id": "2082882415551540794",
        "title": "男士卫生间",
        "address": "广东省汕尾市海丰县海陆紫苏维埃政府展览馆西侧120米",
        "tel": "",
        "category": "基础设施:公共设施:公共厕所",
        "type": 0,
        "location": {
            "lat": 23.191217,
            "lng": 115.369371
        },
        "ad_info": {
            "adcode": 441521,
            "province": "广东省",
            "city": "汕尾市",
            "district": "海丰县"
        }
    },
    {
        "id": "4092663414382619931",
        "title": "公共厕所",
        "address": "广东省汕尾市陆丰市蔡氏宗祠东侧50米",
        "tel": "",
        "category": "基础设施:公共设施:公共厕所",
        "type": 0,
        "location": {
            "lat": 23.071205,
            "lng": 115.63801
        },
        "ad_info": {
            "adcode": 441581,
            "province": "广东省",
            "city": "汕尾市",
            "district": "陆丰市"
        }
    },
    {
        "id": "4332701431922677171",
        "title": "公共厕所",
        "address": "广东省汕尾市海丰县南雅路",
        "tel": "",
        "category": "基础设施:公共设施:公共厕所",
        "type": 0,
        "location": {
            "lat": 22.902018,
            "lng": 115.480131
        },
        "ad_info": {
            "adcode": 441521,
            "province": "广东省",
            "city": "汕尾市",
            "district": "海丰县"
        }
    },
    {
        "id": "10362044394314121370",
        "title": "公共厕所",
        "address": "广东省汕尾市海丰县Y211与科教大道交叉口正北方向1745米左右",
        "tel": "",
        "category": "基础设施:公共设施:公共厕所",
        "type": 0,
        "location": {
            "lat": 22.839731,
            "lng": 115.09016
        },
        "ad_info": {
            "adcode": 441521,
            "province": "广东省",
            "city": "汕尾市",
            "district": "海丰县"
        }
    },
    {
        "id": "6759360809405518473",
        "title": "公共厕所",
        "address": "广东省汕尾市陆丰市G228与Y509交叉口东北方向1002米左右",
        "tel": "",
        "category": "基础设施:公共设施:公共厕所",
        "type": 0,
        "location": {
            "lat": 22.882472,
            "lng": 115.704884
        },
        "ad_info": {
            "adcode": 441581,
            "province": "广东省",
            "city": "汕尾市",
            "district": "陆丰市"
        }
    },
    {
        "id": "501430071697497330",
        "title": "南洋村公共厕所",
        "address": "广东省汕尾市城区南洋村北门",
        "tel": "",
        "category": "基础设施:公共设施:公共厕所",
        "type": 0,
        "location": {
            "lat": 22.850617,
            "lng": 115.355573
        },
        "ad_info": {
            "adcode": 441502,
            "province": "广东省",
            "city": "汕尾市",
            "district": "城区"
        }
    },
    {
        "id": "7783074659139293296",
        "title": "公共厕所",
        "address": "广东省汕尾市城区东宫路与汕尾大道辅路交叉口正东方向215米左右",
        "tel": "",
        "category": "基础设施:公共设施:公共厕所",
        "type": 0,
        "location": {
            "lat": 22.858918,
            "lng": 115.349169
        },
        "ad_info": {
            "adcode": 441502,
            "province": "广东省",
            "city": "汕尾市",
            "district": "城区"
        }
    },
    {
        "id": "17540217497961303157",
        "title": "公共厕所",
        "address": "广东省汕尾市陆丰市南堤路与环城路交叉口正北方向92米左右",
        "tel": "",
        "category": "基础设施:公共设施:公共厕所",
        "type": 0,
        "location": {
            "lat": 22.937992,
            "lng": 115.64501
        },
        "ad_info": {
            "adcode": 441581,
            "province": "广东省",
            "city": "汕尾市",
            "district": "陆丰市"
        }
    },
    {
        "id": "14630155978723012720",
        "title": "公共厕所",
        "address": "广东省汕尾市陆丰市新厝仔八巷与新厝村八巷交叉口东南方向177米左右",
        "tel": "",
        "category": "基础设施:公共设施:公共厕所",
        "type": 0,
        "location": {
            "lat": 22.950875,
            "lng": 115.639602
        },
        "ad_info": {
            "adcode": 441581,
            "province": "广东省",
            "city": "汕尾市",
            "district": "陆丰市"
        }
    },
    {
        "id": "5548673086377499294",
        "title": "公共厕所",
        "address": "广东省汕尾市城区二马路109号",
        "tel": "",
        "category": "基础设施:公共设施:公共厕所",
        "type": 0,
        "location": {
            "lat": 22.763998,
            "lng": 115.365444
        },
        "ad_info": {
            "adcode": 441502,
            "province": "广东省",
            "city": "汕尾市",
            "district": "城区"
        }
    },
    {
        "id": "12223413649826936845",
        "title": "公共厕所",
        "address": "广东省汕尾市海丰县G228与汕尾大道北交叉口正南方向261米左右",
        "tel": "",
        "category": "基础设施:公共设施:公共厕所",
        "type": 0,
        "location": {
            "lat": 22.950153,
            "lng": 115.333909
        },
        "ad_info": {
            "adcode": 441521,
            "province": "广东省",
            "city": "汕尾市",
            "district": "海丰县"
        }
    },
    {
        "id": "9217646189656425868",
        "title": "洗手间",
        "address": "广东省汕尾市城区海滨大道与环湖路交叉口西北方向108米左右",
        "tel": "",
        "category": "基础设施:公共设施:公共厕所",
        "type": 0,
        "location": {
            "lat": 22.776192,
            "lng": 115.378217
        },
        "ad_info": {
            "adcode": 441502,
            "province": "广东省",
            "city": "汕尾市",
            "district": "城区"
        }
    },
    {
        "id": "9732410119403830457",
        "title": "港尾村公共厕所",
        "address": "广东省汕尾市海丰县G228与X121交叉口正西方向340米左右",
        "tel": "",
        "category": "基础设施:公共设施:公共厕所",
        "type": 0,
        "location": {
            "lat": 22.800377,
            "lng": 115.08191
        },
        "ad_info": {
            "adcode": 441521,
            "province": "广东省",
            "city": "汕尾市",
            "district": "海丰县"
        }
    },
    {
        "id": "3960973844056575993",
        "title": "公共厕所",
        "address": "广东省汕尾市城区东城大道与成业路交叉口正南方向194米左右",
        "tel": "",
        "category": "基础设施:公共设施:公共厕所",
        "type": 0,
        "location": {
            "lat": 22.78968,
            "lng": 115.401199
        },
        "ad_info": {
            "adcode": 441502,
            "province": "广东省",
            "city": "汕尾市",
            "district": "城区"
        }
    },
    {
        "id": "15689810111116225257",
        "title": "可塘服务区公共厕所",
        "address": "广东省汕尾市海丰县粤运能源广东交通集团可塘服务区加油站东南侧100米",
        "tel": "",
        "category": "基础设施:公共设施:公共厕所",
        "type": 0,
        "location": {
            "lat": 22.969768,
            "lng": 115.493239
        },
        "ad_info": {
            "adcode": 441521,
            "province": "广东省",
            "city": "汕尾市",
            "district": "海丰县"
        }
    },
    {
        "id": "13569176844516980941",
        "title": "公共厕所",
        "address": "广东省汕尾市陆丰市安泰二路与民安路交叉口正北方向114米左右",
        "tel": "",
        "category": "基础设施:公共设施:公共厕所",
        "type": 0,
        "location": {
            "lat": 22.946832,
            "lng": 115.668722
        },
        "ad_info": {
            "adcode": 441581,
            "province": "广东省",
            "city": "汕尾市",
            "district": "陆丰市"
        }
    },
    {
        "id": "10914472365128350052",
        "title": "公共厕所",
        "address": "广东省汕尾市海丰县Y205与南笏路交叉口正北方向1075米左右",
        "tel": "",
        "category": "基础设施:公共设施:公共厕所",
        "type": 0,
        "location": {
            "lat": 22.925313,
            "lng": 115.27387
        },
        "ad_info": {
            "adcode": 441521,
            "province": "广东省",
            "city": "汕尾市",
            "district": "海丰县"
        }
    },
    {
        "id": "18334334854526132661",
        "title": "文化广场公共厕所",
        "address": "广东省汕尾市海丰县Y377与新山中路交叉口东南方向503米左右",
        "tel": "",
        "category": "基础设施:公共设施:公共厕所",
        "type": 0,
        "location": {
            "lat": 22.928976,
            "lng": 115.3615
        },
        "ad_info": {
            "adcode": 441521,
            "province": "广东省",
            "city": "汕尾市",
            "district": "海丰县"
        }
    },
    {
        "id": "5983916688617617851",
        "title": "女洗手间(信利·城市广场)",
        "address": "广东省汕尾市城区香洲街道园林社区汕尾大道220号信利城市广场F4",
        "tel": "",
        "category": "基础设施:公共设施:公共厕所",
        "type": 0,
        "location": {
            "lat": 22.773851,
            "lng": 115.361995
        },
        "ad_info": {
            "adcode": 441502,
            "province": "广东省",
            "city": "汕尾市",
            "district": "城区"
        }
    },
    {
        "id": "2223640318261344535",
        "title": "公共厕所(汕尾市华侨管理区前海)",
        "address": "广东省汕尾市陆丰市华侨管理区前海综合市场内",
        "tel": "",
        "category": "基础设施:公共设施:公共厕所",
        "type": 0,
        "location": {
            "lat": 22.992377,
            "lng": 115.927351
        },
        "ad_info": {
            "adcode": 441581,
            "province": "广东省",
            "city": "汕尾市",
            "district": "陆丰市"
        }
    },
    {
        "id": "2082882415551540794",
        "title": "男士卫生间",
        "address": "广东省汕尾市海丰县海陆紫苏维埃政府展览馆西侧120米",
        "tel": "",
        "category": "基础设施:公共设施:公共厕所",
        "type": 0,
        "location": {
            "lat": 23.191217,
            "lng": 115.369371
        },
        "ad_info": {
            "adcode": 441521,
            "province": "广东省",
            "city": "汕尾市",
            "district": "海丰县"
        }
    },
    {
        "id": "4092663414382619931",
        "title": "公共厕所",
        "address": "广东省汕尾市陆丰市蔡氏宗祠东侧50米",
        "tel": "",
        "category": "基础设施:公共设施:公共厕所",
        "type": 0,
        "location": {
            "lat": 23.071205,
            "lng": 115.63801
        },
        "ad_info": {
            "adcode": 441581,
            "province": "广东省",
            "city": "汕尾市",
            "district": "陆丰市"
        }
    },
    {
        "id": "4332701431922677171",
        "title": "公共厕所",
        "address": "广东省汕尾市海丰县南雅路",
        "tel": "",
        "category": "基础设施:公共设施:公共厕所",
        "type": 0,
        "location": {
            "lat": 22.902018,
            "lng": 115.480131
        },
        "ad_info": {
            "adcode": 441521,
            "province": "广东省",
            "city": "汕尾市",
            "district": "海丰县"
        }
    },
    {
        "id": "10362044394314121370",
        "title": "公共厕所",
        "address": "广东省汕尾市海丰县Y211与科教大道交叉口正北方向1745米左右",
        "tel": "",
        "category": "基础设施:公共设施:公共厕所",
        "type": 0,
        "location": {
            "lat": 22.839731,
            "lng": 115.09016
        },
        "ad_info": {
            "adcode": 441521,
            "province": "广东省",
            "city": "汕尾市",
            "district": "海丰县"
        }
    },
    {
        "id": "6759360809405518473",
        "title": "公共厕所",
        "address": "广东省汕尾市陆丰市G228与Y509交叉口东北方向1002米左右",
        "tel": "",
        "category": "基础设施:公共设施:公共厕所",
        "type": 0,
        "location": {
            "lat": 22.882472,
            "lng": 115.704884
        },
        "ad_info": {
            "adcode": 441581,
            "province": "广东省",
            "city": "汕尾市",
            "district": "陆丰市"
        }
    },
    {
        "id": "501430071697497330",
        "title": "南洋村公共厕所",
        "address": "广东省汕尾市城区南洋村北门",
        "tel": "",
        "category": "基础设施:公共设施:公共厕所",
        "type": 0,
        "location": {
            "lat": 22.850617,
            "lng": 115.355573
        },
        "ad_info": {
            "adcode": 441502,
            "province": "广东省",
            "city": "汕尾市",
            "district": "城区"
        }
    },
    {
        "id": "7783074659139293296",
        "title": "公共厕所",
        "address": "广东省汕尾市城区东宫路与汕尾大道辅路交叉口正东方向215米左右",
        "tel": "",
        "category": "基础设施:公共设施:公共厕所",
        "type": 0,
        "location": {
            "lat": 22.858918,
            "lng": 115.349169
        },
        "ad_info": {
            "adcode": 441502,
            "province": "广东省",
            "city": "汕尾市",
            "district": "城区"
        }
    },
    {
        "id": "17540217497961303157",
        "title": "公共厕所",
        "address": "广东省汕尾市陆丰市南堤路与环城路交叉口正北方向92米左右",
        "tel": "",
        "category": "基础设施:公共设施:公共厕所",
        "type": 0,
        "location": {
            "lat": 22.937992,
            "lng": 115.64501
        },
        "ad_info": {
            "adcode": 441581,
            "province": "广东省",
            "city": "汕尾市",
            "district": "陆丰市"
        }
    },
    {
        "id": "14630155978723012720",
        "title": "公共厕所",
        "address": "广东省汕尾市陆丰市新厝仔八巷与新厝村八巷交叉口东南方向177米左右",
        "tel": "",
        "category": "基础设施:公共设施:公共厕所",
        "type": 0,
        "location": {
            "lat": 22.950875,
            "lng": 115.639602
        },
        "ad_info": {
            "adcode": 441581,
            "province": "广东省",
            "city": "汕尾市",
            "district": "陆丰市"
        }
    },
    {
        "id": "5548673086377499294",
        "title": "公共厕所",
        "address": "广东省汕尾市城区二马路109号",
        "tel": "",
        "category": "基础设施:公共设施:公共厕所",
        "type": 0,
        "location": {
            "lat": 22.763998,
            "lng": 115.365444
        },
        "ad_info": {
            "adcode": 441502,
            "province": "广东省",
            "city": "汕尾市",
            "district": "城区"
        }
    },
    {
        "id": "12223413649826936845",
        "title": "公共厕所",
        "address": "广东省汕尾市海丰县G228与汕尾大道北交叉口正南方向261米左右",
        "tel": "",
        "category": "基础设施:公共设施:公共厕所",
        "type": 0,
        "location": {
            "lat": 22.950153,
            "lng": 115.333909
        },
        "ad_info": {
            "adcode": 441521,
            "province": "广东省",
            "city": "汕尾市",
            "district": "海丰县"
        }
    },
    {
        "id": "9217646189656425868",
        "title": "洗手间",
        "address": "广东省汕尾市城区海滨大道与环湖路交叉口西北方向108米左右",
        "tel": "",
        "category": "基础设施:公共设施:公共厕所",
        "type": 0,
        "location": {
            "lat": 22.776192,
            "lng": 115.378217
        },
        "ad_info": {
            "adcode": 441502,
            "province": "广东省",
            "city": "汕尾市",
            "district": "城区"
        }
    },
    {
        "id": "9732410119403830457",
        "title": "港尾村公共厕所",
        "address": "广东省汕尾市海丰县G228与X121交叉口正西方向340米左右",
        "tel": "",
        "category": "基础设施:公共设施:公共厕所",
        "type": 0,
        "location": {
            "lat": 22.800377,
            "lng": 115.08191
        },
        "ad_info": {
            "adcode": 441521,
            "province": "广东省",
            "city": "汕尾市",
            "district": "海丰县"
        }
    },
    {
        "id": "3960973844056575993",
        "title": "公共厕所",
        "address": "广东省汕尾市城区东城大道与成业路交叉口正南方向194米左右",
        "tel": "",
        "category": "基础设施:公共设施:公共厕所",
        "type": 0,
        "location": {
            "lat": 22.78968,
            "lng": 115.401199
        },
        "ad_info": {
            "adcode": 441502,
            "province": "广东省",
            "city": "汕尾市",
            "district": "城区"
        }
    }
]