[
    {
        "id": "6105705316714551757",
        "title": "公共厕所",
        "address": "安徽省池州市贵池区蓉城路与青阳路交叉口正西方向102米左右",
        "tel": "",
        "category": "基础设施:公共设施:公共厕所",
        "type": 0,
        "location": {
            "lat": 30.667567,
            "lng": 117.484476
        },
        "ad_info": {
            "adcode": 341702,
            "province": "安徽省",
            "city": "池州市",
            "district": "贵池区"
        }
    },
    {
        "id": "10993643099284936653",
        "title": "公共厕所",
        "address": "安徽省池州市贵池区梅林路与梅街路交叉口正西方向150米左右",
        "tel": "",
        "category": "基础设施:公共设施:公共厕所",
        "type": 0,
        "location": {
            "lat": 30.686271,
            "lng": 117.568857
        },
        "ad_info": {
            "adcode": 341702,
            "province": "安徽省",
            "city": "池州市",
            "district": "贵池区"
        }
    },
    {
        "id": "14926938583111300250",
        "title": "公共厕所",
        "address": "安徽省池州市贵池区建设西路与虎泉路交叉口正西方向231米左右",
        "tel": "",
        "category": "基础设施:公共设施:公共厕所",
        "type": 0,
        "location": {
            "lat": 30.656911,
            "lng": 117.477248
        },
        "ad_info": {
            "adcode": 341702,
            "province": "安徽省",
            "city": "池州市",
            "district": "贵池区"
        }
    },
    {
        "id": "9548407364179958300",
        "title": "公共厕所",
        "address": "安徽省池州市贵池区同晖淘宝街与翠微西路交叉口正北方向106米左右",
        "tel": "",
        "category": "基础设施:公共设施:公共厕所",
        "type": 0,
        "location": {
            "lat": 30.650406,
            "lng": 117.486323
        },
        "ad_info": {
            "adcode": 341702,
            "province": "安徽省",
            "city": "池州市",
            "district": "贵池区"
        }
    },
    {
        "id": "11663027757090856690",
        "title": "公共厕所",
        "address": "安徽省池州市贵池区三元路与龙泉路交叉口东南方向170米左右",
        "tel": "",
        "category": "基础设施:公共设施:公共厕所",
        "type": 0,
        "location": {
            "lat": 30.627433,
            "lng": 117.490192
        },
        "ad_info": {
            "adcode": 341702,
            "province": "安徽省",
            "city": "池州市",
            "district": "贵池区"
        }
    },
    {
        "id": "4796717932636788632",
        "title": "公共厕所",
        "address": "安徽省池州市贵池区南阳路与双溪路交叉口西南方向159米左右",
        "tel": "",
        "category": "基础设施:公共设施:公共厕所",
        "type": 0,
        "location": {
            "lat": 30.622762,
            "lng": 117.51637
        },
        "ad_info": {
            "adcode": 341702,
            "province": "安徽省",
            "city": "池州市",
            "district": "贵池区"
        }
    },
    {
        "id": "7322984256326425716",
        "title": "公共厕所",
        "address": "安徽省池州市贵池区南湖路与秀山南路交叉口西南方向151米左右",
        "tel": "",
        "category": "基础设施:公共设施:公共厕所",
        "type": 0,
        "location": {
            "lat": 30.641995,
            "lng": 117.479163
        },
        "ad_info": {
            "adcode": 341702,
            "province": "安徽省",
            "city": "池州市",
            "district": "贵池区"
        }
    },
    {
        "id": "10089258215659844846",
        "title": "公共厕所",
        "address": "安徽省池州市贵池区文化商业街与新西街交叉口西南方向60米左右",
        "tel": "",
        "category": "基础设施:公共设施:公共厕所",
        "type": 0,
        "location": {
            "lat": 30.651699,
            "lng": 117.484582
        },
        "ad_info": {
            "adcode": 341702,
            "province": "安徽省",
            "city": "池州市",
            "district": "贵池区"
        }
    },
    {
        "id": "7141949896491206863",
        "title": "公共厕所",
        "address": "安徽省池州市贵池区翠屏路与金沙路交叉口东南方向138米左右",
        "tel": "",
        "category": "基础设施:公共设施:公共厕所",
        "type": 0,
        "location": {
            "lat": 30.640961,
            "lng": 117.53228
        },
        "ad_info": {
            "adcode": 341702,
            "province": "安徽省",
            "city": "池州市",
            "district": "贵池区"
        }
    },
    {
        "id": "12914230833715124703",
        "title": "公共厕所",
        "address": "安徽省池州市贵池区万罗山路与酉华路交叉口西南方向139米左右",
        "tel": "",
        "category": "基础设施:公共设施:公共厕所",
        "type": 0,
        "location": {
            "lat": 30.621683,
            "lng": 117.520248
        },
        "ad_info": {
            "adcode": 341702,
            "province": "安徽省",
            "city": "池州市",
            "district": "贵池区"
        }
    },
    {
        "id": "14519587033016086288",
        "title": "公共厕所",
        "address": "安徽省池州市贵池区秀山路500号",
        "tel": "",
        "category": "基础设施:公共设施:公共厕所",
        "type": 0,
        "location": {
            "lat": 30.651683,
            "lng": 117.481971
        },
        "ad_info": {
            "adcode": 341702,
            "province": "安徽省",
            "city": "池州市",
            "district": "贵池区"
        }
    },
    {
        "id": "18086322028640779346",
        "title": "公共厕所",
        "address": "安徽省池州市贵池区东湖中路与扬帆路交叉口正北方向195米左右",
        "tel": "",
        "category": "基础设施:公共设施:公共厕所",
        "type": 0,
        "location": {
            "lat": 30.670337,
            "lng": 117.495768
        },
        "ad_info": {
            "adcode": 341702,
            "province": "安徽省",
            "city": "池州市",
            "district": "贵池区"
        }
    },
    {
        "id": "9512502217800392215",
        "title": "公共厕所",
        "address": "安徽省池州市贵池区南湖路109号",
        "tel": "",
        "category": "基础设施:公共设施:公共厕所",
        "type": 0,
        "location": {
            "lat": 30.63816,
            "lng": 117.482282
        },
        "ad_info": {
            "adcode": 341702,
            "province": "安徽省",
            "city": "池州市",
            "district": "贵池区"
        }
    },
    {
        "id": "16925659077540850202",
        "title": "公共厕所",
        "address": "安徽省池州市贵池区石城大道与长江南路交叉口正东方向242米左右",
        "tel": "",
        "category": "基础设施:公共设施:公共厕所",
        "type": 0,
        "location": {
            "lat": 30.637705,
            "lng": 117.491389
        },
        "ad_info": {
            "adcode": 341702,
            "province": "安徽省",
            "city": "池州市",
            "district": "贵池区"
        }
    },
    {
        "id": "5323903680043947987",
        "title": "公共厕所",
        "address": "安徽省池州市贵池区和谐路与湖光路交叉口东北方向31米左右",
        "tel": "",
        "category": "基础设施:公共设施:公共厕所",
        "type": 0,
        "location": {
            "lat": 30.642871,
            "lng": 117.494445
        },
        "ad_info": {
            "adcode": 341702,
            "province": "安徽省",
            "city": "池州市",
            "district": "贵池区"
        }
    },
    {
        "id": "15405789704390853376",
        "title": "公共厕所",
        "address": "安徽省池州市贵池区红星路与齐山大道交叉口西北方向137米左右",
        "tel": "",
        "category": "基础设施:公共设施:公共厕所",
        "type": 0,
        "location": {
            "lat": 30.616374,
            "lng": 117.509856
        },
        "ad_info": {
            "adcode": 341702,
            "province": "安徽省",
            "city": "池州市",
            "district": "贵池区"
        }
    },
    {
        "id": "1620689966843541547",
        "title": "公共厕所",
        "address": "安徽省池州市贵池区万罗山路与永明路交叉口西南方向103米左右",
        "tel": "",
        "category": "基础设施:公共设施:公共厕所",
        "type": 0,
        "location": {
            "lat": 30.620013,
            "lng": 117.521362
        },
        "ad_info": {
            "adcode": 341702,
            "province": "安徽省",
            "city": "池州市",
            "district": "贵池区"
        }
    },
    {
        "id": "17944241132826339753",
        "title": "公共厕所",
        "address": "安徽省池州市贵池区百牙东路与罗城路交叉口正南方向62米左右",
        "tel": "",
        "category": "基础设施:公共设施:公共厕所",
        "type": 0,
        "location": {
            "lat": 30.664362,
            "lng": 117.498547
        },
        "ad_info": {
            "adcode": 341702,
            "province": "安徽省",
            "city": "池州市",
            "district": "贵池区"
        }
    },
    {
        "id": "3919999958553130143",
        "title": "公共厕所",
        "address": "安徽省池州市贵池区翠柏北路与蓉城路交叉口东南方向187米左右",
        "tel": "",
        "category": "基础设施:公共设施:公共厕所",
        "type": 0,
        "location": {
            "lat": 30.666958,
            "lng": 117.491901
        },
        "ad_info": {
            "adcode": 341702,
            "province": "安徽省",
            "city": "池州市",
            "district": "贵池区"
        }
    },
    {
        "id": "5621108406402746922",
        "title": "公共厕所",
        "address": "安徽省池州市贵池区人民路与梅龙路交叉口正西方向182米左右",
        "tel": "",
        "category": "基础设施:公共设施:公共厕所",
        "type": 0,
        "location": {
            "lat": 30.648975,
            "lng": 117.496049
        },
        "ad_info": {
            "adcode": 341702,
            "province": "安徽省",
            "city": "池州市",
            "district": "贵池区"
        }
    },
    {
        "id": "3047953141722795956",
        "title": "公共厕所",
        "address": "安徽省池州市贵池区县学巷48号",
        "tel": "",
        "category": "基础设施:公共设施:公共厕所",
        "type": 0,
        "location": {
            "lat": 30.651312,
            "lng": 117.488276
        },
        "ad_info": {
            "adcode": 341702,
            "province": "安徽省",
            "city": "池州市",
            "district": "贵池区"
        }
    },
    {
        "id": "16151971710126397482",
        "title": "公共厕所",
        "address": "安徽省池州市贵池区池阳路与长江中路交叉口正北方向58米左右",
        "tel": "",
        "category": "基础设施:公共设施:公共厕所",
        "type": 0,
        "location": {
            "lat": 30.657272,
            "lng": 117.48801
        },
        "ad_info": {
            "adcode": 341702,
            "province": "安徽省",
            "city": "池州市",
            "district": "贵池区"
        }
    },
    {
        "id": "1099185862452259942",
        "title": "公共厕所",
        "address": "安徽省池州市贵池区上海城B-168室",
        "tel": "",
        "category": "基础设施:公共设施:公共厕所",
        "type": 0,
        "location": {
            "lat": 30.620575,
            "lng": 117.516538
        },
        "ad_info": {
            "adcode": 341702,
            "province": "安徽省",
            "city": "池州市",
            "district": "贵池区"
        }
    },
    {
        "id": "5521846737298676384",
        "title": "公共厕所",
        "address": "安徽省池州市东至县万寿巷与南门岭路交叉口西南方向115米左右",
        "tel": "",
        "category": "基础设施:公共设施:公共厕所",
        "type": 0,
        "location": {
            "lat": 30.097643,
            "lng": 117.026661
        },
        "ad_info": {
            "adcode": 341721,
            "province": "安徽省",
            "city": "池州市",
            "district": "东至县"
        }
    },
    {
        "id": "10297791213713266482",
        "title": "公共厕所",
        "address": "安徽省池州市青阳县新区环路与福光大道交叉口正东方向212米左右",
        "tel": "",
        "category": "基础设施:公共设施:公共厕所",
        "type": 0,
        "location": {
            "lat": 30.54192,
            "lng": 117.791971
        },
        "ad_info": {
            "adcode": 341723,
            "province": "安徽省",
            "city": "池州市",
            "district": "青阳县"
        }
    },
    {
        "id": "16511551541375923218",
        "title": "公共厕所",
        "address": "安徽省池州市石台县秋浦西路30号",
        "tel": "",
        "category": "基础设施:公共设施:公共厕所",
        "type": 0,
        "location": {
            "lat": 30.208692,
            "lng": 117.481137
        },
        "ad_info": {
            "adcode": 341722,
            "province": "安徽省",
            "city": "池州市",
            "district": "石台县"
        }
    },
    {
        "id": "13370104958403589535",
        "title": "公共厕所",
        "address": "安徽省池州市贵池区同乐路与秋浦东路交叉口正西方向379米左右",
        "tel": "",
        "category": "基础设施:公共设施:公共厕所",
        "type": 0,
        "location": {
            "lat": 30.655028,
            "lng": 117.509604
        },
        "ad_info": {
            "adcode": 341702,
            "province": "安徽省",
            "city": "池州市",
            "district": "贵池区"
        }
    },
    {
        "id": "10026307849262982495",
        "title": "公共厕所",
        "address": "安徽省池州市贵池区建设中路66号",
        "tel": "",
        "category": "基础设施:公共设施:公共厕所",
        "type": 0,
        "location": {
            "lat": 30.661773,
            "lng": 117.489159
        },
        "ad_info": {
            "adcode": 341702,
            "province": "安徽省",
            "city": "池州市",
            "district": "贵池区"
        }
    },
    {
        "id": "259560065094879628",
        "title": "公共厕所",
        "address": "安徽省池州市贵池区九华山大道与人民路交叉口东北方向175米左右",
        "tel": "",
        "category": "基础设施:公共设施:公共厕所",
        "type": 0,
        "location": {
            "lat": 30.650204,
            "lng": 117.504176
        },
        "ad_info": {
            "adcode": 341702,
            "province": "安徽省",
            "city": "池州市",
            "district": "贵池区"
        }
    },
    {
        "id": "8028443068069210727",
        "title": "公共厕所",
        "address": "安徽省池州市贵池区府学巷与翠柏中路交叉口正南方向69米左右",
        "tel": "",
        "category": "基础设施:公共设施:公共厕所",
        "type": 0,
        "location": {
            "lat": 30.659631,
            "lng": 117.491094
        },
        "ad_info": {
            "adcode": 341702,
            "province": "安徽省",
            "city": "池州市",
            "district": "贵池区"
        }
    },
    {
        "id": "2800570047377511917",
        "title": "公共厕所",
        "address": "安徽省池州市东至县集贤西路1号",
        "tel": "",
        "category": "基础设施:公共设施:公共厕所",
        "type": 0,
        "location": {
            "lat": 30.117482,
            "lng": 117.02399
        },
        "ad_info": {
            "adcode": 341721,
            "province": "安徽省",
            "city": "池州市",
            "district": "东至县"
        }
    },
    {
        "id": "4870127825898556439",
        "title": "公共厕所",
        "address": "安徽省池州市贵池区杏村西街南1号楼",
        "tel": "",
        "category": "基础设施:公共设施:公共厕所",
        "type": 0,
        "location": {
            "lat": 30.651697,
            "lng": 117.487052
        },
        "ad_info": {
            "adcode": 341702,
            "province": "安徽省",
            "city": "池州市",
            "district": "贵池区"
        }
    },
    {
        "id": "2982187382332625175",
        "title": "公共厕所",
        "address": "安徽省池州市贵池区华山路与延河路交叉口西北方向445米左右",
        "tel": "",
        "category": "基础设施:公共设施:公共厕所",
        "type": 0,
        "location": {
            "lat": 30.756602,
            "lng": 117.623907
        },
        "ad_info": {
            "adcode": 341702,
            "province": "安徽省",
            "city": "池州市",
            "district": "贵池区"
        }
    },
    {
        "id": "4928113946728934878",
        "title": "公共厕所",
        "address": "安徽省池州市贵池区汇川巷与牌坊街交叉口西南方向20米左右",
        "tel": "",
        "category": "基础设施:公共设施:公共厕所",
        "type": 0,
        "location": {
            "lat": 30.655105,
            "lng": 117.490069
        },
        "ad_info": {
            "adcode": 341702,
            "province": "安徽省",
            "city": "池州市",
            "district": "贵池区"
        }
    },
    {
        "id": "5984270498445007722",
        "title": "公共厕所",
        "address": "安徽省池州市贵池区东流路与长江北路交叉口正北方向143米左右",
        "tel": "",
        "category": "基础设施:公共设施:公共厕所",
        "type": 0,
        "location": {
            "lat": 30.676468,
            "lng": 117.473585
        },
        "ad_info": {
            "adcode": 341702,
            "province": "安徽省",
            "city": "池州市",
            "district": "贵池区"
        }
    },
    {
        "id": "10054250624645037235",
        "title": "公共厕所",
        "address": "安徽省池州市贵池区百牙中路与翠柏中路交叉口正东方向138米左右",
        "tel": "",
        "category": "基础设施:公共设施:公共厕所",
        "type": 0,
        "location": {
            "lat": 30.664796,
            "lng": 117.492472
        },
        "ad_info": {
            "adcode": 341702,
            "province": "安徽省",
            "city": "池州市",
            "district": "贵池区"
        }
    },
    {
        "id": "12677245814920013495",
        "title": "公共厕所",
        "address": "安徽省池州市贵池区滨江大道与贵铜公路交叉口西北方向87米左右",
        "tel": "",
        "category": "基础设施:公共设施:公共厕所",
        "type": 0,
        "location": {
            "lat": 30.732206,
            "lng": 117.563252
        },
        "ad_info": {
            "adcode": 341702,
            "province": "安徽省",
            "city": "池州市",
            "district": "贵池区"
        }
    },
    {
        "id": "16535637755941832921",
        "title": "公共厕所",
        "address": "安徽省池州市青阳县新区环路与福光大道交叉口东北方向245米左右",
        "tel": "",
        "category": "基础设施:公共设施:公共厕所",
        "type": 0,
        "location": {
            "lat": 30.547195,
            "lng": 117.788594
        },
        "ad_info": {
            "adcode": 341723,
            "province": "安徽省",
            "city": "池州市",
            "district": "青阳县"
        }
    },
    {
        "id": "14770669160297404602",
        "title": "公共卫生间",
        "address": "安徽省池州市贵池区杏村东街与翠柏南路交叉口西南方向53米左右",
        "tel": "",
        "category": "基础设施:公共设施:公共厕所",
        "type": 0,
        "location": {
            "lat": 30.652302,
            "lng": 117.492209
        },
        "ad_info": {
            "adcode": 341702,
            "province": "安徽省",
            "city": "池州市",
            "district": "贵池区"
        }
    },
    {
        "id": "8628690047441108832",
        "title": "公共厕所",
        "address": "安徽省池州市贵池区G318(沪聂线)",
        "tel": "",
        "category": "基础设施:公共设施:公共厕所",
        "type": 0,
        "location": {
            "lat": 30.494622,
            "lng": 117.391937
        },
        "ad_info": {
            "adcode": 341702,
            "province": "安徽省",
            "city": "池州市",
            "district": "贵池区"
        }
    },
    {
        "id": "6670999069355554941",
        "title": "公共厕所",
        "address": "安徽省池州市贵池区九华巷与和平路交叉口东南方向34米左右",
        "tel": "",
        "category": "基础设施:公共设施:公共厕所",
        "type": 0,
        "location": {
            "lat": 30.652406,
            "lng": 117.491271
        },
        "ad_info": {
            "adcode": 341702,
            "province": "安徽省",
            "city": "池州市",
            "district": "贵池区"
        }
    },
    {
        "id": "9960422403723519064",
        "title": "公共厕所",
        "address": "安徽省池州市石台县怪潭景区售票处东北侧",
        "tel": "",
        "category": "基础设施:公共设施:公共厕所",
        "type": 0,
        "location": {
            "lat": 30.17184,
            "lng": 117.590168
        },
        "ad_info": {
            "adcode": 341722,
            "province": "安徽省",
            "city": "池州市",
            "district": "石台县"
        }
    },
    {
        "id": "14306560118627841995",
        "title": "公共厕所",
        "address": "安徽省池州市东至县尧南路与建设路交叉口西北方向210米左右",
        "tel": "",
        "category": "基础设施:公共设施:公共厕所",
        "type": 0,
        "location": {
            "lat": 30.094822,
            "lng": 117.020596
        },
        "ad_info": {
            "adcode": 341721,
            "province": "安徽省",
            "city": "池州市",
            "district": "东至县"
        }
    },
    {
        "id": "4553978865530248929",
        "title": "公共厕所",
        "address": "安徽省池州市东至县东流路与敬慈东路交叉口正南方向144米左右",
        "tel": "",
        "category": "基础设施:公共设施:公共厕所",
        "type": 0,
        "location": {
            "lat": 30.104786,
            "lng": 117.02998
        },
        "ad_info": {
            "adcode": 341721,
            "province": "安徽省",
            "city": "池州市",
            "district": "东至县"
        }
    },
    {
        "id": "4336171718498397945",
        "title": "公共厕所",
        "address": "安徽省池州市东至县尧城路与建德路交叉口东南方向36米左右",
        "tel": "",
        "category": "基础设施:公共设施:公共厕所",
        "type": 0,
        "location": {
            "lat": 30.097283,
            "lng": 117.018135
        },
        "ad_info": {
            "adcode": 341721,
            "province": "安徽省",
            "city": "池州市",
            "district": "东至县"
        }
    },
    {
        "id": "14637606442472873898",
        "title": "公共厕所",
        "address": "安徽省池州市贵池区G318与凤鸣大道交叉口正西方向1570米左右",
        "tel": "",
        "category": "基础设施:公共设施:公共厕所",
        "type": 0,
        "location": {
            "lat": 30.646883,
            "lng": 117.649692
        },
        "ad_info": {
            "adcode": 341702,
            "province": "安徽省",
            "city": "池州市",
            "district": "贵池区"
        }
    },
    {
        "id": "17119901801344359538",
        "title": "公共厕所",
        "address": "安徽省池州市贵池区G237与S221交叉口西北方向124米左右",
        "tel": "",
        "category": "基础设施:公共设施:公共厕所",
        "type": 0,
        "location": {
            "lat": 30.355876,
            "lng": 117.438238
        },
        "ad_info": {
            "adcode": 341702,
            "province": "安徽省",
            "city": "池州市",
            "district": "贵池区"
        }
    },
    {
        "id": "4528488065846884324",
        "title": "公共厕所",
        "address": "安徽省池州市贵池区唐田镇中国石油吴田加油站",
        "tel": "",
        "category": "基础设施:公共设施:公共厕所",
        "type": 0,
        "location": {
            "lat": 30.393134,
            "lng": 117.263398
        },
        "ad_info": {
            "adcode": 341702,
            "province": "安徽省",
            "city": "池州市",
            "district": "贵池区"
        }
    },
    {
        "id": "17807062978567211139",
        "title": "公共厕所",
        "address": "安徽省池州市东至县升金湖",
        "tel": "",
        "category": "基础设施:公共设施:公共厕所",
        "type": 0,
        "location": {
            "lat": 30.329739,
            "lng": 117.040925
        },
        "ad_info": {
            "adcode": 341721,
            "province": "安徽省",
            "city": "池州市",
            "district": "东至县"
        }
    },
    {
        "id": "12129738003545535592",
        "title": "公共厕所",
        "address": "安徽省池州市贵池区县学巷与杏村东街交叉口正北方向80米左右",
        "tel": "",
        "category": "基础设施:公共设施:公共厕所",
        "type": 0,
        "location": {
            "lat": 30.652649,
            "lng": 117.489314
        },
        "ad_info": {
            "adcode": 341702,
            "province": "安徽省",
            "city": "池州市",
            "district": "贵池区"
        }
    },
    {
        "id": "15431540449454996343",
        "title": "公共厕所",
        "address": "安徽省池州市贵池区G236与G237交叉口西南方向847米左右",
        "tel": "",
        "category": "基础设施:公共设施:公共厕所",
        "type": 0,
        "location": {
            "lat": 30.452901,
            "lng": 117.343949
        },
        "ad_info": {
            "adcode": 341702,
            "province": "安徽省",
            "city": "池州市",
            "district": "贵池区"
        }
    },
    {
        "id": "7535190454032882083",
        "title": "公共厕所",
        "address": "安徽省池州市贵池区221省道附近",
        "tel": "",
        "category": "基础设施:公共设施:公共厕所",
        "type": 0,
        "location": {
            "lat": 30.349971,
            "lng": 117.298433
        },
        "ad_info": {
            "adcode": 341702,
            "province": "安徽省",
            "city": "池州市",
            "district": "贵池区"
        }
    },
    {
        "id": "9351465043118666550",
        "title": "公共厕所",
        "address": "安徽省池州市石台县G530与S219交叉口西南方向494米左右",
        "tel": "",
        "category": "基础设施:公共设施:公共厕所",
        "type": 0,
        "location": {
            "lat": 30.301584,
            "lng": 117.850329
        },
        "ad_info": {
            "adcode": 341722,
            "province": "安徽省",
            "city": "池州市",
            "district": "石台县"
        }
    },
    {
        "id": "2142915121327573643",
        "title": "公共厕所",
        "address": "安徽省池州市青阳县五星路与木镇路交叉口正南方向86米左右",
        "tel": "",
        "category": "基础设施:公共设施:公共厕所",
        "type": 0,
        "location": {
            "lat": 30.63976,
            "lng": 117.869876
        },
        "ad_info": {
            "adcode": 341723,
            "province": "安徽省",
            "city": "池州市",
            "district": "青阳县"
        }
    },
    {
        "id": "14504423449720973339",
        "title": "公共厕所",
        "address": "安徽省池州市青阳县九子大道与滨湖西路交叉口西南方向130米左右",
        "tel": "",
        "category": "基础设施:公共设施:公共厕所",
        "type": 0,
        "location": {
            "lat": 30.629291,
            "lng": 117.858276
        },
        "ad_info": {
            "adcode": 341723,
            "province": "安徽省",
            "city": "池州市",
            "district": "青阳县"
        }
    },
    {
        "id": "2489075375034823829",
        "title": "公共厕所",
        "address": "安徽省池州市贵池区杏花园景区桃花岛憩园",
        "tel": "",
        "category": "基础设施:公共设施:公共厕所",
        "type": 0,
        "location": {
            "lat": 30.621819,
            "lng": 117.438107
        },
        "ad_info": {
            "adcode": 341702,
            "province": "安徽省",
            "city": "池州市",
            "district": "贵池区"
        }
    },
    {
        "id": "4693957870143352341",
        "title": "公共厕所",
        "address": "安徽省池州市贵池区寄隐路与罗冲路交叉口西南方向239米左右",
        "tel": "",
        "category": "基础设施:公共设施:公共厕所",
        "type": 0,
        "location": {
            "lat": 30.643046,
            "lng": 117.513228
        },
        "ad_info": {
            "adcode": 341702,
            "province": "安徽省",
            "city": "池州市",
            "district": "贵池区"
        }
    },
    {
        "id": "11940817672427306801",
        "title": "公共厕所",
        "address": "安徽省池州市东至县Y021与长江路交叉口西南方向114米左右",
        "tel": "",
        "category": "基础设施:公共设施:公共厕所",
        "type": 0,
        "location": {
            "lat": 30.404718,
            "lng": 116.99186
        },
        "ad_info": {
            "adcode": 341721,
            "province": "安徽省",
            "city": "池州市",
            "district": "东至县"
        }
    },
    {
        "id": "6117427428693940300",
        "title": "公共厕所",
        "address": "安徽省池州市石台县和平南路24号",
        "tel": "",
        "category": "基础设施:公共设施:公共厕所",
        "type": 0,
        "location": {
            "lat": 30.204528,
            "lng": 117.482599
        },
        "ad_info": {
            "adcode": 341722,
            "province": "安徽省",
            "city": "池州市",
            "district": "石台县"
        }
    },
    {
        "id": "7829731400076017334",
        "title": "旅游厕所",
        "address": "安徽省池州市贵池区杏花村大道与杜坞路交叉口东南方向258米左右",
        "tel": "",
        "category": "基础设施:公共设施:公共厕所",
        "type": 0,
        "location": {
            "lat": 30.641479,
            "lng": 117.472487
        },
        "ad_info": {
            "adcode": 341702,
            "province": "安徽省",
            "city": "池州市",
            "district": "贵池区"
        }
    },
    {
        "id": "11908422648905317694",
        "title": "公共厕所",
        "address": "安徽省池州市石台县S221与Y035交叉口西南方向868米左右",
        "tel": "",
        "category": "基础设施:公共设施:公共厕所",
        "type": 0,
        "location": {
            "lat": 30.278255,
            "lng": 117.420418
        },
        "ad_info": {
            "adcode": 341722,
            "province": "安徽省",
            "city": "池州市",
            "district": "石台县"
        }
    },
    {
        "id": "16644207341961640548",
        "title": "池州宾馆-洗手间",
        "address": "安徽省池州市贵池区翠微东路与翠微西路交叉口正北方向107米左右",
        "tel": "",
        "category": "基础设施:公共设施:公共厕所",
        "type": 0,
        "location": {
            "lat": 30.65042,
            "lng": 117.487865
        },
        "ad_info": {
            "adcode": 341702,
            "province": "安徽省",
            "city": "池州市",
            "district": "贵池区"
        }
    },
    {
        "id": "113176959880450442",
        "title": "男洗手间(商之都)",
        "address": "安徽省池州市贵池区长江中路与百牙中路交叉口商之都F4层",
        "tel": "",
        "category": "基础设施:公共设施:公共厕所",
        "type": 0,
        "location": {
            "lat": 30.662941,
            "lng": 117.483103
        },
        "ad_info": {
            "adcode": 341702,
            "province": "安徽省",
            "city": "池州市",
            "district": "贵池区"
        }
    },
    {
        "id": "6072563190696540767",
        "title": "公共厕所",
        "address": "安徽省池州市青阳县望池路1号",
        "tel": "",
        "category": "基础设施:公共设施:公共厕所",
        "type": 0,
        "location": {
            "lat": 30.625313,
            "lng": 117.854921
        },
        "ad_info": {
            "adcode": 341723,
            "province": "安徽省",
            "city": "池州市",
            "district": "青阳县"
        }
    },
    {
        "id": "16620201012896953219",
        "title": "公共厕所",
        "address": "安徽省池州市东至县尧北路与建设路交叉口东北方向38米左右",
        "tel": "",
        "category": "基础设施:公共设施:公共厕所",
        "type": 0,
        "location": {
            "lat": 30.099008,
            "lng": 117.026435
        },
        "ad_info": {
            "adcode": 341721,
            "province": "安徽省",
            "city": "池州市",
            "district": "东至县"
        }
    },
    {
        "id": "12817908589887763608",
        "title": "公共厕所",
        "address": "安徽省池州市东至县G236与X018交叉口东北方向1377米左右",
        "tel": "",
        "category": "基础设施:公共设施:公共厕所",
        "type": 0,
        "location": {
            "lat": 29.799278,
            "lng": 116.875509
        },
        "ad_info": {
            "adcode": 341721,
            "province": "安徽省",
            "city": "池州市",
            "district": "东至县"
        }
    },
    {
        "id": "12056303042231116750",
        "title": "公共厕所",
        "address": "安徽省池州市东至县环城西路与西湖路交叉口正东方向158米左右",
        "tel": "",
        "category": "基础设施:公共设施:公共厕所",
        "type": 0,
        "location": {
            "lat": 30.10604,
            "lng": 117.021336
        },
        "ad_info": {
            "adcode": 341721,
            "province": "安徽省",
            "city": "池州市",
            "district": "东至县"
        }
    },
    {
        "id": "12905187050277434227",
        "title": "公共厕所",
        "address": "安徽省池州市东至县G236与X020交叉口正南方向164米左右",
        "tel": "",
        "category": "基础设施:公共设施:公共厕所",
        "type": 0,
        "location": {
            "lat": 29.601695,
            "lng": 116.781811
        },
        "ad_info": {
            "adcode": 341721,
            "province": "安徽省",
            "city": "池州市",
            "district": "东至县"
        }
    },
    {
        "id": "12013031098451054710",
        "title": "公共厕所",
        "address": "安徽省池州市青阳县木镇路与蓉城南路交叉口西北方向101米左右",
        "tel": "",
        "category": "基础设施:公共设施:公共厕所",
        "type": 0,
        "location": {
            "lat": 30.636926,
            "lng": 117.858785
        },
        "ad_info": {
            "adcode": 341723,
            "province": "安徽省",
            "city": "池州市",
            "district": "青阳县"
        }
    },
    {
        "id": "1190536406922230591",
        "title": "公共厕所",
        "address": "安徽省池州市贵池区东湖中路池州开放大学",
        "tel": "",
        "category": "基础设施:公共设施:公共厕所",
        "type": 0,
        "location": {
            "lat": 30.655106,
            "lng": 117.495997
        },
        "ad_info": {
            "adcode": 341702,
            "province": "安徽省",
            "city": "池州市",
            "district": "贵池区"
        }
    },
    {
        "id": "6498764013585336170",
        "title": "公共厕所",
        "address": "安徽省池州市青阳县杜村乡宗文村河滩中心村",
        "tel": "",
        "category": "基础设施:公共设施:公共厕所",
        "type": 0,
        "location": {
            "lat": 30.539948,
            "lng": 117.714122
        },
        "ad_info": {
            "adcode": 341723,
            "province": "安徽省",
            "city": "池州市",
            "district": "青阳县"
        }
    },
    {
        "id": "10095741741124192704",
        "title": "公共厕所",
        "address": "安徽省池州市青阳县石山胖子便民店南侧290米",
        "tel": "",
        "category": "基础设施:公共设施:公共厕所",
        "type": 0,
        "location": {
            "lat": 30.549987,
            "lng": 117.738775
        },
        "ad_info": {
            "adcode": 341723,
            "province": "安徽省",
            "city": "池州市",
            "district": "青阳县"
        }
    },
    {
        "id": "2895027074065699543",
        "title": "昭明公共厕所",
        "address": "安徽省池州市贵池区建设西路758号",
        "tel": "",
        "category": "基础设施:公共设施:公共厕所",
        "type": 0,
        "location": {
            "lat": 30.659038,
            "lng": 117.468185
        },
        "ad_info": {
            "adcode": 341702,
            "province": "安徽省",
            "city": "池州市",
            "district": "贵池区"
        }
    },
    {
        "id": "13140180324217339973",
        "title": "公共厕所(沙堤)",
        "address": "安徽省池州市青阳县330国道35号",
        "tel": "",
        "category": "基础设施:公共设施:公共厕所",
        "type": 0,
        "location": {
            "lat": 30.398686,
            "lng": 117.910347
        },
        "ad_info": {
            "adcode": 341723,
            "province": "安徽省",
            "city": "池州市",
            "district": "青阳县"
        }
    },
    {
        "id": "16019689139071990294",
        "title": "公共厕所",
        "address": "安徽省池州市青阳县九华东路与天柱北路交叉口正北方向132米左右",
        "tel": "",
        "category": "基础设施:公共设施:公共厕所",
        "type": 0,
        "location": {
            "lat": 30.642699,
            "lng": 117.86628
        },
        "ad_info": {
            "adcode": 341723,
            "province": "安徽省",
            "city": "池州市",
            "district": "青阳县"
        }
    },
    {
        "id": "8174585050541773063",
        "title": "公共卫生间",
        "address": "安徽省池州市青阳县Y046",
        "tel": "",
        "category": "基础设施:公共设施:公共厕所",
        "type": 0,
        "location": {
            "lat": 30.380817,
            "lng": 117.827127
        },
        "ad_info": {
            "adcode": 341723,
            "province": "安徽省",
            "city": "池州市",
            "district": "青阳县"
        }
    },
    {
        "id": "4598649119475861386",
        "title": "公共厕所",
        "address": "安徽省池州市青阳县园林路与庙前路交叉口东北方向117米左右",
        "tel": "",
        "category": "基础设施:公共设施:公共厕所",
        "type": 0,
        "location": {
            "lat": 30.63807,
            "lng": 117.848685
        },
        "ad_info": {
            "adcode": 341723,
            "province": "安徽省",
            "city": "池州市",
            "district": "青阳县"
        }
    },
    {
        "id": "9425806369246508305",
        "title": "公共厕所",
        "address": "安徽省池州市青阳县X029与Y023交叉口正南方向173米左右",
        "tel": "",
        "category": "基础设施:公共设施:公共厕所",
        "type": 0,
        "location": {
            "lat": 30.546189,
            "lng": 117.876352
        },
        "ad_info": {
            "adcode": 341723,
            "province": "安徽省",
            "city": "池州市",
            "district": "青阳县"
        }
    },
    {
        "id": "9249060526156212365",
        "title": "公共厕所(农耕广场)",
        "address": "安徽省池州市青阳县杜村乡宗文村晚口中心村农耕广场",
        "tel": "",
        "category": "基础设施:公共设施:公共厕所",
        "type": 0,
        "location": {
            "lat": 30.549882,
            "lng": 117.717577
        },
        "ad_info": {
            "adcode": 341723,
            "province": "安徽省",
            "city": "池州市",
            "district": "青阳县"
        }
    },
    {
        "id": "12909150712785377958",
        "title": "公共厕所",
        "address": "安徽省池州市青阳县佛光大道与孝贤路交叉口东南方向62米左右",
        "tel": "",
        "category": "基础设施:公共设施:公共厕所",
        "type": 0,
        "location": {
            "lat": 30.55443,
            "lng": 117.783547
        },
        "ad_info": {
            "adcode": 341723,
            "province": "安徽省",
            "city": "池州市",
            "district": "青阳县"
        }
    },
    {
        "id": "9665469526295442037",
        "title": "公共厕所",
        "address": "安徽省池州市青阳县040乡道附近",
        "tel": "",
        "category": "基础设施:公共设施:公共厕所",
        "type": 0,
        "location": {
            "lat": 30.502428,
            "lng": 117.759979
        },
        "ad_info": {
            "adcode": 341723,
            "province": "安徽省",
            "city": "池州市",
            "district": "青阳县"
        }
    },
    {
        "id": "13207967441076628217",
        "title": "公共厕所",
        "address": "安徽省池州市青阳县G318与Y008交叉口正南方向1573米左右",
        "tel": "",
        "category": "基础设施:公共设施:公共厕所",
        "type": 0,
        "location": {
            "lat": 30.690648,
            "lng": 118.023146
        },
        "ad_info": {
            "adcode": 341723,
            "province": "安徽省",
            "city": "池州市",
            "district": "青阳县"
        }
    },
    {
        "id": "8939126728487772155",
        "title": "公共厕所",
        "address": "安徽省池州市青阳县G330与S219交叉口西北方向556米左右",
        "tel": "",
        "category": "基础设施:公共设施:公共厕所",
        "type": 0,
        "location": {
            "lat": 30.391183,
            "lng": 117.914284
        },
        "ad_info": {
            "adcode": 341723,
            "province": "安徽省",
            "city": "池州市",
            "district": "青阳县"
        }
    },
    {
        "id": "14662599983218526807",
        "title": "公共厕所",
        "address": "安徽省池州市青阳县九华东路297号",
        "tel": "",
        "category": "基础设施:公共设施:公共厕所",
        "type": 0,
        "location": {
            "lat": 30.641246,
            "lng": 117.866501
        },
        "ad_info": {
            "adcode": 341723,
            "province": "安徽省",
            "city": "池州市",
            "district": "青阳县"
        }
    },
    {
        "id": "2498204891037356712",
        "title": "公共厕所",
        "address": "安徽省池州市东至县四马路与西马路交叉口正北方向164米左右",
        "tel": "",
        "category": "基础设施:公共设施:公共厕所",
        "type": 0,
        "location": {
            "lat": 30.48569,
            "lng": 117.050398
        },
        "ad_info": {
            "adcode": 341721,
            "province": "安徽省",
            "city": "池州市",
            "district": "东至县"
        }
    },
    {
        "id": "2290423260662345844",
        "title": "公共厕所",
        "address": "安徽省池州市青阳县仰辰路与木镇路交叉口东北方向61米左右",
        "tel": "",
        "category": "基础设施:公共设施:公共厕所",
        "type": 0,
        "location": {
            "lat": 30.638958,
            "lng": 117.866708
        },
        "ad_info": {
            "adcode": 341723,
            "province": "安徽省",
            "city": "池州市",
            "district": "青阳县"
        }
    },
    {
        "id": "7330789218592681910",
        "title": "公共厕所(徐村)",
        "address": "安徽省池州市青阳县",
        "tel": "",
        "category": "基础设施:公共设施:公共厕所",
        "type": 0,
        "location": {
            "lat": 30.486012,
            "lng": 117.911539
        },
        "ad_info": {
            "adcode": 341723,
            "province": "安徽省",
            "city": "池州市",
            "district": "青阳县"
        }
    },
    {
        "id": "13793655598678431725",
        "title": "公共厕所",
        "address": "安徽省池州市青阳县G330与木瓜山路交叉口东北方向1462米左右",
        "tel": "",
        "category": "基础设施:公共设施:公共厕所",
        "type": 0,
        "location": {
            "lat": 30.708472,
            "lng": 117.935595
        },
        "ad_info": {
            "adcode": 341723,
            "province": "安徽省",
            "city": "池州市",
            "district": "青阳县"
        }
    },
    {
        "id": "16670376943954941510",
        "title": "黄崖农家乐-公共厕所",
        "address": "安徽省池州市石台县",
        "tel": "",
        "category": "基础设施:公共设施:公共厕所",
        "type": 0,
        "location": {
            "lat": 30.248579,
            "lng": 117.519872
        },
        "ad_info": {
            "adcode": 341722,
            "province": "安徽省",
            "city": "池州市",
            "district": "石台县"
        }
    },
    {
        "id": "5692668292878886746",
        "title": "石台大峡谷漂流-公共厕所",
        "address": "安徽省池州市石台县S221",
        "tel": "",
        "category": "基础设施:公共设施:公共厕所",
        "type": 0,
        "location": {
            "lat": 30.283417,
            "lng": 117.450437
        },
        "ad_info": {
            "adcode": 341722,
            "province": "安徽省",
            "city": "池州市",
            "district": "石台县"
        }
    },
    {
        "id": "12278714685757798324",
        "title": "公共厕所",
        "address": "安徽省池州市东至县S234与香樟路交叉口东北方向1129米左右",
        "tel": "",
        "category": "基础设施:公共设施:公共厕所",
        "type": 0,
        "location": {
            "lat": 30.272061,
            "lng": 117.075561
        },
        "ad_info": {
            "adcode": 341721,
            "province": "安徽省",
            "city": "池州市",
            "district": "东至县"
        }
    },
    {
        "id": "2034493324101560164",
        "title": "牛头山服务区公共厕所",
        "address": "安徽省池州市贵池区G237与黄湓东路交叉口正南方向254米左右",
        "tel": "",
        "category": "基础设施:公共设施:公共厕所",
        "type": 0,
        "location": {
            "lat": 30.496425,
            "lng": 117.275804
        },
        "ad_info": {
            "adcode": 341702,
            "province": "安徽省",
            "city": "池州市",
            "district": "贵池区"
        }
    },
    {
        "id": "13231095444307980868",
        "title": "慈云古洞风景区-公共厕所",
        "address": "安徽省池州市石台县",
        "tel": "",
        "category": "基础设施:公共设施:公共厕所",
        "type": 0,
        "location": {
            "lat": 30.24457,
            "lng": 117.518863
        },
        "ad_info": {
            "adcode": 341722,
            "province": "安徽省",
            "city": "池州市",
            "district": "石台县"
        }
    },
    {
        "id": "7919088349521340443",
        "title": "格林豪泰酒店(石台金钱山店)公共厕所",
        "address": "安徽省池州市石台县格林豪泰(石台金钱山店)酒店一层",
        "tel": "",
        "category": "基础设施:公共设施:公共厕所",
        "type": 0,
        "location": {
            "lat": 30.215912,
            "lng": 117.508296
        },
        "ad_info": {
            "adcode": 341722,
            "province": "安徽省",
            "city": "池州市",
            "district": "石台县"
        }
    },
    {
        "id": "14918701487590830484",
        "title": "牛头山服务区公共厕所",
        "address": "安徽省池州市贵池区长林路与黄湓东路交叉口正南方向565米左右",
        "tel": "",
        "category": "基础设施:公共设施:公共厕所",
        "type": 0,
        "location": {
            "lat": 30.493532,
            "lng": 117.275053
        },
        "ad_info": {
            "adcode": 341702,
            "province": "安徽省",
            "city": "池州市",
            "district": "贵池区"
        }
    },
    {
        "id": "7272100524857607212",
        "title": "香隅服务区公共厕所",
        "address": "安徽省池州市东至县彭湖高速香隅服务区",
        "tel": "",
        "category": "基础设施:公共设施:公共厕所",
        "type": 0,
        "location": {
            "lat": 30.012624,
            "lng": 116.805036
        },
        "ad_info": {
            "adcode": 341721,
            "province": "安徽省",
            "city": "池州市",
            "district": "东至县"
        }
    },
    {
        "id": "9414823964604708930",
        "title": "公共厕所",
        "address": "安徽省池州市青阳县宝灵路与富阳北路交叉口东北方向91米左右",
        "tel": "",
        "category": "基础设施:公共设施:公共厕所",
        "type": 0,
        "location": {
            "lat": 30.636541,
            "lng": 117.86435
        },
        "ad_info": {
            "adcode": 341723,
            "province": "安徽省",
            "city": "池州市",
            "district": "青阳县"
        }
    },
    {
        "id": "10186951153717595717",
        "title": "殷家汇服务区公共厕所",
        "address": "安徽省池州市贵池区G0321德上高速与殷家汇服务区交叉口北420米",
        "tel": "",
        "category": "基础设施:公共设施:公共厕所",
        "type": 0,
        "location": {
            "lat": 30.420109,
            "lng": 117.375813
        },
        "ad_info": {
            "adcode": 341702,
            "province": "安徽省",
            "city": "池州市",
            "district": "贵池区"
        }
    },
    {
        "id": "1981547656350847430",
        "title": "殷家汇服务区公共厕所",
        "address": "安徽省池州市贵池区G0321德上高速与殷家汇服务区交叉口西北360米",
        "tel": "",
        "category": "基础设施:公共设施:公共厕所",
        "type": 0,
        "location": {
            "lat": 30.419234,
            "lng": 117.373594
        },
        "ad_info": {
            "adcode": 341702,
            "province": "安徽省",
            "city": "池州市",
            "district": "贵池区"
        }
    },
    {
        "id": "13683405060073216092",
        "title": "马衙服务区公共厕所",
        "address": "安徽省池州市贵池区学院路与牧之路交叉口正东方向1187米左右",
        "tel": "",
        "category": "基础设施:公共设施:公共厕所",
        "type": 0,
        "location": {
            "lat": 30.646921,
            "lng": 117.589799
        },
        "ad_info": {
            "adcode": 341702,
            "province": "安徽省",
            "city": "池州市",
            "district": "贵池区"
        }
    },
    {
        "id": "2699212175814969023",
        "title": "洋湖镇改厕服务站",
        "address": "安徽省池州市东至县G530与S324交叉口东南方向162米左右",
        "tel": "",
        "category": "基础设施:公共设施:公共厕所",
        "type": 0,
        "location": {
            "lat": 30.17426,
            "lng": 117.177344
        },
        "ad_info": {
            "adcode": 341721,
            "province": "安徽省",
            "city": "池州市",
            "district": "东至县"
        }
    },
    {
        "id": "9051158309112033424",
        "title": "公共厕所",
        "address": "安徽省池州市青阳县",
        "tel": "",
        "category": "基础设施:公共设施:公共厕所",
        "type": 0,
        "location": {
            "lat": 30.746232,
            "lng": 117.856961
        },
        "ad_info": {
            "adcode": 341723,
            "province": "安徽省",
            "city": "池州市",
            "district": "青阳县"
        }
    },
    {
        "id": "10674046618575473882",
        "title": "升金湖服务区公共厕所",
        "address": "安徽省池州市东至县升金湖服务区与S27安东高速交叉口北480米",
        "tel": "",
        "category": "基础设施:公共设施:公共厕所",
        "type": 0,
        "location": {
            "lat": 30.346273,
            "lng": 116.96695
        },
        "ad_info": {
            "adcode": 341721,
            "province": "安徽省",
            "city": "池州市",
            "district": "东至县"
        }
    },
    {
        "id": "15117400928272944807",
        "title": "马衙服务区公共厕所",
        "address": "安徽省池州市贵池区学院路与牧之路交叉口正东方向1232米左右",
        "tel": "",
        "category": "基础设施:公共设施:公共厕所",
        "type": 0,
        "location": {
            "lat": 30.647143,
            "lng": 117.590269
        },
        "ad_info": {
            "adcode": 341702,
            "province": "安徽省",
            "city": "池州市",
            "district": "贵池区"
        }
    },
    {
        "id": "13692169825642791822",
        "title": "马衙服务区公共厕所",
        "address": "安徽省池州市贵池区G50沪渝高速与马衙服务区交叉口东北420米",
        "tel": "",
        "category": "基础设施:公共设施:公共厕所",
        "type": 0,
        "location": {
            "lat": 30.649168,
            "lng": 117.588341
        },
        "ad_info": {
            "adcode": 341702,
            "province": "安徽省",
            "city": "池州市",
            "district": "贵池区"
        }
    },
    {
        "id": "5893236840495564649",
        "title": "公共厕所",
        "address": "安徽省池州市青阳县G318",
        "tel": "",
        "category": "基础设施:公共设施:公共厕所",
        "type": 0,
        "location": {
            "lat": 30.698046,
            "lng": 118.090022
        },
        "ad_info": {
            "adcode": 341723,
            "province": "安徽省",
            "city": "池州市",
            "district": "青阳县"
        }
    },
    {
        "id": "14307359496374148610",
        "title": "公共厕所",
        "address": "安徽省池州市青阳县G330与Y029交叉口正北方向87米左右",
        "tel": "",
        "category": "基础设施:公共设施:公共厕所",
        "type": 0,
        "location": {
            "lat": 30.426012,
            "lng": 117.903149
        },
        "ad_info": {
            "adcode": 341723,
            "province": "安徽省",
            "city": "池州市",
            "district": "青阳县"
        }
    },
    {
        "id": "6130163767208924118",
        "title": "百花旅游厕所",
        "address": "安徽省池州市青阳县Y020与青陵公路交叉口西北方向42米左右",
        "tel": "",
        "category": "基础设施:公共设施:公共厕所",
        "type": 0,
        "location": {
            "lat": 30.574046,
            "lng": 117.858128
        },
        "ad_info": {
            "adcode": 341723,
            "province": "安徽省",
            "city": "池州市",
            "district": "青阳县"
        }
    },
    {
        "id": "1797010006208361575",
        "title": "旅游公厕",
        "address": "安徽省池州市青阳县G318",
        "tel": "",
        "category": "基础设施:公共设施:公共厕所",
        "type": 0,
        "location": {
            "lat": 30.705667,
            "lng": 118.099548
        },
        "ad_info": {
            "adcode": 341723,
            "province": "安徽省",
            "city": "池州市",
            "district": "青阳县"
        }
    },
    {
        "id": "6130175675238757387",
        "title": "金家冲旅游厕所",
        "address": "安徽省池州市青阳县Y020与青陵公路交叉口正北方向38米左右",
        "tel": "",
        "category": "基础设施:公共设施:公共厕所",
        "type": 0,
        "location": {
            "lat": 30.574126,
            "lng": 117.85833
        },
        "ad_info": {
            "adcode": 341723,
            "province": "安徽省",
            "city": "池州市",
            "district": "青阳县"
        }
    },
    {
        "id": "14097328319083656653",
        "title": "九华奇缘探险漂流景区-公共厕所",
        "address": "安徽省池州市青阳县杜长路",
        "tel": "",
        "category": "基础设施:公共设施:公共厕所",
        "type": 0,
        "location": {
            "lat": 30.48949,
            "lng": 117.761335
        },
        "ad_info": {
            "adcode": 341723,
            "province": "安徽省",
            "city": "池州市",
            "district": "青阳县"
        }
    },
    {
        "id": "10225162920732235170",
        "title": "九华山远航精品酒店洗手间",
        "address": "安徽省池州市青阳县九华山风景区柯村新区",
        "tel": "",
        "category": "基础设施:公共设施:公共厕所",
        "type": 0,
        "location": {
            "lat": 30.547387,
            "lng": 117.798857
        },
        "ad_info": {
            "adcode": 341723,
            "province": "安徽省",
            "city": "池州市",
            "district": "青阳县"
        }
    },
    {
        "id": "18058610030723089167",
        "title": "仙寓山风景区-公共厕所",
        "address": "安徽省池州市石台县滨河大道与迎宾路交叉口正西方向373米左右",
        "tel": "",
        "category": "基础设施:公共设施:公共厕所",
        "type": 0,
        "location": {
            "lat": 30.209892,
            "lng": 117.495232
        },
        "ad_info": {
            "adcode": 341722,
            "province": "安徽省",
            "city": "池州市",
            "district": "石台县"
        }
    },
    {
        "id": "2072335158711679585",
        "title": "无障碍旅游公共厕所",
        "address": "安徽省池州市青阳县杨田镇黄泥小学东侧80米",
        "tel": "",
        "category": "基础设施:公共设施:公共厕所",
        "type": 0,
        "location": {
            "lat": 30.578287,
            "lng": 117.917232
        },
        "ad_info": {
            "adcode": 341723,
            "province": "安徽省",
            "city": "池州市",
            "district": "青阳县"
        }
    },
    {
        "id": "7240966011818171229",
        "title": "九华山服务区第二公共厕所",
        "address": "安徽省池州市青阳县G330与Y027交叉口正北方向1118米左右",
        "tel": "",
        "category": "基础设施:公共设施:公共厕所",
        "type": 0,
        "location": {
            "lat": 30.589057,
            "lng": 117.938818
        },
        "ad_info": {
            "adcode": 341723,
            "province": "安徽省",
            "city": "池州市",
            "district": "青阳县"
        }
    },
    {
        "id": "13690087146163020776",
        "title": "花园服务区公共厕所",
        "address": "安徽省池州市东至县花园服务区(济广高速公路东)",
        "tel": "",
        "category": "基础设施:公共设施:公共厕所",
        "type": 0,
        "location": {
            "lat": 29.967587,
            "lng": 117.032458
        },
        "ad_info": {
            "adcode": 341721,
            "province": "安徽省",
            "city": "池州市",
            "district": "东至县"
        }
    },
    {
        "id": "818604733103360125",
        "title": "升金湖服务区公共厕所",
        "address": "安徽省池州市东至县升金湖服务区与S27安东高速交叉口西北500米",
        "tel": "",
        "category": "基础设施:公共设施:公共厕所",
        "type": 0,
        "location": {
            "lat": 30.346116,
            "lng": 116.963167
        },
        "ad_info": {
            "adcode": 341721,
            "province": "安徽省",
            "city": "池州市",
            "district": "东至县"
        }
    },
    {
        "id": "3207726159524830729",
        "title": "九华山服务区公共厕所",
        "address": "安徽省池州市青阳县杨田镇京台高速公路九华山服务区",
        "tel": "",
        "category": "基础设施:公共设施:公共厕所",
        "type": 0,
        "location": {
            "lat": 30.58923,
            "lng": 117.941108
        },
        "ad_info": {
            "adcode": 341723,
            "province": "安徽省",
            "city": "池州市",
            "district": "青阳县"
        }
    },
    {
        "id": "5734236657012423665",
        "title": "公共厕所",
        "address": "安徽省池州市青阳县天柱北路与木镇路交叉口正西方向107米左右",
        "tel": "",
        "category": "基础设施:公共设施:公共厕所",
        "type": 0,
        "location": {
            "lat": 30.639512,
            "lng": 117.866771
        },
        "ad_info": {
            "adcode": 341723,
            "province": "安徽省",
            "city": "池州市",
            "district": "青阳县"
        }
    },
    {
        "id": "10181134785786097594",
        "title": "公共厕所",
        "address": "安徽省池州市石台县石台县中医院南侧170米",
        "tel": "",
        "category": "基础设施:公共设施:公共厕所",
        "type": 0,
        "location": {
            "lat": 30.206615,
            "lng": 117.495988
        },
        "ad_info": {
            "adcode": 341722,
            "province": "安徽省",
            "city": "池州市",
            "district": "石台县"
        }
    },
    {
        "id": "16146062879430313210",
        "title": "公共厕所",
        "address": "安徽省池州市贵池区石城大道与福康路交叉口西南方向403米左右",
        "tel": "",
        "category": "基础设施:公共设施:公共厕所",
        "type": 0,
        "location": {
            "lat": 30.637161,
            "lng": 117.460208
        },
        "ad_info": {
            "adcode": 341702,
            "province": "安徽省",
            "city": "池州市",
            "district": "贵池区"
        }
    },
    {
        "id": "7404326833797294915",
        "title": "公共厕所",
        "address": "安徽省池州市石台县石台兴隆山庄东南侧290米",
        "tel": "",
        "category": "基础设施:公共设施:公共厕所",
        "type": 0,
        "location": {
            "lat": 30.282235,
            "lng": 117.446744
        },
        "ad_info": {
            "adcode": 341722,
            "province": "安徽省",
            "city": "池州市",
            "district": "石台县"
        }
    },
    {
        "id": "1475830166139361452",
        "title": "公共厕所",
        "address": "安徽省池州市东至县建设路与滨河路交叉口西北方向302米左右",
        "tel": "",
        "category": "基础设施:公共设施:公共厕所",
        "type": 0,
        "location": {
            "lat": 30.102981,
            "lng": 117.026129
        },
        "ad_info": {
            "adcode": 341721,
            "province": "安徽省",
            "city": "池州市",
            "district": "东至县"
        }
    },
    {
        "id": "11508282156478718790",
        "title": "公共厕所(九组)",
        "address": "安徽省池州市青阳县Y042与杜西路交叉口正北方向1172米左右",
        "tel": "",
        "category": "基础设施:公共设施:公共厕所",
        "type": 0,
        "location": {
            "lat": 30.492211,
            "lng": 117.73419
        },
        "ad_info": {
            "adcode": 341723,
            "province": "安徽省",
            "city": "池州市",
            "district": "青阳县"
        }
    },
    {
        "id": "5698816328389212389",
        "title": "公共厕所",
        "address": "安徽省池州市贵池区和平路与孝肃街交叉口正西方向77米左右",
        "tel": "",
        "category": "基础设施:公共设施:公共厕所",
        "type": 0,
        "location": {
            "lat": 30.649914,
            "lng": 117.490694
        },
        "ad_info": {
            "adcode": 341702,
            "province": "安徽省",
            "city": "池州市",
            "district": "贵池区"
        }
    },
    {
        "id": "17437525629089196058",
        "title": "公共厕所",
        "address": "安徽省池州市东至县瑞风超市北侧60米",
        "tel": "",
        "category": "基础设施:公共设施:公共厕所",
        "type": 0,
        "location": {
            "lat": 30.269684,
            "lng": 116.963215
        },
        "ad_info": {
            "adcode": 341721,
            "province": "安徽省",
            "city": "池州市",
            "district": "东至县"
        }
    },
    {
        "id": "4917394373476682292",
        "title": "仙寓山风景区-公共厕所",
        "address": "安徽省池州市石台县金钱山路仙寓山风景区",
        "tel": "",
        "category": "基础设施:公共设施:公共厕所",
        "type": 0,
        "location": {
            "lat": 30.214729,
            "lng": 117.509128
        },
        "ad_info": {
            "adcode": 341722,
            "province": "安徽省",
            "city": "池州市",
            "district": "石台县"
        }
    },
    {
        "id": "4486323806447415295",
        "title": "公共厕所",
        "address": "安徽省池州市石台县G237与G530交叉口正东方向592米左右",
        "tel": "",
        "category": "基础设施:公共设施:公共厕所",
        "type": 0,
        "location": {
            "lat": 30.227104,
            "lng": 117.461223
        },
        "ad_info": {
            "adcode": 341722,
            "province": "安徽省",
            "city": "池州市",
            "district": "石台县"
        }
    },
    {
        "id": "1148557435766592031",
        "title": "公共厕所",
        "address": "安徽省池州市贵池区罗隐路翠微苑小区",
        "tel": "",
        "category": "基础设施:公共设施:公共厕所",
        "type": 0,
        "location": {
            "lat": 30.65149,
            "lng": 117.500344
        },
        "ad_info": {
            "adcode": 341702,
            "province": "安徽省",
            "city": "池州市",
            "district": "贵池区"
        }
    },
    {
        "id": "14998722807200222691",
        "title": "公共厕所",
        "address": "安徽省池州市青阳县S219与X029交叉口正南方向441米左右",
        "tel": "",
        "category": "基础设施:公共设施:公共厕所",
        "type": 0,
        "location": {
            "lat": 30.537147,
            "lng": 117.875082
        },
        "ad_info": {
            "adcode": 341723,
            "province": "安徽省",
            "city": "池州市",
            "district": "青阳县"
        }
    },
    {
        "id": "17813752664381533663",
        "title": "公共厕所",
        "address": "安徽省池州市贵池区红星路与齐山大道交叉口西南方向239米左右",
        "tel": "",
        "category": "基础设施:公共设施:公共厕所",
        "type": 0,
        "location": {
            "lat": 30.613435,
            "lng": 117.509588
        },
        "ad_info": {
            "adcode": 341702,
            "province": "安徽省",
            "city": "池州市",
            "district": "贵池区"
        }
    },
    {
        "id": "8197445206886234788",
        "title": "公共厕所",
        "address": "安徽省池州市石台县G530与S219交叉口东北方向670米左右",
        "tel": "",
        "category": "基础设施:公共设施:公共厕所",
        "type": 0,
        "location": {
            "lat": 30.309002,
            "lng": 117.858561
        },
        "ad_info": {
            "adcode": 341722,
            "province": "安徽省",
            "city": "池州市",
            "district": "石台县"
        }
    },
    {
        "id": "1497628330033301625",
        "title": "公共厕所",
        "address": "安徽省池州市石台县G237与G530交叉口西南方向232米左右",
        "tel": "",
        "category": "基础设施:公共设施:公共厕所",
        "type": 0,
        "location": {
            "lat": 30.164239,
            "lng": 117.595291
        },
        "ad_info": {
            "adcode": 341722,
            "province": "安徽省",
            "city": "池州市",
            "district": "石台县"
        }
    },
    {
        "id": "2232460120319129677",
        "title": "府学巷无障碍公共厕所",
        "address": "安徽省池州市贵池区府学巷与翠柏中路交叉口西南方向142米左右",
        "tel": "",
        "category": "基础设施:公共设施:公共厕所",
        "type": 0,
        "location": {
            "lat": 30.659607,
            "lng": 117.489704
        },
        "ad_info": {
            "adcode": 341702,
            "province": "安徽省",
            "city": "池州市",
            "district": "贵池区"
        }
    },
    {
        "id": "17649093402229207439",
        "title": "公共厕所",
        "address": "安徽省池州市贵池区S221与铜都大道交叉口正北方向56米左右",
        "tel": "",
        "category": "基础设施:公共设施:公共厕所",
        "type": 0,
        "location": {
            "lat": 30.785569,
            "lng": 117.726479
        },
        "ad_info": {
            "adcode": 341702,
            "province": "安徽省",
            "city": "池州市",
            "district": "贵池区"
        }
    },
    {
        "id": "4712703606937094819",
        "title": "公共厕所",
        "address": "安徽省池州市贵池区长江南路烟柳园公园内(北侧)",
        "tel": "",
        "category": "基础设施:公共设施:公共厕所",
        "type": 0,
        "location": {
            "lat": 30.648002,
            "lng": 117.488384
        },
        "ad_info": {
            "adcode": 341702,
            "province": "安徽省",
            "city": "池州市",
            "district": "贵池区"
        }
    },
    {
        "id": "3473075268868971445",
        "title": "公共厕所",
        "address": "安徽省池州市青阳县X029与Y023交叉口西北方向821米左右",
        "tel": "",
        "category": "基础设施:公共设施:公共厕所",
        "type": 0,
        "location": {
            "lat": 30.553445,
            "lng": 117.871087
        },
        "ad_info": {
            "adcode": 341723,
            "province": "安徽省",
            "city": "池州市",
            "district": "青阳县"
        }
    },
    {
        "id": "18180932644301515741",
        "title": "公共厕所",
        "address": "安徽省池州市青阳县S325(环山路)",
        "tel": "",
        "category": "基础设施:公共设施:公共厕所",
        "type": 0,
        "location": {
            "lat": 30.362197,
            "lng": 117.903076
        },
        "ad_info": {
            "adcode": 341723,
            "province": "安徽省",
            "city": "池州市",
            "district": "青阳县"
        }
    },
    {
        "id": "493456365457623159",
        "title": "旅游公共厕所",
        "address": "安徽省池州市青阳县佛光大道与拥华路交叉口正西方向69米左右",
        "tel": "",
        "category": "基础设施:公共设施:公共厕所",
        "type": 0,
        "location": {
            "lat": 30.565636,
            "lng": 117.786943
        },
        "ad_info": {
            "adcode": 341723,
            "province": "安徽省",
            "city": "池州市",
            "district": "青阳县"
        }
    },
    {
        "id": "6368219279201779944",
        "title": "九华山风景区九莲苑宾馆洗手间",
        "address": "安徽省池州市青阳县九华山风景区九华街旃檀林",
        "tel": "",
        "category": "基础设施:公共设施:公共厕所",
        "type": 0,
        "location": {
            "lat": 30.47597,
            "lng": 117.801517
        },
        "ad_info": {
            "adcode": 341723,
            "province": "安徽省",
            "city": "池州市",
            "district": "青阳县"
        }
    },
    {
        "id": "10554005948846913238",
        "title": "九华山服务区第一公共厕所",
        "address": "安徽省池州市青阳县京台高速九华山服务区",
        "tel": "",
        "category": "基础设施:公共设施:公共厕所",
        "type": 0,
        "location": {
            "lat": 30.589578,
            "lng": 117.9386
        },
        "ad_info": {
            "adcode": 341723,
            "province": "安徽省",
            "city": "池州市",
            "district": "青阳县"
        }
    },
    {
        "id": "9886709047824509877",
        "title": "公共厕所(杨梅村塔岭)",
        "address": "安徽省池州市青阳县塔岭小店西南侧",
        "tel": "",
        "category": "基础设施:公共设施:公共厕所",
        "type": 0,
        "location": {
            "lat": 30.375686,
            "lng": 117.89898
        },
        "ad_info": {
            "adcode": 341723,
            "province": "安徽省",
            "city": "池州市",
            "district": "青阳县"
        }
    },
    {
        "id": "9230774170383506489",
        "title": "公共厕所",
        "address": "安徽省池州市贵池区华来家庭农场西南侧190米",
        "tel": "",
        "category": "基础设施:公共设施:公共厕所",
        "type": 0,
        "location": {
            "lat": 30.354003,
            "lng": 117.360104
        },
        "ad_info": {
            "adcode": 341702,
            "province": "安徽省",
            "city": "池州市",
            "district": "贵池区"
        }
    },
    {
        "id": "5889185020616800526",
        "title": "公共厕所",
        "address": "安徽省池州市贵池区古舜巷与平安巷交叉口东南方向89米左右",
        "tel": "",
        "category": "基础设施:公共设施:公共厕所",
        "type": 0,
        "location": {
            "lat": 30.652318,
            "lng": 117.486664
        },
        "ad_info": {
            "adcode": 341702,
            "province": "安徽省",
            "city": "池州市",
            "district": "贵池区"
        }
    },
    {
        "id": "3028987769725879757",
        "title": "公共厕所",
        "address": "安徽省池州市贵池区东口街与包公井商业街交叉口正南方向47米左右",
        "tel": "",
        "category": "基础设施:公共设施:公共厕所",
        "type": 0,
        "location": {
            "lat": 30.651294,
            "lng": 117.494488
        },
        "ad_info": {
            "adcode": 341702,
            "province": "安徽省",
            "city": "池州市",
            "district": "贵池区"
        }
    },
    {
        "id": "2709713634440954772",
        "title": "公共厕所",
        "address": "安徽省池州市贵池区G236与杏花村大道交叉口正南方向402米左右",
        "tel": "",
        "category": "基础设施:公共设施:公共厕所",
        "type": 0,
        "location": {
            "lat": 30.615901,
            "lng": 117.455218
        },
        "ad_info": {
            "adcode": 341702,
            "province": "安徽省",
            "city": "池州市",
            "district": "贵池区"
        }
    },
    {
        "id": "9706092847909368135",
        "title": "公共厕所",
        "address": "安徽省池州市青阳县S221与S228交叉口东北方向1305米左右",
        "tel": "",
        "category": "基础设施:公共设施:公共厕所",
        "type": 0,
        "location": {
            "lat": 30.575833,
            "lng": 117.798692
        },
        "ad_info": {
            "adcode": 341723,
            "province": "安徽省",
            "city": "池州市",
            "district": "青阳县"
        }
    },
    {
        "id": "10113540416937349634",
        "title": "公共厕所",
        "address": "安徽省池州市东至县G530与东二环路交叉口正西方向650米左右",
        "tel": "",
        "category": "基础设施:公共设施:公共厕所",
        "type": 0,
        "location": {
            "lat": 30.061901,
            "lng": 116.852151
        },
        "ad_info": {
            "adcode": 341721,
            "province": "安徽省",
            "city": "池州市",
            "district": "东至县"
        }
    },
    {
        "id": "13845179924982338835",
        "title": "公共厕所",
        "address": "安徽省池州市贵池区G236与汇南路交叉口西北方向431米左右",
        "tel": "",
        "category": "基础设施:公共设施:公共厕所",
        "type": 0,
        "location": {
            "lat": 30.473405,
            "lng": 117.350461
        },
        "ad_info": {
            "adcode": 341702,
            "province": "安徽省",
            "city": "池州市",
            "district": "贵池区"
        }
    },
    {
        "id": "15790643655017435797",
        "title": "九华山服务区公共厕所",
        "address": "安徽省池州市青阳县中国石化九华山服务区加油站东南侧110米",
        "tel": "",
        "category": "基础设施:公共设施:公共厕所",
        "type": 0,
        "location": {
            "lat": 30.589696,
            "lng": 117.940973
        },
        "ad_info": {
            "adcode": 341723,
            "province": "安徽省",
            "city": "池州市",
            "district": "青阳县"
        }
    },
    {
        "id": "8728712698698817532",
        "title": "九华山风景区公共厕所",
        "address": "安徽省池州市青阳县风景区闵园景区内",
        "tel": "",
        "category": "基础设施:公共设施:公共厕所",
        "type": 0,
        "location": {
            "lat": 30.46647,
            "lng": 117.807927
        },
        "ad_info": {
            "adcode": 341723,
            "province": "安徽省",
            "city": "池州市",
            "district": "青阳县"
        }
    },
    {
        "id": "1948781446872032536",
        "title": "公共厕所",
        "address": "安徽省池州市贵池区牧之路与马江路交叉口正南方向586米左右",
        "tel": "",
        "category": "基础设施:公共设施:公共厕所",
        "type": 0,
        "location": {
            "lat": 30.659654,
            "lng": 117.570691
        },
        "ad_info": {
            "adcode": 341702,
            "province": "安徽省",
            "city": "池州市",
            "district": "贵池区"
        }
    },
    {
        "id": "907355519496597964",
        "title": "公共厕所",
        "address": "安徽省池州市贵池区X006与齐山大道辅路交叉口正西方向79米",
        "tel": "",
        "category": "基础设施:公共设施:公共厕所",
        "type": 0,
        "location": {
            "lat": 30.6166,
            "lng": 117.510362
        },
        "ad_info": {
            "adcode": 341702,
            "province": "安徽省",
            "city": "池州市",
            "district": "贵池区"
        }
    },
    {
        "id": "13576682884060994126",
        "title": "公共厕所",
        "address": "安徽省池州市石台县人民北路与曙光西路交叉口正北方向40米左右",
        "tel": "",
        "category": "基础设施:公共设施:公共厕所",
        "type": 0,
        "location": {
            "lat": 30.210242,
            "lng": 117.485204
        },
        "ad_info": {
            "adcode": 341722,
            "province": "安徽省",
            "city": "池州市",
            "district": "石台县"
        }
    },
    {
        "id": "17585690547224074829",
        "title": "公共厕所",
        "address": "安徽省池州市青阳县临城北路与高阳路交叉口正西方向136米左右",
        "tel": "",
        "category": "基础设施:公共设施:公共厕所",
        "type": 0,
        "location": {
            "lat": 30.638239,
            "lng": 117.848998
        },
        "ad_info": {
            "adcode": 341723,
            "province": "安徽省",
            "city": "池州市",
            "district": "青阳县"
        }
    },
    {
        "id": "4169688006260543090",
        "title": "旅游公共厕所",
        "address": "安徽省池州市石台县矶滩中心学校沟汀小学东北侧230米",
        "tel": "",
        "category": "基础设施:公共设施:公共厕所",
        "type": 0,
        "location": {
            "lat": 30.293285,
            "lng": 117.457059
        },
        "ad_info": {
            "adcode": 341722,
            "province": "安徽省",
            "city": "池州市",
            "district": "石台县"
        }
    },
    {
        "id": "10562717874315497550",
        "title": "公共厕所",
        "address": "安徽省池州市东至县327省道东50米",
        "tel": "",
        "category": "基础设施:公共设施:公共厕所",
        "type": 0,
        "location": {
            "lat": 30.091136,
            "lng": 116.914516
        },
        "ad_info": {
            "adcode": 341721,
            "province": "安徽省",
            "city": "池州市",
            "district": "东至县"
        }
    },
    {
        "id": "16274081281215208135",
        "title": "公共厕所",
        "address": "安徽省池州市贵池区S225与齐石路交叉口正北方向255米左右",
        "tel": "",
        "category": "基础设施:公共设施:公共厕所",
        "type": 0,
        "location": {
            "lat": 30.489974,
            "lng": 117.550276
        },
        "ad_info": {
            "adcode": 341702,
            "province": "安徽省",
            "city": "池州市",
            "district": "贵池区"
        }
    },
    {
        "id": "14346128224151307756",
        "title": "香隅服务区公共厕所",
        "address": "安徽省池州市东至县彭湖高速香隅服务区",
        "tel": "",
        "category": "基础设施:公共设施:公共厕所",
        "type": 0,
        "location": {
            "lat": 30.014157,
            "lng": 116.804866
        },
        "ad_info": {
            "adcode": 341721,
            "province": "安徽省",
            "city": "池州市",
            "district": "东至县"
        }
    },
    {
        "id": "3822187755394097584",
        "title": "公共厕所",
        "address": "安徽省池州市贵池区037县道与046乡道交叉口东北100米",
        "tel": "",
        "category": "基础设施:公共设施:公共厕所",
        "type": 0,
        "location": {
            "lat": 30.349587,
            "lng": 117.30339
        },
        "ad_info": {
            "adcode": 341702,
            "province": "安徽省",
            "city": "池州市",
            "district": "贵池区"
        }
    },
    {
        "id": "16542338268379743156",
        "title": "公共厕所",
        "address": "安徽省池州市贵池区秋浦中路88号",
        "tel": "",
        "category": "基础设施:公共设施:公共厕所",
        "type": 0,
        "location": {
            "lat": 30.654235,
            "lng": 117.49415
        },
        "ad_info": {
            "adcode": 341702,
            "province": "安徽省",
            "city": "池州市",
            "district": "贵池区"
        }
    },
    {
        "id": "12997669881493887846",
        "title": "公共厕所",
        "address": "安徽省池州市青阳县Y037与九华大道交叉口正东方向583米左右",
        "tel": "",
        "category": "基础设施:公共设施:公共厕所",
        "type": 0,
        "location": {
            "lat": 30.535714,
            "lng": 117.796281
        },
        "ad_info": {
            "adcode": 341723,
            "province": "安徽省",
            "city": "池州市",
            "district": "青阳县"
        }
    },
    {
        "id": "4158515251571368701",
        "title": "公共厕所",
        "address": "安徽省池州市贵池区G237与后央路交叉口东北方向231米左右",
        "tel": "",
        "category": "基础设施:公共设施:公共厕所",
        "type": 0,
        "location": {
            "lat": 30.488059,
            "lng": 117.248306
        },
        "ad_info": {
            "adcode": 341702,
            "province": "安徽省",
            "city": "池州市",
            "district": "贵池区"
        }
    },
    {
        "id": "1971347911464825801",
        "title": "九华山风景区公共厕所",
        "address": "安徽省池州市青阳县九华街与芙蓉路交叉口正东方向121米左右",
        "tel": "",
        "category": "基础设施:公共设施:公共厕所",
        "type": 0,
        "location": {
            "lat": 30.47755,
            "lng": 117.803011
        },
        "ad_info": {
            "adcode": 341723,
            "province": "安徽省",
            "city": "池州市",
            "district": "青阳县"
        }
    },
    {
        "id": "6960291586326369920",
        "title": "公共厕所",
        "address": "安徽省池州市贵池区南湖商业步行街与烟柳路交叉口西南方向211米左右",
        "tel": "",
        "category": "基础设施:公共设施:公共厕所",
        "type": 0,
        "location": {
            "lat": 30.647155,
            "lng": 117.483689
        },
        "ad_info": {
            "adcode": 341702,
            "province": "安徽省",
            "city": "池州市",
            "district": "贵池区"
        }
    },
    {
        "id": "7031402222488254271",
        "title": "公共厕所",
        "address": "安徽省池州市青阳县九华东路与九华西路交叉口正南方向66米左右",
        "tel": "",
        "category": "基础设施:公共设施:公共厕所",
        "type": 0,
        "location": {
            "lat": 30.639835,
            "lng": 117.858929
        },
        "ad_info": {
            "adcode": 341723,
            "province": "安徽省",
            "city": "池州市",
            "district": "青阳县"
        }
    },
    {
        "id": "11306857772606797655",
        "title": "公共厕所",
        "address": "安徽省池州市贵池区桃花巷8号",
        "tel": "",
        "category": "基础设施:公共设施:公共厕所",
        "type": 0,
        "location": {
            "lat": 30.650968,
            "lng": 117.486684
        },
        "ad_info": {
            "adcode": 341702,
            "province": "安徽省",
            "city": "池州市",
            "district": "贵池区"
        }
    },
    {
        "id": "10630895953340752523",
        "title": "公共厕所",
        "address": "安徽省池州市贵池区池阳路与翠柏中路交叉口正东方向50米左右",
        "tel": "",
        "category": "基础设施:公共设施:公共厕所",
        "type": 0,
        "location": {
            "lat": 30.657683,
            "lng": 117.491359
        },
        "ad_info": {
            "adcode": 341702,
            "province": "安徽省",
            "city": "池州市",
            "district": "贵池区"
        }
    },
    {
        "id": "13964970976548132568",
        "title": "公共厕所",
        "address": "安徽省池州市青阳县九华山游客服务中心停车场",
        "tel": "",
        "category": "基础设施:公共设施:公共厕所",
        "type": 0,
        "location": {
            "lat": 30.549236,
            "lng": 117.788423
        },
        "ad_info": {
            "adcode": 341723,
            "province": "安徽省",
            "city": "池州市",
            "district": "青阳县"
        }
    },
    {
        "id": "10883503733444657682",
        "title": "公共厕所",
        "address": "安徽省池州市青阳县青铜石油加油站东侧150米",
        "tel": "",
        "category": "基础设施:公共设施:公共厕所",
        "type": 0,
        "location": {
            "lat": 30.763559,
            "lng": 117.898145
        },
        "ad_info": {
            "adcode": 341723,
            "province": "安徽省",
            "city": "池州市",
            "district": "青阳县"
        }
    },
    {
        "id": "17255003063080160457",
        "title": "公共厕所",
        "address": "安徽省池州市贵池区G236与G318交叉口东北方向444米左右",
        "tel": "",
        "category": "基础设施:公共设施:公共厕所",
        "type": 0,
        "location": {
            "lat": 30.624676,
            "lng": 117.57574
        },
        "ad_info": {
            "adcode": 341702,
            "province": "安徽省",
            "city": "池州市",
            "district": "贵池区"
        }
    },
    {
        "id": "5123149383057793355",
        "title": "花园服务区公共厕所",
        "address": "安徽省池州市东至县X017与Y012交叉口东北方向551米左右",
        "tel": "",
        "category": "基础设施:公共设施:公共厕所",
        "type": 0,
        "location": {
            "lat": 29.969288,
            "lng": 117.030582
        },
        "ad_info": {
            "adcode": 341721,
            "province": "安徽省",
            "city": "池州市",
            "district": "东至县"
        }
    },
    {
        "id": "3335577514038853012",
        "title": "公共厕所",
        "address": "安徽省池州市青阳县天柱北路与木镇路交叉口正西方向67米左右",
        "tel": "",
        "category": "基础设施:公共设施:公共厕所",
        "type": 0,
        "location": {
            "lat": 30.639202,
            "lng": 117.867213
        },
        "ad_info": {
            "adcode": 341723,
            "province": "安徽省",
            "city": "池州市",
            "district": "青阳县"
        }
    },
    {
        "id": "5937376385264925682",
        "title": "公共厕所",
        "address": "安徽省池州市贵池区杏村商业街中33号",
        "tel": "",
        "category": "基础设施:公共设施:公共厕所",
        "type": 0,
        "location": {
            "lat": 30.652804,
            "lng": 117.488676
        },
        "ad_info": {
            "adcode": 341702,
            "province": "安徽省",
            "city": "池州市",
            "district": "贵池区"
        }
    },
    {
        "id": "1046204968432203869",
        "title": "公共厕所",
        "address": "安徽省池州市贵池区经济开发区公安分局(凤鸣路)",
        "tel": "",
        "category": "基础设施:公共设施:公共厕所",
        "type": 0,
        "location": {
            "lat": 30.697448,
            "lng": 117.542406
        },
        "ad_info": {
            "adcode": 341702,
            "province": "安徽省",
            "city": "池州市",
            "district": "贵池区"
        }
    },
    {
        "id": "6811692166332388503",
        "title": "公共厕所",
        "address": "安徽省池州市贵池区百牙中路池州市人民医院",
        "tel": "",
        "category": "基础设施:公共设施:公共厕所",
        "type": 0,
        "location": {
            "lat": 30.664527,
            "lng": 117.48857
        },
        "ad_info": {
            "adcode": 341702,
            "province": "安徽省",
            "city": "池州市",
            "district": "贵池区"
        }
    }
]