[
    {
        "id": "13751051877007688399",
        "title": "公共厕所",
        "address": "广东省河源市龙川县Y262与Y265交叉口西南方向185米左右",
        "tel": "",
        "category": "基础设施:公共设施:公共厕所",
        "type": 0,
        "location": {
            "lat": 24.260488,
            "lng": 115.383621
        },
        "ad_info": {
            "adcode": 441622,
            "province": "广东省",
            "city": "河源市",
            "district": "龙川县"
        }
    },
    {
        "id": "14286772531144678074",
        "title": "公共厕所",
        "address": "广东省河源市源城区中山大道55-1号万隆城沃尔玛",
        "tel": "",
        "category": "基础设施:公共设施:公共厕所",
        "type": 0,
        "location": {
            "lat": 23.756153,
            "lng": 114.70598
        },
        "ad_info": {
            "adcode": 441602,
            "province": "广东省",
            "city": "河源市",
            "district": "源城区"
        }
    },
    {
        "id": "6109874009320175772",
        "title": "公共厕所",
        "address": "广东省河源市源城区越王大道139号坚基购物中心F3",
        "tel": "",
        "category": "基础设施:公共设施:公共厕所",
        "type": 0,
        "location": {
            "lat": 23.769866,
            "lng": 114.719356
        },
        "ad_info": {
            "adcode": 441602,
            "province": "广东省",
            "city": "河源市",
            "district": "源城区"
        }
    },
    {
        "id": "14166732336647843665",
        "title": "公共厕所",
        "address": "广东省河源市源城区万康街与万益街交叉口东南方向21米左右",
        "tel": "",
        "category": "基础设施:公共设施:公共厕所",
        "type": 0,
        "location": {
            "lat": 23.646404,
            "lng": 114.672536
        },
        "ad_info": {
            "adcode": 441602,
            "province": "广东省",
            "city": "河源市",
            "district": "源城区"
        }
    },
    {
        "id": "1280359717911314395",
        "title": "公共厕所(麻布岗镇瑚径村委会广场)",
        "address": "广东省河源市龙川县瑚径小学东侧80米",
        "tel": "",
        "category": "基础设施:公共设施:公共厕所",
        "type": 0,
        "location": {
            "lat": 24.629148,
            "lng": 115.451615
        },
        "ad_info": {
            "adcode": 441622,
            "province": "广东省",
            "city": "河源市",
            "district": "龙川县"
        }
    },
    {
        "id": "7063056950310881165",
        "title": "公共厕所",
        "address": "广东省河源市龙川县Y032与Y419交叉口东南方向316米左右",
        "tel": "",
        "category": "基础设施:公共设施:公共厕所",
        "type": 0,
        "location": {
            "lat": 24.699505,
            "lng": 115.453778
        },
        "ad_info": {
            "adcode": 441622,
            "province": "广东省",
            "city": "河源市",
            "district": "龙川县"
        }
    },
    {
        "id": "3371073369260946009",
        "title": "公共厕所",
        "address": "广东省河源市龙川县Y191与Y488交叉口正西方向403米左右",
        "tel": "",
        "category": "基础设施:公共设施:公共厕所",
        "type": 0,
        "location": {
            "lat": 23.982847,
            "lng": 115.300983
        },
        "ad_info": {
            "adcode": 441622,
            "province": "广东省",
            "city": "河源市",
            "district": "龙川县"
        }
    },
    {
        "id": "13396942135667029571",
        "title": "公共厕所",
        "address": "广东省河源市龙川县Y399与Y405交叉口东北方向243米左右",
        "tel": "",
        "category": "基础设施:公共设施:公共厕所",
        "type": 0,
        "location": {
            "lat": 24.52801,
            "lng": 115.404053
        },
        "ad_info": {
            "adcode": 441622,
            "province": "广东省",
            "city": "河源市",
            "district": "龙川县"
        }
    },
    {
        "id": "8866488486986107283",
        "title": "公共厕所",
        "address": "广东省河源市龙川县绿油农业发展有限公司北侧210米",
        "tel": "",
        "category": "基础设施:公共设施:公共厕所",
        "type": 0,
        "location": {
            "lat": 24.403557,
            "lng": 115.437957
        },
        "ad_info": {
            "adcode": 441622,
            "province": "广东省",
            "city": "河源市",
            "district": "龙川县"
        }
    },
    {
        "id": "12914371494619044827",
        "title": "公共厕所",
        "address": "广东省河源市龙川县人民路与广场路交叉口东南方向116米左右",
        "tel": "",
        "category": "基础设施:公共设施:公共厕所",
        "type": 0,
        "location": {
            "lat": 24.099835,
            "lng": 115.257878
        },
        "ad_info": {
            "adcode": 441622,
            "province": "广东省",
            "city": "河源市",
            "district": "龙川县"
        }
    },
    {
        "id": "13467071049177738894",
        "title": "公共厕所",
        "address": "广东省河源市龙川县沿江东路与人民路交叉口东北140米",
        "tel": "",
        "category": "基础设施:公共设施:公共厕所",
        "type": 0,
        "location": {
            "lat": 24.103186,
            "lng": 115.253324
        },
        "ad_info": {
            "adcode": 441622,
            "province": "广东省",
            "city": "河源市",
            "district": "龙川县"
        }
    },
    {
        "id": "6763545149856496438",
        "title": "公共厕所",
        "address": "广东省河源市龙川县一环路与川中大道交叉口正西方向61米左右",
        "tel": "",
        "category": "基础设施:公共设施:公共厕所",
        "type": 0,
        "location": {
            "lat": 24.102152,
            "lng": 115.236587
        },
        "ad_info": {
            "adcode": 441622,
            "province": "广东省",
            "city": "河源市",
            "district": "龙川县"
        }
    },
    {
        "id": "6465202672995653112",
        "title": "公共厕所",
        "address": "广东省河源市源城区Y162与河源大道交叉口正南方向279米左右",
        "tel": "",
        "category": "基础设施:公共设施:公共厕所",
        "type": 0,
        "location": {
            "lat": 23.603311,
            "lng": 114.634748
        },
        "ad_info": {
            "adcode": 441602,
            "province": "广东省",
            "city": "河源市",
            "district": "源城区"
        }
    },
    {
        "id": "2597175142477257641",
        "title": "公共厕所",
        "address": "广东省河源市龙川县沿江东路与沿江路交叉口正南方向47米左右",
        "tel": "",
        "category": "基础设施:公共设施:公共厕所",
        "type": 0,
        "location": {
            "lat": 24.09807,
            "lng": 115.25103
        },
        "ad_info": {
            "adcode": 441622,
            "province": "广东省",
            "city": "河源市",
            "district": "龙川县"
        }
    },
    {
        "id": "7876845308686723978",
        "title": "公共厕所",
        "address": "广东省河源市龙川县乐田公厕",
        "tel": "",
        "category": "基础设施:公共设施:公共厕所",
        "type": 0,
        "location": {
            "lat": 24.228129,
            "lng": 115.251876
        },
        "ad_info": {
            "adcode": 441622,
            "province": "广东省",
            "city": "河源市",
            "district": "龙川县"
        }
    },
    {
        "id": "10516174205447955135",
        "title": "公共厕所",
        "address": "广东省河源市源城区新陂路与高新六路交叉口正南方向92米左右",
        "tel": "",
        "category": "基础设施:公共设施:公共厕所",
        "type": 0,
        "location": {
            "lat": 23.608304,
            "lng": 114.648719
        },
        "ad_info": {
            "adcode": 441602,
            "province": "广东省",
            "city": "河源市",
            "district": "源城区"
        }
    },
    {
        "id": "9945179129159443216",
        "title": "公共厕所",
        "address": "广东省河源市源城区沿江东路河源文化广场(东侧)",
        "tel": "",
        "category": "基础设施:公共设施:公共厕所",
        "type": 0,
        "location": {
            "lat": 23.741045,
            "lng": 114.709763
        },
        "ad_info": {
            "adcode": 441602,
            "province": "广东省",
            "city": "河源市",
            "district": "源城区"
        }
    },
    {
        "id": "8178519062533977675",
        "title": "公共厕所",
        "address": "广东省河源市源城区太平街58号",
        "tel": "",
        "category": "基础设施:公共设施:公共厕所",
        "type": 0,
        "location": {
            "lat": 23.740148,
            "lng": 114.699773
        },
        "ad_info": {
            "adcode": 441602,
            "province": "广东省",
            "city": "河源市",
            "district": "源城区"
        }
    },
    {
        "id": "6683334697818516923",
        "title": "公共厕所",
        "address": "广东省河源市源城区新风路碧洋华庭",
        "tel": "",
        "category": "基础设施:公共设施:公共厕所",
        "type": 0,
        "location": {
            "lat": 23.758826,
            "lng": 114.699146
        },
        "ad_info": {
            "adcode": 441602,
            "province": "广东省",
            "city": "河源市",
            "district": "源城区"
        }
    },
    {
        "id": "17331064720742058342",
        "title": "公共厕所",
        "address": "广东省河源市源城区滨江大道与迎客大道交叉口西南方向231米左右",
        "tel": "",
        "category": "基础设施:公共设施:公共厕所",
        "type": 0,
        "location": {
            "lat": 23.695753,
            "lng": 114.69889
        },
        "ad_info": {
            "adcode": 441602,
            "province": "广东省",
            "city": "河源市",
            "district": "源城区"
        }
    },
    {
        "id": "414442449074258786",
        "title": "公共厕所",
        "address": "广东省河源市源城区东江西路与永和东路交叉口正东方向193米左右",
        "tel": "",
        "category": "基础设施:公共设施:公共厕所",
        "type": 0,
        "location": {
            "lat": 23.755872,
            "lng": 114.727908
        },
        "ad_info": {
            "adcode": 441602,
            "province": "广东省",
            "city": "河源市",
            "district": "源城区"
        }
    },
    {
        "id": "174831813156699146",
        "title": "公共厕所",
        "address": "广东省河源市源城区万祥街与兴业大道交叉口正西方向90米左右",
        "tel": "",
        "category": "基础设施:公共设施:公共厕所",
        "type": 0,
        "location": {
            "lat": 23.645888,
            "lng": 114.669613
        },
        "ad_info": {
            "adcode": 441602,
            "province": "广东省",
            "city": "河源市",
            "district": "源城区"
        }
    },
    {
        "id": "9925120035481506314",
        "title": "公共厕所",
        "address": "广东省河源市源城区Y191与河源大道交叉口西南方向206米左右",
        "tel": "",
        "category": "基础设施:公共设施:公共厕所",
        "type": 0,
        "location": {
            "lat": 23.635558,
            "lng": 114.652626
        },
        "ad_info": {
            "adcode": 441602,
            "province": "广东省",
            "city": "河源市",
            "district": "源城区"
        }
    },
    {
        "id": "16495567764173893724",
        "title": "公共厕所",
        "address": "广东省河源市源城区家乐街与茶亭街交叉口正南方向205米左右",
        "tel": "",
        "category": "基础设施:公共设施:公共厕所",
        "type": 0,
        "location": {
            "lat": 23.743757,
            "lng": 114.697634
        },
        "ad_info": {
            "adcode": 441602,
            "province": "广东省",
            "city": "河源市",
            "district": "源城区"
        }
    },
    {
        "id": "14900104838519823314",
        "title": "公共厕所",
        "address": "广东省河源市源城区中心街与化龙商业步行街交叉口东南方向71米左右",
        "tel": "",
        "category": "基础设施:公共设施:公共厕所",
        "type": 0,
        "location": {
            "lat": 23.738817,
            "lng": 114.698333
        },
        "ad_info": {
            "adcode": 441602,
            "province": "广东省",
            "city": "河源市",
            "district": "源城区"
        }
    },
    {
        "id": "13556436279673599552",
        "title": "公共厕所",
        "address": "广东省河源市源城区东埔市场东与河源大道交叉口正东方向18米左右",
        "tel": "",
        "category": "基础设施:公共设施:公共厕所",
        "type": 0,
        "location": {
            "lat": 23.74515,
            "lng": 114.68885
        },
        "ad_info": {
            "adcode": 441602,
            "province": "广东省",
            "city": "河源市",
            "district": "源城区"
        }
    },
    {
        "id": "2252037598124656152",
        "title": "公共厕所",
        "address": "广东省河源市龙川县G236中国海油加油站",
        "tel": "",
        "category": "基础设施:公共设施:公共厕所",
        "type": 0,
        "location": {
            "lat": 24.123823,
            "lng": 115.271686
        },
        "ad_info": {
            "adcode": 441622,
            "province": "广东省",
            "city": "河源市",
            "district": "龙川县"
        }
    },
    {
        "id": "3881787122753958959",
        "title": "公共厕所",
        "address": "广东省河源市源城区文昌南路与红星东路交叉口正南方向198米左右",
        "tel": "",
        "category": "基础设施:公共设施:公共厕所",
        "type": 0,
        "location": {
            "lat": 23.750221,
            "lng": 114.7093
        },
        "ad_info": {
            "adcode": 441602,
            "province": "广东省",
            "city": "河源市",
            "district": "源城区"
        }
    },
    {
        "id": "15958026145819371992",
        "title": "公共厕所",
        "address": "广东省河源市东源县Y454与柳城桥交叉口东北方向212米左右",
        "tel": "",
        "category": "基础设施:公共设施:公共厕所",
        "type": 0,
        "location": {
            "lat": 24.03077,
            "lng": 115.123487
        },
        "ad_info": {
            "adcode": 441625,
            "province": "广东省",
            "city": "河源市",
            "district": "东源县"
        }
    },
    {
        "id": "7408831972994466388",
        "title": "公共厕所",
        "address": "广东省河源市龙川县S238与Y176交叉口正北方向212米左右",
        "tel": "",
        "category": "基础设施:公共设施:公共厕所",
        "type": 0,
        "location": {
            "lat": 24.004209,
            "lng": 115.365546
        },
        "ad_info": {
            "adcode": 441622,
            "province": "广东省",
            "city": "河源市",
            "district": "龙川县"
        }
    },
    {
        "id": "1228565512353189887",
        "title": "公共厕所",
        "address": "广东省河源市源城区昌盛街与穗东街交叉口正西方向115米左右",
        "tel": "",
        "category": "基础设施:公共设施:公共厕所",
        "type": 0,
        "location": {
            "lat": 23.756109,
            "lng": 114.692323
        },
        "ad_info": {
            "adcode": 441602,
            "province": "广东省",
            "city": "河源市",
            "district": "源城区"
        }
    },
    {
        "id": "12867315750736640254",
        "title": "公共厕所",
        "address": "广东省河源市源城区公园西路与鸣凤路交叉口西南方向35米左右",
        "tel": "",
        "category": "基础设施:公共设施:公共厕所",
        "type": 0,
        "location": {
            "lat": 23.734797,
            "lng": 114.700997
        },
        "ad_info": {
            "adcode": 441602,
            "province": "广东省",
            "city": "河源市",
            "district": "源城区"
        }
    },
    {
        "id": "16657559383120791011",
        "title": "公共厕所",
        "address": "广东省河源市龙川县Y124与Y125交叉口东南方向88米左右",
        "tel": "",
        "category": "基础设施:公共设施:公共厕所",
        "type": 0,
        "location": {
            "lat": 24.166803,
            "lng": 115.246483
        },
        "ad_info": {
            "adcode": 441622,
            "province": "广东省",
            "city": "河源市",
            "district": "龙川县"
        }
    },
    {
        "id": "4739105444867078272",
        "title": "公共厕所",
        "address": "广东省河源市源城区新宝路西二巷与新江二路交叉口东南方向62米左右",
        "tel": "",
        "category": "基础设施:公共设施:公共厕所",
        "type": 0,
        "location": {
            "lat": 23.742939,
            "lng": 114.680728
        },
        "ad_info": {
            "adcode": 441602,
            "province": "广东省",
            "city": "河源市",
            "district": "源城区"
        }
    },
    {
        "id": "8661364047563701211",
        "title": "公共厕所",
        "address": "广东省河源市东源县农林街与农林路交叉口西南方向71米左右",
        "tel": "",
        "category": "基础设施:公共设施:公共厕所",
        "type": 0,
        "location": {
            "lat": 23.78746,
            "lng": 114.74192
        },
        "ad_info": {
            "adcode": 441625,
            "province": "广东省",
            "city": "河源市",
            "district": "东源县"
        }
    },
    {
        "id": "568889925875008102",
        "title": "公共厕所",
        "address": "广东省河源市源城区穗安巷与长安西路交叉口东南方向57米左右",
        "tel": "",
        "category": "基础设施:公共设施:公共厕所",
        "type": 0,
        "location": {
            "lat": 23.754229,
            "lng": 114.689267
        },
        "ad_info": {
            "adcode": 441602,
            "province": "广东省",
            "city": "河源市",
            "district": "源城区"
        }
    },
    {
        "id": "11399740193584878988",
        "title": "公共厕所",
        "address": "广东省河源市源城区新江三路与西环路交叉口正西方向173米左右",
        "tel": "",
        "category": "基础设施:公共设施:公共厕所",
        "type": 0,
        "location": {
            "lat": 23.726914,
            "lng": 114.667528
        },
        "ad_info": {
            "adcode": 441602,
            "province": "广东省",
            "city": "河源市",
            "district": "源城区"
        }
    },
    {
        "id": "2349326397138239986",
        "title": "公共厕所",
        "address": "广东省河源市源城区科技五路与高埔路交叉口东南方向257米左右",
        "tel": "",
        "category": "基础设施:公共设施:公共厕所",
        "type": 0,
        "location": {
            "lat": 23.645532,
            "lng": 114.664781
        },
        "ad_info": {
            "adcode": 441602,
            "province": "广东省",
            "city": "河源市",
            "district": "源城区"
        }
    },
    {
        "id": "16154266708852039070",
        "title": "公共厕所",
        "address": "广东省河源市源城区河源大道与达康路交叉口正北方向103米左右",
        "tel": "",
        "category": "基础设施:公共设施:公共厕所",
        "type": 0,
        "location": {
            "lat": 23.786472,
            "lng": 114.702086
        },
        "ad_info": {
            "adcode": 441602,
            "province": "广东省",
            "city": "河源市",
            "district": "源城区"
        }
    },
    {
        "id": "9275152264175585594",
        "title": "公共厕所",
        "address": "广东省河源市源城区东江西路与沿江东路交叉口西南方向86米左右",
        "tel": "",
        "category": "基础设施:公共设施:公共厕所",
        "type": 0,
        "location": {
            "lat": 23.749783,
            "lng": 114.720305
        },
        "ad_info": {
            "adcode": 441602,
            "province": "广东省",
            "city": "河源市",
            "district": "源城区"
        }
    },
    {
        "id": "2167496192489812308",
        "title": "公共厕所",
        "address": "广东省河源市源城区新兴巷财贸幼儿园(新兴东巷)",
        "tel": "",
        "category": "基础设施:公共设施:公共厕所",
        "type": 0,
        "location": {
            "lat": 23.748465,
            "lng": 114.701967
        },
        "ad_info": {
            "adcode": 441602,
            "province": "广东省",
            "city": "河源市",
            "district": "源城区"
        }
    },
    {
        "id": "18136491071574718705",
        "title": "公共厕所",
        "address": "广东省河源市源城区沿江东路36号",
        "tel": "",
        "category": "基础设施:公共设施:公共厕所",
        "type": 0,
        "location": {
            "lat": 23.743828,
            "lng": 114.713663
        },
        "ad_info": {
            "adcode": 441602,
            "province": "广东省",
            "city": "河源市",
            "district": "源城区"
        }
    },
    {
        "id": "249836845321197306",
        "title": "公共厕所",
        "address": "广东省河源市源城区沿江东路与群丰路交叉口正南方向33米左右",
        "tel": "",
        "category": "基础设施:公共设施:公共厕所",
        "type": 0,
        "location": {
            "lat": 23.745974,
            "lng": 114.716201
        },
        "ad_info": {
            "adcode": 441602,
            "province": "广东省",
            "city": "河源市",
            "district": "源城区"
        }
    },
    {
        "id": "18055832727994264082",
        "title": "公共厕所",
        "address": "广东省河源市源城区大桥路与木排头路交叉口正南方向76米左右",
        "tel": "",
        "category": "基础设施:公共设施:公共厕所",
        "type": 0,
        "location": {
            "lat": 23.730262,
            "lng": 114.69178
        },
        "ad_info": {
            "adcode": 441602,
            "province": "广东省",
            "city": "河源市",
            "district": "源城区"
        }
    },
    {
        "id": "4723748026645655255",
        "title": "公共厕所",
        "address": "广东省河源市龙川县文化公园路与文化广场路交叉口正西方向77米左右",
        "tel": "",
        "category": "基础设施:公共设施:公共厕所",
        "type": 0,
        "location": {
            "lat": 24.09382,
            "lng": 115.24875
        },
        "ad_info": {
            "adcode": 441622,
            "province": "广东省",
            "city": "河源市",
            "district": "龙川县"
        }
    },
    {
        "id": "17720024148938347971",
        "title": "公共厕所",
        "address": "广东省河源市源城区北直街与环城西路交叉口东北方向34米左右",
        "tel": "",
        "category": "基础设施:公共设施:公共厕所",
        "type": 0,
        "location": {
            "lat": 23.737884,
            "lng": 114.696969
        },
        "ad_info": {
            "adcode": 441602,
            "province": "广东省",
            "city": "河源市",
            "district": "源城区"
        }
    },
    {
        "id": "1508280719988292207",
        "title": "公共厕所",
        "address": "广东省河源市源城区站前路与西一路东二巷交叉口东北方向176米左右",
        "tel": "",
        "category": "基础设施:公共设施:公共厕所",
        "type": 0,
        "location": {
            "lat": 23.755192,
            "lng": 114.682217
        },
        "ad_info": {
            "adcode": 441602,
            "province": "广东省",
            "city": "河源市",
            "district": "源城区"
        }
    },
    {
        "id": "14190565496825792749",
        "title": "公共厕所",
        "address": "广东省河源市源城区河中路与河源大道交叉口正北方向147米左右",
        "tel": "",
        "category": "基础设施:公共设施:公共厕所",
        "type": 0,
        "location": {
            "lat": 23.730179,
            "lng": 114.693911
        },
        "ad_info": {
            "adcode": 441602,
            "province": "广东省",
            "city": "河源市",
            "district": "源城区"
        }
    },
    {
        "id": "218293688297497126",
        "title": "公共厕所",
        "address": "广东省河源市源城区长堤中路纯水岸东北侧约30米",
        "tel": "",
        "category": "基础设施:公共设施:公共厕所",
        "type": 0,
        "location": {
            "lat": 23.742035,
            "lng": 114.695025
        },
        "ad_info": {
            "adcode": 441602,
            "province": "广东省",
            "city": "河源市",
            "district": "源城区"
        }
    },
    {
        "id": "10007269966460524126",
        "title": "公共厕所",
        "address": "广东省河源市源城区Y133与河源大道交叉口正西方向84米左右",
        "tel": "",
        "category": "基础设施:公共设施:公共厕所",
        "type": 0,
        "location": {
            "lat": 23.666177,
            "lng": 114.667881
        },
        "ad_info": {
            "adcode": 441602,
            "province": "广东省",
            "city": "河源市",
            "district": "源城区"
        }
    },
    {
        "id": "12441043597529125982",
        "title": "公共厕所",
        "address": "广东省河源市源城区东直街与环城西路交叉口西南方向38米左右",
        "tel": "",
        "category": "基础设施:公共设施:公共厕所",
        "type": 0,
        "location": {
            "lat": 23.733955,
            "lng": 114.69452
        },
        "ad_info": {
            "adcode": 441602,
            "province": "广东省",
            "city": "河源市",
            "district": "源城区"
        }
    },
    {
        "id": "10570151724731248536",
        "title": "公共厕所",
        "address": "广东省河源市源城区公园东路31号西北方向40米",
        "tel": "",
        "category": "基础设施:公共设施:公共厕所",
        "type": 0,
        "location": {
            "lat": 23.734884,
            "lng": 114.70435
        },
        "ad_info": {
            "adcode": 441602,
            "province": "广东省",
            "city": "河源市",
            "district": "源城区"
        }
    },
    {
        "id": "8582108100167230751",
        "title": "公共厕所",
        "address": "广东省河源市源城区山深线中国石化加油站",
        "tel": "",
        "category": "基础设施:公共设施:公共厕所",
        "type": 0,
        "location": {
            "lat": 23.553008,
            "lng": 114.603562
        },
        "ad_info": {
            "adcode": 441602,
            "province": "广东省",
            "city": "河源市",
            "district": "源城区"
        }
    },
    {
        "id": "11537763784861483225",
        "title": "公共厕所",
        "address": "广东省河源市东源县涧头镇轿子屋下生态休闲观光茶园",
        "tel": "",
        "category": "基础设施:公共设施:公共厕所",
        "type": 0,
        "location": {
            "lat": 24.124799,
            "lng": 114.658431
        },
        "ad_info": {
            "adcode": 441625,
            "province": "广东省",
            "city": "河源市",
            "district": "东源县"
        }
    },
    {
        "id": "4823715584824845228",
        "title": "公共厕所",
        "address": "广东省河源市东源县上莞镇仙湖鼎云露民宿",
        "tel": "",
        "category": "基础设施:公共设施:公共厕所",
        "type": 0,
        "location": {
            "lat": 24.049045,
            "lng": 115.039742
        },
        "ad_info": {
            "adcode": 441625,
            "province": "广东省",
            "city": "河源市",
            "district": "东源县"
        }
    },
    {
        "id": "15714476753002322801",
        "title": "公共厕所",
        "address": "广东省河源市东源县S229与Y255交叉口东南方向94米左右",
        "tel": "",
        "category": "基础设施:公共设施:公共厕所",
        "type": 0,
        "location": {
            "lat": 24.102348,
            "lng": 114.926405
        },
        "ad_info": {
            "adcode": 441625,
            "province": "广东省",
            "city": "河源市",
            "district": "东源县"
        }
    },
    {
        "id": "17504225750768046496",
        "title": "公共厕所",
        "address": "广东省河源市源城区环城东路民兴楼东南侧约190米",
        "tel": "",
        "category": "基础设施:公共设施:公共厕所",
        "type": 0,
        "location": {
            "lat": 23.73682,
            "lng": 114.697706
        },
        "ad_info": {
            "adcode": 441602,
            "province": "广东省",
            "city": "河源市",
            "district": "源城区"
        }
    },
    {
        "id": "11319854710941388490",
        "title": "公共厕所",
        "address": "广东省河源市东源县X154与义合立交桥交叉口东北方向125米左右",
        "tel": "",
        "category": "基础设施:公共设施:公共厕所",
        "type": 0,
        "location": {
            "lat": 23.837035,
            "lng": 114.858651
        },
        "ad_info": {
            "adcode": 441625,
            "province": "广东省",
            "city": "河源市",
            "district": "东源县"
        }
    },
    {
        "id": "16202752311622763024",
        "title": "公共厕所",
        "address": "广东省河源市东源县Y234与四联桥交叉口西南方向1441米左右",
        "tel": "",
        "category": "基础设施:公共设施:公共厕所",
        "type": 0,
        "location": {
            "lat": 24.194115,
            "lng": 114.892198
        },
        "ad_info": {
            "adcode": 441625,
            "province": "广东省",
            "city": "河源市",
            "district": "东源县"
        }
    },
    {
        "id": "219412270974030018",
        "title": "公共厕所",
        "address": "广东省河源市东源县G205与学生路交叉口西北方向42米左右",
        "tel": "",
        "category": "基础设施:公共设施:公共厕所",
        "type": 0,
        "location": {
            "lat": 24.012257,
            "lng": 114.801118
        },
        "ad_info": {
            "adcode": 441625,
            "province": "广东省",
            "city": "河源市",
            "district": "东源县"
        }
    },
    {
        "id": "14189114027999673774",
        "title": "公共厕所",
        "address": "广东省河源市龙川县文德路与沿江东路交叉口正南方向35米左右",
        "tel": "",
        "category": "基础设施:公共设施:公共厕所",
        "type": 0,
        "location": {
            "lat": 24.104271,
            "lng": 115.253654
        },
        "ad_info": {
            "adcode": 441622,
            "province": "广东省",
            "city": "河源市",
            "district": "龙川县"
        }
    },
    {
        "id": "1547289001209404302",
        "title": "公共厕所",
        "address": "广东省河源市东源县富村八巷与广场东路交叉口东南方向810米左右",
        "tel": "",
        "category": "基础设施:公共设施:公共厕所",
        "type": 0,
        "location": {
            "lat": 23.781976,
            "lng": 114.754363
        },
        "ad_info": {
            "adcode": 441625,
            "province": "广东省",
            "city": "河源市",
            "district": "东源县"
        }
    },
    {
        "id": "12036944135778621006",
        "title": "公共厕所",
        "address": "广东省河源市连平县环城西路5号",
        "tel": "",
        "category": "基础设施:公共设施:公共厕所",
        "type": 0,
        "location": {
            "lat": 24.368742,
            "lng": 114.489856
        },
        "ad_info": {
            "adcode": 441623,
            "province": "广东省",
            "city": "河源市",
            "district": "连平县"
        }
    },
    {
        "id": "15143694263301027225",
        "title": "公共厕所",
        "address": "广东省河源市东源县G205与镇南路交叉口东南方向37米左右",
        "tel": "",
        "category": "基础设施:公共设施:公共厕所",
        "type": 0,
        "location": {
            "lat": 23.99928,
            "lng": 114.796016
        },
        "ad_info": {
            "adcode": 441625,
            "province": "广东省",
            "city": "河源市",
            "district": "东源县"
        }
    },
    {
        "id": "5125103795679962872",
        "title": "公共厕所",
        "address": "广东省河源市东源县G205与S229交叉口西南方向316米左右",
        "tel": "",
        "category": "基础设施:公共设施:公共厕所",
        "type": 0,
        "location": {
            "lat": 24.029382,
            "lng": 114.873089
        },
        "ad_info": {
            "adcode": 441625,
            "province": "广东省",
            "city": "河源市",
            "district": "东源县"
        }
    },
    {
        "id": "2822407544415029493",
        "title": "公共厕所",
        "address": "广东省河源市东源县X163与Y248交叉口正西方向1079米左右",
        "tel": "",
        "category": "基础设施:公共设施:公共厕所",
        "type": 0,
        "location": {
            "lat": 24.077534,
            "lng": 114.961753
        },
        "ad_info": {
            "adcode": 441625,
            "province": "广东省",
            "city": "河源市",
            "district": "东源县"
        }
    },
    {
        "id": "3625801165620192765",
        "title": "公共厕所",
        "address": "广东省河源市东源县G205与Y283交叉口正西方向105米左右",
        "tel": "",
        "category": "基础设施:公共设施:公共厕所",
        "type": 0,
        "location": {
            "lat": 24.015009,
            "lng": 114.991933
        },
        "ad_info": {
            "adcode": 441625,
            "province": "广东省",
            "city": "河源市",
            "district": "东源县"
        }
    },
    {
        "id": "5302560981354772824",
        "title": "公共厕所",
        "address": "广东省河源市龙川县Y706与Y941交叉口正东方向65米左右",
        "tel": "",
        "category": "基础设施:公共设施:公共厕所",
        "type": 0,
        "location": {
            "lat": 24.043609,
            "lng": 115.384676
        },
        "ad_info": {
            "adcode": 441622,
            "province": "广东省",
            "city": "河源市",
            "district": "龙川县"
        }
    },
    {
        "id": "16840112043058187192",
        "title": "公共厕所",
        "address": "广东省河源市紫金县新园路与金山大道交叉口西北50米",
        "tel": "",
        "category": "基础设施:公共设施:公共厕所",
        "type": 0,
        "location": {
            "lat": 23.628483,
            "lng": 115.188179
        },
        "ad_info": {
            "adcode": 441621,
            "province": "广东省",
            "city": "河源市",
            "district": "紫金县"
        }
    },
    {
        "id": "6043420851479827632",
        "title": "田心镇东坑村文化广场公共厕所",
        "address": "广东省河源市龙川县Y335与Y336交叉口西北方向353米左右",
        "tel": "",
        "category": "基础设施:公共设施:公共厕所",
        "type": 0,
        "location": {
            "lat": 24.304151,
            "lng": 115.527552
        },
        "ad_info": {
            "adcode": 441622,
            "province": "广东省",
            "city": "河源市",
            "district": "龙川县"
        }
    },
    {
        "id": "1291817441263819264",
        "title": "龙川服务区公共厕所",
        "address": "广东省河源市龙川县G205与Y137交叉口正北方向1283米左右",
        "tel": "",
        "category": "基础设施:公共设施:公共厕所",
        "type": 0,
        "location": {
            "lat": 24.096262,
            "lng": 115.309462
        },
        "ad_info": {
            "adcode": 441622,
            "province": "广东省",
            "city": "河源市",
            "district": "龙川县"
        }
    },
    {
        "id": "4034187390564506809",
        "title": "公共厕所",
        "address": "广东省河源市源城区新风路53号",
        "tel": "",
        "category": "基础设施:公共设施:公共厕所",
        "type": 0,
        "location": {
            "lat": 23.749726,
            "lng": 114.698466
        },
        "ad_info": {
            "adcode": 441602,
            "province": "广东省",
            "city": "河源市",
            "district": "源城区"
        }
    },
    {
        "id": "3499080965056844464",
        "title": "公共厕所",
        "address": "广东省河源市紫金县S340红日加油站",
        "tel": "",
        "category": "基础设施:公共设施:公共厕所",
        "type": 0,
        "location": {
            "lat": 23.520983,
            "lng": 114.823924
        },
        "ad_info": {
            "adcode": 441621,
            "province": "广东省",
            "city": "河源市",
            "district": "紫金县"
        }
    },
    {
        "id": "5393484053839885895",
        "title": "灵江村公共厕所",
        "address": "广东省河源市龙川县财大路",
        "tel": "",
        "category": "基础设施:公共设施:公共厕所",
        "type": 0,
        "location": {
            "lat": 24.067769,
            "lng": 115.186725
        },
        "ad_info": {
            "adcode": 441622,
            "province": "广东省",
            "city": "河源市",
            "district": "龙川县"
        }
    },
    {
        "id": "6282219156044881789",
        "title": "公共厕所",
        "address": "广东省河源市源城区大同路与兴源路交界万绿湖酒店对面新华书店旁边",
        "tel": "",
        "category": "基础设施:公共设施:公共厕所",
        "type": 0,
        "location": {
            "lat": 23.746672,
            "lng": 114.695326
        },
        "ad_info": {
            "adcode": 441602,
            "province": "广东省",
            "city": "河源市",
            "district": "源城区"
        }
    },
    {
        "id": "9040408288038004519",
        "title": "公共厕所",
        "address": "广东省河源市连平县忠和路与忠河路交叉口东南方向24米左右",
        "tel": "",
        "category": "基础设施:公共设施:公共厕所",
        "type": 0,
        "location": {
            "lat": 24.210869,
            "lng": 114.725156
        },
        "ad_info": {
            "adcode": 441623,
            "province": "广东省",
            "city": "河源市",
            "district": "连平县"
        }
    },
    {
        "id": "6258522697817635671",
        "title": "龙川服务区公共厕所",
        "address": "广东省河源市龙川县中国石化龙川服务区加油站西侧150米",
        "tel": "",
        "category": "基础设施:公共设施:公共厕所",
        "type": 0,
        "location": {
            "lat": 24.095512,
            "lng": 115.306241
        },
        "ad_info": {
            "adcode": 441622,
            "province": "广东省",
            "city": "河源市",
            "district": "龙川县"
        }
    },
    {
        "id": "12642940825645363039",
        "title": "公共厕所",
        "address": "广东省河源市紫金县S120与沿江路交叉口正北方向184米左右",
        "tel": "",
        "category": "基础设施:公共设施:公共厕所",
        "type": 0,
        "location": {
            "lat": 23.423622,
            "lng": 114.944831
        },
        "ad_info": {
            "adcode": 441621,
            "province": "广东省",
            "city": "河源市",
            "district": "紫金县"
        }
    },
    {
        "id": "1313806862096933835",
        "title": "月光正村公共厕所",
        "address": "广东省河源市龙川县",
        "tel": "",
        "category": "基础设施:公共设施:公共厕所",
        "type": 0,
        "location": {
            "lat": 24.706157,
            "lng": 115.267493
        },
        "ad_info": {
            "adcode": 441622,
            "province": "广东省",
            "city": "河源市",
            "district": "龙川县"
        }
    },
    {
        "id": "3786440370788729647",
        "title": "三印村公共厕所",
        "address": "广东省河源市龙川县X159",
        "tel": "",
        "category": "基础设施:公共设施:公共厕所",
        "type": 0,
        "location": {
            "lat": 23.954422,
            "lng": 115.188702
        },
        "ad_info": {
            "adcode": 441622,
            "province": "广东省",
            "city": "河源市",
            "district": "龙川县"
        }
    },
    {
        "id": "1191166354087890087",
        "title": "黄花村寨口公厕",
        "address": "广东省河源市龙川县黄花村",
        "tel": "",
        "category": "基础设施:公共设施:公共厕所",
        "type": 0,
        "location": {
            "lat": 24.668957,
            "lng": 115.291861
        },
        "ad_info": {
            "adcode": 441622,
            "province": "广东省",
            "city": "河源市",
            "district": "龙川县"
        }
    },
    {
        "id": "15408746524451260069",
        "title": "洗手间",
        "address": "广东省河源市源城区如意街与广场路交叉口西北方向159米左右",
        "tel": "",
        "category": "基础设施:公共设施:公共厕所",
        "type": 0,
        "location": {
            "lat": 23.76309,
            "lng": 114.685147
        },
        "ad_info": {
            "adcode": 441602,
            "province": "广东省",
            "city": "河源市",
            "district": "源城区"
        }
    },
    {
        "id": "12960066403255541925",
        "title": "公共厕所",
        "address": "广东省河源市紫金县S120与叶塘桥交叉口正西方向73米左右",
        "tel": "",
        "category": "基础设施:公共设施:公共厕所",
        "type": 0,
        "location": {
            "lat": 23.535081,
            "lng": 115.110201
        },
        "ad_info": {
            "adcode": 441621,
            "province": "广东省",
            "city": "河源市",
            "district": "紫金县"
        }
    },
    {
        "id": "14021806493699727086",
        "title": "公共厕所",
        "address": "广东省河源市连平县G105与新南街交叉口正北方向104米左右",
        "tel": "",
        "category": "基础设施:公共设施:公共厕所",
        "type": 0,
        "location": {
            "lat": 24.184867,
            "lng": 114.365804
        },
        "ad_info": {
            "adcode": 441623,
            "province": "广东省",
            "city": "河源市",
            "district": "连平县"
        }
    },
    {
        "id": "4937785617936757353",
        "title": "红星公园公共厕所",
        "address": "广东省河源市源城区星云街与红星东路交叉口东南方向31米左右",
        "tel": "",
        "category": "基础设施:公共设施:公共厕所",
        "type": 0,
        "location": {
            "lat": 23.7617,
            "lng": 114.72335
        },
        "ad_info": {
            "adcode": 441602,
            "province": "广东省",
            "city": "河源市",
            "district": "源城区"
        }
    },
    {
        "id": "14922626440406110940",
        "title": "公共厕所",
        "address": "广东省河源市源城区环城东路63号",
        "tel": "",
        "category": "基础设施:公共设施:公共厕所",
        "type": 0,
        "location": {
            "lat": 23.73455,
            "lng": 114.69783
        },
        "ad_info": {
            "adcode": 441602,
            "province": "广东省",
            "city": "河源市",
            "district": "源城区"
        }
    },
    {
        "id": "17723447396250350112",
        "title": "公共厕所",
        "address": "广东省河源市和平县Y140与水背大桥交叉口东北方向103米左右",
        "tel": "",
        "category": "基础设施:公共设施:公共厕所",
        "type": 0,
        "location": {
            "lat": 24.483798,
            "lng": 114.93476
        },
        "ad_info": {
            "adcode": 441624,
            "province": "广东省",
            "city": "河源市",
            "district": "和平县"
        }
    },
    {
        "id": "3054769582775327429",
        "title": "803公共厕所",
        "address": "广东省河源市龙川县东风东路与东风西路交叉口正东方向103米左右",
        "tel": "",
        "category": "基础设施:公共设施:公共厕所",
        "type": 0,
        "location": {
            "lat": 24.099281,
            "lng": 115.263444
        },
        "ad_info": {
            "adcode": 441622,
            "province": "广东省",
            "city": "河源市",
            "district": "龙川县"
        }
    },
    {
        "id": "9864506957535747764",
        "title": "公共厕所",
        "address": "广东省河源市和平县Y181与Y311交叉口西南方向73米左右",
        "tel": "",
        "category": "基础设施:公共设施:公共厕所",
        "type": 0,
        "location": {
            "lat": 24.504322,
            "lng": 115.092181
        },
        "ad_info": {
            "adcode": 441624,
            "province": "广东省",
            "city": "河源市",
            "district": "和平县"
        }
    },
    {
        "id": "12083260714171432644",
        "title": "公共厕所",
        "address": "广东省河源市连平县341省道与G4511龙河高速入口交叉口东南100米",
        "tel": "",
        "category": "基础设施:公共设施:公共厕所",
        "type": 0,
        "location": {
            "lat": 24.172423,
            "lng": 114.754238
        },
        "ad_info": {
            "adcode": 441623,
            "province": "广东省",
            "city": "河源市",
            "district": "连平县"
        }
    },
    {
        "id": "12829055400515945515",
        "title": "公共厕所",
        "address": "广东省河源市和平县新华路与滨江西路交叉口正东方向100米左右",
        "tel": "",
        "category": "基础设施:公共设施:公共厕所",
        "type": 0,
        "location": {
            "lat": 24.449346,
            "lng": 114.940839
        },
        "ad_info": {
            "adcode": 441624,
            "province": "广东省",
            "city": "河源市",
            "district": "和平县"
        }
    },
    {
        "id": "650176967714146321",
        "title": "肯德基(河源丽日餐厅)-洗手间",
        "address": "广东省河源市源城区新江一路与河源大道交叉口正西方向80米左右",
        "tel": "",
        "category": "基础设施:公共设施:公共厕所",
        "type": 0,
        "location": {
            "lat": 23.743849,
            "lng": 114.687957
        },
        "ad_info": {
            "adcode": 441602,
            "province": "广东省",
            "city": "河源市",
            "district": "源城区"
        }
    },
    {
        "id": "14241974878323942885",
        "title": "公共厕所",
        "address": "广东省河源市和平县环城东路与福和大道交叉口东南方向256米左右",
        "tel": "",
        "category": "基础设施:公共设施:公共厕所",
        "type": 0,
        "location": {
            "lat": 24.457195,
            "lng": 114.968506
        },
        "ad_info": {
            "adcode": 441624,
            "province": "广东省",
            "city": "河源市",
            "district": "和平县"
        }
    },
    {
        "id": "16115795122625063191",
        "title": "公共厕所",
        "address": "广东省河源市和平县东山路230号",
        "tel": "",
        "category": "基础设施:公共设施:公共厕所",
        "type": 0,
        "location": {
            "lat": 24.432465,
            "lng": 114.940333
        },
        "ad_info": {
            "adcode": 441624,
            "province": "广东省",
            "city": "河源市",
            "district": "和平县"
        }
    },
    {
        "id": "7712085661648261673",
        "title": "公共厕所",
        "address": "广东省河源市和平县G238与Y194交叉口西南方向213米左右",
        "tel": "",
        "category": "基础设施:公共设施:公共厕所",
        "type": 0,
        "location": {
            "lat": 24.451224,
            "lng": 115.205654
        },
        "ad_info": {
            "adcode": 441624,
            "province": "广东省",
            "city": "河源市",
            "district": "和平县"
        }
    },
    {
        "id": "15702362816129889668",
        "title": "无障碍公共厕所",
        "address": "广东省河源市源城区下肖巷与中心街交叉口正西方向55米左右",
        "tel": "",
        "category": "基础设施:公共设施:公共厕所",
        "type": 0,
        "location": {
            "lat": 23.739996,
            "lng": 114.693047
        },
        "ad_info": {
            "adcode": 441602,
            "province": "广东省",
            "city": "河源市",
            "district": "源城区"
        }
    },
    {
        "id": "6912222397866877886",
        "title": "公共厕所",
        "address": "广东省河源市和平县Y273与良排老桥交叉口西南方向86米左右",
        "tel": "",
        "category": "基础设施:公共设施:公共厕所",
        "type": 0,
        "location": {
            "lat": 24.364725,
            "lng": 114.918844
        },
        "ad_info": {
            "adcode": 441624,
            "province": "广东省",
            "city": "河源市",
            "district": "和平县"
        }
    },
    {
        "id": "9973711900102568940",
        "title": "公共厕所",
        "address": "广东省河源市紫金县S243与Y041交叉口西南方向23米左右",
        "tel": "",
        "category": "基础设施:公共设施:公共厕所",
        "type": 0,
        "location": {
            "lat": 23.584286,
            "lng": 114.982935
        },
        "ad_info": {
            "adcode": 441621,
            "province": "广东省",
            "city": "河源市",
            "district": "紫金县"
        }
    },
    {
        "id": "12638239829557395366",
        "title": "公共厕所",
        "address": "广东省河源市和平县X163与公白桥交叉口正西方向66米左右",
        "tel": "",
        "category": "基础设施:公共设施:公共厕所",
        "type": 0,
        "location": {
            "lat": 24.273171,
            "lng": 114.953861
        },
        "ad_info": {
            "adcode": 441624,
            "province": "广东省",
            "city": "河源市",
            "district": "和平县"
        }
    },
    {
        "id": "3909945753583547233",
        "title": "公共厕所",
        "address": "广东省河源市和平县G238与和平大道交叉口东南方向143米左右",
        "tel": "",
        "category": "基础设施:公共设施:公共厕所",
        "type": 0,
        "location": {
            "lat": 24.417841,
            "lng": 114.938732
        },
        "ad_info": {
            "adcode": 441624,
            "province": "广东省",
            "city": "河源市",
            "district": "和平县"
        }
    },
    {
        "id": "3038785403465039836",
        "title": "公共厕所",
        "address": "广东省河源市和平县大坪街56号",
        "tel": "",
        "category": "基础设施:公共设施:公共厕所",
        "type": 0,
        "location": {
            "lat": 24.352748,
            "lng": 114.807059
        },
        "ad_info": {
            "adcode": 441624,
            "province": "广东省",
            "city": "河源市",
            "district": "和平县"
        }
    },
    {
        "id": "15255506999943189723",
        "title": "公共厕所",
        "address": "广东省河源市和平县G238与Y213交叉口东南方向759米左右",
        "tel": "",
        "category": "基础设施:公共设施:公共厕所",
        "type": 0,
        "location": {
            "lat": 24.367651,
            "lng": 115.064036
        },
        "ad_info": {
            "adcode": 441624,
            "province": "广东省",
            "city": "河源市",
            "district": "和平县"
        }
    },
    {
        "id": "11343720776203735168",
        "title": "东江野战俱乐部旅游厕所",
        "address": "广东省河源市东源县东江野战俱乐部南侧230米",
        "tel": "",
        "category": "基础设施:公共设施:公共厕所",
        "type": 0,
        "location": {
            "lat": 23.775105,
            "lng": 114.754144
        },
        "ad_info": {
            "adcode": 441625,
            "province": "广东省",
            "city": "河源市",
            "district": "东源县"
        }
    },
    {
        "id": "10610366970752011261",
        "title": "黄村服务区公共厕所",
        "address": "广东省河源市东源县中国石化黄村服务区加油站东南侧80米",
        "tel": "",
        "category": "基础设施:公共设施:公共厕所",
        "type": 0,
        "location": {
            "lat": 23.831022,
            "lng": 115.212926
        },
        "ad_info": {
            "adcode": 441625,
            "province": "广东省",
            "city": "河源市",
            "district": "东源县"
        }
    },
    {
        "id": "13833875733776959789",
        "title": "广场路公共厕所",
        "address": "广东省河源市龙川县人民路与广场路交叉口西南方向35米左右",
        "tel": "",
        "category": "基础设施:公共设施:公共厕所",
        "type": 0,
        "location": {
            "lat": 24.10038,
            "lng": 115.256728
        },
        "ad_info": {
            "adcode": 441622,
            "province": "广东省",
            "city": "河源市",
            "district": "龙川县"
        }
    },
    {
        "id": "18258431453077731879",
        "title": "公共厕所",
        "address": "广东省河源市连平县G358与老猪角桥交叉口东北方向490米左右",
        "tel": "",
        "category": "基础设施:公共设施:公共厕所",
        "type": 0,
        "location": {
            "lat": 24.39292,
            "lng": 114.342645
        },
        "ad_info": {
            "adcode": 441623,
            "province": "广东省",
            "city": "河源市",
            "district": "连平县"
        }
    },
    {
        "id": "14403094664627417737",
        "title": "热水服务区公共厕所",
        "address": "广东省河源市东源县长深高速热水服务区",
        "tel": "",
        "category": "基础设施:公共设施:公共厕所",
        "type": 0,
        "location": {
            "lat": 23.822183,
            "lng": 114.74891
        },
        "ad_info": {
            "adcode": 441625,
            "province": "广东省",
            "city": "河源市",
            "district": "东源县"
        }
    },
    {
        "id": "1585611621774828614",
        "title": "蓝塘服务区公共厕所",
        "address": "广东省河源市紫金县Y231与Y266交叉口正北方向665米左右",
        "tel": "",
        "category": "基础设施:公共设施:公共厕所",
        "type": 0,
        "location": {
            "lat": 23.419501,
            "lng": 114.898049
        },
        "ad_info": {
            "adcode": 441621,
            "province": "广东省",
            "city": "河源市",
            "district": "紫金县"
        }
    },
    {
        "id": "3374791242393334202",
        "title": "无障碍公共厕所",
        "address": "广东省河源市和平县岭排路与群众路交叉口西南方向96米左右",
        "tel": "",
        "category": "基础设施:公共设施:公共厕所",
        "type": 0,
        "location": {
            "lat": 24.439255,
            "lng": 114.938517
        },
        "ad_info": {
            "adcode": 441624,
            "province": "广东省",
            "city": "河源市",
            "district": "和平县"
        }
    },
    {
        "id": "12781794221142561985",
        "title": "蓝口服务区公共厕所",
        "address": "广东省河源市东源县Y403与Y511交叉口西南方向1709米左右",
        "tel": "",
        "category": "基础设施:公共设施:公共厕所",
        "type": 0,
        "location": {
            "lat": 23.931624,
            "lng": 115.068585
        },
        "ad_info": {
            "adcode": 441625,
            "province": "广东省",
            "city": "河源市",
            "district": "东源县"
        }
    },
    {
        "id": "16385173353397731906",
        "title": "城东公共厕所",
        "address": "广东省河源市紫金县永安大道北一街与永安大道北交叉口正南方向93米左右",
        "tel": "",
        "category": "基础设施:公共设施:公共厕所",
        "type": 0,
        "location": {
            "lat": 23.636172,
            "lng": 115.188153
        },
        "ad_info": {
            "adcode": 441621,
            "province": "广东省",
            "city": "河源市",
            "district": "紫金县"
        }
    },
    {
        "id": "4905283097752202013",
        "title": "公共厕所",
        "address": "广东省河源市和平县福和大道与龙湖中路交叉口正东方向181米左右",
        "tel": "",
        "category": "基础设施:公共设施:公共厕所",
        "type": 0,
        "location": {
            "lat": 24.449703,
            "lng": 114.951116
        },
        "ad_info": {
            "adcode": 441624,
            "province": "广东省",
            "city": "河源市",
            "district": "和平县"
        }
    },
    {
        "id": "10664026577277320520",
        "title": "忠信服务区公共厕所",
        "address": "广东省河源市连平县G4511龙河高速与忠信服务区交叉口东北400米",
        "tel": "",
        "category": "基础设施:公共设施:公共厕所",
        "type": 0,
        "location": {
            "lat": 24.205315,
            "lng": 114.827793
        },
        "ad_info": {
            "adcode": 441623,
            "province": "广东省",
            "city": "河源市",
            "district": "连平县"
        }
    },
    {
        "id": "13544576086304880662",
        "title": "瓦溪服务区公共厕所",
        "address": "广东省河源市紫金县中国石化瓦溪服务区北加油站东北侧180米",
        "tel": "",
        "category": "基础设施:公共设施:公共厕所",
        "type": 0,
        "location": {
            "lat": 23.52102,
            "lng": 115.087598
        },
        "ad_info": {
            "adcode": 441621,
            "province": "广东省",
            "city": "河源市",
            "district": "紫金县"
        }
    },
    {
        "id": "4864408357651020068",
        "title": "连平服务区公共厕所",
        "address": "广东省河源市连平县105线与G105交叉口正西方向713米左右",
        "tel": "",
        "category": "基础设施:公共设施:公共厕所",
        "type": 0,
        "location": {
            "lat": 24.445809,
            "lng": 114.566029
        },
        "ad_info": {
            "adcode": 441623,
            "province": "广东省",
            "city": "河源市",
            "district": "连平县"
        }
    },
    {
        "id": "1978168733183760840",
        "title": "和平服务区公共厕所",
        "address": "广东省河源市和平县和平服务区与G4511龙河高速交叉口南360米",
        "tel": "",
        "category": "基础设施:公共设施:公共厕所",
        "type": 0,
        "location": {
            "lat": 24.484619,
            "lng": 114.913439
        },
        "ad_info": {
            "adcode": 441624,
            "province": "广东省",
            "city": "河源市",
            "district": "和平县"
        }
    },
    {
        "id": "7891949834158971548",
        "title": "连平东服务区公共厕所",
        "address": "广东省河源市连平县Y199与忠和路交叉口正北方向781米左右",
        "tel": "",
        "category": "基础设施:公共设施:公共厕所",
        "type": 0,
        "location": {
            "lat": 24.219711,
            "lng": 114.742179
        },
        "ad_info": {
            "adcode": 441623,
            "province": "广东省",
            "city": "河源市",
            "district": "连平县"
        }
    },
    {
        "id": "14658809671635512863",
        "title": "忠信服务区第二公共厕所",
        "address": "广东省河源市连平县三角立交与龙河高速交叉口东北方向1667米左右",
        "tel": "",
        "category": "基础设施:公共设施:公共厕所",
        "type": 0,
        "location": {
            "lat": 24.204035,
            "lng": 114.827346
        },
        "ad_info": {
            "adcode": 441623,
            "province": "广东省",
            "city": "河源市",
            "district": "连平县"
        }
    },
    {
        "id": "10417619840202960448",
        "title": "连平服务区公共厕所",
        "address": "广东省河源市连平县经石连平服务区加油站北侧80米",
        "tel": "",
        "category": "基础设施:公共设施:公共厕所",
        "type": 0,
        "location": {
            "lat": 24.447411,
            "lng": 114.564518
        },
        "ad_info": {
            "adcode": 441623,
            "province": "广东省",
            "city": "河源市",
            "district": "连平县"
        }
    },
    {
        "id": "5594317274438830905",
        "title": "和平服务区公共厕所",
        "address": "广东省河源市和平县中国石化和平东加油站南侧140米",
        "tel": "",
        "category": "基础设施:公共设施:公共厕所",
        "type": 0,
        "location": {
            "lat": 24.482491,
            "lng": 114.915585
        },
        "ad_info": {
            "adcode": 441624,
            "province": "广东省",
            "city": "河源市",
            "district": "和平县"
        }
    },
    {
        "id": "3102609805054285052",
        "title": "公共厕所",
        "address": "广东省河源市紫金县S230与Y324交叉口正北方向295米左右",
        "tel": "",
        "category": "基础设施:公共设施:公共厕所",
        "type": 0,
        "location": {
            "lat": 23.541758,
            "lng": 114.699468
        },
        "ad_info": {
            "adcode": 441621,
            "province": "广东省",
            "city": "河源市",
            "district": "紫金县"
        }
    },
    {
        "id": "3457134551367192133",
        "title": "龙母停车区公共厕所",
        "address": "广东省河源市龙川县龙母停车区服务综合楼东南侧190米",
        "tel": "",
        "category": "基础设施:公共设施:公共厕所",
        "type": 0,
        "location": {
            "lat": 24.283949,
            "lng": 115.432926
        },
        "ad_info": {
            "adcode": 441622,
            "province": "广东省",
            "city": "河源市",
            "district": "龙川县"
        }
    },
    {
        "id": "10164051851540072523",
        "title": "公共厕所",
        "address": "广东省河源市龙川县先烈路48号",
        "tel": "",
        "category": "基础设施:公共设施:公共厕所",
        "type": 0,
        "location": {
            "lat": 24.097349,
            "lng": 115.257422
        },
        "ad_info": {
            "adcode": 441622,
            "province": "广东省",
            "city": "河源市",
            "district": "龙川县"
        }
    },
    {
        "id": "933990554470818885",
        "title": "公共厕所",
        "address": "广东省河源市龙川县东风西路18号",
        "tel": "",
        "category": "基础设施:公共设施:公共厕所",
        "type": 0,
        "location": {
            "lat": 24.088092,
            "lng": 115.24597
        },
        "ad_info": {
            "adcode": 441622,
            "province": "广东省",
            "city": "河源市",
            "district": "龙川县"
        }
    },
    {
        "id": "3078894187229119991",
        "title": "细坳村公共厕所",
        "address": "广东省河源市龙川县",
        "tel": "",
        "category": "基础设施:公共设施:公共厕所",
        "type": 0,
        "location": {
            "lat": 24.694185,
            "lng": 115.241916
        },
        "ad_info": {
            "adcode": 441622,
            "province": "广东省",
            "city": "河源市",
            "district": "龙川县"
        }
    },
    {
        "id": "7898581905363546931",
        "title": "公共厕所",
        "address": "广东省河源市东源县新回龙镇880乡道东星村万绿湖畔万绿湖·万绿谷游览区原生态游览区漂流服务区",
        "tel": "",
        "category": "基础设施:公共设施:公共厕所",
        "type": 0,
        "location": {
            "lat": 23.71474,
            "lng": 114.53053
        },
        "ad_info": {
            "adcode": 441625,
            "province": "广东省",
            "city": "河源市",
            "district": "东源县"
        }
    },
    {
        "id": "8798542742838094459",
        "title": "公共厕所",
        "address": "广东省河源市连平县谢氏复澈公祠西南侧",
        "tel": "",
        "category": "基础设施:公共设施:公共厕所",
        "type": 0,
        "location": {
            "lat": 24.405353,
            "lng": 114.261764
        },
        "ad_info": {
            "adcode": 441623,
            "province": "广东省",
            "city": "河源市",
            "district": "连平县"
        }
    },
    {
        "id": "4154235333074776408",
        "title": "公共厕所",
        "address": "广东省河源市东源县义合镇下屯江湾红色实训基地旅游厕所",
        "tel": "",
        "category": "基础设施:公共设施:公共厕所",
        "type": 0,
        "location": {
            "lat": 23.848242,
            "lng": 114.869641
        },
        "ad_info": {
            "adcode": 441625,
            "province": "广东省",
            "city": "河源市",
            "district": "东源县"
        }
    },
    {
        "id": "7249165164449559742",
        "title": "公共厕所(GD-HY-0517)",
        "address": "广东省河源市东源县",
        "tel": "",
        "category": "基础设施:公共设施:公共厕所",
        "type": 0,
        "location": {
            "lat": 23.902632,
            "lng": 114.705584
        },
        "ad_info": {
            "adcode": 441625,
            "province": "广东省",
            "city": "河源市",
            "district": "东源县"
        }
    },
    {
        "id": "8063596517250564904",
        "title": "上陵停车区公共厕所",
        "address": "广东省河源市和平县S511与Y308交叉口正南方向816米左右",
        "tel": "",
        "category": "基础设施:公共设施:公共厕所",
        "type": 0,
        "location": {
            "lat": 24.592396,
            "lng": 114.966281
        },
        "ad_info": {
            "adcode": 441624,
            "province": "广东省",
            "city": "河源市",
            "district": "和平县"
        }
    },
    {
        "id": "15734331007766051744",
        "title": "龙母停车区公共厕所",
        "address": "广东省河源市龙川县上洋田小学东南侧270米",
        "tel": "",
        "category": "基础设施:公共设施:公共厕所",
        "type": 0,
        "location": {
            "lat": 24.285353,
            "lng": 115.431723
        },
        "ad_info": {
            "adcode": 441622,
            "province": "广东省",
            "city": "河源市",
            "district": "龙川县"
        }
    },
    {
        "id": "18441265606954050666",
        "title": "公共厕所",
        "address": "广东省河源市龙川县老隆镇先烈路29号",
        "tel": "",
        "category": "基础设施:公共设施:公共厕所",
        "type": 0,
        "location": {
            "lat": 24.097298,
            "lng": 115.257143
        },
        "ad_info": {
            "adcode": 441622,
            "province": "广东省",
            "city": "河源市",
            "district": "龙川县"
        }
    },
    {
        "id": "16365777170872636819",
        "title": "公共厕所",
        "address": "广东省河源市和平县仙女灵石风景区东北侧110米",
        "tel": "",
        "category": "基础设施:公共设施:公共厕所",
        "type": 0,
        "location": {
            "lat": 24.485595,
            "lng": 115.006063
        },
        "ad_info": {
            "adcode": 441624,
            "province": "广东省",
            "city": "河源市",
            "district": "和平县"
        }
    },
    {
        "id": "17509935301599826605",
        "title": "公共厕所",
        "address": "广东省河源市东源县Y158与Y404交叉口正西方向508米左右",
        "tel": "",
        "category": "基础设施:公共设施:公共厕所",
        "type": 0,
        "location": {
            "lat": 23.931919,
            "lng": 114.685936
        },
        "ad_info": {
            "adcode": 441625,
            "province": "广东省",
            "city": "河源市",
            "district": "东源县"
        }
    },
    {
        "id": "697540311746979884",
        "title": "佗城影剧院-公共厕所",
        "address": "广东省河源市龙川县G205与中心街交叉口东南方向566米左右",
        "tel": "",
        "category": "基础设施:公共设施:公共厕所",
        "type": 0,
        "location": {
            "lat": 24.059189,
            "lng": 115.191934
        },
        "ad_info": {
            "adcode": 441622,
            "province": "广东省",
            "city": "河源市",
            "district": "龙川县"
        }
    },
    {
        "id": "908867145023957207",
        "title": "公共厕所(GD-HY-0580)",
        "address": "广东省河源市连平县",
        "tel": "",
        "category": "基础设施:公共设施:公共厕所",
        "type": 0,
        "location": {
            "lat": 24.255505,
            "lng": 114.300849
        },
        "ad_info": {
            "adcode": 441623,
            "province": "广东省",
            "city": "河源市",
            "district": "连平县"
        }
    },
    {
        "id": "12671534244953217180",
        "title": "公共厕所(和平县下车镇中心卫生院对面市场)",
        "address": "广东省河源市和平县下车街中心卫生院对面市场一楼",
        "tel": "",
        "category": "基础设施:公共设施:公共厕所",
        "type": 0,
        "location": {
            "lat": 24.660838,
            "lng": 115.117078
        },
        "ad_info": {
            "adcode": 441624,
            "province": "广东省",
            "city": "河源市",
            "district": "和平县"
        }
    },
    {
        "id": "17917176948854869495",
        "title": "公共厕所",
        "address": "广东省河源市和平县商业步行街与福和大道交叉口正北方向40米左右",
        "tel": "",
        "category": "基础设施:公共设施:公共厕所",
        "type": 0,
        "location": {
            "lat": 24.450591,
            "lng": 114.931979
        },
        "ad_info": {
            "adcode": 441624,
            "province": "广东省",
            "city": "河源市",
            "district": "和平县"
        }
    },
    {
        "id": "16335848967791337426",
        "title": "公共厕所",
        "address": "广东省河源市龙川县绿油花果树小镇西侧110米",
        "tel": "",
        "category": "基础设施:公共设施:公共厕所",
        "type": 0,
        "location": {
            "lat": 24.394495,
            "lng": 115.440906
        },
        "ad_info": {
            "adcode": 441622,
            "province": "广东省",
            "city": "河源市",
            "district": "龙川县"
        }
    },
    {
        "id": "17956332880061733173",
        "title": "公共厕所(粤赣古驿道贝岭社下坝)",
        "address": "广东省河源市龙川县S457与S511交叉口正南方向356米左右",
        "tel": "",
        "category": "基础设施:公共设施:公共厕所",
        "type": 0,
        "location": {
            "lat": 24.591683,
            "lng": 115.343796
        },
        "ad_info": {
            "adcode": 441622,
            "province": "广东省",
            "city": "河源市",
            "district": "龙川县"
        }
    },
    {
        "id": "14611939393013002942",
        "title": "公共厕所",
        "address": "广东省河源市和平县公白镇公白学校新陂教学点南侧",
        "tel": "",
        "category": "基础设施:公共设施:公共厕所",
        "type": 0,
        "location": {
            "lat": 24.320889,
            "lng": 114.955273
        },
        "ad_info": {
            "adcode": 441624,
            "province": "广东省",
            "city": "河源市",
            "district": "和平县"
        }
    },
    {
        "id": "6031844961916594573",
        "title": "公共厕所",
        "address": "广东省河源市东源县绿天地农业发展有限公司北侧",
        "tel": "",
        "category": "基础设施:公共设施:公共厕所",
        "type": 0,
        "location": {
            "lat": 23.992737,
            "lng": 114.749407
        },
        "ad_info": {
            "adcode": 441625,
            "province": "广东省",
            "city": "河源市",
            "district": "东源县"
        }
    },
    {
        "id": "14005053318441564289",
        "title": "船塘服务区公共厕所",
        "address": "广东省河源市东源县Y223与Y227交叉口正东方向514米左右",
        "tel": "",
        "category": "基础设施:公共设施:公共厕所",
        "type": 0,
        "location": {
            "lat": 24.151233,
            "lng": 114.980574
        },
        "ad_info": {
            "adcode": 441625,
            "province": "广东省",
            "city": "河源市",
            "district": "东源县"
        }
    },
    {
        "id": "8349985476506153750",
        "title": "上陵停车区公共厕所",
        "address": "广东省河源市和平县上陵停车区西侧",
        "tel": "",
        "category": "基础设施:公共设施:公共厕所",
        "type": 0,
        "location": {
            "lat": 24.593516,
            "lng": 114.964731
        },
        "ad_info": {
            "adcode": 441624,
            "province": "广东省",
            "city": "河源市",
            "district": "和平县"
        }
    },
    {
        "id": "11739685605660984583",
        "title": "公共厕所(贝岭镇宫下村龙赣古驿道)",
        "address": "广东省河源市龙川县Y429与盘陂桥交叉口西南方向1443米左右",
        "tel": "",
        "category": "基础设施:公共设施:公共厕所",
        "type": 0,
        "location": {
            "lat": 24.596587,
            "lng": 115.33016
        },
        "ad_info": {
            "adcode": 441622,
            "province": "广东省",
            "city": "河源市",
            "district": "龙川县"
        }
    },
    {
        "id": "14518377408967817801",
        "title": "公共厕所",
        "address": "广东省河源市和平县商业步行街与福和大道交叉口东北方向54米左右",
        "tel": "",
        "category": "基础设施:公共设施:公共厕所",
        "type": 0,
        "location": {
            "lat": 24.450583,
            "lng": 114.93224
        },
        "ad_info": {
            "adcode": 441624,
            "province": "广东省",
            "city": "河源市",
            "district": "和平县"
        }
    },
    {
        "id": "9450004387907459418",
        "title": "麻布岗服务区公共厕所",
        "address": "广东省河源市龙川县中国石化麻布岗服务区加油站南侧110米",
        "tel": "",
        "category": "基础设施:公共设施:公共厕所",
        "type": 0,
        "location": {
            "lat": 24.604509,
            "lng": 115.467969
        },
        "ad_info": {
            "adcode": 441622,
            "province": "广东省",
            "city": "河源市",
            "district": "龙川县"
        }
    },
    {
        "id": "2004743583167619201",
        "title": "公共厕所(贝岭镇文化广场)",
        "address": "广东省河源市龙川县S457与S511交叉口西南方向695米左右",
        "tel": "",
        "category": "基础设施:公共设施:公共厕所",
        "type": 0,
        "location": {
            "lat": 24.590419,
            "lng": 115.339969
        },
        "ad_info": {
            "adcode": 441622,
            "province": "广东省",
            "city": "河源市",
            "district": "龙川县"
        }
    },
    {
        "id": "4043988332070486743",
        "title": "公共厕所",
        "address": "广东省河源市龙川县黎咀镇宜坑村文化广场旅游厕所",
        "tel": "",
        "category": "基础设施:公共设施:公共厕所",
        "type": 0,
        "location": {
            "lat": 24.389959,
            "lng": 115.365593
        },
        "ad_info": {
            "adcode": 441622,
            "province": "广东省",
            "city": "河源市",
            "district": "龙川县"
        }
    },
    {
        "id": "12385440216422038501",
        "title": "公共厕所",
        "address": "广东省河源市龙川县廻龙供销大楼东北侧",
        "tel": "",
        "category": "基础设施:公共设施:公共厕所",
        "type": 0,
        "location": {
            "lat": 24.368951,
            "lng": 115.530915
        },
        "ad_info": {
            "adcode": 441622,
            "province": "广东省",
            "city": "河源市",
            "district": "龙川县"
        }
    },
    {
        "id": "12739684007083952078",
        "title": "公共厕所(双羊村)",
        "address": "广东省河源市龙川县G236与S339交叉口正西方向101米左右",
        "tel": "",
        "category": "基础设施:公共设施:公共厕所",
        "type": 0,
        "location": {
            "lat": 24.38726,
            "lng": 115.435854
        },
        "ad_info": {
            "adcode": 441622,
            "province": "广东省",
            "city": "河源市",
            "district": "龙川县"
        }
    },
    {
        "id": "2958907781560904318",
        "title": "贵湖村公共厕所",
        "address": "广东省河源市龙川县",
        "tel": "",
        "category": "基础设施:公共设施:公共厕所",
        "type": 0,
        "location": {
            "lat": 24.718198,
            "lng": 115.288051
        },
        "ad_info": {
            "adcode": 441622,
            "province": "广东省",
            "city": "河源市",
            "district": "龙川县"
        }
    },
    {
        "id": "7009579044239481869",
        "title": "丽日购物广场(河源中心城店)-洗手间",
        "address": "广东省河源市源城区河源大道北1号丽日购物广场F3",
        "tel": "",
        "category": "基础设施:公共设施:公共厕所",
        "type": 0,
        "location": {
            "lat": 23.743117,
            "lng": 114.688154
        },
        "ad_info": {
            "adcode": 441602,
            "province": "广东省",
            "city": "河源市",
            "district": "源城区"
        }
    },
    {
        "id": "8140426645829644591",
        "title": "鹤市服务区公共厕所",
        "address": "广东省河源市龙川县中国石化鹤市服务区加油站西南侧120米",
        "tel": "",
        "category": "基础设施:公共设施:公共厕所",
        "type": 0,
        "location": {
            "lat": 24.025668,
            "lng": 115.338299
        },
        "ad_info": {
            "adcode": 441622,
            "province": "广东省",
            "city": "河源市",
            "district": "龙川县"
        }
    },
    {
        "id": "8115058430115047128",
        "title": "公共厕所",
        "address": "广东省河源市龙川县Y230与一环路交叉口正北方向152米左右",
        "tel": "",
        "category": "基础设施:公共设施:公共厕所",
        "type": 0,
        "location": {
            "lat": 24.104488,
            "lng": 115.266729
        },
        "ad_info": {
            "adcode": 441622,
            "province": "广东省",
            "city": "河源市",
            "district": "龙川县"
        }
    },
    {
        "id": "748391066660695378",
        "title": "正鑫公寓",
        "address": "广东省河源市源城区力王大道与河源大道交叉口正西方向53米左右",
        "tel": "",
        "category": "基础设施:公共设施:公共厕所",
        "type": 0,
        "location": {
            "lat": 23.680893,
            "lng": 114.679345
        },
        "ad_info": {
            "adcode": 441602,
            "province": "广东省",
            "city": "河源市",
            "district": "源城区"
        }
    },
    {
        "id": "4952257865270795079",
        "title": "公共厕所",
        "address": "广东省河源市连平县G105与上兴一街交叉口西北方向224米左右",
        "tel": "",
        "category": "基础设施:公共设施:公共厕所",
        "type": 0,
        "location": {
            "lat": 24.482181,
            "lng": 114.594111
        },
        "ad_info": {
            "adcode": 441623,
            "province": "广东省",
            "city": "河源市",
            "district": "连平县"
        }
    },
    {
        "id": "4552998942774930202",
        "title": "无障碍洗手间",
        "address": "广东省河源市和平县福和大道与龙湖中路交叉口正东方向179米左右",
        "tel": "",
        "category": "基础设施:公共设施:公共厕所",
        "type": 0,
        "location": {
            "lat": 24.449739,
            "lng": 114.951103
        },
        "ad_info": {
            "adcode": 441624,
            "province": "广东省",
            "city": "河源市",
            "district": "和平县"
        }
    },
    {
        "id": "17358130659617094135",
        "title": "上蒙村公共厕所",
        "address": "广东省河源市龙川县",
        "tel": "",
        "category": "基础设施:公共设施:公共厕所",
        "type": 0,
        "location": {
            "lat": 24.02812,
            "lng": 115.250359
        },
        "ad_info": {
            "adcode": 441622,
            "province": "广东省",
            "city": "河源市",
            "district": "龙川县"
        }
    },
    {
        "id": "7675365349233365863",
        "title": "公共厕所",
        "address": "广东省河源市源城区建设大道西站前路河源站",
        "tel": "",
        "category": "基础设施:公共设施:公共厕所",
        "type": 0,
        "location": {
            "lat": 23.758376,
            "lng": 114.68345
        },
        "ad_info": {
            "adcode": 441602,
            "province": "广东省",
            "city": "河源市",
            "district": "源城区"
        }
    },
    {
        "id": "6685309897882724741",
        "title": "公共厕所",
        "address": "广东省河源市东源县黄田镇四季丰庄园停车场",
        "tel": "",
        "category": "基础设施:公共设施:公共厕所",
        "type": 0,
        "location": {
            "lat": 23.820606,
            "lng": 114.964669
        },
        "ad_info": {
            "adcode": 441625,
            "province": "广东省",
            "city": "河源市",
            "district": "东源县"
        }
    },
    {
        "id": "16488185577415726686",
        "title": "公共厕所",
        "address": "广东省河源市东源县康禾镇天田坝民宿",
        "tel": "",
        "category": "基础设施:公共设施:公共厕所",
        "type": 0,
        "location": {
            "lat": 23.850136,
            "lng": 115.098127
        },
        "ad_info": {
            "adcode": 441625,
            "province": "广东省",
            "city": "河源市",
            "district": "东源县"
        }
    },
    {
        "id": "12795341097727348532",
        "title": "厕所",
        "address": "广东省河源市连平县105线与G105交叉口东北方向203米左右",
        "tel": "",
        "category": "基础设施:公共设施:公共厕所",
        "type": 0,
        "location": {
            "lat": 24.457382,
            "lng": 114.575479
        },
        "ad_info": {
            "adcode": 441623,
            "province": "广东省",
            "city": "河源市",
            "district": "连平县"
        }
    },
    {
        "id": "5199826223100737624",
        "title": "公共厕所(廻龙镇罗回村文化广场)",
        "address": "广东省河源市龙川县罗回理发室西南侧190米",
        "tel": "",
        "category": "基础设施:公共设施:公共厕所",
        "type": 0,
        "location": {
            "lat": 24.373085,
            "lng": 115.528233
        },
        "ad_info": {
            "adcode": 441622,
            "province": "广东省",
            "city": "河源市",
            "district": "龙川县"
        }
    },
    {
        "id": "17575390257164331061",
        "title": "公共厕所",
        "address": "广东省河源市龙川县S339与Y380交叉口正北方向1658米左右",
        "tel": "",
        "category": "基础设施:公共设施:公共厕所",
        "type": 0,
        "location": {
            "lat": 24.383523,
            "lng": 115.535011
        },
        "ad_info": {
            "adcode": 441622,
            "province": "广东省",
            "city": "河源市",
            "district": "龙川县"
        }
    },
    {
        "id": "11978081069289275974",
        "title": "公共厕所",
        "address": "广东省河源市东源县蓝口镇客家人农家小院",
        "tel": "",
        "category": "基础设施:公共设施:公共厕所",
        "type": 0,
        "location": {
            "lat": 23.940198,
            "lng": 115.084097
        },
        "ad_info": {
            "adcode": 441625,
            "province": "广东省",
            "city": "河源市",
            "district": "东源县"
        }
    },
    {
        "id": "12416053721494274383",
        "title": "公共厕所",
        "address": "广东省河源市紫金县下濑村卫生站西南侧50米",
        "tel": "",
        "category": "基础设施:公共设施:公共厕所",
        "type": 0,
        "location": {
            "lat": 23.545163,
            "lng": 115.09205
        },
        "ad_info": {
            "adcode": 441621,
            "province": "广东省",
            "city": "河源市",
            "district": "紫金县"
        }
    },
    {
        "id": "17659281450614159787",
        "title": "公共厕所",
        "address": "广东省河源市龙川县G236与东风西路交叉口西南方向187米左右",
        "tel": "",
        "category": "基础设施:公共设施:公共厕所",
        "type": 0,
        "location": {
            "lat": 24.08581,
            "lng": 115.242602
        },
        "ad_info": {
            "adcode": 441622,
            "province": "广东省",
            "city": "河源市",
            "district": "龙川县"
        }
    },
    {
        "id": "1247013504565986072",
        "title": "公共厕所",
        "address": "广东省河源市龙川县先烈路与同心街交叉口正北方向12米左右",
        "tel": "",
        "category": "基础设施:公共设施:公共厕所",
        "type": 0,
        "location": {
            "lat": 24.098295,
            "lng": 115.258369
        },
        "ad_info": {
            "adcode": 441622,
            "province": "广东省",
            "city": "河源市",
            "district": "龙川县"
        }
    },
    {
        "id": "8080426498625726139",
        "title": "公共厕所",
        "address": "广东省河源市源城区Y154与Y155交叉口正北方向401米左右",
        "tel": "",
        "category": "基础设施:公共设施:公共厕所",
        "type": 0,
        "location": {
            "lat": 23.574176,
            "lng": 114.644468
        },
        "ad_info": {
            "adcode": 441602,
            "province": "广东省",
            "city": "河源市",
            "district": "源城区"
        }
    },
    {
        "id": "7032473968516910623",
        "title": "公共厕所",
        "address": "广东省河源市源城区Y145与Y151交叉口正南方向127米左右",
        "tel": "",
        "category": "基础设施:公共设施:公共厕所",
        "type": 0,
        "location": {
            "lat": 23.568252,
            "lng": 114.592154
        },
        "ad_info": {
            "adcode": 441602,
            "province": "广东省",
            "city": "河源市",
            "district": "源城区"
        }
    },
    {
        "id": "9872361265803497570",
        "title": "公共厕所",
        "address": "广东省河源市源城区公园东路与公园西路交叉口正东方向30米左右",
        "tel": "",
        "category": "基础设施:公共设施:公共厕所",
        "type": 0,
        "location": {
            "lat": 23.734805,
            "lng": 114.702597
        },
        "ad_info": {
            "adcode": 441602,
            "province": "广东省",
            "city": "河源市",
            "district": "源城区"
        }
    },
    {
        "id": "217548375600768634",
        "title": "公共厕所",
        "address": "广东省河源市和平县Y252与Y254交叉口正北方向417米左右",
        "tel": "",
        "category": "基础设施:公共设施:公共厕所",
        "type": 0,
        "location": {
            "lat": 24.276789,
            "lng": 114.951724
        },
        "ad_info": {
            "adcode": 441624,
            "province": "广东省",
            "city": "河源市",
            "district": "和平县"
        }
    },
    {
        "id": "2498803562819953773",
        "title": "东山公共厕所",
        "address": "广东省河源市和平县东园北路与东山路交叉口东南方向15米左右",
        "tel": "",
        "category": "基础设施:公共设施:公共厕所",
        "type": 0,
        "location": {
            "lat": 24.445051,
            "lng": 114.942376
        },
        "ad_info": {
            "adcode": 441624,
            "province": "广东省",
            "city": "河源市",
            "district": "和平县"
        }
    },
    {
        "id": "4974296511991051279",
        "title": "公共厕所",
        "address": "广东省河源市和平县Y171与Y176交叉口西北方向227米左右",
        "tel": "",
        "category": "基础设施:公共设施:公共厕所",
        "type": 0,
        "location": {
            "lat": 24.62598,
            "lng": 115.173877
        },
        "ad_info": {
            "adcode": 441624,
            "province": "广东省",
            "city": "河源市",
            "district": "和平县"
        }
    },
    {
        "id": "10864336007630958353",
        "title": "公共厕所",
        "address": "广东省河源市源城区凤凰路",
        "tel": "",
        "category": "基础设施:公共设施:公共厕所",
        "type": 0,
        "location": {
            "lat": 23.741768,
            "lng": 114.727975
        },
        "ad_info": {
            "adcode": 441602,
            "province": "广东省",
            "city": "河源市",
            "district": "源城区"
        }
    },
    {
        "id": "2851043257278086542",
        "title": "城南停车区公共厕所",
        "address": "广东省河源市源城区城南停车区西50米",
        "tel": "",
        "category": "基础设施:公共设施:公共厕所",
        "type": 0,
        "location": {
            "lat": 23.66047,
            "lng": 114.658098
        },
        "ad_info": {
            "adcode": 441602,
            "province": "广东省",
            "city": "河源市",
            "district": "源城区"
        }
    },
    {
        "id": "2751801457796636078",
        "title": "公共厕所(铁场镇桥头村写生基地)",
        "address": "广东省河源市龙川县Y347与Y362交叉口西北方向460米左右",
        "tel": "",
        "category": "基础设施:公共设施:公共厕所",
        "type": 0,
        "location": {
            "lat": 24.203385,
            "lng": 115.535263
        },
        "ad_info": {
            "adcode": 441622,
            "province": "广东省",
            "city": "河源市",
            "district": "龙川县"
        }
    },
    {
        "id": "2660399100799055882",
        "title": "公共厕所",
        "address": "广东省河源市源城区文华路与永祥路交叉口东北方向226米左右",
        "tel": "",
        "category": "基础设施:公共设施:公共厕所",
        "type": 0,
        "location": {
            "lat": 23.769875,
            "lng": 114.71698
        },
        "ad_info": {
            "adcode": 441602,
            "province": "广东省",
            "city": "河源市",
            "district": "源城区"
        }
    },
    {
        "id": "9326573407713900015",
        "title": "公共厕所",
        "address": "广东省河源市紫金县Y168与Y171交叉口正东方向43米左右",
        "tel": "",
        "category": "基础设施:公共设施:公共厕所",
        "type": 0,
        "location": {
            "lat": 23.411822,
            "lng": 115.314578
        },
        "ad_info": {
            "adcode": 441621,
            "province": "广东省",
            "city": "河源市",
            "district": "紫金县"
        }
    },
    {
        "id": "11187073458074448064",
        "title": "公共卫生间",
        "address": "广东省河源市源城区江宝一路85号",
        "tel": "",
        "category": "基础设施:公共设施:公共厕所",
        "type": 0,
        "location": {
            "lat": 23.734296,
            "lng": 114.687606
        },
        "ad_info": {
            "adcode": 441602,
            "province": "广东省",
            "city": "河源市",
            "district": "源城区"
        }
    },
    {
        "id": "12827229568832366235",
        "title": "公共厕所(上坪镇金龙村)",
        "address": "广东省河源市龙川县032乡道",
        "tel": "",
        "category": "基础设施:公共设施:公共厕所",
        "type": 0,
        "location": {
            "lat": 24.748643,
            "lng": 115.382897
        },
        "ad_info": {
            "adcode": 441622,
            "province": "广东省",
            "city": "河源市",
            "district": "龙川县"
        }
    },
    {
        "id": "11511504948216601934",
        "title": "公共厕所(义都镇桂林村桂林茶场旅游基地)",
        "address": "广东省河源市龙川县龙川南越王生态发展有限公司茶叶加工厂东侧170米",
        "tel": "",
        "category": "基础设施:公共设施:公共厕所",
        "type": 0,
        "location": {
            "lat": 24.117858,
            "lng": 115.099924
        },
        "ad_info": {
            "adcode": 441622,
            "province": "广东省",
            "city": "河源市",
            "district": "龙川县"
        }
    },
    {
        "id": "7161834396920360704",
        "title": "公共厕所",
        "address": "广东省河源市东源县上莞镇仙湖村停车场",
        "tel": "",
        "category": "基础设施:公共设施:公共厕所",
        "type": 0,
        "location": {
            "lat": 24.068446,
            "lng": 115.021167
        },
        "ad_info": {
            "adcode": 441625,
            "province": "广东省",
            "city": "河源市",
            "district": "东源县"
        }
    },
    {
        "id": "6677811835549885095",
        "title": "公共厕所",
        "address": "广东省河源市源城区文华路与永祥路交叉口东北方向115米左右",
        "tel": "",
        "category": "基础设施:公共设施:公共厕所",
        "type": 0,
        "location": {
            "lat": 23.768976,
            "lng": 114.716413
        },
        "ad_info": {
            "adcode": 441602,
            "province": "广东省",
            "city": "河源市",
            "district": "源城区"
        }
    },
    {
        "id": "7383871751462761323",
        "title": "公共厕所",
        "address": "广东省河源市龙川县站前东路与站前路交叉口西北方向19米左右",
        "tel": "",
        "category": "基础设施:公共设施:公共厕所",
        "type": 0,
        "location": {
            "lat": 24.11268,
            "lng": 115.239609
        },
        "ad_info": {
            "adcode": 441622,
            "province": "广东省",
            "city": "河源市",
            "district": "龙川县"
        }
    },
    {
        "id": "10798384284191285500",
        "title": "公共厕所",
        "address": "广东省河源市龙川县上坪镇青云村中心文体广场",
        "tel": "",
        "category": "基础设施:公共设施:公共厕所",
        "type": 0,
        "location": {
            "lat": 24.725495,
            "lng": 115.453651
        },
        "ad_info": {
            "adcode": 441622,
            "province": "广东省",
            "city": "河源市",
            "district": "龙川县"
        }
    },
    {
        "id": "13640715224599176505",
        "title": "黄村服务区公共厕所",
        "address": "广东省河源市东源县中国石化黄村服务区西区加油站西北侧130米",
        "tel": "",
        "category": "基础设施:公共设施:公共厕所",
        "type": 0,
        "location": {
            "lat": 23.830606,
            "lng": 115.21073
        },
        "ad_info": {
            "adcode": 441625,
            "province": "广东省",
            "city": "河源市",
            "district": "东源县"
        }
    },
    {
        "id": "12957809089494664097",
        "title": "公共厕所",
        "address": "广东省河源市紫金县罗洞村民服务中心东南侧",
        "tel": "",
        "category": "基础设施:公共设施:公共厕所",
        "type": 0,
        "location": {
            "lat": 23.532346,
            "lng": 115.291879
        },
        "ad_info": {
            "adcode": 441621,
            "province": "广东省",
            "city": "河源市",
            "district": "紫金县"
        }
    },
    {
        "id": "9474587075370024800",
        "title": "公共厕所",
        "address": "广东省河源市连平县北门路与栗子窝一路交叉口东北方向29米左右",
        "tel": "",
        "category": "基础设施:公共设施:公共厕所",
        "type": 0,
        "location": {
            "lat": 24.3718,
            "lng": 114.489367
        },
        "ad_info": {
            "adcode": 441623,
            "province": "广东省",
            "city": "河源市",
            "district": "连平县"
        }
    },
    {
        "id": "6582513496086288014",
        "title": "公共厕所",
        "address": "广东省河源市龙川县",
        "tel": "",
        "category": "基础设施:公共设施:公共厕所",
        "type": 0,
        "location": {
            "lat": 24.338269,
            "lng": 115.299284
        },
        "ad_info": {
            "adcode": 441622,
            "province": "广东省",
            "city": "河源市",
            "district": "龙川县"
        }
    },
    {
        "id": "9783260322886846754",
        "title": "麻布岗服务区公共厕所",
        "address": "广东省河源市龙川县中国石化麻布岗服务区加油站北侧100米",
        "tel": "",
        "category": "基础设施:公共设施:公共厕所",
        "type": 0,
        "location": {
            "lat": 24.605393,
            "lng": 115.465559
        },
        "ad_info": {
            "adcode": 441622,
            "province": "广东省",
            "city": "河源市",
            "district": "龙川县"
        }
    },
    {
        "id": "10470025179474420017",
        "title": "岐山村大屋公厕",
        "address": "广东省河源市连平县",
        "tel": "",
        "category": "基础设施:公共设施:公共厕所",
        "type": 0,
        "location": {
            "lat": 24.314019,
            "lng": 114.44355
        },
        "ad_info": {
            "adcode": 441623,
            "province": "广东省",
            "city": "河源市",
            "district": "连平县"
        }
    },
    {
        "id": "4117711002179764951",
        "title": "公共厕所",
        "address": "广东省河源市东源县万绿谷游览区",
        "tel": "",
        "category": "基础设施:公共设施:公共厕所",
        "type": 0,
        "location": {
            "lat": 23.725592,
            "lng": 114.522178
        },
        "ad_info": {
            "adcode": 441625,
            "province": "广东省",
            "city": "河源市",
            "district": "东源县"
        }
    },
    {
        "id": "6004657719626295508",
        "title": "公共厕所",
        "address": "广东省河源市源城区滨江大道258号",
        "tel": "",
        "category": "基础设施:公共设施:公共厕所",
        "type": 0,
        "location": {
            "lat": 23.654263,
            "lng": 114.677199
        },
        "ad_info": {
            "adcode": 441602,
            "province": "广东省",
            "city": "河源市",
            "district": "源城区"
        }
    },
    {
        "id": "8834535060480609989",
        "title": "公共厕所",
        "address": "广东省河源市紫金县解放街41号",
        "tel": "",
        "category": "基础设施:公共设施:公共厕所",
        "type": 0,
        "location": {
            "lat": 23.51757,
            "lng": 114.699221
        },
        "ad_info": {
            "adcode": 441621,
            "province": "广东省",
            "city": "河源市",
            "district": "紫金县"
        }
    },
    {
        "id": "1170446155254824837",
        "title": "厕所",
        "address": "广东省河源市连平县105线与G105交叉口东北方向233米左右",
        "tel": "",
        "category": "基础设施:公共设施:公共厕所",
        "type": 0,
        "location": {
            "lat": 24.457619,
            "lng": 114.575613
        },
        "ad_info": {
            "adcode": 441623,
            "province": "广东省",
            "city": "河源市",
            "district": "连平县"
        }
    },
    {
        "id": "12140324939239729505",
        "title": "公共厕所(宦境村)",
        "address": "广东省河源市龙川县Y195与Y196交叉口正北方向468米左右",
        "tel": "",
        "category": "基础设施:公共设施:公共厕所",
        "type": 0,
        "location": {
            "lat": 23.942997,
            "lng": 115.291684
        },
        "ad_info": {
            "adcode": 441622,
            "province": "广东省",
            "city": "河源市",
            "district": "龙川县"
        }
    },
    {
        "id": "15379119735538683308",
        "title": "公共厕所",
        "address": "广东省河源市和平县和平大道与工业一路交叉口正西方向49米左右",
        "tel": "",
        "category": "基础设施:公共设施:公共厕所",
        "type": 0,
        "location": {
            "lat": 24.454727,
            "lng": 114.933226
        },
        "ad_info": {
            "adcode": 441624,
            "province": "广东省",
            "city": "河源市",
            "district": "和平县"
        }
    },
    {
        "id": "4898478475875126481",
        "title": "公共厕所",
        "address": "广东省河源市和平县阳明博物馆",
        "tel": "",
        "category": "基础设施:公共设施:公共厕所",
        "type": 0,
        "location": {
            "lat": 24.442126,
            "lng": 114.945688
        },
        "ad_info": {
            "adcode": 441624,
            "province": "广东省",
            "city": "河源市",
            "district": "和平县"
        }
    },
    {
        "id": "11187073458074448064",
        "title": "公共卫生间",
        "address": "广东省河源市源城区江宝一路85号",
        "tel": "",
        "category": "基础设施:公共设施:公共厕所",
        "type": 0,
        "location": {
            "lat": 23.734296,
            "lng": 114.687606
        },
        "ad_info": {
            "adcode": 441602,
            "province": "广东省",
            "city": "河源市",
            "district": "源城区"
        }
    },
    {
        "id": "12827229568832366235",
        "title": "公共厕所(上坪镇金龙村)",
        "address": "广东省河源市龙川县032乡道",
        "tel": "",
        "category": "基础设施:公共设施:公共厕所",
        "type": 0,
        "location": {
            "lat": 24.748643,
            "lng": 115.382897
        },
        "ad_info": {
            "adcode": 441622,
            "province": "广东省",
            "city": "河源市",
            "district": "龙川县"
        }
    },
    {
        "id": "11511504948216601934",
        "title": "公共厕所(义都镇桂林村桂林茶场旅游基地)",
        "address": "广东省河源市龙川县龙川南越王生态发展有限公司茶叶加工厂东侧170米",
        "tel": "",
        "category": "基础设施:公共设施:公共厕所",
        "type": 0,
        "location": {
            "lat": 24.117858,
            "lng": 115.099924
        },
        "ad_info": {
            "adcode": 441622,
            "province": "广东省",
            "city": "河源市",
            "district": "龙川县"
        }
    },
    {
        "id": "7161834396920360704",
        "title": "公共厕所",
        "address": "广东省河源市东源县上莞镇仙湖村停车场",
        "tel": "",
        "category": "基础设施:公共设施:公共厕所",
        "type": 0,
        "location": {
            "lat": 24.068446,
            "lng": 115.021167
        },
        "ad_info": {
            "adcode": 441625,
            "province": "广东省",
            "city": "河源市",
            "district": "东源县"
        }
    },
    {
        "id": "6677811835549885095",
        "title": "公共厕所",
        "address": "广东省河源市源城区文华路与永祥路交叉口东北方向115米左右",
        "tel": "",
        "category": "基础设施:公共设施:公共厕所",
        "type": 0,
        "location": {
            "lat": 23.768976,
            "lng": 114.716413
        },
        "ad_info": {
            "adcode": 441602,
            "province": "广东省",
            "city": "河源市",
            "district": "源城区"
        }
    },
    {
        "id": "7383871751462761323",
        "title": "公共厕所",
        "address": "广东省河源市龙川县站前东路与站前路交叉口西北方向19米左右",
        "tel": "",
        "category": "基础设施:公共设施:公共厕所",
        "type": 0,
        "location": {
            "lat": 24.11268,
            "lng": 115.239609
        },
        "ad_info": {
            "adcode": 441622,
            "province": "广东省",
            "city": "河源市",
            "district": "龙川县"
        }
    },
    {
        "id": "10798384284191285500",
        "title": "公共厕所",
        "address": "广东省河源市龙川县上坪镇青云村中心文体广场",
        "tel": "",
        "category": "基础设施:公共设施:公共厕所",
        "type": 0,
        "location": {
            "lat": 24.725495,
            "lng": 115.453651
        },
        "ad_info": {
            "adcode": 441622,
            "province": "广东省",
            "city": "河源市",
            "district": "龙川县"
        }
    },
    {
        "id": "13640715224599176505",
        "title": "黄村服务区公共厕所",
        "address": "广东省河源市东源县中国石化黄村服务区西区加油站西北侧130米",
        "tel": "",
        "category": "基础设施:公共设施:公共厕所",
        "type": 0,
        "location": {
            "lat": 23.830606,
            "lng": 115.21073
        },
        "ad_info": {
            "adcode": 441625,
            "province": "广东省",
            "city": "河源市",
            "district": "东源县"
        }
    },
    {
        "id": "12957809089494664097",
        "title": "公共厕所",
        "address": "广东省河源市紫金县罗洞村民服务中心东南侧",
        "tel": "",
        "category": "基础设施:公共设施:公共厕所",
        "type": 0,
        "location": {
            "lat": 23.532346,
            "lng": 115.291879
        },
        "ad_info": {
            "adcode": 441621,
            "province": "广东省",
            "city": "河源市",
            "district": "紫金县"
        }
    },
    {
        "id": "9474587075370024800",
        "title": "公共厕所",
        "address": "广东省河源市连平县北门路与栗子窝一路交叉口东北方向29米左右",
        "tel": "",
        "category": "基础设施:公共设施:公共厕所",
        "type": 0,
        "location": {
            "lat": 24.3718,
            "lng": 114.489367
        },
        "ad_info": {
            "adcode": 441623,
            "province": "广东省",
            "city": "河源市",
            "district": "连平县"
        }
    },
    {
        "id": "6582513496086288014",
        "title": "公共厕所",
        "address": "广东省河源市龙川县",
        "tel": "",
        "category": "基础设施:公共设施:公共厕所",
        "type": 0,
        "location": {
            "lat": 24.338269,
            "lng": 115.299284
        },
        "ad_info": {
            "adcode": 441622,
            "province": "广东省",
            "city": "河源市",
            "district": "龙川县"
        }
    },
    {
        "id": "9783260322886846754",
        "title": "麻布岗服务区公共厕所",
        "address": "广东省河源市龙川县中国石化麻布岗服务区加油站北侧100米",
        "tel": "",
        "category": "基础设施:公共设施:公共厕所",
        "type": 0,
        "location": {
            "lat": 24.605393,
            "lng": 115.465559
        },
        "ad_info": {
            "adcode": 441622,
            "province": "广东省",
            "city": "河源市",
            "district": "龙川县"
        }
    },
    {
        "id": "10470025179474420017",
        "title": "岐山村大屋公厕",
        "address": "广东省河源市连平县",
        "tel": "",
        "category": "基础设施:公共设施:公共厕所",
        "type": 0,
        "location": {
            "lat": 24.314019,
            "lng": 114.44355
        },
        "ad_info": {
            "adcode": 441623,
            "province": "广东省",
            "city": "河源市",
            "district": "连平县"
        }
    },
    {
        "id": "4117711002179764951",
        "title": "公共厕所",
        "address": "广东省河源市东源县万绿谷游览区",
        "tel": "",
        "category": "基础设施:公共设施:公共厕所",
        "type": 0,
        "location": {
            "lat": 23.725592,
            "lng": 114.522178
        },
        "ad_info": {
            "adcode": 441625,
            "province": "广东省",
            "city": "河源市",
            "district": "东源县"
        }
    },
    {
        "id": "6004657719626295508",
        "title": "公共厕所",
        "address": "广东省河源市源城区滨江大道258号",
        "tel": "",
        "category": "基础设施:公共设施:公共厕所",
        "type": 0,
        "location": {
            "lat": 23.654263,
            "lng": 114.677199
        },
        "ad_info": {
            "adcode": 441602,
            "province": "广东省",
            "city": "河源市",
            "district": "源城区"
        }
    },
    {
        "id": "8834535060480609989",
        "title": "公共厕所",
        "address": "广东省河源市紫金县解放街41号",
        "tel": "",
        "category": "基础设施:公共设施:公共厕所",
        "type": 0,
        "location": {
            "lat": 23.51757,
            "lng": 114.699221
        },
        "ad_info": {
            "adcode": 441621,
            "province": "广东省",
            "city": "河源市",
            "district": "紫金县"
        }
    },
    {
        "id": "1170446155254824837",
        "title": "厕所",
        "address": "广东省河源市连平县105线与G105交叉口东北方向233米左右",
        "tel": "",
        "category": "基础设施:公共设施:公共厕所",
        "type": 0,
        "location": {
            "lat": 24.457619,
            "lng": 114.575613
        },
        "ad_info": {
            "adcode": 441623,
            "province": "广东省",
            "city": "河源市",
            "district": "连平县"
        }
    },
    {
        "id": "12140324939239729505",
        "title": "公共厕所(宦境村)",
        "address": "广东省河源市龙川县Y195与Y196交叉口正北方向468米左右",
        "tel": "",
        "category": "基础设施:公共设施:公共厕所",
        "type": 0,
        "location": {
            "lat": 23.942997,
            "lng": 115.291684
        },
        "ad_info": {
            "adcode": 441622,
            "province": "广东省",
            "city": "河源市",
            "district": "龙川县"
        }
    },
    {
        "id": "15379119735538683308",
        "title": "公共厕所",
        "address": "广东省河源市和平县和平大道与工业一路交叉口正西方向49米左右",
        "tel": "",
        "category": "基础设施:公共设施:公共厕所",
        "type": 0,
        "location": {
            "lat": 24.454727,
            "lng": 114.933226
        },
        "ad_info": {
            "adcode": 441624,
            "province": "广东省",
            "city": "河源市",
            "district": "和平县"
        }
    },
    {
        "id": "4898478475875126481",
        "title": "公共厕所",
        "address": "广东省河源市和平县阳明博物馆",
        "tel": "",
        "category": "基础设施:公共设施:公共厕所",
        "type": 0,
        "location": {
            "lat": 24.442126,
            "lng": 114.945688
        },
        "ad_info": {
            "adcode": 441624,
            "province": "广东省",
            "city": "河源市",
            "district": "和平县"
        }
    },
    {
        "id": "11187073458074448064",
        "title": "公共卫生间",
        "address": "广东省河源市源城区江宝一路85号",
        "tel": "",
        "category": "基础设施:公共设施:公共厕所",
        "type": 0,
        "location": {
            "lat": 23.734296,
            "lng": 114.687606
        },
        "ad_info": {
            "adcode": 441602,
            "province": "广东省",
            "city": "河源市",
            "district": "源城区"
        }
    },
    {
        "id": "12827229568832366235",
        "title": "公共厕所(上坪镇金龙村)",
        "address": "广东省河源市龙川县032乡道",
        "tel": "",
        "category": "基础设施:公共设施:公共厕所",
        "type": 0,
        "location": {
            "lat": 24.748643,
            "lng": 115.382897
        },
        "ad_info": {
            "adcode": 441622,
            "province": "广东省",
            "city": "河源市",
            "district": "龙川县"
        }
    },
    {
        "id": "11511504948216601934",
        "title": "公共厕所(义都镇桂林村桂林茶场旅游基地)",
        "address": "广东省河源市龙川县龙川南越王生态发展有限公司茶叶加工厂东侧170米",
        "tel": "",
        "category": "基础设施:公共设施:公共厕所",
        "type": 0,
        "location": {
            "lat": 24.117858,
            "lng": 115.099924
        },
        "ad_info": {
            "adcode": 441622,
            "province": "广东省",
            "city": "河源市",
            "district": "龙川县"
        }
    },
    {
        "id": "7161834396920360704",
        "title": "公共厕所",
        "address": "广东省河源市东源县上莞镇仙湖村停车场",
        "tel": "",
        "category": "基础设施:公共设施:公共厕所",
        "type": 0,
        "location": {
            "lat": 24.068446,
            "lng": 115.021167
        },
        "ad_info": {
            "adcode": 441625,
            "province": "广东省",
            "city": "河源市",
            "district": "东源县"
        }
    },
    {
        "id": "6677811835549885095",
        "title": "公共厕所",
        "address": "广东省河源市源城区文华路与永祥路交叉口东北方向115米左右",
        "tel": "",
        "category": "基础设施:公共设施:公共厕所",
        "type": 0,
        "location": {
            "lat": 23.768976,
            "lng": 114.716413
        },
        "ad_info": {
            "adcode": 441602,
            "province": "广东省",
            "city": "河源市",
            "district": "源城区"
        }
    },
    {
        "id": "7383871751462761323",
        "title": "公共厕所",
        "address": "广东省河源市龙川县站前东路与站前路交叉口西北方向19米左右",
        "tel": "",
        "category": "基础设施:公共设施:公共厕所",
        "type": 0,
        "location": {
            "lat": 24.11268,
            "lng": 115.239609
        },
        "ad_info": {
            "adcode": 441622,
            "province": "广东省",
            "city": "河源市",
            "district": "龙川县"
        }
    },
    {
        "id": "10798384284191285500",
        "title": "公共厕所",
        "address": "广东省河源市龙川县上坪镇青云村中心文体广场",
        "tel": "",
        "category": "基础设施:公共设施:公共厕所",
        "type": 0,
        "location": {
            "lat": 24.725495,
            "lng": 115.453651
        },
        "ad_info": {
            "adcode": 441622,
            "province": "广东省",
            "city": "河源市",
            "district": "龙川县"
        }
    },
    {
        "id": "13640715224599176505",
        "title": "黄村服务区公共厕所",
        "address": "广东省河源市东源县中国石化黄村服务区西区加油站西北侧130米",
        "tel": "",
        "category": "基础设施:公共设施:公共厕所",
        "type": 0,
        "location": {
            "lat": 23.830606,
            "lng": 115.21073
        },
        "ad_info": {
            "adcode": 441625,
            "province": "广东省",
            "city": "河源市",
            "district": "东源县"
        }
    },
    {
        "id": "12957809089494664097",
        "title": "公共厕所",
        "address": "广东省河源市紫金县罗洞村民服务中心东南侧",
        "tel": "",
        "category": "基础设施:公共设施:公共厕所",
        "type": 0,
        "location": {
            "lat": 23.532346,
            "lng": 115.291879
        },
        "ad_info": {
            "adcode": 441621,
            "province": "广东省",
            "city": "河源市",
            "district": "紫金县"
        }
    },
    {
        "id": "9474587075370024800",
        "title": "公共厕所",
        "address": "广东省河源市连平县北门路与栗子窝一路交叉口东北方向29米左右",
        "tel": "",
        "category": "基础设施:公共设施:公共厕所",
        "type": 0,
        "location": {
            "lat": 24.3718,
            "lng": 114.489367
        },
        "ad_info": {
            "adcode": 441623,
            "province": "广东省",
            "city": "河源市",
            "district": "连平县"
        }
    },
    {
        "id": "6582513496086288014",
        "title": "公共厕所",
        "address": "广东省河源市龙川县",
        "tel": "",
        "category": "基础设施:公共设施:公共厕所",
        "type": 0,
        "location": {
            "lat": 24.338269,
            "lng": 115.299284
        },
        "ad_info": {
            "adcode": 441622,
            "province": "广东省",
            "city": "河源市",
            "district": "龙川县"
        }
    },
    {
        "id": "9783260322886846754",
        "title": "麻布岗服务区公共厕所",
        "address": "广东省河源市龙川县中国石化麻布岗服务区加油站北侧100米",
        "tel": "",
        "category": "基础设施:公共设施:公共厕所",
        "type": 0,
        "location": {
            "lat": 24.605393,
            "lng": 115.465559
        },
        "ad_info": {
            "adcode": 441622,
            "province": "广东省",
            "city": "河源市",
            "district": "龙川县"
        }
    },
    {
        "id": "10470025179474420017",
        "title": "岐山村大屋公厕",
        "address": "广东省河源市连平县",
        "tel": "",
        "category": "基础设施:公共设施:公共厕所",
        "type": 0,
        "location": {
            "lat": 24.314019,
            "lng": 114.44355
        },
        "ad_info": {
            "adcode": 441623,
            "province": "广东省",
            "city": "河源市",
            "district": "连平县"
        }
    },
    {
        "id": "4117711002179764951",
        "title": "公共厕所",
        "address": "广东省河源市东源县万绿谷游览区",
        "tel": "",
        "category": "基础设施:公共设施:公共厕所",
        "type": 0,
        "location": {
            "lat": 23.725592,
            "lng": 114.522178
        },
        "ad_info": {
            "adcode": 441625,
            "province": "广东省",
            "city": "河源市",
            "district": "东源县"
        }
    },
    {
        "id": "6004657719626295508",
        "title": "公共厕所",
        "address": "广东省河源市源城区滨江大道258号",
        "tel": "",
        "category": "基础设施:公共设施:公共厕所",
        "type": 0,
        "location": {
            "lat": 23.654263,
            "lng": 114.677199
        },
        "ad_info": {
            "adcode": 441602,
            "province": "广东省",
            "city": "河源市",
            "district": "源城区"
        }
    },
    {
        "id": "8834535060480609989",
        "title": "公共厕所",
        "address": "广东省河源市紫金县解放街41号",
        "tel": "",
        "category": "基础设施:公共设施:公共厕所",
        "type": 0,
        "location": {
            "lat": 23.51757,
            "lng": 114.699221
        },
        "ad_info": {
            "adcode": 441621,
            "province": "广东省",
            "city": "河源市",
            "district": "紫金县"
        }
    },
    {
        "id": "1170446155254824837",
        "title": "厕所",
        "address": "广东省河源市连平县105线与G105交叉口东北方向233米左右",
        "tel": "",
        "category": "基础设施:公共设施:公共厕所",
        "type": 0,
        "location": {
            "lat": 24.457619,
            "lng": 114.575613
        },
        "ad_info": {
            "adcode": 441623,
            "province": "广东省",
            "city": "河源市",
            "district": "连平县"
        }
    },
    {
        "id": "12140324939239729505",
        "title": "公共厕所(宦境村)",
        "address": "广东省河源市龙川县Y195与Y196交叉口正北方向468米左右",
        "tel": "",
        "category": "基础设施:公共设施:公共厕所",
        "type": 0,
        "location": {
            "lat": 23.942997,
            "lng": 115.291684
        },
        "ad_info": {
            "adcode": 441622,
            "province": "广东省",
            "city": "河源市",
            "district": "龙川县"
        }
    },
    {
        "id": "15379119735538683308",
        "title": "公共厕所",
        "address": "广东省河源市和平县和平大道与工业一路交叉口正西方向49米左右",
        "tel": "",
        "category": "基础设施:公共设施:公共厕所",
        "type": 0,
        "location": {
            "lat": 24.454727,
            "lng": 114.933226
        },
        "ad_info": {
            "adcode": 441624,
            "province": "广东省",
            "city": "河源市",
            "district": "和平县"
        }
    },
    {
        "id": "4898478475875126481",
        "title": "公共厕所",
        "address": "广东省河源市和平县阳明博物馆",
        "tel": "",
        "category": "基础设施:公共设施:公共厕所",
        "type": 0,
        "location": {
            "lat": 24.442126,
            "lng": 114.945688
        },
        "ad_info": {
            "adcode": 441624,
            "province": "广东省",
            "city": "河源市",
            "district": "和平县"
        }
    },
    {
        "id": "11187073458074448064",
        "title": "公共卫生间",
        "address": "广东省河源市源城区江宝一路85号",
        "tel": "",
        "category": "基础设施:公共设施:公共厕所",
        "type": 0,
        "location": {
            "lat": 23.734296,
            "lng": 114.687606
        },
        "ad_info": {
            "adcode": 441602,
            "province": "广东省",
            "city": "河源市",
            "district": "源城区"
        }
    },
    {
        "id": "12827229568832366235",
        "title": "公共厕所(上坪镇金龙村)",
        "address": "广东省河源市龙川县032乡道",
        "tel": "",
        "category": "基础设施:公共设施:公共厕所",
        "type": 0,
        "location": {
            "lat": 24.748643,
            "lng": 115.382897
        },
        "ad_info": {
            "adcode": 441622,
            "province": "广东省",
            "city": "河源市",
            "district": "龙川县"
        }
    },
    {
        "id": "11511504948216601934",
        "title": "公共厕所(义都镇桂林村桂林茶场旅游基地)",
        "address": "广东省河源市龙川县龙川南越王生态发展有限公司茶叶加工厂东侧170米",
        "tel": "",
        "category": "基础设施:公共设施:公共厕所",
        "type": 0,
        "location": {
            "lat": 24.117858,
            "lng": 115.099924
        },
        "ad_info": {
            "adcode": 441622,
            "province": "广东省",
            "city": "河源市",
            "district": "龙川县"
        }
    },
    {
        "id": "7161834396920360704",
        "title": "公共厕所",
        "address": "广东省河源市东源县上莞镇仙湖村停车场",
        "tel": "",
        "category": "基础设施:公共设施:公共厕所",
        "type": 0,
        "location": {
            "lat": 24.068446,
            "lng": 115.021167
        },
        "ad_info": {
            "adcode": 441625,
            "province": "广东省",
            "city": "河源市",
            "district": "东源县"
        }
    },
    {
        "id": "6677811835549885095",
        "title": "公共厕所",
        "address": "广东省河源市源城区文华路与永祥路交叉口东北方向115米左右",
        "tel": "",
        "category": "基础设施:公共设施:公共厕所",
        "type": 0,
        "location": {
            "lat": 23.768976,
            "lng": 114.716413
        },
        "ad_info": {
            "adcode": 441602,
            "province": "广东省",
            "city": "河源市",
            "district": "源城区"
        }
    },
    {
        "id": "7383871751462761323",
        "title": "公共厕所",
        "address": "广东省河源市龙川县站前东路与站前路交叉口西北方向19米左右",
        "tel": "",
        "category": "基础设施:公共设施:公共厕所",
        "type": 0,
        "location": {
            "lat": 24.11268,
            "lng": 115.239609
        },
        "ad_info": {
            "adcode": 441622,
            "province": "广东省",
            "city": "河源市",
            "district": "龙川县"
        }
    },
    {
        "id": "10798384284191285500",
        "title": "公共厕所",
        "address": "广东省河源市龙川县上坪镇青云村中心文体广场",
        "tel": "",
        "category": "基础设施:公共设施:公共厕所",
        "type": 0,
        "location": {
            "lat": 24.725495,
            "lng": 115.453651
        },
        "ad_info": {
            "adcode": 441622,
            "province": "广东省",
            "city": "河源市",
            "district": "龙川县"
        }
    },
    {
        "id": "13640715224599176505",
        "title": "黄村服务区公共厕所",
        "address": "广东省河源市东源县中国石化黄村服务区西区加油站西北侧130米",
        "tel": "",
        "category": "基础设施:公共设施:公共厕所",
        "type": 0,
        "location": {
            "lat": 23.830606,
            "lng": 115.21073
        },
        "ad_info": {
            "adcode": 441625,
            "province": "广东省",
            "city": "河源市",
            "district": "东源县"
        }
    },
    {
        "id": "12957809089494664097",
        "title": "公共厕所",
        "address": "广东省河源市紫金县罗洞村民服务中心东南侧",
        "tel": "",
        "category": "基础设施:公共设施:公共厕所",
        "type": 0,
        "location": {
            "lat": 23.532346,
            "lng": 115.291879
        },
        "ad_info": {
            "adcode": 441621,
            "province": "广东省",
            "city": "河源市",
            "district": "紫金县"
        }
    },
    {
        "id": "9474587075370024800",
        "title": "公共厕所",
        "address": "广东省河源市连平县北门路与栗子窝一路交叉口东北方向29米左右",
        "tel": "",
        "category": "基础设施:公共设施:公共厕所",
        "type": 0,
        "location": {
            "lat": 24.3718,
            "lng": 114.489367
        },
        "ad_info": {
            "adcode": 441623,
            "province": "广东省",
            "city": "河源市",
            "district": "连平县"
        }
    },
    {
        "id": "6582513496086288014",
        "title": "公共厕所",
        "address": "广东省河源市龙川县",
        "tel": "",
        "category": "基础设施:公共设施:公共厕所",
        "type": 0,
        "location": {
            "lat": 24.338269,
            "lng": 115.299284
        },
        "ad_info": {
            "adcode": 441622,
            "province": "广东省",
            "city": "河源市",
            "district": "龙川县"
        }
    },
    {
        "id": "9783260322886846754",
        "title": "麻布岗服务区公共厕所",
        "address": "广东省河源市龙川县中国石化麻布岗服务区加油站北侧100米",
        "tel": "",
        "category": "基础设施:公共设施:公共厕所",
        "type": 0,
        "location": {
            "lat": 24.605393,
            "lng": 115.465559
        },
        "ad_info": {
            "adcode": 441622,
            "province": "广东省",
            "city": "河源市",
            "district": "龙川县"
        }
    },
    {
        "id": "10470025179474420017",
        "title": "岐山村大屋公厕",
        "address": "广东省河源市连平县",
        "tel": "",
        "category": "基础设施:公共设施:公共厕所",
        "type": 0,
        "location": {
            "lat": 24.314019,
            "lng": 114.44355
        },
        "ad_info": {
            "adcode": 441623,
            "province": "广东省",
            "city": "河源市",
            "district": "连平县"
        }
    },
    {
        "id": "4117711002179764951",
        "title": "公共厕所",
        "address": "广东省河源市东源县万绿谷游览区",
        "tel": "",
        "category": "基础设施:公共设施:公共厕所",
        "type": 0,
        "location": {
            "lat": 23.725592,
            "lng": 114.522178
        },
        "ad_info": {
            "adcode": 441625,
            "province": "广东省",
            "city": "河源市",
            "district": "东源县"
        }
    },
    {
        "id": "6004657719626295508",
        "title": "公共厕所",
        "address": "广东省河源市源城区滨江大道258号",
        "tel": "",
        "category": "基础设施:公共设施:公共厕所",
        "type": 0,
        "location": {
            "lat": 23.654263,
            "lng": 114.677199
        },
        "ad_info": {
            "adcode": 441602,
            "province": "广东省",
            "city": "河源市",
            "district": "源城区"
        }
    },
    {
        "id": "8834535060480609989",
        "title": "公共厕所",
        "address": "广东省河源市紫金县解放街41号",
        "tel": "",
        "category": "基础设施:公共设施:公共厕所",
        "type": 0,
        "location": {
            "lat": 23.51757,
            "lng": 114.699221
        },
        "ad_info": {
            "adcode": 441621,
            "province": "广东省",
            "city": "河源市",
            "district": "紫金县"
        }
    },
    {
        "id": "1170446155254824837",
        "title": "厕所",
        "address": "广东省河源市连平县105线与G105交叉口东北方向233米左右",
        "tel": "",
        "category": "基础设施:公共设施:公共厕所",
        "type": 0,
        "location": {
            "lat": 24.457619,
            "lng": 114.575613
        },
        "ad_info": {
            "adcode": 441623,
            "province": "广东省",
            "city": "河源市",
            "district": "连平县"
        }
    },
    {
        "id": "12140324939239729505",
        "title": "公共厕所(宦境村)",
        "address": "广东省河源市龙川县Y195与Y196交叉口正北方向468米左右",
        "tel": "",
        "category": "基础设施:公共设施:公共厕所",
        "type": 0,
        "location": {
            "lat": 23.942997,
            "lng": 115.291684
        },
        "ad_info": {
            "adcode": 441622,
            "province": "广东省",
            "city": "河源市",
            "district": "龙川县"
        }
    },
    {
        "id": "15379119735538683308",
        "title": "公共厕所",
        "address": "广东省河源市和平县和平大道与工业一路交叉口正西方向49米左右",
        "tel": "",
        "category": "基础设施:公共设施:公共厕所",
        "type": 0,
        "location": {
            "lat": 24.454727,
            "lng": 114.933226
        },
        "ad_info": {
            "adcode": 441624,
            "province": "广东省",
            "city": "河源市",
            "district": "和平县"
        }
    },
    {
        "id": "4898478475875126481",
        "title": "公共厕所",
        "address": "广东省河源市和平县阳明博物馆",
        "tel": "",
        "category": "基础设施:公共设施:公共厕所",
        "type": 0,
        "location": {
            "lat": 24.442126,
            "lng": 114.945688
        },
        "ad_info": {
            "adcode": 441624,
            "province": "广东省",
            "city": "河源市",
            "district": "和平县"
        }
    }
]