[
    {
        "id": "16133420202937218809",
        "title": "公共厕所",
        "address": "广西壮族自治区河池市宜州区南山路与山谷路交叉口西南方向20米左右",
        "tel": "",
        "category": "基础设施:公共设施:公共厕所",
        "type": 0,
        "location": {
            "lat": 24.49538,
            "lng": 108.639417
        },
        "ad_info": {
            "adcode": 451203,
            "province": "广西壮族自治区",
            "city": "河池市",
            "district": "宜州区"
        }
    },
    {
        "id": "15180748781079739149",
        "title": "公共厕所",
        "address": "广西壮族自治区河池市东兰县向阳新城4号路辅路与向阳新城9号路交叉口正东方向430米左右",
        "tel": "",
        "category": "基础设施:公共设施:公共厕所",
        "type": 0,
        "location": {
            "lat": 24.535426,
            "lng": 107.390088
        },
        "ad_info": {
            "adcode": 451224,
            "province": "广西壮族自治区",
            "city": "河池市",
            "district": "东兰县"
        }
    },
    {
        "id": "6050257608085490214",
        "title": "公共厕所",
        "address": "广西壮族自治区河池市巴马瑶族自治县寿乡大道482号",
        "tel": "",
        "category": "基础设施:公共设施:公共厕所",
        "type": 0,
        "location": {
            "lat": 24.141075,
            "lng": 107.248874
        },
        "ad_info": {
            "adcode": 451227,
            "province": "广西壮族自治区",
            "city": "河池市",
            "district": "巴马瑶族自治县"
        }
    },
    {
        "id": "15684550460091381078",
        "title": "公共厕所",
        "address": "广西壮族自治区河池市宜州区公园西路与宜山路交叉口东南方向106米左右",
        "tel": "",
        "category": "基础设施:公共设施:公共厕所",
        "type": 0,
        "location": {
            "lat": 24.502297,
            "lng": 108.658336
        },
        "ad_info": {
            "adcode": 451203,
            "province": "广西壮族自治区",
            "city": "河池市",
            "district": "宜州区"
        }
    },
    {
        "id": "15469239028554981610",
        "title": "公共厕所",
        "address": "广西壮族自治区河池市宜州区解放路与龙江路交叉口正西方向164米左右",
        "tel": "",
        "category": "基础设施:公共设施:公共厕所",
        "type": 0,
        "location": {
            "lat": 24.491289,
            "lng": 108.656315
        },
        "ad_info": {
            "adcode": 451203,
            "province": "广西壮族自治区",
            "city": "河池市",
            "district": "宜州区"
        }
    },
    {
        "id": "13843590656671786549",
        "title": "公共厕所",
        "address": "广西壮族自治区河池市宜州区桂鱼街与江滨西路交叉口正南方向164米左右",
        "tel": "",
        "category": "基础设施:公共设施:公共厕所",
        "type": 0,
        "location": {
            "lat": 24.495479,
            "lng": 108.655536
        },
        "ad_info": {
            "adcode": 451203,
            "province": "广西壮族自治区",
            "city": "河池市",
            "district": "宜州区"
        }
    },
    {
        "id": "4587310007042816347",
        "title": "公共厕所",
        "address": "广西壮族自治区河池市宜州区金宜一级公路怀远古镇景区",
        "tel": "",
        "category": "基础设施:公共设施:公共厕所",
        "type": 0,
        "location": {
            "lat": 24.562971,
            "lng": 108.478824
        },
        "ad_info": {
            "adcode": 451203,
            "province": "广西壮族自治区",
            "city": "河池市",
            "district": "宜州区"
        }
    },
    {
        "id": "11820132123577648201",
        "title": "公共厕所",
        "address": "广西壮族自治区河池市宜州区金宜一级公路中国石油加油站",
        "tel": "",
        "category": "基础设施:公共设施:公共厕所",
        "type": 0,
        "location": {
            "lat": 24.699595,
            "lng": 108.341619
        },
        "ad_info": {
            "adcode": 451203,
            "province": "广西壮族自治区",
            "city": "河池市",
            "district": "宜州区"
        }
    },
    {
        "id": "15212907527845386393",
        "title": "公共厕所",
        "address": "广西壮族自治区河池市金城江区金城中路与新建路二巷交叉口南80米",
        "tel": "",
        "category": "基础设施:公共设施:公共厕所",
        "type": 0,
        "location": {
            "lat": 24.694646,
            "lng": 108.061648
        },
        "ad_info": {
            "adcode": 451202,
            "province": "广西壮族自治区",
            "city": "河池市",
            "district": "金城江区"
        }
    },
    {
        "id": "16770299976447222223",
        "title": "公共厕所",
        "address": "广西壮族自治区河池市巴马瑶族自治县古城路与新建路交叉口正南方向27米左右",
        "tel": "",
        "category": "基础设施:公共设施:公共厕所",
        "type": 0,
        "location": {
            "lat": 24.138021,
            "lng": 107.252446
        },
        "ad_info": {
            "adcode": 451227,
            "province": "广西壮族自治区",
            "city": "河池市",
            "district": "巴马瑶族自治县"
        }
    },
    {
        "id": "5624719049071251288",
        "title": "公共厕所",
        "address": "广西壮族自治区河池市宜州区屏南乡枫树林2号",
        "tel": "",
        "category": "基础设施:公共设施:公共厕所",
        "type": 0,
        "location": {
            "lat": 24.365987,
            "lng": 108.908569
        },
        "ad_info": {
            "adcode": 451203,
            "province": "广西壮族自治区",
            "city": "河池市",
            "district": "宜州区"
        }
    },
    {
        "id": "16915812252202161949",
        "title": "公共厕所",
        "address": "广西壮族自治区河池市东兰县八角街与陵园街一巷交叉口东北方向154米左右",
        "tel": "",
        "category": "基础设施:公共设施:公共厕所",
        "type": 0,
        "location": {
            "lat": 24.510437,
            "lng": 107.373508
        },
        "ad_info": {
            "adcode": 451224,
            "province": "广西壮族自治区",
            "city": "河池市",
            "district": "东兰县"
        }
    },
    {
        "id": "4034792579584508091",
        "title": "公共厕所",
        "address": "广西壮族自治区河池市凤山县文昌路与文昌路南二巷交叉口正东方向55米左右",
        "tel": "",
        "category": "基础设施:公共设施:公共厕所",
        "type": 0,
        "location": {
            "lat": 24.543799,
            "lng": 107.044721
        },
        "ad_info": {
            "adcode": 451223,
            "province": "广西壮族自治区",
            "city": "河池市",
            "district": "凤山县"
        }
    },
    {
        "id": "5508190830451050586",
        "title": "公共厕所",
        "address": "广西壮族自治区河池市金城江区南新西路与白马步行街交叉口西南方向100米左右",
        "tel": "",
        "category": "基础设施:公共设施:公共厕所",
        "type": 0,
        "location": {
            "lat": 24.692967,
            "lng": 108.06126
        },
        "ad_info": {
            "adcode": 451202,
            "province": "广西壮族自治区",
            "city": "河池市",
            "district": "金城江区"
        }
    },
    {
        "id": "15453986945679282852",
        "title": "公共厕所",
        "address": "广西壮族自治区河池市东兰县G323与新城路交叉口正南方向14米左右",
        "tel": "",
        "category": "基础设施:公共设施:公共厕所",
        "type": 0,
        "location": {
            "lat": 24.523926,
            "lng": 107.392771
        },
        "ad_info": {
            "adcode": 451224,
            "province": "广西壮族自治区",
            "city": "河池市",
            "district": "东兰县"
        }
    },
    {
        "id": "10672098937630023466",
        "title": "公共厕所",
        "address": "广西壮族自治区河池市东兰县曲江路与河堤路交叉口正西方向44米左右",
        "tel": "",
        "category": "基础设施:公共设施:公共厕所",
        "type": 0,
        "location": {
            "lat": 24.505981,
            "lng": 107.371241
        },
        "ad_info": {
            "adcode": 451224,
            "province": "广西壮族自治区",
            "city": "河池市",
            "district": "东兰县"
        }
    },
    {
        "id": "11375636738597306093",
        "title": "公共厕所",
        "address": "广西壮族自治区河池市东兰县龙湾新城西北侧160米",
        "tel": "",
        "category": "基础设施:公共设施:公共厕所",
        "type": 0,
        "location": {
            "lat": 24.52901,
            "lng": 107.39034
        },
        "ad_info": {
            "adcode": 451224,
            "province": "广西壮族自治区",
            "city": "河池市",
            "district": "东兰县"
        }
    },
    {
        "id": "13978005732264990687",
        "title": "公共厕所",
        "address": "广西壮族自治区河池市巴马瑶族自治县G243与S208交叉口东北方向1891米",
        "tel": "",
        "category": "基础设施:公共设施:公共厕所",
        "type": 0,
        "location": {
            "lat": 24.313891,
            "lng": 107.09714
        },
        "ad_info": {
            "adcode": 451227,
            "province": "广西壮族自治区",
            "city": "河池市",
            "district": "巴马瑶族自治县"
        }
    },
    {
        "id": "526441866168820709",
        "title": "公共厕所",
        "address": "广西壮族自治区河池市巴马瑶族自治县新建路中国石油(新建路加油站)",
        "tel": "",
        "category": "基础设施:公共设施:公共厕所",
        "type": 0,
        "location": {
            "lat": 24.1339,
            "lng": 107.249763
        },
        "ad_info": {
            "adcode": 451227,
            "province": "广西壮族自治区",
            "city": "河池市",
            "district": "巴马瑶族自治县"
        }
    },
    {
        "id": "5360672305525574737",
        "title": "公共厕所",
        "address": "广西壮族自治区河池市金城江区金城西路职业教育中心学校东南侧约180米",
        "tel": "",
        "category": "基础设施:公共设施:公共厕所",
        "type": 0,
        "location": {
            "lat": 24.690006,
            "lng": 108.034212
        },
        "ad_info": {
            "adcode": 451202,
            "province": "广西壮族自治区",
            "city": "河池市",
            "district": "金城江区"
        }
    },
    {
        "id": "17106706655679588510",
        "title": "公共厕所",
        "address": "广西壮族自治区河池市宜州区金宜一级公路",
        "tel": "",
        "category": "基础设施:公共设施:公共厕所",
        "type": 0,
        "location": {
            "lat": 24.52978,
            "lng": 108.54212
        },
        "ad_info": {
            "adcode": 451203,
            "province": "广西壮族自治区",
            "city": "河池市",
            "district": "宜州区"
        }
    },
    {
        "id": "12832072468810174538",
        "title": "公共厕所",
        "address": "广西壮族自治区河池市宜州区S205与德胜大道交叉口西北方向112米左右",
        "tel": "",
        "category": "基础设施:公共设施:公共厕所",
        "type": 0,
        "location": {
            "lat": 24.705034,
            "lng": 108.3336
        },
        "ad_info": {
            "adcode": 451203,
            "province": "广西壮族自治区",
            "city": "河池市",
            "district": "宜州区"
        }
    },
    {
        "id": "16218388021362724642",
        "title": "公共厕所",
        "address": "广西壮族自治区河池市都安瑶族自治县安阳大道与澄东路交叉口西南方向48米左右",
        "tel": "",
        "category": "基础设施:公共设施:公共厕所",
        "type": 0,
        "location": {
            "lat": 23.925583,
            "lng": 108.110281
        },
        "ad_info": {
            "adcode": 451228,
            "province": "广西壮族自治区",
            "city": "河池市",
            "district": "都安瑶族自治县"
        }
    },
    {
        "id": "17203310007868813898",
        "title": "公共厕所",
        "address": "广西壮族自治区河池市金城江区民族路与解放南路交叉口西北方向48米左右",
        "tel": "",
        "category": "基础设施:公共设施:公共厕所",
        "type": 0,
        "location": {
            "lat": 24.698068,
            "lng": 108.066673
        },
        "ad_info": {
            "adcode": 451202,
            "province": "广西壮族自治区",
            "city": "河池市",
            "district": "金城江区"
        }
    },
    {
        "id": "5516636566536114479",
        "title": "公共厕所",
        "address": "广西壮族自治区河池市金城江区江北东路401号",
        "tel": "",
        "category": "基础设施:公共设施:公共厕所",
        "type": 0,
        "location": {
            "lat": 24.69103,
            "lng": 108.086065
        },
        "ad_info": {
            "adcode": 451202,
            "province": "广西壮族自治区",
            "city": "河池市",
            "district": "金城江区"
        }
    },
    {
        "id": "15281460446477670085",
        "title": "公共厕所",
        "address": "广西壮族自治区河池市巴马瑶族自治县城北路与河堤南路交叉口东南方向124米左右",
        "tel": "",
        "category": "基础设施:公共设施:公共厕所",
        "type": 0,
        "location": {
            "lat": 24.144724,
            "lng": 107.24352
        },
        "ad_info": {
            "adcode": 451227,
            "province": "广西壮族自治区",
            "city": "河池市",
            "district": "巴马瑶族自治县"
        }
    },
    {
        "id": "5926118384441245108",
        "title": "公共厕所",
        "address": "广西壮族自治区河池市金城江区文体路三巷11号",
        "tel": "",
        "category": "基础设施:公共设施:公共厕所",
        "type": 0,
        "location": {
            "lat": 24.691591,
            "lng": 108.049781
        },
        "ad_info": {
            "adcode": 451202,
            "province": "广西壮族自治区",
            "city": "河池市",
            "district": "金城江区"
        }
    },
    {
        "id": "1735427672339477693",
        "title": "公共厕所",
        "address": "广西壮族自治区河池市大化瑶族自治县王秀大道与红河路交叉口正南方向112米左右",
        "tel": "",
        "category": "基础设施:公共设施:公共厕所",
        "type": 0,
        "location": {
            "lat": 23.720121,
            "lng": 107.996852
        },
        "ad_info": {
            "adcode": 451229,
            "province": "广西壮族自治区",
            "city": "河池市",
            "district": "大化瑶族自治县"
        }
    },
    {
        "id": "1664793036569562396",
        "title": "公共厕所",
        "address": "广西壮族自治区河池市都安瑶族自治县高岭五二彩钢瓦厂南侧140米",
        "tel": "",
        "category": "基础设施:公共设施:公共厕所",
        "type": 0,
        "location": {
            "lat": 24.052053,
            "lng": 108.058623
        },
        "ad_info": {
            "adcode": 451228,
            "province": "广西壮族自治区",
            "city": "河池市",
            "district": "都安瑶族自治县"
        }
    },
    {
        "id": "6862626164000288124",
        "title": "公共厕所",
        "address": "广西壮族自治区河池市金城江区新建路二巷与金城中路交叉口西南方向156米左右",
        "tel": "",
        "category": "基础设施:公共设施:公共厕所",
        "type": 0,
        "location": {
            "lat": 24.694389,
            "lng": 108.060516
        },
        "ad_info": {
            "adcode": 451202,
            "province": "广西壮族自治区",
            "city": "河池市",
            "district": "金城江区"
        }
    },
    {
        "id": "17372201653237152025",
        "title": "公共厕所",
        "address": "广西壮族自治区河池市都安瑶族自治县创业大道与文体路交叉口正西方向178米左右",
        "tel": "",
        "category": "基础设施:公共设施:公共厕所",
        "type": 0,
        "location": {
            "lat": 23.942009,
            "lng": 108.102664
        },
        "ad_info": {
            "adcode": 451228,
            "province": "广西壮族自治区",
            "city": "河池市",
            "district": "都安瑶族自治县"
        }
    },
    {
        "id": "6737109302726301828",
        "title": "公共厕所",
        "address": "广西壮族自治区河池市金城江区民族路与江南西路交叉口西北方向55米左右",
        "tel": "",
        "category": "基础设施:公共设施:公共厕所",
        "type": 0,
        "location": {
            "lat": 24.69555,
            "lng": 108.065089
        },
        "ad_info": {
            "adcode": 451202,
            "province": "广西壮族自治区",
            "city": "河池市",
            "district": "金城江区"
        }
    },
    {
        "id": "8066227041022143235",
        "title": "公共厕所",
        "address": "广西壮族自治区河池市宜州区中山大道与南山路交叉口东南方向133米左右",
        "tel": "",
        "category": "基础设施:公共设施:公共厕所",
        "type": 0,
        "location": {
            "lat": 24.485578,
            "lng": 108.639851
        },
        "ad_info": {
            "adcode": 451203,
            "province": "广西壮族自治区",
            "city": "河池市",
            "district": "宜州区"
        }
    },
    {
        "id": "9454449491671616239",
        "title": "公共厕所",
        "address": "广西壮族自治区河池市环江毛南族自治县经一路与金环大道交叉口正南方向73米左右",
        "tel": "",
        "category": "基础设施:公共设施:公共厕所",
        "type": 0,
        "location": {
            "lat": 24.820443,
            "lng": 108.246397
        },
        "ad_info": {
            "adcode": 451226,
            "province": "广西壮族自治区",
            "city": "河池市",
            "district": "环江毛南族自治县"
        }
    },
    {
        "id": "730444842107393992",
        "title": "公共厕所",
        "address": "广西壮族自治区河池市南丹县丹城大道与山水路交叉口正西方向106米左右",
        "tel": "",
        "category": "基础设施:公共设施:公共厕所",
        "type": 0,
        "location": {
            "lat": 24.987203,
            "lng": 107.537477
        },
        "ad_info": {
            "adcode": 451221,
            "province": "广西壮族自治区",
            "city": "河池市",
            "district": "南丹县"
        }
    },
    {
        "id": "2961390750250031007",
        "title": "公共厕所",
        "address": "广西壮族自治区河池市都安瑶族自治县安阳大道与百才新区南一巷交叉口东北方向47米左右",
        "tel": "",
        "category": "基础设施:公共设施:公共厕所",
        "type": 0,
        "location": {
            "lat": 23.922031,
            "lng": 108.098248
        },
        "ad_info": {
            "adcode": 451228,
            "province": "广西壮族自治区",
            "city": "河池市",
            "district": "都安瑶族自治县"
        }
    },
    {
        "id": "12015210599456194748",
        "title": "公共厕所",
        "address": "广西壮族自治区河池市都安瑶族自治县大桥街157-1号",
        "tel": "",
        "category": "基础设施:公共设施:公共厕所",
        "type": 0,
        "location": {
            "lat": 23.930871,
            "lng": 108.110656
        },
        "ad_info": {
            "adcode": 451228,
            "province": "广西壮族自治区",
            "city": "河池市",
            "district": "都安瑶族自治县"
        }
    },
    {
        "id": "7170615463150284047",
        "title": "公共厕所",
        "address": "广西壮族自治区河池市环江毛南族自治县江滨路与桥东路西一巷交叉口东北60米",
        "tel": "",
        "category": "基础设施:公共设施:公共厕所",
        "type": 0,
        "location": {
            "lat": 24.836274,
            "lng": 108.254684
        },
        "ad_info": {
            "adcode": 451226,
            "province": "广西壮族自治区",
            "city": "河池市",
            "district": "环江毛南族自治县"
        }
    },
    {
        "id": "9038530655806777408",
        "title": "公共厕所",
        "address": "广西壮族自治区河池市宜州区204省道北50米",
        "tel": "",
        "category": "基础设施:公共设施:公共厕所",
        "type": 0,
        "location": {
            "lat": 24.55294,
            "lng": 108.691275
        },
        "ad_info": {
            "adcode": 451203,
            "province": "广西壮族自治区",
            "city": "河池市",
            "district": "宜州区"
        }
    },
    {
        "id": "17318217083859751428",
        "title": "公共厕所",
        "address": "广西壮族自治区河池市金城江区乾宵路与南环路交叉口西南方向156米左右",
        "tel": "",
        "category": "基础设施:公共设施:公共厕所",
        "type": 0,
        "location": {
            "lat": 24.675304,
            "lng": 108.043673
        },
        "ad_info": {
            "adcode": 451202,
            "province": "广西壮族自治区",
            "city": "河池市",
            "district": "金城江区"
        }
    },
    {
        "id": "1031246855967283447",
        "title": "公共厕所",
        "address": "广西壮族自治区河池市金城江区金城西路河池市体育馆",
        "tel": "",
        "category": "基础设施:公共设施:公共厕所",
        "type": 0,
        "location": {
            "lat": 24.691649,
            "lng": 108.035844
        },
        "ad_info": {
            "adcode": 451202,
            "province": "广西壮族自治区",
            "city": "河池市",
            "district": "金城江区"
        }
    },
    {
        "id": "2375131366978580984",
        "title": "公共厕所",
        "address": "广西壮族自治区河池市环江毛南族自治县桥东路与桥东路东6巷交叉口正西方向90米左右",
        "tel": "",
        "category": "基础设施:公共设施:公共厕所",
        "type": 0,
        "location": {
            "lat": 24.820842,
            "lng": 108.261273
        },
        "ad_info": {
            "adcode": 451226,
            "province": "广西壮族自治区",
            "city": "河池市",
            "district": "环江毛南族自治县"
        }
    },
    {
        "id": "7219007900331955340",
        "title": "公共厕所",
        "address": "广西壮族自治区河池市凤山县公园路与西环路交叉口西南方向33米左右",
        "tel": "",
        "category": "基础设施:公共设施:公共厕所",
        "type": 0,
        "location": {
            "lat": 24.54244,
            "lng": 107.04023
        },
        "ad_info": {
            "adcode": 451223,
            "province": "广西壮族自治区",
            "city": "河池市",
            "district": "凤山县"
        }
    },
    {
        "id": "6220912008524808679",
        "title": "公共厕所",
        "address": "广西壮族自治区河池市宜州区冯京路与驼山路交叉口正东方向311米左右",
        "tel": "",
        "category": "基础设施:公共设施:公共厕所",
        "type": 0,
        "location": {
            "lat": 24.500773,
            "lng": 108.642279
        },
        "ad_info": {
            "adcode": 451203,
            "province": "广西壮族自治区",
            "city": "河池市",
            "district": "宜州区"
        }
    },
    {
        "id": "18330757673709249827",
        "title": "公共厕所",
        "address": "广西壮族自治区河池市凤山县万寿谷东北侧80米",
        "tel": "",
        "category": "基础设施:公共设施:公共厕所",
        "type": 0,
        "location": {
            "lat": 24.407843,
            "lng": 107.022412
        },
        "ad_info": {
            "adcode": 451223,
            "province": "广西壮族自治区",
            "city": "河池市",
            "district": "凤山县"
        }
    },
    {
        "id": "4561689613659595871",
        "title": "公共厕所",
        "address": "广西壮族自治区河池市金城江区江湾路与澳北路交叉口正北方向152米左右",
        "tel": "",
        "category": "基础设施:公共设施:公共厕所",
        "type": 0,
        "location": {
            "lat": 24.695756,
            "lng": 108.096963
        },
        "ad_info": {
            "adcode": 451202,
            "province": "广西壮族自治区",
            "city": "河池市",
            "district": "金城江区"
        }
    },
    {
        "id": "15864291313416849317",
        "title": "公共厕所",
        "address": "广西壮族自治区河池市宜州区康宁路与金宜大道交叉口正西方向977米左右",
        "tel": "",
        "category": "基础设施:公共设施:公共厕所",
        "type": 0,
        "location": {
            "lat": 24.509146,
            "lng": 108.570827
        },
        "ad_info": {
            "adcode": 451203,
            "province": "广西壮族自治区",
            "city": "河池市",
            "district": "宜州区"
        }
    },
    {
        "id": "839553088210439514",
        "title": "公共厕所",
        "address": "广西壮族自治区河池市凤山县东环路中国石化(河池凤山银河加油站)",
        "tel": "",
        "category": "基础设施:公共设施:公共厕所",
        "type": 0,
        "location": {
            "lat": 24.54121,
            "lng": 107.04408
        },
        "ad_info": {
            "adcode": 451223,
            "province": "广西壮族自治区",
            "city": "河池市",
            "district": "凤山县"
        }
    },
    {
        "id": "4191561625673992073",
        "title": "公共厕所",
        "address": "广西壮族自治区河池市巴马瑶族自治县G243与寿乡大道交叉口东南方向166米左右",
        "tel": "",
        "category": "基础设施:公共设施:公共厕所",
        "type": 0,
        "location": {
            "lat": 24.155231,
            "lng": 107.232466
        },
        "ad_info": {
            "adcode": 451227,
            "province": "广西壮族自治区",
            "city": "河池市",
            "district": "巴马瑶族自治县"
        }
    },
    {
        "id": "6896668422664409481",
        "title": "公共厕所",
        "address": "广西壮族自治区河池市东兰县G323与S318交叉口正南方向449米左右",
        "tel": "",
        "category": "基础设施:公共设施:公共厕所",
        "type": 0,
        "location": {
            "lat": 24.49283,
            "lng": 107.362964
        },
        "ad_info": {
            "adcode": 451224,
            "province": "广西壮族自治区",
            "city": "河池市",
            "district": "东兰县"
        }
    },
    {
        "id": "3432231864806262765",
        "title": "公共厕所",
        "address": "广西壮族自治区河池市巴马瑶族自治县G323与赐福大桥交叉口正西方向1695米左右",
        "tel": "",
        "category": "基础设施:公共设施:公共厕所",
        "type": 0,
        "location": {
            "lat": 24.160117,
            "lng": 107.295677
        },
        "ad_info": {
            "adcode": 451227,
            "province": "广西壮族自治区",
            "city": "河池市",
            "district": "巴马瑶族自治县"
        }
    },
    {
        "id": "11150175648690967528",
        "title": "公共厕所",
        "address": "广西壮族自治区河池市金城江区同德路与百旺建材市场二排交叉口正西方向73米左右",
        "tel": "",
        "category": "基础设施:公共设施:公共厕所",
        "type": 0,
        "location": {
            "lat": 24.685758,
            "lng": 108.084343
        },
        "ad_info": {
            "adcode": 451202,
            "province": "广西壮族自治区",
            "city": "河池市",
            "district": "金城江区"
        }
    },
    {
        "id": "13282651698354875992",
        "title": "公共厕所",
        "address": "广西壮族自治区河池市金城江区民族路与江北东路交叉口西北方向51米左右",
        "tel": "",
        "category": "基础设施:公共设施:公共厕所",
        "type": 0,
        "location": {
            "lat": 24.696405,
            "lng": 108.065886
        },
        "ad_info": {
            "adcode": 451202,
            "province": "广西壮族自治区",
            "city": "河池市",
            "district": "金城江区"
        }
    },
    {
        "id": "12580881843892003985",
        "title": "公共厕所",
        "address": "广西壮族自治区河池市金城江区拥军路与金城中路交叉口西南方向108米左右",
        "tel": "",
        "category": "基础设施:公共设施:公共厕所",
        "type": 0,
        "location": {
            "lat": 24.695865,
            "lng": 108.053455
        },
        "ad_info": {
            "adcode": 451202,
            "province": "广西壮族自治区",
            "city": "河池市",
            "district": "金城江区"
        }
    },
    {
        "id": "5856386335579009657",
        "title": "公共厕所",
        "address": "广西壮族自治区河池市南丹县丹城大道与迎宾大道交叉口东北方向127米左右",
        "tel": "",
        "category": "基础设施:公共设施:公共厕所",
        "type": 0,
        "location": {
            "lat": 25.000032,
            "lng": 107.561538
        },
        "ad_info": {
            "adcode": 451221,
            "province": "广西壮族自治区",
            "city": "河池市",
            "district": "南丹县"
        }
    },
    {
        "id": "135759820250042381",
        "title": "公共厕所",
        "address": "广西壮族自治区河池市环江毛南族自治县民族路与纬三路交叉口正东方向35米左右",
        "tel": "",
        "category": "基础设施:公共设施:公共厕所",
        "type": 0,
        "location": {
            "lat": 24.823171,
            "lng": 108.257261
        },
        "ad_info": {
            "adcode": 451226,
            "province": "广西壮族自治区",
            "city": "河池市",
            "district": "环江毛南族自治县"
        }
    },
    {
        "id": "2080141430386172228",
        "title": "公共厕所",
        "address": "广西壮族自治区河池市金城江区姐妹美食店西南侧270米",
        "tel": "",
        "category": "基础设施:公共设施:公共厕所",
        "type": 0,
        "location": {
            "lat": 24.71747,
            "lng": 107.9472
        },
        "ad_info": {
            "adcode": 451202,
            "province": "广西壮族自治区",
            "city": "河池市",
            "district": "金城江区"
        }
    },
    {
        "id": "6130187844091415828",
        "title": "公共厕所",
        "address": "广西壮族自治区河池市金城江区民族路与金城中路交叉口东南方向150米左右",
        "tel": "",
        "category": "基础设施:公共设施:公共厕所",
        "type": 0,
        "location": {
            "lat": 24.693721,
            "lng": 108.066051
        },
        "ad_info": {
            "adcode": 451202,
            "province": "广西壮族自治区",
            "city": "河池市",
            "district": "金城江区"
        }
    },
    {
        "id": "9703223307345936543",
        "title": "公共厕所",
        "address": "广西壮族自治区河池市宜州区G242",
        "tel": "",
        "category": "基础设施:公共设施:公共厕所",
        "type": 0,
        "location": {
            "lat": 24.19441,
            "lng": 108.606088
        },
        "ad_info": {
            "adcode": 451203,
            "province": "广西壮族自治区",
            "city": "河池市",
            "district": "宜州区"
        }
    },
    {
        "id": "6554887497639358825",
        "title": "公共厕所",
        "address": "广西壮族自治区河池市环江毛南族自治县毛南大道与西南路交叉口东南方向87米左右",
        "tel": "",
        "category": "基础设施:公共设施:公共厕所",
        "type": 0,
        "location": {
            "lat": 24.829273,
            "lng": 108.248139
        },
        "ad_info": {
            "adcode": 451226,
            "province": "广西壮族自治区",
            "city": "河池市",
            "district": "环江毛南族自治县"
        }
    },
    {
        "id": "1749028219732867334",
        "title": "公共厕所",
        "address": "广西壮族自治区河池市环江毛南族自治县",
        "tel": "",
        "category": "基础设施:公共设施:公共厕所",
        "type": 0,
        "location": {
            "lat": 25.163911,
            "lng": 108.076898
        },
        "ad_info": {
            "adcode": 451226,
            "province": "广西壮族自治区",
            "city": "河池市",
            "district": "环江毛南族自治县"
        }
    },
    {
        "id": "8392843577098881476",
        "title": "公共厕所",
        "address": "广西壮族自治区河池市金城江区星河路与百旺路交叉口东南方向578米左右",
        "tel": "",
        "category": "基础设施:公共设施:公共厕所",
        "type": 0,
        "location": {
            "lat": 24.681683,
            "lng": 108.091184
        },
        "ad_info": {
            "adcode": 451202,
            "province": "广西壮族自治区",
            "city": "河池市",
            "district": "金城江区"
        }
    },
    {
        "id": "18059615200748296464",
        "title": "公共厕所",
        "address": "广西壮族自治区河池市金城江区南新东路与康健路交叉口西南方向182米左右",
        "tel": "",
        "category": "基础设施:公共设施:公共厕所",
        "type": 0,
        "location": {
            "lat": 24.686537,
            "lng": 108.074117
        },
        "ad_info": {
            "adcode": 451202,
            "province": "广西壮族自治区",
            "city": "河池市",
            "district": "金城江区"
        }
    },
    {
        "id": "17942683408750418991",
        "title": "卫生间",
        "address": "广西壮族自治区河池市宜州区黄莺路与龙溪路交叉口西南方向80米左右",
        "tel": "",
        "category": "基础设施:公共设施:公共厕所",
        "type": 0,
        "location": {
            "lat": 24.490987,
            "lng": 108.633389
        },
        "ad_info": {
            "adcode": 451203,
            "province": "广西壮族自治区",
            "city": "河池市",
            "district": "宜州区"
        }
    },
    {
        "id": "9885313185085960112",
        "title": "公共厕所",
        "address": "广西壮族自治区河池市金城江区思源路与金城中路交叉口西北方向114米左右",
        "tel": "",
        "category": "基础设施:公共设施:公共厕所",
        "type": 0,
        "location": {
            "lat": 24.697084,
            "lng": 108.051725
        },
        "ad_info": {
            "adcode": 451202,
            "province": "广西壮族自治区",
            "city": "河池市",
            "district": "金城江区"
        }
    },
    {
        "id": "4922992635544305939",
        "title": "公共厕所",
        "address": "广西壮族自治区河池市金城江区乾宵路与G75兰海高速出口交叉口东北460米",
        "tel": "",
        "category": "基础设施:公共设施:公共厕所",
        "type": 0,
        "location": {
            "lat": 24.667795,
            "lng": 108.028226
        },
        "ad_info": {
            "adcode": 451202,
            "province": "广西壮族自治区",
            "city": "河池市",
            "district": "金城江区"
        }
    },
    {
        "id": "9139627513504874219",
        "title": "公共厕所",
        "address": "广西壮族自治区河池市金城江区210国道西100米",
        "tel": "",
        "category": "基础设施:公共设施:公共厕所",
        "type": 0,
        "location": {
            "lat": 24.425659,
            "lng": 107.864392
        },
        "ad_info": {
            "adcode": 451202,
            "province": "广西壮族自治区",
            "city": "河池市",
            "district": "金城江区"
        }
    },
    {
        "id": "10977568593380702418",
        "title": "公共厕所",
        "address": "广西壮族自治区河池市都安瑶族自治县G210附近",
        "tel": "",
        "category": "基础设施:公共设施:公共厕所",
        "type": 0,
        "location": {
            "lat": 23.989758,
            "lng": 108.076982
        },
        "ad_info": {
            "adcode": 451228,
            "province": "广西壮族自治区",
            "city": "河池市",
            "district": "都安瑶族自治县"
        }
    },
    {
        "id": "13045767217522397078",
        "title": "公共厕所",
        "address": "广西壮族自治区河池市都安瑶族自治县",
        "tel": "",
        "category": "基础设施:公共设施:公共厕所",
        "type": 0,
        "location": {
            "lat": 24.286207,
            "lng": 107.922687
        },
        "ad_info": {
            "adcode": 451228,
            "province": "广西壮族自治区",
            "city": "河池市",
            "district": "都安瑶族自治县"
        }
    },
    {
        "id": "16280423522174836820",
        "title": "公共厕所",
        "address": "广西壮族自治区河池市金城江区翠玉路与金城中路交叉口正北方向136米左右",
        "tel": "",
        "category": "基础设施:公共设施:公共厕所",
        "type": 0,
        "location": {
            "lat": 24.694589,
            "lng": 108.044274
        },
        "ad_info": {
            "adcode": 451202,
            "province": "广西壮族自治区",
            "city": "河池市",
            "district": "金城江区"
        }
    },
    {
        "id": "17774427608464030208",
        "title": "公共厕所",
        "address": "广西壮族自治区河池市金城江区南新东路与康健路交叉口正南方向25米左右",
        "tel": "",
        "category": "基础设施:公共设施:公共厕所",
        "type": 0,
        "location": {
            "lat": 24.687632,
            "lng": 108.075257
        },
        "ad_info": {
            "adcode": 451202,
            "province": "广西壮族自治区",
            "city": "河池市",
            "district": "金城江区"
        }
    },
    {
        "id": "3029110001274777740",
        "title": "公共厕所",
        "address": "广西壮族自治区河池市金城江区金宜一级公路与金宜大道交叉口正北方向265米左右",
        "tel": "",
        "category": "基础设施:公共设施:公共厕所",
        "type": 0,
        "location": {
            "lat": 24.695854,
            "lng": 108.101993
        },
        "ad_info": {
            "adcode": 451202,
            "province": "广西壮族自治区",
            "city": "河池市",
            "district": "金城江区"
        }
    },
    {
        "id": "9698392075713621782",
        "title": "公共厕所",
        "address": "广西壮族自治区河池市南丹县拉金路与锡都路交叉口正西方向35米左右",
        "tel": "",
        "category": "基础设施:公共设施:公共厕所",
        "type": 0,
        "location": {
            "lat": 24.976622,
            "lng": 107.55341
        },
        "ad_info": {
            "adcode": 451221,
            "province": "广西壮族自治区",
            "city": "河池市",
            "district": "南丹县"
        }
    },
    {
        "id": "16239716031435934880",
        "title": "公共厕所",
        "address": "广西壮族自治区河池市金城江区G323与X902交叉口正东方向96米左右",
        "tel": "",
        "category": "基础设施:公共设施:公共厕所",
        "type": 0,
        "location": {
            "lat": 24.661165,
            "lng": 107.921721
        },
        "ad_info": {
            "adcode": 451202,
            "province": "广西壮族自治区",
            "city": "河池市",
            "district": "金城江区"
        }
    },
    {
        "id": "4257137244979535666",
        "title": "公共厕所",
        "address": "广西壮族自治区河池市南丹县民行北路与民行北路南一巷交叉口正东方向35米左右",
        "tel": "",
        "category": "基础设施:公共设施:公共厕所",
        "type": 0,
        "location": {
            "lat": 24.989931,
            "lng": 107.551669
        },
        "ad_info": {
            "adcode": 451221,
            "province": "广西壮族自治区",
            "city": "河池市",
            "district": "南丹县"
        }
    },
    {
        "id": "11279279818905344172",
        "title": "公共厕所",
        "address": "广西壮族自治区河池市金城江区乾宵路与南环路交叉口正西方向400米左右",
        "tel": "",
        "category": "基础设施:公共设施:公共厕所",
        "type": 0,
        "location": {
            "lat": 24.675405,
            "lng": 108.040819
        },
        "ad_info": {
            "adcode": 451202,
            "province": "广西壮族自治区",
            "city": "河池市",
            "district": "金城江区"
        }
    },
    {
        "id": "13011379768861970921",
        "title": "公共厕所",
        "address": "广西壮族自治区河池市金城江区拥政路与金城中路交叉口正北方向308米左右",
        "tel": "",
        "category": "基础设施:公共设施:公共厕所",
        "type": 0,
        "location": {
            "lat": 24.69887,
            "lng": 108.056093
        },
        "ad_info": {
            "adcode": 451202,
            "province": "广西壮族自治区",
            "city": "河池市",
            "district": "金城江区"
        }
    },
    {
        "id": "12628689841237924584",
        "title": "公共厕所",
        "address": "广西壮族自治区河池市金城江区满防线中国石油加油站",
        "tel": "",
        "category": "基础设施:公共设施:公共厕所",
        "type": 0,
        "location": {
            "lat": 24.682241,
            "lng": 107.856313
        },
        "ad_info": {
            "adcode": 451202,
            "province": "广西壮族自治区",
            "city": "河池市",
            "district": "金城江区"
        }
    },
    {
        "id": "8112087486186071202",
        "title": "隘洞镇公共厕所",
        "address": "广西壮族自治区河池市东兰县G323与隘洞中桥交叉口正西方向549米左右",
        "tel": "",
        "category": "基础设施:公共设施:公共厕所",
        "type": 0,
        "location": {
            "lat": 24.573237,
            "lng": 107.424687
        },
        "ad_info": {
            "adcode": 451224,
            "province": "广西壮族自治区",
            "city": "河池市",
            "district": "东兰县"
        }
    },
    {
        "id": "16211015612472227241",
        "title": "公共厕所",
        "address": "广西壮族自治区河池市南丹县丹城大道与山水路交叉口正西方向168米左右",
        "tel": "",
        "category": "基础设施:公共设施:公共厕所",
        "type": 0,
        "location": {
            "lat": 24.986342,
            "lng": 107.536885
        },
        "ad_info": {
            "adcode": 451221,
            "province": "广西壮族自治区",
            "city": "河池市",
            "district": "南丹县"
        }
    },
    {
        "id": "10411024267621360494",
        "title": "公共厕所",
        "address": "广西壮族自治区河池市南丹县民行中路二巷与河东路交叉口西南方向65米左右",
        "tel": "",
        "category": "基础设施:公共设施:公共厕所",
        "type": 0,
        "location": {
            "lat": 24.97971,
            "lng": 107.54731
        },
        "ad_info": {
            "adcode": 451221,
            "province": "广西壮族自治区",
            "city": "河池市",
            "district": "南丹县"
        }
    },
    {
        "id": "17557841247128541914",
        "title": "公共厕所",
        "address": "广西壮族自治区河池市南丹县聚宝路与锡都路交叉口正东方向753米左右",
        "tel": "",
        "category": "基础设施:公共设施:公共厕所",
        "type": 0,
        "location": {
            "lat": 24.974627,
            "lng": 107.564542
        },
        "ad_info": {
            "adcode": 451221,
            "province": "广西壮族自治区",
            "city": "河池市",
            "district": "南丹县"
        }
    },
    {
        "id": "9023893213095681412",
        "title": "朝阳公共厕所",
        "address": "广西壮族自治区河池市凤山县北一巷与朝阳大道交叉口西北方向25米左右",
        "tel": "",
        "category": "基础设施:公共设施:公共厕所",
        "type": 0,
        "location": {
            "lat": 24.548171,
            "lng": 107.036905
        },
        "ad_info": {
            "adcode": 451223,
            "province": "广西壮族自治区",
            "city": "河池市",
            "district": "凤山县"
        }
    },
    {
        "id": "564152914926099921",
        "title": "公共厕所",
        "address": "广西壮族自治区河池市罗城仫佬族自治县朝阳路40号",
        "tel": "",
        "category": "基础设施:公共设施:公共厕所",
        "type": 0,
        "location": {
            "lat": 24.780562,
            "lng": 108.916021
        },
        "ad_info": {
            "adcode": 451225,
            "province": "广西壮族自治区",
            "city": "河池市",
            "district": "罗城仫佬族自治县"
        }
    },
    {
        "id": "267150432943185548",
        "title": "公共厕所",
        "address": "广西壮族自治区河池市金城江区颐园路一巷与颐园路交叉口东南方向161米左右",
        "tel": "",
        "category": "基础设施:公共设施:公共厕所",
        "type": 0,
        "location": {
            "lat": 24.697251,
            "lng": 108.04878
        },
        "ad_info": {
            "adcode": 451202,
            "province": "广西壮族自治区",
            "city": "河池市",
            "district": "金城江区"
        }
    },
    {
        "id": "16930430280927053363",
        "title": "公共厕所",
        "address": "广西壮族自治区河池市南丹县G210与平桥交叉口正北方向1131米左右",
        "tel": "",
        "category": "基础设施:公共设施:公共厕所",
        "type": 0,
        "location": {
            "lat": 25.113212,
            "lng": 107.505493
        },
        "ad_info": {
            "adcode": 451221,
            "province": "广西壮族自治区",
            "city": "河池市",
            "district": "南丹县"
        }
    },
    {
        "id": "16563455987023613852",
        "title": "公共厕所",
        "address": "广西壮族自治区河池市南丹县满防线",
        "tel": "",
        "category": "基础设施:公共设施:公共厕所",
        "type": 0,
        "location": {
            "lat": 25.128503,
            "lng": 107.509206
        },
        "ad_info": {
            "adcode": 451221,
            "province": "广西壮族自治区",
            "city": "河池市",
            "district": "南丹县"
        }
    },
    {
        "id": "12201971704997180992",
        "title": "公共厕所",
        "address": "广西壮族自治区河池市罗城仫佬族自治县朝阳路中国石化(永安加油站)",
        "tel": "",
        "category": "基础设施:公共设施:公共厕所",
        "type": 0,
        "location": {
            "lat": 24.781746,
            "lng": 108.917747
        },
        "ad_info": {
            "adcode": 451225,
            "province": "广西壮族自治区",
            "city": "河池市",
            "district": "罗城仫佬族自治县"
        }
    },
    {
        "id": "9401494283441294910",
        "title": "公共厕所",
        "address": "广西壮族自治区河池市罗城仫佬族自治县凤凰大道与解放路交叉口西南方向204米左右",
        "tel": "",
        "category": "基础设施:公共设施:公共厕所",
        "type": 0,
        "location": {
            "lat": 24.779481,
            "lng": 108.893104
        },
        "ad_info": {
            "adcode": 451225,
            "province": "广西壮族自治区",
            "city": "河池市",
            "district": "罗城仫佬族自治县"
        }
    },
    {
        "id": "6114075586760503780",
        "title": "怀远停车区公共厕所",
        "address": "广西壮族自治区河池市宜州区G78汕昆高速附近",
        "tel": "",
        "category": "基础设施:公共设施:公共厕所",
        "type": 0,
        "location": {
            "lat": 24.530028,
            "lng": 108.48134
        },
        "ad_info": {
            "adcode": 451203,
            "province": "广西壮族自治区",
            "city": "河池市",
            "district": "宜州区"
        }
    },
    {
        "id": "13179775878428258283",
        "title": "公共厕所",
        "address": "广西壮族自治区河池市罗城仫佬族自治县白马路与解放路交叉口正北方向84米左右",
        "tel": "",
        "category": "基础设施:公共设施:公共厕所",
        "type": 0,
        "location": {
            "lat": 24.78093,
            "lng": 108.90817
        },
        "ad_info": {
            "adcode": 451225,
            "province": "广西壮族自治区",
            "city": "河池市",
            "district": "罗城仫佬族自治县"
        }
    },
    {
        "id": "18137240531376527421",
        "title": "密洛陀文化公园公共厕所",
        "address": "广西壮族自治区河池市都安瑶族自治县澄东一巷与澄东路交叉口正东方向315米左右",
        "tel": "",
        "category": "基础设施:公共设施:公共厕所",
        "type": 0,
        "location": {
            "lat": 23.937069,
            "lng": 108.109784
        },
        "ad_info": {
            "adcode": 451228,
            "province": "广西壮族自治区",
            "city": "河池市",
            "district": "都安瑶族自治县"
        }
    },
    {
        "id": "2732880556729948672",
        "title": "公共厕所",
        "address": "广西壮族自治区河池市罗城仫佬族自治县崖宜风景区南侧50米",
        "tel": "",
        "category": "基础设施:公共设施:公共厕所",
        "type": 0,
        "location": {
            "lat": 24.885448,
            "lng": 109.034057
        },
        "ad_info": {
            "adcode": 451225,
            "province": "广西壮族自治区",
            "city": "河池市",
            "district": "罗城仫佬族自治县"
        }
    },
    {
        "id": "8080032929701824346",
        "title": "公共厕所",
        "address": "广西壮族自治区河池市南丹县丹东路与河西路交叉口东南方向32米左右",
        "tel": "",
        "category": "基础设施:公共设施:公共厕所",
        "type": 0,
        "location": {
            "lat": 24.978814,
            "lng": 107.547189
        },
        "ad_info": {
            "adcode": 451221,
            "province": "广西壮族自治区",
            "city": "河池市",
            "district": "南丹县"
        }
    },
    {
        "id": "8366347312987090656",
        "title": "林业河堤公共厕所",
        "address": "广西壮族自治区河池市巴马瑶族自治县寿乡大道与新建路交叉口正南方向118米左右",
        "tel": "",
        "category": "基础设施:公共设施:公共厕所",
        "type": 0,
        "location": {
            "lat": 24.138861,
            "lng": 107.254937
        },
        "ad_info": {
            "adcode": 451227,
            "province": "广西壮族自治区",
            "city": "河池市",
            "district": "巴马瑶族自治县"
        }
    },
    {
        "id": "11110683404940592870",
        "title": "安马服务区公共厕所",
        "address": "广西壮族自治区河池市宜州区X956与安马互通交叉口正东方向1138米左右",
        "tel": "",
        "category": "基础设施:公共设施:公共厕所",
        "type": 0,
        "location": {
            "lat": 24.659901,
            "lng": 108.448291
        },
        "ad_info": {
            "adcode": 451203,
            "province": "广西壮族自治区",
            "city": "河池市",
            "district": "宜州区"
        }
    },
    {
        "id": "9125149633466329317",
        "title": "龙头服务区公共厕所",
        "address": "广西壮族自治区河池市宜州区兰海高速附近",
        "tel": "",
        "category": "基础设施:公共设施:公共厕所",
        "type": 0,
        "location": {
            "lat": 24.529063,
            "lng": 108.084081
        },
        "ad_info": {
            "adcode": 451203,
            "province": "广西壮族自治区",
            "city": "河池市",
            "district": "宜州区"
        }
    },
    {
        "id": "15906325781919607518",
        "title": "所略停车区公共厕所",
        "address": "广西壮族自治区河池市巴马瑶族自治县G78汕昆高速与所略停车区交叉口西280米",
        "tel": "",
        "category": "基础设施:公共设施:公共厕所",
        "type": 0,
        "location": {
            "lat": 24.145441,
            "lng": 107.040019
        },
        "ad_info": {
            "adcode": 451227,
            "province": "广西壮族自治区",
            "city": "河池市",
            "district": "巴马瑶族自治县"
        }
    },
    {
        "id": "2058734396786762215",
        "title": "所略停车区公共厕所",
        "address": "广西壮族自治区河池市巴马瑶族自治县G78汕昆高速与所略停车区交叉口东北280米",
        "tel": "",
        "category": "基础设施:公共设施:公共厕所",
        "type": 0,
        "location": {
            "lat": 24.146638,
            "lng": 107.03959
        },
        "ad_info": {
            "adcode": 451227,
            "province": "广西壮族自治区",
            "city": "河池市",
            "district": "巴马瑶族自治县"
        }
    },
    {
        "id": "264599368756915853",
        "title": "旅游厕所",
        "address": "广西壮族自治区河池市都安瑶族自治县九灵天窗南侧",
        "tel": "",
        "category": "基础设施:公共设施:公共厕所",
        "type": 0,
        "location": {
            "lat": 23.973941,
            "lng": 107.994553
        },
        "ad_info": {
            "adcode": 451228,
            "province": "广西壮族自治区",
            "city": "河池市",
            "district": "都安瑶族自治县"
        }
    },
    {
        "id": "10185483483584507496",
        "title": "巴马北服务区公共厕所",
        "address": "广西壮族自治区河池市巴马瑶族自治县交投巴马北服务区加油站西南侧140米",
        "tel": "",
        "category": "基础设施:公共设施:公共厕所",
        "type": 0,
        "location": {
            "lat": 24.19157,
            "lng": 107.21963
        },
        "ad_info": {
            "adcode": 451227,
            "province": "广西壮族自治区",
            "city": "河池市",
            "district": "巴马瑶族自治县"
        }
    },
    {
        "id": "6463622643643220531",
        "title": "地苏停车区公共厕所",
        "address": "广西壮族自治区河池市都安瑶族自治县地苏停车区便利店东侧",
        "tel": "",
        "category": "基础设施:公共设施:公共厕所",
        "type": 0,
        "location": {
            "lat": 23.842304,
            "lng": 108.053167
        },
        "ad_info": {
            "adcode": 451228,
            "province": "广西壮族自治区",
            "city": "河池市",
            "district": "都安瑶族自治县"
        }
    },
    {
        "id": "8986979096212494120",
        "title": "水任停车区公共厕所",
        "address": "广西壮族自治区河池市金城江区水任停车区与G75兰海高速交叉口西北200米",
        "tel": "",
        "category": "基础设施:公共设施:公共厕所",
        "type": 0,
        "location": {
            "lat": 24.671499,
            "lng": 107.92487
        },
        "ad_info": {
            "adcode": 451202,
            "province": "广西壮族自治区",
            "city": "河池市",
            "district": "金城江区"
        }
    },
    {
        "id": "4608017828922361218",
        "title": "龙头服务区公共厕所",
        "address": "广西壮族自治区河池市宜州区兰海高速附近",
        "tel": "",
        "category": "基础设施:公共设施:公共厕所",
        "type": 0,
        "location": {
            "lat": 24.529883,
            "lng": 108.082937
        },
        "ad_info": {
            "adcode": 451203,
            "province": "广西壮族自治区",
            "city": "河池市",
            "district": "宜州区"
        }
    },
    {
        "id": "2650232980448252070",
        "title": "男洗手间",
        "address": "广西壮族自治区河池市金城江区栋良村河池金城江机场F1",
        "tel": "",
        "category": "基础设施:公共设施:公共厕所",
        "type": 0,
        "location": {
            "lat": 24.799071,
            "lng": 107.713973
        },
        "ad_info": {
            "adcode": 451202,
            "province": "广西壮族自治区",
            "city": "河池市",
            "district": "金城江区"
        }
    },
    {
        "id": "11639942256044139987",
        "title": "宜州服务区公共厕所",
        "address": "广西壮族自治区河池市宜州区九龙路与燕山路交叉口正南方向1010米左右",
        "tel": "",
        "category": "基础设施:公共设施:公共厕所",
        "type": 0,
        "location": {
            "lat": 24.474712,
            "lng": 108.645066
        },
        "ad_info": {
            "adcode": 451203,
            "province": "广西壮族自治区",
            "city": "河池市",
            "district": "宜州区"
        }
    },
    {
        "id": "1528245686045292546",
        "title": "都安北服务区公共厕所",
        "address": "广西壮族自治区河池市都安瑶族自治县高岭镇G75兰海高速都安北服务区附近",
        "tel": "",
        "category": "基础设施:公共设施:公共厕所",
        "type": 0,
        "location": {
            "lat": 24.086162,
            "lng": 108.045008
        },
        "ad_info": {
            "adcode": 451228,
            "province": "广西壮族自治区",
            "city": "河池市",
            "district": "都安瑶族自治县"
        }
    },
    {
        "id": "12539461823590361175",
        "title": "龙头服务区公共厕所",
        "address": "广西壮族自治区河池市宜州区G75兰海高速与龙头服务区交叉口北160米",
        "tel": "",
        "category": "基础设施:公共设施:公共厕所",
        "type": 0,
        "location": {
            "lat": 24.528213,
            "lng": 108.085984
        },
        "ad_info": {
            "adcode": 451203,
            "province": "广西壮族自治区",
            "city": "河池市",
            "district": "宜州区"
        }
    },
    {
        "id": "3178389350000953886",
        "title": "侧岭服务区第二公共厕所",
        "address": "广西壮族自治区河池市金城江区侧岭服务区与G75兰海高速交叉口西北460米",
        "tel": "",
        "category": "基础设施:公共设施:公共厕所",
        "type": 0,
        "location": {
            "lat": 24.840553,
            "lng": 107.770922
        },
        "ad_info": {
            "adcode": 451202,
            "province": "广西壮族自治区",
            "city": "河池市",
            "district": "金城江区"
        }
    },
    {
        "id": "15213063936902539897",
        "title": "公共厕所",
        "address": "广西壮族自治区河池市天峨县X20343与云林路交叉口正东方向36米左右",
        "tel": "",
        "category": "基础设施:公共设施:公共厕所",
        "type": 0,
        "location": {
            "lat": 24.984079,
            "lng": 107.182322
        },
        "ad_info": {
            "adcode": 451222,
            "province": "广西壮族自治区",
            "city": "河池市",
            "district": "天峨县"
        }
    },
    {
        "id": "7557831471050009651",
        "title": "公共厕所",
        "address": "广西壮族自治区河池市天峨县天湖桃花岛休闲垂钓基地东南侧70米",
        "tel": "",
        "category": "基础设施:公共设施:公共厕所",
        "type": 0,
        "location": {
            "lat": 25.045275,
            "lng": 106.965521
        },
        "ad_info": {
            "adcode": 451222,
            "province": "广西壮族自治区",
            "city": "河池市",
            "district": "天峨县"
        }
    },
    {
        "id": "8284836853822928530",
        "title": "南丹服务区公共厕所",
        "address": "广西壮族自治区河池市南丹县G210与平桥交叉口正东方向1286米左右",
        "tel": "",
        "category": "基础设施:公共设施:公共厕所",
        "type": 0,
        "location": {
            "lat": 25.10106,
            "lng": 107.518293
        },
        "ad_info": {
            "adcode": 451221,
            "province": "广西壮族自治区",
            "city": "河池市",
            "district": "南丹县"
        }
    },
    {
        "id": "4996373648035658147",
        "title": "侧岭服务区公共厕所",
        "address": "广西壮族自治区河池市金城江区兰海高速侧岭服务区",
        "tel": "",
        "category": "基础设施:公共设施:公共厕所",
        "type": 0,
        "location": {
            "lat": 24.839773,
            "lng": 107.771766
        },
        "ad_info": {
            "adcode": 451202,
            "province": "广西壮族自治区",
            "city": "河池市",
            "district": "金城江区"
        }
    },
    {
        "id": "5209217884716440193",
        "title": "南丹服务区公共厕所",
        "address": "广西壮族自治区河池市南丹县G75兰海高速东100米",
        "tel": "",
        "category": "基础设施:公共设施:公共厕所",
        "type": 0,
        "location": {
            "lat": 25.093032,
            "lng": 107.524067
        },
        "ad_info": {
            "adcode": 451221,
            "province": "广西壮族自治区",
            "city": "河池市",
            "district": "南丹县"
        }
    },
    {
        "id": "17748503856986729218",
        "title": "公共厕所",
        "address": "广西壮族自治区河池市天峨县G243与塘英大桥交叉口东南方向81米左右",
        "tel": "",
        "category": "基础设施:公共设施:公共厕所",
        "type": 0,
        "location": {
            "lat": 24.973578,
            "lng": 107.186499
        },
        "ad_info": {
            "adcode": 451222,
            "province": "广西壮族自治区",
            "city": "河池市",
            "district": "天峨县"
        }
    },
    {
        "id": "680536456135531690",
        "title": "公共厕所",
        "address": "广西壮族自治区河池市天峨县317省道西100米",
        "tel": "",
        "category": "基础设施:公共设施:公共厕所",
        "type": 0,
        "location": {
            "lat": 25.014328,
            "lng": 107.071677
        },
        "ad_info": {
            "adcode": 451222,
            "province": "广西壮族自治区",
            "city": "河池市",
            "district": "天峨县"
        }
    },
    {
        "id": "10900450105090454673",
        "title": "公共厕所",
        "address": "广西壮族自治区河池市天峨县大桥路与聚龙大道交叉口东北方向138米左右",
        "tel": "",
        "category": "基础设施:公共设施:公共厕所",
        "type": 0,
        "location": {
            "lat": 24.991556,
            "lng": 107.17511
        },
        "ad_info": {
            "adcode": 451222,
            "province": "广西壮族自治区",
            "city": "河池市",
            "district": "天峨县"
        }
    },
    {
        "id": "8612171443532909792",
        "title": "侧岭服务区第一公共厕所",
        "address": "广西壮族自治区河池市金城江区侧岭乡塘甫兰海高速公路侧岭服务区",
        "tel": "",
        "category": "基础设施:公共设施:公共厕所",
        "type": 0,
        "location": {
            "lat": 24.839954,
            "lng": 107.769953
        },
        "ad_info": {
            "adcode": 451202,
            "province": "广西壮族自治区",
            "city": "河池市",
            "district": "金城江区"
        }
    },
    {
        "id": "13717010148902953568",
        "title": "公共厕所",
        "address": "广西壮族自治区河池市天峨县古榕南路与江滨路交叉口东北方向461米左右",
        "tel": "",
        "category": "基础设施:公共设施:公共厕所",
        "type": 0,
        "location": {
            "lat": 24.979733,
            "lng": 107.185308
        },
        "ad_info": {
            "adcode": 451222,
            "province": "广西壮族自治区",
            "city": "河池市",
            "district": "天峨县"
        }
    },
    {
        "id": "8374919924167114448",
        "title": "向阳服务区公共厕所",
        "address": "广西壮族自治区河池市天峨县",
        "tel": "",
        "category": "基础设施:公共设施:公共厕所",
        "type": 0,
        "location": {
            "lat": 25.064662,
            "lng": 106.956693
        },
        "ad_info": {
            "adcode": 451222,
            "province": "广西壮族自治区",
            "city": "河池市",
            "district": "天峨县"
        }
    },
    {
        "id": "7494653954808625457",
        "title": "市政中心广场公共厕所",
        "address": "广西壮族自治区河池市宜州区中山大道与黄莺路交叉口东北方向137米左右",
        "tel": "",
        "category": "基础设施:公共设施:公共厕所",
        "type": 0,
        "location": {
            "lat": 24.48733,
            "lng": 108.634789
        },
        "ad_info": {
            "adcode": 451203,
            "province": "广西壮族自治区",
            "city": "河池市",
            "district": "宜州区"
        }
    },
    {
        "id": "2216949365358196131",
        "title": "安马服务区公共厕所",
        "address": "广西壮族自治区河池市宜州区X956与安马互通交叉口东南方向509米左右",
        "tel": "",
        "category": "基础设施:公共设施:公共厕所",
        "type": 0,
        "location": {
            "lat": 24.659365,
            "lng": 108.441376
        },
        "ad_info": {
            "adcode": 451203,
            "province": "广西壮族自治区",
            "city": "河池市",
            "district": "宜州区"
        }
    },
    {
        "id": "14116613703608630713",
        "title": "厕所",
        "address": "广西壮族自治区河池市南丹县兰海高速与南丹互通式立交交叉口东南方向468米左右",
        "tel": "15777819601",
        "category": "基础设施:公共设施:公共厕所",
        "type": 0,
        "location": {
            "lat": 25.029384,
            "lng": 107.57929
        },
        "ad_info": {
            "adcode": 451221,
            "province": "广西壮族自治区",
            "city": "河池市",
            "district": "南丹县"
        }
    },
    {
        "id": "9718985003362874923",
        "title": "芒场停车区公共厕所",
        "address": "广西壮族自治区河池市南丹县芒场停车区与G75兰海高速交叉口西北220米",
        "tel": "",
        "category": "基础设施:公共设施:公共厕所",
        "type": 0,
        "location": {
            "lat": 25.239575,
            "lng": 107.449223
        },
        "ad_info": {
            "adcode": 451221,
            "province": "广西壮族自治区",
            "city": "河池市",
            "district": "南丹县"
        }
    },
    {
        "id": "2931956994331204535",
        "title": "公共厕所",
        "address": "广西壮族自治区河池市宜州区凉泉巷与山谷路交叉口正北方向214米左右",
        "tel": "",
        "category": "基础设施:公共设施:公共厕所",
        "type": 0,
        "location": {
            "lat": 24.498022,
            "lng": 108.640551
        },
        "ad_info": {
            "adcode": 451203,
            "province": "广西壮族自治区",
            "city": "河池市",
            "district": "宜州区"
        }
    },
    {
        "id": "8554466777694708376",
        "title": "公共厕所",
        "address": "广西壮族自治区河池市南丹县歌娅思谷景区",
        "tel": "",
        "category": "基础设施:公共设施:公共厕所",
        "type": 0,
        "location": {
            "lat": 25.064834,
            "lng": 107.631332
        },
        "ad_info": {
            "adcode": 451221,
            "province": "广西壮族自治区",
            "city": "河池市",
            "district": "南丹县"
        }
    },
    {
        "id": "18198623942080817253",
        "title": "公共厕所",
        "address": "广西壮族自治区河池市宜州区屏南乡合寨村新村屯红白理事会服务点东北侧280米",
        "tel": "",
        "category": "基础设施:公共设施:公共厕所",
        "type": 0,
        "location": {
            "lat": 24.284528,
            "lng": 108.898133
        },
        "ad_info": {
            "adcode": 451203,
            "province": "广西壮族自治区",
            "city": "河池市",
            "district": "宜州区"
        }
    },
    {
        "id": "17315356008562115881",
        "title": "公共厕所",
        "address": "广西壮族自治区河池市都安瑶族自治县屏山路与绿岑路交叉口正北方向440米左右",
        "tel": "",
        "category": "基础设施:公共设施:公共厕所",
        "type": 0,
        "location": {
            "lat": 23.951493,
            "lng": 108.097633
        },
        "ad_info": {
            "adcode": 451228,
            "province": "广西壮族自治区",
            "city": "河池市",
            "district": "都安瑶族自治县"
        }
    },
    {
        "id": "7041006955970152109",
        "title": "公共厕所(GX-HC-0542)",
        "address": "广西壮族自治区河池市都安瑶族自治县都安天润城北侧260米",
        "tel": "",
        "category": "基础设施:公共设施:公共厕所",
        "type": 0,
        "location": {
            "lat": 23.946628,
            "lng": 108.10738
        },
        "ad_info": {
            "adcode": 451228,
            "province": "广西壮族自治区",
            "city": "河池市",
            "district": "都安瑶族自治县"
        }
    },
    {
        "id": "12669612789321176957",
        "title": "公共厕所(GX-HC-0408)",
        "address": "广西壮族自治区河池市宜州区祥贝乡大水车停车场",
        "tel": "",
        "category": "基础设施:公共设施:公共厕所",
        "type": 0,
        "location": {
            "lat": 24.659302,
            "lng": 108.65908
        },
        "ad_info": {
            "adcode": 451203,
            "province": "广西壮族自治区",
            "city": "河池市",
            "district": "宜州区"
        }
    },
    {
        "id": "3089402657825762952",
        "title": "都安停车区公共厕所",
        "address": "广西壮族自治区河池市都安瑶族自治县兰海高速",
        "tel": "",
        "category": "基础设施:公共设施:公共厕所",
        "type": 0,
        "location": {
            "lat": 23.870132,
            "lng": 108.090785
        },
        "ad_info": {
            "adcode": 451228,
            "province": "广西壮族自治区",
            "city": "河池市",
            "district": "都安瑶族自治县"
        }
    },
    {
        "id": "1375085060572579005",
        "title": "东江停车区公共厕所",
        "address": "广西壮族自治区河池市金城江区东江停车区与G78汕昆高速交叉口西北280米",
        "tel": "",
        "category": "基础设施:公共设施:公共厕所",
        "type": 0,
        "location": {
            "lat": 24.704192,
            "lng": 108.156531
        },
        "ad_info": {
            "adcode": 451202,
            "province": "广西壮族自治区",
            "city": "河池市",
            "district": "金城江区"
        }
    },
    {
        "id": "17440763905610297472",
        "title": "八圩停车区公共厕所",
        "address": "广西壮族自治区河池市南丹县兰海高速公路八圩停车区",
        "tel": "",
        "category": "基础设施:公共设施:公共厕所",
        "type": 0,
        "location": {
            "lat": 24.936103,
            "lng": 107.712629
        },
        "ad_info": {
            "adcode": 451221,
            "province": "广西壮族自治区",
            "city": "河池市",
            "district": "南丹县"
        }
    },
    {
        "id": "5276396261567429325",
        "title": "水任停车区公共厕所",
        "address": "广西壮族自治区河池市金城江区水任停车区",
        "tel": "",
        "category": "基础设施:公共设施:公共厕所",
        "type": 0,
        "location": {
            "lat": 24.671401,
            "lng": 107.92251
        },
        "ad_info": {
            "adcode": 451202,
            "province": "广西壮族自治区",
            "city": "河池市",
            "district": "金城江区"
        }
    },
    {
        "id": "15727824516236624347",
        "title": "怀远停车区公共厕所",
        "address": "广西壮族自治区河池市宜州区怀远停车区(汕昆高速公路北)附近",
        "tel": "",
        "category": "基础设施:公共设施:公共厕所",
        "type": 0,
        "location": {
            "lat": 24.529108,
            "lng": 108.480279
        },
        "ad_info": {
            "adcode": 451203,
            "province": "广西壮族自治区",
            "city": "河池市",
            "district": "宜州区"
        }
    },
    {
        "id": "17200797646342657923",
        "title": "公共厕所",
        "address": "广西壮族自治区河池市天峨县新建街与龙滩路交叉口正西方向235米左右",
        "tel": "",
        "category": "基础设施:公共设施:公共厕所",
        "type": 0,
        "location": {
            "lat": 24.996551,
            "lng": 107.166639
        },
        "ad_info": {
            "adcode": 451222,
            "province": "广西壮族自治区",
            "city": "河池市",
            "district": "天峨县"
        }
    },
    {
        "id": "223156641682630951",
        "title": "公共厕所",
        "address": "广西壮族自治区河池市金城江区同德路一巷与江南东路交叉口正东方向169米左右",
        "tel": "",
        "category": "基础设施:公共设施:公共厕所",
        "type": 0,
        "location": {
            "lat": 24.68946,
            "lng": 108.087276
        },
        "ad_info": {
            "adcode": 451202,
            "province": "广西壮族自治区",
            "city": "河池市",
            "district": "金城江区"
        }
    },
    {
        "id": "18404209093023809915",
        "title": "林业河堤公共厕所",
        "address": "广西壮族自治区河池市巴马瑶族自治县寿乡大道与新建路交叉口正南方向123米左右",
        "tel": "",
        "category": "基础设施:公共设施:公共厕所",
        "type": 0,
        "location": {
            "lat": 24.138873,
            "lng": 107.255194
        },
        "ad_info": {
            "adcode": 451227,
            "province": "广西壮族自治区",
            "city": "河池市",
            "district": "巴马瑶族自治县"
        }
    },
    {
        "id": "11822816512740394478",
        "title": "公共厕所",
        "address": "广西壮族自治区河池市大化瑶族自治县大化岩滩旅游景区南侧",
        "tel": "",
        "category": "基础设施:公共设施:公共厕所",
        "type": 0,
        "location": {
            "lat": 24.02991,
            "lng": 107.507376
        },
        "ad_info": {
            "adcode": 451229,
            "province": "广西壮族自治区",
            "city": "河池市",
            "district": "大化瑶族自治县"
        }
    },
    {
        "id": "1160917368523963926",
        "title": "德胜服务区公共厕所",
        "address": "广西壮族自治区河池市宜州区德胜服务区西南30米",
        "tel": "",
        "category": "基础设施:公共设施:公共厕所",
        "type": 0,
        "location": {
            "lat": 24.650727,
            "lng": 108.342451
        },
        "ad_info": {
            "adcode": 451203,
            "province": "广西壮族自治区",
            "city": "河池市",
            "district": "宜州区"
        }
    },
    {
        "id": "9379934257661225005",
        "title": "公共厕所",
        "address": "广西壮族自治区河池市大化瑶族自治县建丰路与江滨南路交叉口正西方向124米左右",
        "tel": "",
        "category": "基础设施:公共设施:公共厕所",
        "type": 0,
        "location": {
            "lat": 23.728705,
            "lng": 107.998857
        },
        "ad_info": {
            "adcode": 451229,
            "province": "广西壮族自治区",
            "city": "河池市",
            "district": "大化瑶族自治县"
        }
    },
    {
        "id": "13572575921517612138",
        "title": "芒场停车区公共厕所",
        "address": "广西壮族自治区河池市南丹县六寨互通式立交与兰海高速交叉口东南方向1172米左右",
        "tel": "",
        "category": "基础设施:公共设施:公共厕所",
        "type": 0,
        "location": {
            "lat": 25.239325,
            "lng": 107.446844
        },
        "ad_info": {
            "adcode": 451221,
            "province": "广西壮族自治区",
            "city": "河池市",
            "district": "南丹县"
        }
    },
    {
        "id": "14011000389825326456",
        "title": "公共厕所",
        "address": "广西壮族自治区河池市金城江区文体路与金城中路交叉口正西方向142米左右",
        "tel": "",
        "category": "基础设施:公共设施:公共厕所",
        "type": 0,
        "location": {
            "lat": 24.695055,
            "lng": 108.045084
        },
        "ad_info": {
            "adcode": 451202,
            "province": "广西壮族自治区",
            "city": "河池市",
            "district": "金城江区"
        }
    },
    {
        "id": "9543401043702680931",
        "title": "地苏停车区公共厕所",
        "address": "广西壮族自治区河池市都安瑶族自治县S30贺巴高速与地苏停车区交叉口西300米",
        "tel": "",
        "category": "基础设施:公共设施:公共厕所",
        "type": 0,
        "location": {
            "lat": 23.839685,
            "lng": 108.055966
        },
        "ad_info": {
            "adcode": 451228,
            "province": "广西壮族自治区",
            "city": "河池市",
            "district": "都安瑶族自治县"
        }
    },
    {
        "id": "8918453232477805497",
        "title": "东江停车区公共厕所",
        "address": "广西壮族自治区河池市金城江区X854与Y017交叉口西南方向750米左右",
        "tel": "",
        "category": "基础设施:公共设施:公共厕所",
        "type": 0,
        "location": {
            "lat": 24.703842,
            "lng": 108.155436
        },
        "ad_info": {
            "adcode": 451202,
            "province": "广西壮族自治区",
            "city": "河池市",
            "district": "金城江区"
        }
    },
    {
        "id": "16217590458882340597",
        "title": "公共厕所",
        "address": "广西壮族自治区河池市金城江区乾宵路与农贸路交叉口东北方向503米左右",
        "tel": "",
        "category": "基础设施:公共设施:公共厕所",
        "type": 0,
        "location": {
            "lat": 24.672156,
            "lng": 108.032385
        },
        "ad_info": {
            "adcode": 451202,
            "province": "广西壮族自治区",
            "city": "河池市",
            "district": "金城江区"
        }
    },
    {
        "id": "4552545935495422969",
        "title": "公共厕所",
        "address": "广西壮族自治区河池市都安瑶族自治县X868与Y012交叉口正西方向270米左右",
        "tel": "",
        "category": "基础设施:公共设施:公共厕所",
        "type": 0,
        "location": {
            "lat": 24.383156,
            "lng": 108.259135
        },
        "ad_info": {
            "adcode": 451228,
            "province": "广西壮族自治区",
            "city": "河池市",
            "district": "都安瑶族自治县"
        }
    },
    {
        "id": "2255359102986549371",
        "title": "公共厕所",
        "address": "广西壮族自治区河池市南丹县云水谷观景台南侧",
        "tel": "",
        "category": "基础设施:公共设施:公共厕所",
        "type": 0,
        "location": {
            "lat": 25.136728,
            "lng": 107.543132
        },
        "ad_info": {
            "adcode": 451221,
            "province": "广西壮族自治区",
            "city": "河池市",
            "district": "南丹县"
        }
    },
    {
        "id": "1303362162327493932",
        "title": "公共厕所",
        "address": "广西壮族自治区河池市宜州区塘中路与立新巷交叉口正东方向53米左右",
        "tel": "",
        "category": "基础设施:公共设施:公共厕所",
        "type": 0,
        "location": {
            "lat": 24.492378,
            "lng": 108.660094
        },
        "ad_info": {
            "adcode": 451203,
            "province": "广西壮族自治区",
            "city": "河池市",
            "district": "宜州区"
        }
    },
    {
        "id": "1593179689923040091",
        "title": "公共厕所",
        "address": "广西壮族自治区河池市环江毛南族自治县G357与毛南大道交叉口正东方向160米左右",
        "tel": "",
        "category": "基础设施:公共设施:公共厕所",
        "type": 0,
        "location": {
            "lat": 24.850628,
            "lng": 108.247169
        },
        "ad_info": {
            "adcode": 451226,
            "province": "广西壮族自治区",
            "city": "河池市",
            "district": "环江毛南族自治县"
        }
    },
    {
        "id": "11892595137743667597",
        "title": "公共厕所(GX-HC-0603)",
        "address": "广西壮族自治区河池市东兰县华建铖",
        "tel": "",
        "category": "基础设施:公共设施:公共厕所",
        "type": 0,
        "location": {
            "lat": 24.489472,
            "lng": 107.275971
        },
        "ad_info": {
            "adcode": 451224,
            "province": "广西壮族自治区",
            "city": "河池市",
            "district": "东兰县"
        }
    },
    {
        "id": "14756927295217301719",
        "title": "无障碍公共厕所",
        "address": "广西壮族自治区河池市宜州区X956与Y004交叉口东北方向174米左右",
        "tel": "",
        "category": "基础设施:公共设施:公共厕所",
        "type": 0,
        "location": {
            "lat": 24.566879,
            "lng": 108.474011
        },
        "ad_info": {
            "adcode": 451203,
            "province": "广西壮族自治区",
            "city": "河池市",
            "district": "宜州区"
        }
    },
    {
        "id": "7089886136642220290",
        "title": "金洞停车区公共厕所",
        "address": "广西壮族自治区河池市南丹县G78汕昆高速与金洞停车区交叉口西320米",
        "tel": "",
        "category": "基础设施:公共设施:公共厕所",
        "type": 0,
        "location": {
            "lat": 24.750674,
            "lng": 107.640749
        },
        "ad_info": {
            "adcode": 451221,
            "province": "广西壮族自治区",
            "city": "河池市",
            "district": "南丹县"
        }
    },
    {
        "id": "12173515140417087675",
        "title": "公共厕所",
        "address": "广西壮族自治区河池市金城江区延南山庄北侧130米",
        "tel": "",
        "category": "基础设施:公共设施:公共厕所",
        "type": 0,
        "location": {
            "lat": 24.600704,
            "lng": 107.652894
        },
        "ad_info": {
            "adcode": 451202,
            "province": "广西壮族自治区",
            "city": "河池市",
            "district": "金城江区"
        }
    },
    {
        "id": "12562519310256717250",
        "title": "公共厕所",
        "address": "广西壮族自治区河池市都安瑶族自治县Y006与Y021交叉口正南方向1534米左右",
        "tel": "",
        "category": "基础设施:公共设施:公共厕所",
        "type": 0,
        "location": {
            "lat": 23.966188,
            "lng": 107.990756
        },
        "ad_info": {
            "adcode": 451228,
            "province": "广西壮族自治区",
            "city": "河池市",
            "district": "都安瑶族自治县"
        }
    },
    {
        "id": "1794189080600532388",
        "title": "公共厕所",
        "address": "广西壮族自治区河池市都安瑶族自治县X915与屏山路交叉口正南方向1753米左右",
        "tel": "",
        "category": "基础设施:公共设施:公共厕所",
        "type": 0,
        "location": {
            "lat": 24.00124,
            "lng": 108.068858
        },
        "ad_info": {
            "adcode": 451228,
            "province": "广西壮族自治区",
            "city": "河池市",
            "district": "都安瑶族自治县"
        }
    },
    {
        "id": "8141715657323717155",
        "title": "公共厕所",
        "address": "广西壮族自治区河池市大化瑶族自治县红河路167号",
        "tel": "",
        "category": "基础设施:公共设施:公共厕所",
        "type": 0,
        "location": {
            "lat": 23.732277,
            "lng": 107.99573
        },
        "ad_info": {
            "adcode": 451229,
            "province": "广西壮族自治区",
            "city": "河池市",
            "district": "大化瑶族自治县"
        }
    },
    {
        "id": "13788183750839320059",
        "title": "公共厕所",
        "address": "广西壮族自治区河池市环江毛南族自治县民族路与纬四路交叉口西南方向52米左右",
        "tel": "",
        "category": "基础设施:公共设施:公共厕所",
        "type": 0,
        "location": {
            "lat": 24.824262,
            "lng": 108.254944
        },
        "ad_info": {
            "adcode": 451226,
            "province": "广西壮族自治区",
            "city": "河池市",
            "district": "环江毛南族自治县"
        }
    },
    {
        "id": "10836612591863855470",
        "title": "公共厕所",
        "address": "广西壮族自治区河池市罗城仫佬族自治县凤凰大道与西江路交叉口正东方向154米左右",
        "tel": "",
        "category": "基础设施:公共设施:公共厕所",
        "type": 0,
        "location": {
            "lat": 24.783363,
            "lng": 108.89629
        },
        "ad_info": {
            "adcode": 451225,
            "province": "广西壮族自治区",
            "city": "河池市",
            "district": "罗城仫佬族自治县"
        }
    },
    {
        "id": "9258490037467772773",
        "title": "公共厕所",
        "address": "广西壮族自治区河池市天峨县吉祥路与幸福路交叉口东北方向97米左右",
        "tel": "",
        "category": "基础设施:公共设施:公共厕所",
        "type": 0,
        "location": {
            "lat": 24.941276,
            "lng": 107.21231
        },
        "ad_info": {
            "adcode": 451222,
            "province": "广西壮族自治区",
            "city": "河池市",
            "district": "天峨县"
        }
    },
    {
        "id": "8479289051943623038",
        "title": "永安停车区公共厕所",
        "address": "广西壮族自治区河池市都安瑶族自治县永安停车区与G75兰海高速交叉口东北150米附近",
        "tel": "",
        "category": "基础设施:公共设施:公共厕所",
        "type": 0,
        "location": {
            "lat": 24.260208,
            "lng": 108.055137
        },
        "ad_info": {
            "adcode": 451228,
            "province": "广西壮族自治区",
            "city": "河池市",
            "district": "都安瑶族自治县"
        }
    },
    {
        "id": "5506059022298792921",
        "title": "巴马环城厕所维修点",
        "address": "广西壮族自治区河池市巴马瑶族自治县寿福路与河堤北路交叉口西南方向202米左右",
        "tel": "",
        "category": "基础设施:公共设施:公共厕所",
        "type": 0,
        "location": {
            "lat": 24.1392,
            "lng": 107.247605
        },
        "ad_info": {
            "adcode": 451227,
            "province": "广西壮族自治区",
            "city": "河池市",
            "district": "巴马瑶族自治县"
        }
    },
    {
        "id": "7895977310270112974",
        "title": "蓝梦公共厕所",
        "address": "广西壮族自治区河池市罗城仫佬族自治县X865与龙岸桥交叉口正东方向177米左右",
        "tel": "",
        "category": "基础设施:公共设施:公共厕所",
        "type": 0,
        "location": {
            "lat": 25.036039,
            "lng": 109.001756
        },
        "ad_info": {
            "adcode": 451225,
            "province": "广西壮族自治区",
            "city": "河池市",
            "district": "罗城仫佬族自治县"
        }
    },
    {
        "id": "12445804730620354589",
        "title": "红水河停车区公共厕所",
        "address": "广西壮族自治区河池市东兰县G78汕昆高速与红水河停车区交叉口西南280米",
        "tel": "",
        "category": "基础设施:公共设施:公共厕所",
        "type": 0,
        "location": {
            "lat": 24.561301,
            "lng": 107.394636
        },
        "ad_info": {
            "adcode": 451224,
            "province": "广西壮族自治区",
            "city": "河池市",
            "district": "东兰县"
        }
    },
    {
        "id": "810246895922110893",
        "title": "永安停车区公共厕所",
        "address": "广西壮族自治区河池市都安瑶族自治县G75兰海高速与永安停车区交叉口西北220米",
        "tel": "",
        "category": "基础设施:公共设施:公共厕所",
        "type": 0,
        "location": {
            "lat": 24.259977,
            "lng": 108.05371
        },
        "ad_info": {
            "adcode": 451228,
            "province": "广西壮族自治区",
            "city": "河池市",
            "district": "都安瑶族自治县"
        }
    },
    {
        "id": "13337444083474034839",
        "title": "公共厕所",
        "address": "广西壮族自治区河池市南丹县西南大通道东100米",
        "tel": "",
        "category": "基础设施:公共设施:公共厕所",
        "type": 0,
        "location": {
            "lat": 24.798509,
            "lng": 107.698735
        },
        "ad_info": {
            "adcode": 451221,
            "province": "广西壮族自治区",
            "city": "河池市",
            "district": "南丹县"
        }
    },
    {
        "id": "16587237899995110932",
        "title": "公共厕所",
        "address": "广西壮族自治区河池市宜州区G323与东升路交叉口东北方向794米左右",
        "tel": "",
        "category": "基础设施:公共设施:公共厕所",
        "type": 0,
        "location": {
            "lat": 24.488452,
            "lng": 108.715012
        },
        "ad_info": {
            "adcode": 451203,
            "province": "广西壮族自治区",
            "city": "河池市",
            "district": "宜州区"
        }
    },
    {
        "id": "4489751815238752938",
        "title": "公共厕所",
        "address": "广西壮族自治区河池市都安瑶族自治县S211与八甫大桥交叉口西南方向55米左右",
        "tel": "",
        "category": "基础设施:公共设施:公共厕所",
        "type": 0,
        "location": {
            "lat": 24.011201,
            "lng": 108.369847
        },
        "ad_info": {
            "adcode": 451228,
            "province": "广西壮族自治区",
            "city": "河池市",
            "district": "都安瑶族自治县"
        }
    },
    {
        "id": "6994140058779641312",
        "title": "公共厕所",
        "address": "广西壮族自治区河池市都安瑶族自治县屏山路与翠屏路交叉口正西方向95米左右",
        "tel": "",
        "category": "基础设施:公共设施:公共厕所",
        "type": 0,
        "location": {
            "lat": 23.928731,
            "lng": 108.101966
        },
        "ad_info": {
            "adcode": 451228,
            "province": "广西壮族自治区",
            "city": "河池市",
            "district": "都安瑶族自治县"
        }
    },
    {
        "id": "12498894793719325189",
        "title": "公共厕所",
        "address": "广西壮族自治区河池市罗城仫佬族自治县白马路民族文化广场(东北角)",
        "tel": "",
        "category": "基础设施:公共设施:公共厕所",
        "type": 0,
        "location": {
            "lat": 24.781187,
            "lng": 108.908262
        },
        "ad_info": {
            "adcode": 451225,
            "province": "广西壮族自治区",
            "city": "河池市",
            "district": "罗城仫佬族自治县"
        }
    },
    {
        "id": "16986057298817467211",
        "title": "公共厕所(GX-HC-0518)",
        "address": "广西壮族自治区河池市东兰县坡豪湖旅游码头西北侧",
        "tel": "",
        "category": "基础设施:公共设施:公共厕所",
        "type": 0,
        "location": {
            "lat": 24.453654,
            "lng": 107.497131
        },
        "ad_info": {
            "adcode": 451224,
            "province": "广西壮族自治区",
            "city": "河池市",
            "district": "东兰县"
        }
    },
    {
        "id": "4728366342089018391",
        "title": "公共厕所",
        "address": "广西壮族自治区河池市大化瑶族自治县江滨北路与江滨路交叉口正西方向192米左右",
        "tel": "",
        "category": "基础设施:公共设施:公共厕所",
        "type": 0,
        "location": {
            "lat": 23.73276,
            "lng": 107.992826
        },
        "ad_info": {
            "adcode": 451229,
            "province": "广西壮族自治区",
            "city": "河池市",
            "district": "大化瑶族自治县"
        }
    },
    {
        "id": "7956308065364991578",
        "title": "公共厕所",
        "address": "广西壮族自治区河池市环江毛南族自治县毛南大道与民族路交叉口西南方向261米左右",
        "tel": "",
        "category": "基础设施:公共设施:公共厕所",
        "type": 0,
        "location": {
            "lat": 24.825999,
            "lng": 108.248956
        },
        "ad_info": {
            "adcode": 451226,
            "province": "广西壮族自治区",
            "city": "河池市",
            "district": "环江毛南族自治县"
        }
    },
    {
        "id": "11368878374234182067",
        "title": "公共厕所",
        "address": "广西壮族自治区河池市都安瑶族自治县九灵天窗东北侧170米",
        "tel": "",
        "category": "基础设施:公共设施:公共厕所",
        "type": 0,
        "location": {
            "lat": 23.975233,
            "lng": 107.996018
        },
        "ad_info": {
            "adcode": 451228,
            "province": "广西壮族自治区",
            "city": "河池市",
            "district": "都安瑶族自治县"
        }
    },
    {
        "id": "16062825987456283068",
        "title": "德胜服务区卫生间",
        "address": "广西壮族自治区河池市宜州区G78汕昆高速与德胜服务区交叉口西北500米",
        "tel": "",
        "category": "基础设施:公共设施:公共厕所",
        "type": 0,
        "location": {
            "lat": 24.65203,
            "lng": 108.344095
        },
        "ad_info": {
            "adcode": 451203,
            "province": "广西壮族自治区",
            "city": "河池市",
            "district": "宜州区"
        }
    },
    {
        "id": "5983090931257697304",
        "title": "宜州服务区公共厕所",
        "address": "广西壮族自治区河池市宜州区庆远镇汕昆高速公路宜州服务区",
        "tel": "",
        "category": "基础设施:公共设施:公共厕所",
        "type": 0,
        "location": {
            "lat": 24.475841,
            "lng": 108.645896
        },
        "ad_info": {
            "adcode": 451203,
            "province": "广西壮族自治区",
            "city": "河池市",
            "district": "宜州区"
        }
    },
    {
        "id": "4377765884189037285",
        "title": "公共厕所",
        "address": "广西壮族自治区河池市南丹县民行南路与河东路交叉口正南方向72米左右",
        "tel": "",
        "category": "基础设施:公共设施:公共厕所",
        "type": 0,
        "location": {
            "lat": 24.974748,
            "lng": 107.546479
        },
        "ad_info": {
            "adcode": 451221,
            "province": "广西壮族自治区",
            "city": "河池市",
            "district": "南丹县"
        }
    },
    {
        "id": "16403276189013457638",
        "title": "公共厕所",
        "address": "广西壮族自治区河池市金城江区G210与花龙中桥交叉口正南方向1598米左右",
        "tel": "",
        "category": "基础设施:公共设施:公共厕所",
        "type": 0,
        "location": {
            "lat": 24.538784,
            "lng": 107.878297
        },
        "ad_info": {
            "adcode": 451202,
            "province": "广西壮族自治区",
            "city": "河池市",
            "district": "金城江区"
        }
    },
    {
        "id": "12378506968949337058",
        "title": "公共厕所",
        "address": "广西壮族自治区河池市宜州区G242与金山大道交叉口东南方向93米左右",
        "tel": "",
        "category": "基础设施:公共设施:公共厕所",
        "type": 0,
        "location": {
            "lat": 24.46862,
            "lng": 108.66977
        },
        "ad_info": {
            "adcode": 451203,
            "province": "广西壮族自治区",
            "city": "河池市",
            "district": "宜州区"
        }
    },
    {
        "id": "4627341652628161063",
        "title": "公共厕所",
        "address": "广西壮族自治区河池市宜州区司马巷与城中东路交叉口正北方向64米左右",
        "tel": "",
        "category": "基础设施:公共设施:公共厕所",
        "type": 0,
        "location": {
            "lat": 24.492937,
            "lng": 108.667648
        },
        "ad_info": {
            "adcode": 451203,
            "province": "广西壮族自治区",
            "city": "河池市",
            "district": "宜州区"
        }
    },
    {
        "id": "796547523045762",
        "title": "公共厕所",
        "address": "广西壮族自治区河池市南丹县民行南路与锡都路交叉口正东方向44米左右",
        "tel": "",
        "category": "基础设施:公共设施:公共厕所",
        "type": 0,
        "location": {
            "lat": 24.967404,
            "lng": 107.557408
        },
        "ad_info": {
            "adcode": 451221,
            "province": "广西壮族自治区",
            "city": "河池市",
            "district": "南丹县"
        }
    },
    {
        "id": "4536872574376490779",
        "title": "公共厕所",
        "address": "广西壮族自治区河池市罗城仫佬族自治县朝阳路中国石化(城西加油站)",
        "tel": "",
        "category": "基础设施:公共设施:公共厕所",
        "type": 0,
        "location": {
            "lat": 24.777504,
            "lng": 108.886411
        },
        "ad_info": {
            "adcode": 451225,
            "province": "广西壮族自治区",
            "city": "河池市",
            "district": "罗城仫佬族自治县"
        }
    },
    {
        "id": "15353040240705934679",
        "title": "公共厕所",
        "address": "广西壮族自治区河池市东兰县曲江路与河堤路交叉口正东方向153米左右",
        "tel": "",
        "category": "基础设施:公共设施:公共厕所",
        "type": 0,
        "location": {
            "lat": 24.50662,
            "lng": 107.373066
        },
        "ad_info": {
            "adcode": 451224,
            "province": "广西壮族自治区",
            "city": "河池市",
            "district": "东兰县"
        }
    },
    {
        "id": "14994765659320050425",
        "title": "公共厕所",
        "address": "广西壮族自治区河池市天峨县S317云榜特色名村",
        "tel": "",
        "category": "基础设施:公共设施:公共厕所",
        "type": 0,
        "location": {
            "lat": 24.920882,
            "lng": 107.258297
        },
        "ad_info": {
            "adcode": 451222,
            "province": "广西壮族自治区",
            "city": "河池市",
            "district": "天峨县"
        }
    },
    {
        "id": "11312635690029297398",
        "title": "公共厕所",
        "address": "广西壮族自治区河池市宜州区和平路与和平路南段交叉口东南方向65米左右",
        "tel": "",
        "category": "基础设施:公共设施:公共厕所",
        "type": 0,
        "location": {
            "lat": 24.491134,
            "lng": 108.664488
        },
        "ad_info": {
            "adcode": 451203,
            "province": "广西壮族自治区",
            "city": "河池市",
            "district": "宜州区"
        }
    },
    {
        "id": "17322974584208509326",
        "title": "公共厕所",
        "address": "广西壮族自治区河池市金城江区中山路与独山路交叉口东北方向93米左右",
        "tel": "",
        "category": "基础设施:公共设施:公共厕所",
        "type": 0,
        "location": {
            "lat": 24.702119,
            "lng": 108.073375
        },
        "ad_info": {
            "adcode": 451202,
            "province": "广西壮族自治区",
            "city": "河池市",
            "district": "金城江区"
        }
    },
    {
        "id": "2846861240562508990",
        "title": "公共厕所",
        "address": "广西壮族自治区河池市大化瑶族自治县X912与都阳街交叉口东南方向971米左右",
        "tel": "",
        "category": "基础设施:公共设施:公共厕所",
        "type": 0,
        "location": {
            "lat": 23.968512,
            "lng": 107.664155
        },
        "ad_info": {
            "adcode": 451229,
            "province": "广西壮族自治区",
            "city": "河池市",
            "district": "大化瑶族自治县"
        }
    },
    {
        "id": "4617203392672633209",
        "title": "公共厕所",
        "address": "广西壮族自治区河池市金城江区富民路与金城中路交叉口东北方向220米左右",
        "tel": "",
        "category": "基础设施:公共设施:公共厕所",
        "type": 0,
        "location": {
            "lat": 24.69584,
            "lng": 108.06879
        },
        "ad_info": {
            "adcode": 451202,
            "province": "广西壮族自治区",
            "city": "河池市",
            "district": "金城江区"
        }
    },
    {
        "id": "15180724935324810169",
        "title": "公共厕所",
        "address": "广西壮族自治区河池市大化瑶族自治县古肖路与红河路交叉口西北方向97米左右",
        "tel": "",
        "category": "基础设施:公共设施:公共厕所",
        "type": 0,
        "location": {
            "lat": 23.710509,
            "lng": 107.998834
        },
        "ad_info": {
            "adcode": 451229,
            "province": "广西壮族自治区",
            "city": "河池市",
            "district": "大化瑶族自治县"
        }
    },
    {
        "id": "13397878122975731053",
        "title": "公共厕所",
        "address": "广西壮族自治区河池市巴马瑶族自治县公园路与民族路交叉口正北方向111米左右",
        "tel": "",
        "category": "基础设施:公共设施:公共厕所",
        "type": 0,
        "location": {
            "lat": 24.136084,
            "lng": 107.252973
        },
        "ad_info": {
            "adcode": 451227,
            "province": "广西壮族自治区",
            "city": "河池市",
            "district": "巴马瑶族自治县"
        }
    },
    {
        "id": "10734588717510743088",
        "title": "公共厕所",
        "address": "广西壮族自治区河池市凤山县G243与S318交叉口西南方向474米左右",
        "tel": "",
        "category": "基础设施:公共设施:公共厕所",
        "type": 0,
        "location": {
            "lat": 24.572756,
            "lng": 107.060103
        },
        "ad_info": {
            "adcode": 451223,
            "province": "广西壮族自治区",
            "city": "河池市",
            "district": "凤山县"
        }
    },
    {
        "id": "18413125345325136677",
        "title": "公共厕所",
        "address": "广西壮族自治区河池市环江毛南族自治县S205与S303交叉口西南方向60米左右",
        "tel": "",
        "category": "基础设施:公共设施:公共厕所",
        "type": 0,
        "location": {
            "lat": 25.011628,
            "lng": 108.196442
        },
        "ad_info": {
            "adcode": 451226,
            "province": "广西壮族自治区",
            "city": "河池市",
            "district": "环江毛南族自治县"
        }
    },
    {
        "id": "7874433152582012906",
        "title": "公共厕所",
        "address": "广西壮族自治区河池市金城江区G210与G323交叉口正北方向951米左右",
        "tel": "",
        "category": "基础设施:公共设施:公共厕所",
        "type": 0,
        "location": {
            "lat": 24.582701,
            "lng": 107.871215
        },
        "ad_info": {
            "adcode": 451202,
            "province": "广西壮族自治区",
            "city": "河池市",
            "district": "金城江区"
        }
    },
    {
        "id": "16133920270277006857",
        "title": "公共厕所",
        "address": "广西壮族自治区河池市金城江区明月路与西环路交叉口西北方向57米左右",
        "tel": "",
        "category": "基础设施:公共设施:公共厕所",
        "type": 0,
        "location": {
            "lat": 24.682835,
            "lng": 108.044159
        },
        "ad_info": {
            "adcode": 451202,
            "province": "广西壮族自治区",
            "city": "河池市",
            "district": "金城江区"
        }
    },
    {
        "id": "315009951883349653",
        "title": "公共厕所",
        "address": "广西壮族自治区河池市巴马瑶族自治县G323与新建路交叉口东北方向892米左右",
        "tel": "",
        "category": "基础设施:公共设施:公共厕所",
        "type": 0,
        "location": {
            "lat": 24.155224,
            "lng": 107.274979
        },
        "ad_info": {
            "adcode": 451227,
            "province": "广西壮族自治区",
            "city": "河池市",
            "district": "巴马瑶族自治县"
        }
    },
    {
        "id": "7863545729097784355",
        "title": "公共厕所",
        "address": "广西壮族自治区河池市宜州区G242与X968交叉口正北方向464米左右",
        "tel": "",
        "category": "基础设施:公共设施:公共厕所",
        "type": 0,
        "location": {
            "lat": 24.318586,
            "lng": 108.625796
        },
        "ad_info": {
            "adcode": 451203,
            "province": "广西壮族自治区",
            "city": "河池市",
            "district": "宜州区"
        }
    },
    {
        "id": "18232137955292493618",
        "title": "公共厕所",
        "address": "广西壮族自治区河池市宜州区月山路与金宜大道交叉口东南方向43米左右",
        "tel": "",
        "category": "基础设施:公共设施:公共厕所",
        "type": 0,
        "location": {
            "lat": 24.497386,
            "lng": 108.625791
        },
        "ad_info": {
            "adcode": 451203,
            "province": "广西壮族自治区",
            "city": "河池市",
            "district": "宜州区"
        }
    },
    {
        "id": "4223398705353190420",
        "title": "公共厕所",
        "address": "广西壮族自治区河池市宜州区迎宾大道与龙溪路交叉口东南方向112米左右",
        "tel": "",
        "category": "基础设施:公共设施:公共厕所",
        "type": 0,
        "location": {
            "lat": 24.490772,
            "lng": 108.63088
        },
        "ad_info": {
            "adcode": 451203,
            "province": "广西壮族自治区",
            "city": "河池市",
            "district": "宜州区"
        }
    },
    {
        "id": "3410153049687349217",
        "title": "公共厕所",
        "address": "广西壮族自治区河池市东兰县X894与X898交叉口西北方向1456米左右",
        "tel": "",
        "category": "基础设施:公共设施:公共厕所",
        "type": 0,
        "location": {
            "lat": 24.493382,
            "lng": 107.485766
        },
        "ad_info": {
            "adcode": 451224,
            "province": "广西壮族自治区",
            "city": "河池市",
            "district": "东兰县"
        }
    },
    {
        "id": "10817900448432141375",
        "title": "公共厕所",
        "address": "广西壮族自治区河池市南丹县体育路南丹体育场",
        "tel": "",
        "category": "基础设施:公共设施:公共厕所",
        "type": 0,
        "location": {
            "lat": 24.978331,
            "lng": 107.541552
        },
        "ad_info": {
            "adcode": 451221,
            "province": "广西壮族自治区",
            "city": "河池市",
            "district": "南丹县"
        }
    },
    {
        "id": "796547523045762",
        "title": "公共厕所",
        "address": "广西壮族自治区河池市南丹县民行南路与锡都路交叉口正东方向44米左右",
        "tel": "",
        "category": "基础设施:公共设施:公共厕所",
        "type": 0,
        "location": {
            "lat": 24.967404,
            "lng": 107.557408
        },
        "ad_info": {
            "adcode": 451221,
            "province": "广西壮族自治区",
            "city": "河池市",
            "district": "南丹县"
        }
    },
    {
        "id": "4536872574376490779",
        "title": "公共厕所",
        "address": "广西壮族自治区河池市罗城仫佬族自治县朝阳路中国石化(城西加油站)",
        "tel": "",
        "category": "基础设施:公共设施:公共厕所",
        "type": 0,
        "location": {
            "lat": 24.777504,
            "lng": 108.886411
        },
        "ad_info": {
            "adcode": 451225,
            "province": "广西壮族自治区",
            "city": "河池市",
            "district": "罗城仫佬族自治县"
        }
    },
    {
        "id": "15353040240705934679",
        "title": "公共厕所",
        "address": "广西壮族自治区河池市东兰县曲江路与河堤路交叉口正东方向153米左右",
        "tel": "",
        "category": "基础设施:公共设施:公共厕所",
        "type": 0,
        "location": {
            "lat": 24.50662,
            "lng": 107.373066
        },
        "ad_info": {
            "adcode": 451224,
            "province": "广西壮族自治区",
            "city": "河池市",
            "district": "东兰县"
        }
    },
    {
        "id": "14994765659320050425",
        "title": "公共厕所",
        "address": "广西壮族自治区河池市天峨县S317云榜特色名村",
        "tel": "",
        "category": "基础设施:公共设施:公共厕所",
        "type": 0,
        "location": {
            "lat": 24.920882,
            "lng": 107.258297
        },
        "ad_info": {
            "adcode": 451222,
            "province": "广西壮族自治区",
            "city": "河池市",
            "district": "天峨县"
        }
    },
    {
        "id": "11312635690029297398",
        "title": "公共厕所",
        "address": "广西壮族自治区河池市宜州区和平路与和平路南段交叉口东南方向65米左右",
        "tel": "",
        "category": "基础设施:公共设施:公共厕所",
        "type": 0,
        "location": {
            "lat": 24.491134,
            "lng": 108.664488
        },
        "ad_info": {
            "adcode": 451203,
            "province": "广西壮族自治区",
            "city": "河池市",
            "district": "宜州区"
        }
    },
    {
        "id": "17322974584208509326",
        "title": "公共厕所",
        "address": "广西壮族自治区河池市金城江区中山路与独山路交叉口东北方向93米左右",
        "tel": "",
        "category": "基础设施:公共设施:公共厕所",
        "type": 0,
        "location": {
            "lat": 24.702119,
            "lng": 108.073375
        },
        "ad_info": {
            "adcode": 451202,
            "province": "广西壮族自治区",
            "city": "河池市",
            "district": "金城江区"
        }
    },
    {
        "id": "2846861240562508990",
        "title": "公共厕所",
        "address": "广西壮族自治区河池市大化瑶族自治县X912与都阳街交叉口东南方向971米左右",
        "tel": "",
        "category": "基础设施:公共设施:公共厕所",
        "type": 0,
        "location": {
            "lat": 23.968512,
            "lng": 107.664155
        },
        "ad_info": {
            "adcode": 451229,
            "province": "广西壮族自治区",
            "city": "河池市",
            "district": "大化瑶族自治县"
        }
    },
    {
        "id": "4617203392672633209",
        "title": "公共厕所",
        "address": "广西壮族自治区河池市金城江区富民路与金城中路交叉口东北方向220米左右",
        "tel": "",
        "category": "基础设施:公共设施:公共厕所",
        "type": 0,
        "location": {
            "lat": 24.69584,
            "lng": 108.06879
        },
        "ad_info": {
            "adcode": 451202,
            "province": "广西壮族自治区",
            "city": "河池市",
            "district": "金城江区"
        }
    },
    {
        "id": "15180724935324810169",
        "title": "公共厕所",
        "address": "广西壮族自治区河池市大化瑶族自治县古肖路与红河路交叉口西北方向97米左右",
        "tel": "",
        "category": "基础设施:公共设施:公共厕所",
        "type": 0,
        "location": {
            "lat": 23.710509,
            "lng": 107.998834
        },
        "ad_info": {
            "adcode": 451229,
            "province": "广西壮族自治区",
            "city": "河池市",
            "district": "大化瑶族自治县"
        }
    },
    {
        "id": "13397878122975731053",
        "title": "公共厕所",
        "address": "广西壮族自治区河池市巴马瑶族自治县公园路与民族路交叉口正北方向111米左右",
        "tel": "",
        "category": "基础设施:公共设施:公共厕所",
        "type": 0,
        "location": {
            "lat": 24.136084,
            "lng": 107.252973
        },
        "ad_info": {
            "adcode": 451227,
            "province": "广西壮族自治区",
            "city": "河池市",
            "district": "巴马瑶族自治县"
        }
    },
    {
        "id": "10734588717510743088",
        "title": "公共厕所",
        "address": "广西壮族自治区河池市凤山县G243与S318交叉口西南方向474米左右",
        "tel": "",
        "category": "基础设施:公共设施:公共厕所",
        "type": 0,
        "location": {
            "lat": 24.572756,
            "lng": 107.060103
        },
        "ad_info": {
            "adcode": 451223,
            "province": "广西壮族自治区",
            "city": "河池市",
            "district": "凤山县"
        }
    },
    {
        "id": "18413125345325136677",
        "title": "公共厕所",
        "address": "广西壮族自治区河池市环江毛南族自治县S205与S303交叉口西南方向60米左右",
        "tel": "",
        "category": "基础设施:公共设施:公共厕所",
        "type": 0,
        "location": {
            "lat": 25.011628,
            "lng": 108.196442
        },
        "ad_info": {
            "adcode": 451226,
            "province": "广西壮族自治区",
            "city": "河池市",
            "district": "环江毛南族自治县"
        }
    },
    {
        "id": "7874433152582012906",
        "title": "公共厕所",
        "address": "广西壮族自治区河池市金城江区G210与G323交叉口正北方向951米左右",
        "tel": "",
        "category": "基础设施:公共设施:公共厕所",
        "type": 0,
        "location": {
            "lat": 24.582701,
            "lng": 107.871215
        },
        "ad_info": {
            "adcode": 451202,
            "province": "广西壮族自治区",
            "city": "河池市",
            "district": "金城江区"
        }
    },
    {
        "id": "16133920270277006857",
        "title": "公共厕所",
        "address": "广西壮族自治区河池市金城江区明月路与西环路交叉口西北方向57米左右",
        "tel": "",
        "category": "基础设施:公共设施:公共厕所",
        "type": 0,
        "location": {
            "lat": 24.682835,
            "lng": 108.044159
        },
        "ad_info": {
            "adcode": 451202,
            "province": "广西壮族自治区",
            "city": "河池市",
            "district": "金城江区"
        }
    },
    {
        "id": "315009951883349653",
        "title": "公共厕所",
        "address": "广西壮族自治区河池市巴马瑶族自治县G323与新建路交叉口东北方向892米左右",
        "tel": "",
        "category": "基础设施:公共设施:公共厕所",
        "type": 0,
        "location": {
            "lat": 24.155224,
            "lng": 107.274979
        },
        "ad_info": {
            "adcode": 451227,
            "province": "广西壮族自治区",
            "city": "河池市",
            "district": "巴马瑶族自治县"
        }
    },
    {
        "id": "7863545729097784355",
        "title": "公共厕所",
        "address": "广西壮族自治区河池市宜州区G242与X968交叉口正北方向464米左右",
        "tel": "",
        "category": "基础设施:公共设施:公共厕所",
        "type": 0,
        "location": {
            "lat": 24.318586,
            "lng": 108.625796
        },
        "ad_info": {
            "adcode": 451203,
            "province": "广西壮族自治区",
            "city": "河池市",
            "district": "宜州区"
        }
    },
    {
        "id": "18232137955292493618",
        "title": "公共厕所",
        "address": "广西壮族自治区河池市宜州区月山路与金宜大道交叉口东南方向43米左右",
        "tel": "",
        "category": "基础设施:公共设施:公共厕所",
        "type": 0,
        "location": {
            "lat": 24.497386,
            "lng": 108.625791
        },
        "ad_info": {
            "adcode": 451203,
            "province": "广西壮族自治区",
            "city": "河池市",
            "district": "宜州区"
        }
    },
    {
        "id": "4223398705353190420",
        "title": "公共厕所",
        "address": "广西壮族自治区河池市宜州区迎宾大道与龙溪路交叉口东南方向112米左右",
        "tel": "",
        "category": "基础设施:公共设施:公共厕所",
        "type": 0,
        "location": {
            "lat": 24.490772,
            "lng": 108.63088
        },
        "ad_info": {
            "adcode": 451203,
            "province": "广西壮族自治区",
            "city": "河池市",
            "district": "宜州区"
        }
    },
    {
        "id": "3410153049687349217",
        "title": "公共厕所",
        "address": "广西壮族自治区河池市东兰县X894与X898交叉口西北方向1456米左右",
        "tel": "",
        "category": "基础设施:公共设施:公共厕所",
        "type": 0,
        "location": {
            "lat": 24.493382,
            "lng": 107.485766
        },
        "ad_info": {
            "adcode": 451224,
            "province": "广西壮族自治区",
            "city": "河池市",
            "district": "东兰县"
        }
    },
    {
        "id": "10817900448432141375",
        "title": "公共厕所",
        "address": "广西壮族自治区河池市南丹县体育路南丹体育场",
        "tel": "",
        "category": "基础设施:公共设施:公共厕所",
        "type": 0,
        "location": {
            "lat": 24.978331,
            "lng": 107.541552
        },
        "ad_info": {
            "adcode": 451221,
            "province": "广西壮族自治区",
            "city": "河池市",
            "district": "南丹县"
        }
    },
    {
        "id": "796547523045762",
        "title": "公共厕所",
        "address": "广西壮族自治区河池市南丹县民行南路与锡都路交叉口正东方向44米左右",
        "tel": "",
        "category": "基础设施:公共设施:公共厕所",
        "type": 0,
        "location": {
            "lat": 24.967404,
            "lng": 107.557408
        },
        "ad_info": {
            "adcode": 451221,
            "province": "广西壮族自治区",
            "city": "河池市",
            "district": "南丹县"
        }
    },
    {
        "id": "4536872574376490779",
        "title": "公共厕所",
        "address": "广西壮族自治区河池市罗城仫佬族自治县朝阳路中国石化(城西加油站)",
        "tel": "",
        "category": "基础设施:公共设施:公共厕所",
        "type": 0,
        "location": {
            "lat": 24.777504,
            "lng": 108.886411
        },
        "ad_info": {
            "adcode": 451225,
            "province": "广西壮族自治区",
            "city": "河池市",
            "district": "罗城仫佬族自治县"
        }
    },
    {
        "id": "15353040240705934679",
        "title": "公共厕所",
        "address": "广西壮族自治区河池市东兰县曲江路与河堤路交叉口正东方向153米左右",
        "tel": "",
        "category": "基础设施:公共设施:公共厕所",
        "type": 0,
        "location": {
            "lat": 24.50662,
            "lng": 107.373066
        },
        "ad_info": {
            "adcode": 451224,
            "province": "广西壮族自治区",
            "city": "河池市",
            "district": "东兰县"
        }
    },
    {
        "id": "14994765659320050425",
        "title": "公共厕所",
        "address": "广西壮族自治区河池市天峨县S317云榜特色名村",
        "tel": "",
        "category": "基础设施:公共设施:公共厕所",
        "type": 0,
        "location": {
            "lat": 24.920882,
            "lng": 107.258297
        },
        "ad_info": {
            "adcode": 451222,
            "province": "广西壮族自治区",
            "city": "河池市",
            "district": "天峨县"
        }
    },
    {
        "id": "11312635690029297398",
        "title": "公共厕所",
        "address": "广西壮族自治区河池市宜州区和平路与和平路南段交叉口东南方向65米左右",
        "tel": "",
        "category": "基础设施:公共设施:公共厕所",
        "type": 0,
        "location": {
            "lat": 24.491134,
            "lng": 108.664488
        },
        "ad_info": {
            "adcode": 451203,
            "province": "广西壮族自治区",
            "city": "河池市",
            "district": "宜州区"
        }
    },
    {
        "id": "17322974584208509326",
        "title": "公共厕所",
        "address": "广西壮族自治区河池市金城江区中山路与独山路交叉口东北方向93米左右",
        "tel": "",
        "category": "基础设施:公共设施:公共厕所",
        "type": 0,
        "location": {
            "lat": 24.702119,
            "lng": 108.073375
        },
        "ad_info": {
            "adcode": 451202,
            "province": "广西壮族自治区",
            "city": "河池市",
            "district": "金城江区"
        }
    },
    {
        "id": "2846861240562508990",
        "title": "公共厕所",
        "address": "广西壮族自治区河池市大化瑶族自治县X912与都阳街交叉口东南方向971米左右",
        "tel": "",
        "category": "基础设施:公共设施:公共厕所",
        "type": 0,
        "location": {
            "lat": 23.968512,
            "lng": 107.664155
        },
        "ad_info": {
            "adcode": 451229,
            "province": "广西壮族自治区",
            "city": "河池市",
            "district": "大化瑶族自治县"
        }
    },
    {
        "id": "4617203392672633209",
        "title": "公共厕所",
        "address": "广西壮族自治区河池市金城江区富民路与金城中路交叉口东北方向220米左右",
        "tel": "",
        "category": "基础设施:公共设施:公共厕所",
        "type": 0,
        "location": {
            "lat": 24.69584,
            "lng": 108.06879
        },
        "ad_info": {
            "adcode": 451202,
            "province": "广西壮族自治区",
            "city": "河池市",
            "district": "金城江区"
        }
    },
    {
        "id": "15180724935324810169",
        "title": "公共厕所",
        "address": "广西壮族自治区河池市大化瑶族自治县古肖路与红河路交叉口西北方向97米左右",
        "tel": "",
        "category": "基础设施:公共设施:公共厕所",
        "type": 0,
        "location": {
            "lat": 23.710509,
            "lng": 107.998834
        },
        "ad_info": {
            "adcode": 451229,
            "province": "广西壮族自治区",
            "city": "河池市",
            "district": "大化瑶族自治县"
        }
    },
    {
        "id": "13397878122975731053",
        "title": "公共厕所",
        "address": "广西壮族自治区河池市巴马瑶族自治县公园路与民族路交叉口正北方向111米左右",
        "tel": "",
        "category": "基础设施:公共设施:公共厕所",
        "type": 0,
        "location": {
            "lat": 24.136084,
            "lng": 107.252973
        },
        "ad_info": {
            "adcode": 451227,
            "province": "广西壮族自治区",
            "city": "河池市",
            "district": "巴马瑶族自治县"
        }
    },
    {
        "id": "10734588717510743088",
        "title": "公共厕所",
        "address": "广西壮族自治区河池市凤山县G243与S318交叉口西南方向474米左右",
        "tel": "",
        "category": "基础设施:公共设施:公共厕所",
        "type": 0,
        "location": {
            "lat": 24.572756,
            "lng": 107.060103
        },
        "ad_info": {
            "adcode": 451223,
            "province": "广西壮族自治区",
            "city": "河池市",
            "district": "凤山县"
        }
    },
    {
        "id": "18413125345325136677",
        "title": "公共厕所",
        "address": "广西壮族自治区河池市环江毛南族自治县S205与S303交叉口西南方向60米左右",
        "tel": "",
        "category": "基础设施:公共设施:公共厕所",
        "type": 0,
        "location": {
            "lat": 25.011628,
            "lng": 108.196442
        },
        "ad_info": {
            "adcode": 451226,
            "province": "广西壮族自治区",
            "city": "河池市",
            "district": "环江毛南族自治县"
        }
    },
    {
        "id": "7874433152582012906",
        "title": "公共厕所",
        "address": "广西壮族自治区河池市金城江区G210与G323交叉口正北方向951米左右",
        "tel": "",
        "category": "基础设施:公共设施:公共厕所",
        "type": 0,
        "location": {
            "lat": 24.582701,
            "lng": 107.871215
        },
        "ad_info": {
            "adcode": 451202,
            "province": "广西壮族自治区",
            "city": "河池市",
            "district": "金城江区"
        }
    },
    {
        "id": "16133920270277006857",
        "title": "公共厕所",
        "address": "广西壮族自治区河池市金城江区明月路与西环路交叉口西北方向57米左右",
        "tel": "",
        "category": "基础设施:公共设施:公共厕所",
        "type": 0,
        "location": {
            "lat": 24.682835,
            "lng": 108.044159
        },
        "ad_info": {
            "adcode": 451202,
            "province": "广西壮族自治区",
            "city": "河池市",
            "district": "金城江区"
        }
    },
    {
        "id": "315009951883349653",
        "title": "公共厕所",
        "address": "广西壮族自治区河池市巴马瑶族自治县G323与新建路交叉口东北方向892米左右",
        "tel": "",
        "category": "基础设施:公共设施:公共厕所",
        "type": 0,
        "location": {
            "lat": 24.155224,
            "lng": 107.274979
        },
        "ad_info": {
            "adcode": 451227,
            "province": "广西壮族自治区",
            "city": "河池市",
            "district": "巴马瑶族自治县"
        }
    },
    {
        "id": "7863545729097784355",
        "title": "公共厕所",
        "address": "广西壮族自治区河池市宜州区G242与X968交叉口正北方向464米左右",
        "tel": "",
        "category": "基础设施:公共设施:公共厕所",
        "type": 0,
        "location": {
            "lat": 24.318586,
            "lng": 108.625796
        },
        "ad_info": {
            "adcode": 451203,
            "province": "广西壮族自治区",
            "city": "河池市",
            "district": "宜州区"
        }
    },
    {
        "id": "18232137955292493618",
        "title": "公共厕所",
        "address": "广西壮族自治区河池市宜州区月山路与金宜大道交叉口东南方向43米左右",
        "tel": "",
        "category": "基础设施:公共设施:公共厕所",
        "type": 0,
        "location": {
            "lat": 24.497386,
            "lng": 108.625791
        },
        "ad_info": {
            "adcode": 451203,
            "province": "广西壮族自治区",
            "city": "河池市",
            "district": "宜州区"
        }
    },
    {
        "id": "4223398705353190420",
        "title": "公共厕所",
        "address": "广西壮族自治区河池市宜州区迎宾大道与龙溪路交叉口东南方向112米左右",
        "tel": "",
        "category": "基础设施:公共设施:公共厕所",
        "type": 0,
        "location": {
            "lat": 24.490772,
            "lng": 108.63088
        },
        "ad_info": {
            "adcode": 451203,
            "province": "广西壮族自治区",
            "city": "河池市",
            "district": "宜州区"
        }
    },
    {
        "id": "3410153049687349217",
        "title": "公共厕所",
        "address": "广西壮族自治区河池市东兰县X894与X898交叉口西北方向1456米左右",
        "tel": "",
        "category": "基础设施:公共设施:公共厕所",
        "type": 0,
        "location": {
            "lat": 24.493382,
            "lng": 107.485766
        },
        "ad_info": {
            "adcode": 451224,
            "province": "广西壮族自治区",
            "city": "河池市",
            "district": "东兰县"
        }
    },
    {
        "id": "10817900448432141375",
        "title": "公共厕所",
        "address": "广西壮族自治区河池市南丹县体育路南丹体育场",
        "tel": "",
        "category": "基础设施:公共设施:公共厕所",
        "type": 0,
        "location": {
            "lat": 24.978331,
            "lng": 107.541552
        },
        "ad_info": {
            "adcode": 451221,
            "province": "广西壮族自治区",
            "city": "河池市",
            "district": "南丹县"
        }
    },
    {
        "id": "796547523045762",
        "title": "公共厕所",
        "address": "广西壮族自治区河池市南丹县民行南路与锡都路交叉口正东方向44米左右",
        "tel": "",
        "category": "基础设施:公共设施:公共厕所",
        "type": 0,
        "location": {
            "lat": 24.967404,
            "lng": 107.557408
        },
        "ad_info": {
            "adcode": 451221,
            "province": "广西壮族自治区",
            "city": "河池市",
            "district": "南丹县"
        }
    },
    {
        "id": "4536872574376490779",
        "title": "公共厕所",
        "address": "广西壮族自治区河池市罗城仫佬族自治县朝阳路中国石化(城西加油站)",
        "tel": "",
        "category": "基础设施:公共设施:公共厕所",
        "type": 0,
        "location": {
            "lat": 24.777504,
            "lng": 108.886411
        },
        "ad_info": {
            "adcode": 451225,
            "province": "广西壮族自治区",
            "city": "河池市",
            "district": "罗城仫佬族自治县"
        }
    },
    {
        "id": "15353040240705934679",
        "title": "公共厕所",
        "address": "广西壮族自治区河池市东兰县曲江路与河堤路交叉口正东方向153米左右",
        "tel": "",
        "category": "基础设施:公共设施:公共厕所",
        "type": 0,
        "location": {
            "lat": 24.50662,
            "lng": 107.373066
        },
        "ad_info": {
            "adcode": 451224,
            "province": "广西壮族自治区",
            "city": "河池市",
            "district": "东兰县"
        }
    },
    {
        "id": "14994765659320050425",
        "title": "公共厕所",
        "address": "广西壮族自治区河池市天峨县S317云榜特色名村",
        "tel": "",
        "category": "基础设施:公共设施:公共厕所",
        "type": 0,
        "location": {
            "lat": 24.920882,
            "lng": 107.258297
        },
        "ad_info": {
            "adcode": 451222,
            "province": "广西壮族自治区",
            "city": "河池市",
            "district": "天峨县"
        }
    },
    {
        "id": "11312635690029297398",
        "title": "公共厕所",
        "address": "广西壮族自治区河池市宜州区和平路与和平路南段交叉口东南方向65米左右",
        "tel": "",
        "category": "基础设施:公共设施:公共厕所",
        "type": 0,
        "location": {
            "lat": 24.491134,
            "lng": 108.664488
        },
        "ad_info": {
            "adcode": 451203,
            "province": "广西壮族自治区",
            "city": "河池市",
            "district": "宜州区"
        }
    },
    {
        "id": "17322974584208509326",
        "title": "公共厕所",
        "address": "广西壮族自治区河池市金城江区中山路与独山路交叉口东北方向93米左右",
        "tel": "",
        "category": "基础设施:公共设施:公共厕所",
        "type": 0,
        "location": {
            "lat": 24.702119,
            "lng": 108.073375
        },
        "ad_info": {
            "adcode": 451202,
            "province": "广西壮族自治区",
            "city": "河池市",
            "district": "金城江区"
        }
    },
    {
        "id": "2846861240562508990",
        "title": "公共厕所",
        "address": "广西壮族自治区河池市大化瑶族自治县X912与都阳街交叉口东南方向971米左右",
        "tel": "",
        "category": "基础设施:公共设施:公共厕所",
        "type": 0,
        "location": {
            "lat": 23.968512,
            "lng": 107.664155
        },
        "ad_info": {
            "adcode": 451229,
            "province": "广西壮族自治区",
            "city": "河池市",
            "district": "大化瑶族自治县"
        }
    },
    {
        "id": "4617203392672633209",
        "title": "公共厕所",
        "address": "广西壮族自治区河池市金城江区富民路与金城中路交叉口东北方向220米左右",
        "tel": "",
        "category": "基础设施:公共设施:公共厕所",
        "type": 0,
        "location": {
            "lat": 24.69584,
            "lng": 108.06879
        },
        "ad_info": {
            "adcode": 451202,
            "province": "广西壮族自治区",
            "city": "河池市",
            "district": "金城江区"
        }
    },
    {
        "id": "15180724935324810169",
        "title": "公共厕所",
        "address": "广西壮族自治区河池市大化瑶族自治县古肖路与红河路交叉口西北方向97米左右",
        "tel": "",
        "category": "基础设施:公共设施:公共厕所",
        "type": 0,
        "location": {
            "lat": 23.710509,
            "lng": 107.998834
        },
        "ad_info": {
            "adcode": 451229,
            "province": "广西壮族自治区",
            "city": "河池市",
            "district": "大化瑶族自治县"
        }
    },
    {
        "id": "13397878122975731053",
        "title": "公共厕所",
        "address": "广西壮族自治区河池市巴马瑶族自治县公园路与民族路交叉口正北方向111米左右",
        "tel": "",
        "category": "基础设施:公共设施:公共厕所",
        "type": 0,
        "location": {
            "lat": 24.136084,
            "lng": 107.252973
        },
        "ad_info": {
            "adcode": 451227,
            "province": "广西壮族自治区",
            "city": "河池市",
            "district": "巴马瑶族自治县"
        }
    },
    {
        "id": "10734588717510743088",
        "title": "公共厕所",
        "address": "广西壮族自治区河池市凤山县G243与S318交叉口西南方向474米左右",
        "tel": "",
        "category": "基础设施:公共设施:公共厕所",
        "type": 0,
        "location": {
            "lat": 24.572756,
            "lng": 107.060103
        },
        "ad_info": {
            "adcode": 451223,
            "province": "广西壮族自治区",
            "city": "河池市",
            "district": "凤山县"
        }
    },
    {
        "id": "18413125345325136677",
        "title": "公共厕所",
        "address": "广西壮族自治区河池市环江毛南族自治县S205与S303交叉口西南方向60米左右",
        "tel": "",
        "category": "基础设施:公共设施:公共厕所",
        "type": 0,
        "location": {
            "lat": 25.011628,
            "lng": 108.196442
        },
        "ad_info": {
            "adcode": 451226,
            "province": "广西壮族自治区",
            "city": "河池市",
            "district": "环江毛南族自治县"
        }
    },
    {
        "id": "7874433152582012906",
        "title": "公共厕所",
        "address": "广西壮族自治区河池市金城江区G210与G323交叉口正北方向951米左右",
        "tel": "",
        "category": "基础设施:公共设施:公共厕所",
        "type": 0,
        "location": {
            "lat": 24.582701,
            "lng": 107.871215
        },
        "ad_info": {
            "adcode": 451202,
            "province": "广西壮族自治区",
            "city": "河池市",
            "district": "金城江区"
        }
    },
    {
        "id": "16133920270277006857",
        "title": "公共厕所",
        "address": "广西壮族自治区河池市金城江区明月路与西环路交叉口西北方向57米左右",
        "tel": "",
        "category": "基础设施:公共设施:公共厕所",
        "type": 0,
        "location": {
            "lat": 24.682835,
            "lng": 108.044159
        },
        "ad_info": {
            "adcode": 451202,
            "province": "广西壮族自治区",
            "city": "河池市",
            "district": "金城江区"
        }
    },
    {
        "id": "315009951883349653",
        "title": "公共厕所",
        "address": "广西壮族自治区河池市巴马瑶族自治县G323与新建路交叉口东北方向892米左右",
        "tel": "",
        "category": "基础设施:公共设施:公共厕所",
        "type": 0,
        "location": {
            "lat": 24.155224,
            "lng": 107.274979
        },
        "ad_info": {
            "adcode": 451227,
            "province": "广西壮族自治区",
            "city": "河池市",
            "district": "巴马瑶族自治县"
        }
    },
    {
        "id": "7863545729097784355",
        "title": "公共厕所",
        "address": "广西壮族自治区河池市宜州区G242与X968交叉口正北方向464米左右",
        "tel": "",
        "category": "基础设施:公共设施:公共厕所",
        "type": 0,
        "location": {
            "lat": 24.318586,
            "lng": 108.625796
        },
        "ad_info": {
            "adcode": 451203,
            "province": "广西壮族自治区",
            "city": "河池市",
            "district": "宜州区"
        }
    },
    {
        "id": "18232137955292493618",
        "title": "公共厕所",
        "address": "广西壮族自治区河池市宜州区月山路与金宜大道交叉口东南方向43米左右",
        "tel": "",
        "category": "基础设施:公共设施:公共厕所",
        "type": 0,
        "location": {
            "lat": 24.497386,
            "lng": 108.625791
        },
        "ad_info": {
            "adcode": 451203,
            "province": "广西壮族自治区",
            "city": "河池市",
            "district": "宜州区"
        }
    },
    {
        "id": "4223398705353190420",
        "title": "公共厕所",
        "address": "广西壮族自治区河池市宜州区迎宾大道与龙溪路交叉口东南方向112米左右",
        "tel": "",
        "category": "基础设施:公共设施:公共厕所",
        "type": 0,
        "location": {
            "lat": 24.490772,
            "lng": 108.63088
        },
        "ad_info": {
            "adcode": 451203,
            "province": "广西壮族自治区",
            "city": "河池市",
            "district": "宜州区"
        }
    },
    {
        "id": "3410153049687349217",
        "title": "公共厕所",
        "address": "广西壮族自治区河池市东兰县X894与X898交叉口西北方向1456米左右",
        "tel": "",
        "category": "基础设施:公共设施:公共厕所",
        "type": 0,
        "location": {
            "lat": 24.493382,
            "lng": 107.485766
        },
        "ad_info": {
            "adcode": 451224,
            "province": "广西壮族自治区",
            "city": "河池市",
            "district": "东兰县"
        }
    },
    {
        "id": "10817900448432141375",
        "title": "公共厕所",
        "address": "广西壮族自治区河池市南丹县体育路南丹体育场",
        "tel": "",
        "category": "基础设施:公共设施:公共厕所",
        "type": 0,
        "location": {
            "lat": 24.978331,
            "lng": 107.541552
        },
        "ad_info": {
            "adcode": 451221,
            "province": "广西壮族自治区",
            "city": "河池市",
            "district": "南丹县"
        }
    }
]