[
    {
        "id": "7591132483993110091",
        "title": "公共厕所",
        "address": "河南省济源市大峪镇小浪底8号路桐树岭码头东南",
        "tel": "",
        "category": "基础设施:公共设施:公共厕所",
        "type": 0,
        "location": {
            "lat": 34.936446,
            "lng": 112.367763
        },
        "ad_info": {
            "adcode": 419001,
            "province": "河南省",
            "city": "",
            "district": "济源市"
        }
    },
    {
        "id": "17494188440727204694",
        "title": "公共厕所",
        "address": "河南省济源市S309与北大街交叉口西北方向33米左右",
        "tel": "",
        "category": "基础设施:公共设施:公共厕所",
        "type": 0,
        "location": {
            "lat": 35.039957,
            "lng": 112.597591
        },
        "ad_info": {
            "adcode": 419001,
            "province": "河南省",
            "city": "",
            "district": "济源市"
        }
    },
    {
        "id": "2504700878146469623",
        "title": "公共厕所",
        "address": "河南省济源市文化路81号",
        "tel": "",
        "category": "基础设施:公共设施:公共厕所",
        "type": 0,
        "location": {
            "lat": 35.072068,
            "lng": 112.599003
        },
        "ad_info": {
            "adcode": 419001,
            "province": "河南省",
            "city": "",
            "district": "济源市"
        }
    },
    {
        "id": "5142251673098221406",
        "title": "公共厕所",
        "address": "河南省济源市永兴街与王屋路交叉口正西方向170米左右",
        "tel": "",
        "category": "基础设施:公共设施:公共厕所",
        "type": 0,
        "location": {
            "lat": 35.064266,
            "lng": 112.60647
        },
        "ad_info": {
            "adcode": 419001,
            "province": "河南省",
            "city": "",
            "district": "济源市"
        }
    },
    {
        "id": "6133344036372738713",
        "title": "公共厕所",
        "address": "河南省济源市沁园南路与科学路交叉口正东方向82米左右",
        "tel": "",
        "category": "基础设施:公共设施:公共厕所",
        "type": 0,
        "location": {
            "lat": 35.045042,
            "lng": 112.603253
        },
        "ad_info": {
            "adcode": 419001,
            "province": "河南省",
            "city": "",
            "district": "济源市"
        }
    },
    {
        "id": "7615013243885799516",
        "title": "公共厕所",
        "address": "河南省济源市凯旋南街与沁园路交叉口正西方向82米左右",
        "tel": "",
        "category": "基础设施:公共设施:公共厕所",
        "type": 0,
        "location": {
            "lat": 35.07948,
            "lng": 112.604943
        },
        "ad_info": {
            "adcode": 419001,
            "province": "河南省",
            "city": "",
            "district": "济源市"
        }
    },
    {
        "id": "7872962173309472377",
        "title": "公共厕所",
        "address": "河南省济源市宣化街与汤帝路交叉口西南方向39米左右",
        "tel": "",
        "category": "基础设施:公共设施:公共厕所",
        "type": 0,
        "location": {
            "lat": 35.092489,
            "lng": 112.585042
        },
        "ad_info": {
            "adcode": 419001,
            "province": "河南省",
            "city": "",
            "district": "济源市"
        }
    },
    {
        "id": "11230392894126998416",
        "title": "公共厕所",
        "address": "河南省济源市文化路与黄河大道交叉口正东方向129米左右",
        "tel": "",
        "category": "基础设施:公共设施:公共厕所",
        "type": 0,
        "location": {
            "lat": 35.066773,
            "lng": 112.59939
        },
        "ad_info": {
            "adcode": 419001,
            "province": "河南省",
            "city": "",
            "district": "济源市"
        }
    },
    {
        "id": "11901406944541003769",
        "title": "公共厕所",
        "address": "河南省济源市御驾庄商业街与御驾街交叉口西南140米",
        "tel": "",
        "category": "基础设施:公共设施:公共厕所",
        "type": 0,
        "location": {
            "lat": 35.079634,
            "lng": 112.598063
        },
        "ad_info": {
            "adcode": 419001,
            "province": "河南省",
            "city": "",
            "district": "济源市"
        }
    },
    {
        "id": "9657203081757534783",
        "title": "公共厕所",
        "address": "河南省济源市G327与S240交叉口正南方向101米左右",
        "tel": "",
        "category": "基础设施:公共设施:公共厕所",
        "type": 0,
        "location": {
            "lat": 35.051861,
            "lng": 112.565868
        },
        "ad_info": {
            "adcode": 419001,
            "province": "河南省",
            "city": "",
            "district": "济源市"
        }
    },
    {
        "id": "15494651276408513564",
        "title": "公共厕所",
        "address": "河南省济源市济水大街玉泉亚桥菜市场",
        "tel": "",
        "category": "基础设施:公共设施:公共厕所",
        "type": 0,
        "location": {
            "lat": 35.092231,
            "lng": 112.61911
        },
        "ad_info": {
            "adcode": 419001,
            "province": "河南省",
            "city": "",
            "district": "济源市"
        }
    },
    {
        "id": "11716330593588792424",
        "title": "公共厕所",
        "address": "河南省济源市北海大道与文昌路交叉口正东方向53米左右",
        "tel": "",
        "category": "基础设施:公共设施:公共厕所",
        "type": 0,
        "location": {
            "lat": 35.097723,
            "lng": 112.596724
        },
        "ad_info": {
            "adcode": 419001,
            "province": "河南省",
            "city": "",
            "district": "济源市"
        }
    },
    {
        "id": "17075925090577949870",
        "title": "公共厕所",
        "address": "河南省济源市济源大道与财源北路交叉口东南方向65米左右",
        "tel": "",
        "category": "基础设施:公共设施:公共厕所",
        "type": 0,
        "location": {
            "lat": 35.076557,
            "lng": 112.580057
        },
        "ad_info": {
            "adcode": 419001,
            "province": "河南省",
            "city": "",
            "district": "济源市"
        }
    },
    {
        "id": "6961248747188538894",
        "title": "公共厕所",
        "address": "河南省济源市宣化街建业服饰广场",
        "tel": "",
        "category": "基础设施:公共设施:公共厕所",
        "type": 0,
        "location": {
            "lat": 35.092677,
            "lng": 112.58128
        },
        "ad_info": {
            "adcode": 419001,
            "province": "河南省",
            "city": "",
            "district": "济源市"
        }
    },
    {
        "id": "16337072391232841328",
        "title": "公共厕所",
        "address": "河南省济源市御驾街与文化路交叉口正东方向215米左右",
        "tel": "",
        "category": "基础设施:公共设施:公共厕所",
        "type": 0,
        "location": {
            "lat": 35.08081,
            "lng": 112.60205
        },
        "ad_info": {
            "adcode": 419001,
            "province": "河南省",
            "city": "",
            "district": "济源市"
        }
    },
    {
        "id": "11267153116572117729",
        "title": "公共厕所",
        "address": "河南省济源市宣化街与建业新天地步行街交叉口正北方向116米左右",
        "tel": "",
        "category": "基础设施:公共设施:公共厕所",
        "type": 0,
        "location": {
            "lat": 35.092917,
            "lng": 112.593343
        },
        "ad_info": {
            "adcode": 419001,
            "province": "河南省",
            "city": "",
            "district": "济源市"
        }
    },
    {
        "id": "1556960044883534050",
        "title": "公共厕所",
        "address": "河南省济源市沁园商业街与湨河南街交叉口正北方向162米左右",
        "tel": "",
        "category": "基础设施:公共设施:公共厕所",
        "type": 0,
        "location": {
            "lat": 35.083466,
            "lng": 112.586744
        },
        "ad_info": {
            "adcode": 419001,
            "province": "河南省",
            "city": "",
            "district": "济源市"
        }
    },
    {
        "id": "7303262585757636283",
        "title": "公共厕所",
        "address": "河南省济源市恋水花园B区南侧190米",
        "tel": "",
        "category": "基础设施:公共设施:公共厕所",
        "type": 0,
        "location": {
            "lat": 34.926474,
            "lng": 112.498613
        },
        "ad_info": {
            "adcode": 419001,
            "province": "河南省",
            "city": "",
            "district": "济源市"
        }
    },
    {
        "id": "16230553624241950957",
        "title": "公共厕所",
        "address": "河南省济源市弘元路与济水大街交叉口东北方向335米左右",
        "tel": "",
        "category": "基础设施:公共设施:公共厕所",
        "type": 0,
        "location": {
            "lat": 35.09663,
            "lng": 112.570976
        },
        "ad_info": {
            "adcode": 419001,
            "province": "河南省",
            "city": "",
            "district": "济源市"
        }
    },
    {
        "id": "6160181527812086291",
        "title": "公共厕所",
        "address": "河南省济源市文博路与玉川东街交叉口东北方向284米左右",
        "tel": "",
        "category": "基础设施:公共设施:公共厕所",
        "type": 0,
        "location": {
            "lat": 35.07097,
            "lng": 112.611664
        },
        "ad_info": {
            "adcode": 419001,
            "province": "河南省",
            "city": "",
            "district": "济源市"
        }
    },
    {
        "id": "6991486600846696446",
        "title": "公共厕所",
        "address": "河南省济源市东二环与南二环交叉口东北方向284米左右",
        "tel": "",
        "category": "基础设施:公共设施:公共厕所",
        "type": 0,
        "location": {
            "lat": 35.045043,
            "lng": 112.640903
        },
        "ad_info": {
            "adcode": 419001,
            "province": "河南省",
            "city": "",
            "district": "济源市"
        }
    },
    {
        "id": "1807411652022604319",
        "title": "公共厕所",
        "address": "河南省济源市北辰路与西二环交叉口正南方向139米左右",
        "tel": "",
        "category": "基础设施:公共设施:公共厕所",
        "type": 0,
        "location": {
            "lat": 35.158759,
            "lng": 112.542474
        },
        "ad_info": {
            "adcode": 419001,
            "province": "河南省",
            "city": "",
            "district": "济源市"
        }
    },
    {
        "id": "10126860153757516656",
        "title": "公共厕所",
        "address": "河南省济源市大东线与梨府街交叉口正西方向33米左右",
        "tel": "",
        "category": "基础设施:公共设施:公共厕所",
        "type": 0,
        "location": {
            "lat": 35.077458,
            "lng": 112.713005
        },
        "ad_info": {
            "adcode": 419001,
            "province": "河南省",
            "city": "",
            "district": "济源市"
        }
    },
    {
        "id": "17105023665159750091",
        "title": "公共厕所",
        "address": "河南省济源市沁园路与济水大街交叉口正西方向154米左右",
        "tel": "",
        "category": "基础设施:公共设施:公共厕所",
        "type": 0,
        "location": {
            "lat": 35.091342,
            "lng": 112.6054
        },
        "ad_info": {
            "adcode": 419001,
            "province": "河南省",
            "city": "",
            "district": "济源市"
        }
    },
    {
        "id": "7138607948843305756",
        "title": "公共厕所",
        "address": "河南省济源市万洋大道滨湖公园(东侧)",
        "tel": "",
        "category": "基础设施:公共设施:公共厕所",
        "type": 0,
        "location": {
            "lat": 35.100043,
            "lng": 112.508449
        },
        "ad_info": {
            "adcode": 419001,
            "province": "河南省",
            "city": "",
            "district": "济源市"
        }
    },
    {
        "id": "11850535346222037399",
        "title": "公共厕所",
        "address": "河南省济源市太行路与济水大街交叉口东南方向391米左右",
        "tel": "",
        "category": "基础设施:公共设施:公共厕所",
        "type": 0,
        "location": {
            "lat": 35.095399,
            "lng": 112.556591
        },
        "ad_info": {
            "adcode": 419001,
            "province": "河南省",
            "city": "",
            "district": "济源市"
        }
    },
    {
        "id": "6875711515123418993",
        "title": "公共厕所",
        "address": "河南省济源市东园街与文昌路交叉口正西方向102米左右",
        "tel": "",
        "category": "基础设施:公共设施:公共厕所",
        "type": 0,
        "location": {
            "lat": 35.090773,
            "lng": 112.59352
        },
        "ad_info": {
            "adcode": 419001,
            "province": "河南省",
            "city": "",
            "district": "济源市"
        }
    },
    {
        "id": "9294992725484723749",
        "title": "公共厕所",
        "address": "河南省济源市西环路与北海大道西路交叉口南100米",
        "tel": "",
        "category": "基础设施:公共设施:公共厕所",
        "type": 0,
        "location": {
            "lat": 35.101874,
            "lng": 112.549001
        },
        "ad_info": {
            "adcode": 419001,
            "province": "河南省",
            "city": "",
            "district": "济源市"
        }
    },
    {
        "id": "8531846041259313119",
        "title": "公共厕所",
        "address": "河南省济源市弘元路与济水大街交叉口正西方向184米左右",
        "tel": "",
        "category": "基础设施:公共设施:公共厕所",
        "type": 0,
        "location": {
            "lat": 35.094247,
            "lng": 112.567479
        },
        "ad_info": {
            "adcode": 419001,
            "province": "河南省",
            "city": "",
            "district": "济源市"
        }
    },
    {
        "id": "4286204353720243869",
        "title": "公共厕所",
        "address": "河南省济源市关帝街与周园路交叉口东北方向166米左右",
        "tel": "",
        "category": "基础设施:公共设施:公共厕所",
        "type": 0,
        "location": {
            "lat": 35.085754,
            "lng": 112.591339
        },
        "ad_info": {
            "adcode": 419001,
            "province": "河南省",
            "city": "",
            "district": "济源市"
        }
    },
    {
        "id": "17048387140450799812",
        "title": "公共厕所",
        "address": "河南省济源市槟源路与石坛路交叉口正西方向70米左右",
        "tel": "",
        "category": "基础设施:公共设施:公共厕所",
        "type": 0,
        "location": {
            "lat": 35.12882,
            "lng": 112.569066
        },
        "ad_info": {
            "adcode": 419001,
            "province": "河南省",
            "city": "",
            "district": "济源市"
        }
    },
    {
        "id": "15042718845849592028",
        "title": "公共厕所",
        "address": "河南省济源市一号线与玉川大道交叉口正南方向61米左右",
        "tel": "",
        "category": "基础设施:公共设施:公共厕所",
        "type": 0,
        "location": {
            "lat": 35.153482,
            "lng": 112.572868
        },
        "ad_info": {
            "adcode": 419001,
            "province": "河南省",
            "city": "",
            "district": "济源市"
        }
    },
    {
        "id": "16355871107224328197",
        "title": "公共厕所",
        "address": "河南省济源市文昌路与黄河大道交叉口正西方向83米左右",
        "tel": "",
        "category": "基础设施:公共设施:公共厕所",
        "type": 0,
        "location": {
            "lat": 35.067676,
            "lng": 112.592006
        },
        "ad_info": {
            "adcode": 419001,
            "province": "河南省",
            "city": "",
            "district": "济源市"
        }
    },
    {
        "id": "9554948179412744803",
        "title": "公共厕所",
        "address": "河南省济源市G327与Y008交叉口正西方向184米左右",
        "tel": "",
        "category": "基础设施:公共设施:公共厕所",
        "type": 0,
        "location": {
            "lat": 35.082729,
            "lng": 112.658549
        },
        "ad_info": {
            "adcode": 419001,
            "province": "河南省",
            "city": "",
            "district": "济源市"
        }
    },
    {
        "id": "16210815044607613527",
        "title": "公共厕所",
        "address": "河南省济源市三池路与王屋大街交叉口正北方向276米左右",
        "tel": "",
        "category": "基础设施:公共设施:公共厕所",
        "type": 0,
        "location": {
            "lat": 35.115806,
            "lng": 112.273596
        },
        "ad_info": {
            "adcode": 419001,
            "province": "河南省",
            "city": "",
            "district": "济源市"
        }
    },
    {
        "id": "12190351487347577415",
        "title": "公共厕所",
        "address": "河南省济源市北海大道与沁园路交叉口正南方向65米左右",
        "tel": "",
        "category": "基础设施:公共设施:公共厕所",
        "type": 0,
        "location": {
            "lat": 35.09509,
            "lng": 112.60756
        },
        "ad_info": {
            "adcode": 419001,
            "province": "河南省",
            "city": "",
            "district": "济源市"
        }
    },
    {
        "id": "2554438122306968631",
        "title": "公共厕所",
        "address": "河南省济源市Y005与南小线交叉口正西方向348米左右",
        "tel": "",
        "category": "基础设施:公共设施:公共厕所",
        "type": 0,
        "location": {
            "lat": 35.050234,
            "lng": 112.722605
        },
        "ad_info": {
            "adcode": 419001,
            "province": "河南省",
            "city": "",
            "district": "济源市"
        }
    },
    {
        "id": "2179909808779363244",
        "title": "公共厕所",
        "address": "河南省济源市X001与X009交叉口正北方向237米左右",
        "tel": "",
        "category": "基础设施:公共设施:公共厕所",
        "type": 0,
        "location": {
            "lat": 35.020697,
            "lng": 112.659865
        },
        "ad_info": {
            "adcode": 419001,
            "province": "河南省",
            "city": "",
            "district": "济源市"
        }
    },
    {
        "id": "1762532697824309405",
        "title": "公共厕所",
        "address": "河南省济源市春光路与湨河南街交叉口东南方向110米左右",
        "tel": "",
        "category": "基础设施:公共设施:公共厕所",
        "type": 0,
        "location": {
            "lat": 35.085628,
            "lng": 112.605529
        },
        "ad_info": {
            "adcode": 419001,
            "province": "河南省",
            "city": "",
            "district": "济源市"
        }
    },
    {
        "id": "468751463113995919",
        "title": "公共厕所",
        "address": "河南省济源市济水大街与龙潭路交叉口东南方向146米左右",
        "tel": "",
        "category": "基础设施:公共设施:公共厕所",
        "type": 0,
        "location": {
            "lat": 35.093741,
            "lng": 112.566554
        },
        "ad_info": {
            "adcode": 419001,
            "province": "河南省",
            "city": "",
            "district": "济源市"
        }
    },
    {
        "id": "14843743517570483085",
        "title": "公共厕所",
        "address": "河南省济源市凯旋北街与御驾街交叉口正东方向165米左右",
        "tel": "",
        "category": "基础设施:公共设施:公共厕所",
        "type": 0,
        "location": {
            "lat": 35.079735,
            "lng": 112.607589
        },
        "ad_info": {
            "adcode": 419001,
            "province": "河南省",
            "city": "",
            "district": "济源市"
        }
    },
    {
        "id": "13668690866358147628",
        "title": "公共厕所",
        "address": "河南省济源市天坛路辅路与神马街交叉口正北方向88米左右",
        "tel": "",
        "category": "基础设施:公共设施:公共厕所",
        "type": 0,
        "location": {
            "lat": 35.076999,
            "lng": 112.571714
        },
        "ad_info": {
            "adcode": 419001,
            "province": "河南省",
            "city": "",
            "district": "济源市"
        }
    },
    {
        "id": "9864452115844731302",
        "title": "公共厕所",
        "address": "河南省济源市和谐街与平安路交叉口西南方向37米左右",
        "tel": "",
        "category": "基础设施:公共设施:公共厕所",
        "type": 0,
        "location": {
            "lat": 35.076644,
            "lng": 112.496582
        },
        "ad_info": {
            "adcode": 419001,
            "province": "河南省",
            "city": "",
            "district": "济源市"
        }
    },
    {
        "id": "6123759308821462805",
        "title": "公共厕所",
        "address": "河南省济源市古槐街与舞楼街交叉口东北方向34米左右",
        "tel": "",
        "category": "基础设施:公共设施:公共厕所",
        "type": 0,
        "location": {
            "lat": 35.091644,
            "lng": 112.586546
        },
        "ad_info": {
            "adcode": 419001,
            "province": "河南省",
            "city": "",
            "district": "济源市"
        }
    },
    {
        "id": "2140047118366729817",
        "title": "公共厕所",
        "address": "河南省济源市邵吉线与阳长线交叉口正东方向95米左右",
        "tel": "",
        "category": "基础设施:公共设施:公共厕所",
        "type": 0,
        "location": {
            "lat": 35.052475,
            "lng": 112.222311
        },
        "ad_info": {
            "adcode": 419001,
            "province": "河南省",
            "city": "",
            "district": "济源市"
        }
    },
    {
        "id": "12327302871385124021",
        "title": "公共厕所",
        "address": "河南省济源市西环路与黄河大道交叉口正东方向223米左右",
        "tel": "",
        "category": "基础设施:公共设施:公共厕所",
        "type": 0,
        "location": {
            "lat": 35.07262,
            "lng": 112.546267
        },
        "ad_info": {
            "adcode": 419001,
            "province": "河南省",
            "city": "",
            "district": "济源市"
        }
    },
    {
        "id": "16515675123576557711",
        "title": "公共厕所",
        "address": "河南省济源市玉川2号线与玉川大道交叉口东南方向79米左右",
        "tel": "",
        "category": "基础设施:公共设施:公共厕所",
        "type": 0,
        "location": {
            "lat": 35.153368,
            "lng": 112.584984
        },
        "ad_info": {
            "adcode": 419001,
            "province": "河南省",
            "city": "",
            "district": "济源市"
        }
    },
    {
        "id": "14562297932919239840",
        "title": "公共厕所",
        "address": "河南省济源市三池路与王屋大街交叉口正东方向232米左右",
        "tel": "",
        "category": "基础设施:公共设施:公共厕所",
        "type": 0,
        "location": {
            "lat": 35.113191,
            "lng": 112.276813
        },
        "ad_info": {
            "adcode": 419001,
            "province": "河南省",
            "city": "",
            "district": "济源市"
        }
    },
    {
        "id": "16052525092745877584",
        "title": "公共厕所",
        "address": "河南省济源市愚公路与济渎大街交叉口正北方向127米左右",
        "tel": "",
        "category": "基础设施:公共设施:公共厕所",
        "type": 0,
        "location": {
            "lat": 35.102197,
            "lng": 112.617445
        },
        "ad_info": {
            "adcode": 419001,
            "province": "河南省",
            "city": "",
            "district": "济源市"
        }
    },
    {
        "id": "13039351189867085936",
        "title": "公共厕所",
        "address": "河南省济源市天坛路与宁安街交叉口西南方向167米左右",
        "tel": "",
        "category": "基础设施:公共设施:公共厕所",
        "type": 0,
        "location": {
            "lat": 35.084212,
            "lng": 112.571855
        },
        "ad_info": {
            "adcode": 419001,
            "province": "河南省",
            "city": "",
            "district": "济源市"
        }
    },
    {
        "id": "10493359410824400452",
        "title": "公共厕所",
        "address": "河南省济源市悠然路与民生街交叉口正南方向97米左右",
        "tel": "",
        "category": "基础设施:公共设施:公共厕所",
        "type": 0,
        "location": {
            "lat": 35.072327,
            "lng": 112.490856
        },
        "ad_info": {
            "adcode": 419001,
            "province": "河南省",
            "city": "",
            "district": "济源市"
        }
    },
    {
        "id": "12025471182873332947",
        "title": "公共厕所",
        "address": "河南省济源市弘元路与济水大街交叉口正南方向48米左右",
        "tel": "",
        "category": "基础设施:公共设施:公共厕所",
        "type": 0,
        "location": {
            "lat": 35.093449,
            "lng": 112.569559
        },
        "ad_info": {
            "adcode": 419001,
            "province": "河南省",
            "city": "",
            "district": "济源市"
        }
    },
    {
        "id": "13040083042819548488",
        "title": "公共厕所",
        "address": "河南省济源市宣化街与荆梁街交叉口正北方向68米左右",
        "tel": "",
        "category": "基础设施:公共设施:公共厕所",
        "type": 0,
        "location": {
            "lat": 35.09356,
            "lng": 112.57943
        },
        "ad_info": {
            "adcode": 419001,
            "province": "河南省",
            "city": "",
            "district": "济源市"
        }
    },
    {
        "id": "13170010652277719494",
        "title": "公共厕所",
        "address": "河南省济源市济水大街与滨河北街交叉口西北方向92米左右",
        "tel": "",
        "category": "基础设施:公共设施:公共厕所",
        "type": 0,
        "location": {
            "lat": 35.09214,
            "lng": 112.613203
        },
        "ad_info": {
            "adcode": 419001,
            "province": "河南省",
            "city": "",
            "district": "济源市"
        }
    },
    {
        "id": "15560046667437722462",
        "title": "公共厕所",
        "address": "河南省济源市G327与豫晋大道交叉口西南方向51米左右",
        "tel": "",
        "category": "基础设施:公共设施:公共厕所",
        "type": 0,
        "location": {
            "lat": 35.162864,
            "lng": 112.145502
        },
        "ad_info": {
            "adcode": 419001,
            "province": "河南省",
            "city": "",
            "district": "济源市"
        }
    },
    {
        "id": "3848413270437543133",
        "title": "公共厕所",
        "address": "河南省济源市S240与泰山隧道交叉口正北方向1997米左右",
        "tel": "",
        "category": "基础设施:公共设施:公共厕所",
        "type": 0,
        "location": {
            "lat": 34.950103,
            "lng": 112.430265
        },
        "ad_info": {
            "adcode": 419001,
            "province": "河南省",
            "city": "",
            "district": "济源市"
        }
    },
    {
        "id": "14676657896152515269",
        "title": "公共厕所",
        "address": "河南省济源市丰田路与富康路交叉口正南方向233米左右",
        "tel": "",
        "category": "基础设施:公共设施:公共厕所",
        "type": 0,
        "location": {
            "lat": 35.124111,
            "lng": 112.56598
        },
        "ad_info": {
            "adcode": 419001,
            "province": "河南省",
            "city": "",
            "district": "济源市"
        }
    },
    {
        "id": "16358075644192319287",
        "title": "公共厕所",
        "address": "河南省济源市同心街与沁园路交叉口东南方向191米左右",
        "tel": "",
        "category": "基础设施:公共设施:公共厕所",
        "type": 0,
        "location": {
            "lat": 35.076542,
            "lng": 112.60742
        },
        "ad_info": {
            "adcode": 419001,
            "province": "河南省",
            "city": "",
            "district": "济源市"
        }
    },
    {
        "id": "1173572156316796712",
        "title": "公共厕所",
        "address": "河南省济源市001县道与S28长济高速交叉口南100米",
        "tel": "",
        "category": "基础设施:公共设施:公共厕所",
        "type": 0,
        "location": {
            "lat": 35.062122,
            "lng": 112.421911
        },
        "ad_info": {
            "adcode": 419001,
            "province": "河南省",
            "city": "",
            "district": "济源市"
        }
    },
    {
        "id": "9255466386038769328",
        "title": "公共厕所",
        "address": "河南省济源市天坛路与荆梁北街交叉口西北方向87米左右",
        "tel": "",
        "category": "基础设施:公共设施:公共厕所",
        "type": 0,
        "location": {
            "lat": 35.107042,
            "lng": 112.575475
        },
        "ad_info": {
            "adcode": 419001,
            "province": "河南省",
            "city": "",
            "district": "济源市"
        }
    },
    {
        "id": "13087483893493223535",
        "title": "公共厕所",
        "address": "河南省济源市邵吉线东50米",
        "tel": "",
        "category": "基础设施:公共设施:公共厕所",
        "type": 0,
        "location": {
            "lat": 35.008477,
            "lng": 112.310767
        },
        "ad_info": {
            "adcode": 419001,
            "province": "河南省",
            "city": "",
            "district": "济源市"
        }
    },
    {
        "id": "5496250230595144762",
        "title": "公共厕所",
        "address": "河南省济源市济新高速与黄孤线交叉口西南方向1948米左右",
        "tel": "",
        "category": "基础设施:公共设施:公共厕所",
        "type": 0,
        "location": {
            "lat": 35.059078,
            "lng": 112.140402
        },
        "ad_info": {
            "adcode": 419001,
            "province": "河南省",
            "city": "",
            "district": "济源市"
        }
    },
    {
        "id": "14782358747865530465",
        "title": "公共厕所",
        "address": "河南省济源市天坛路商业城",
        "tel": "",
        "category": "基础设施:公共设施:公共厕所",
        "type": 0,
        "location": {
            "lat": 35.097195,
            "lng": 112.572992
        },
        "ad_info": {
            "adcode": 419001,
            "province": "河南省",
            "city": "",
            "district": "济源市"
        }
    },
    {
        "id": "16661086261213639250",
        "title": "公共厕所",
        "address": "河南省济源市G327与曲阳路交叉口西北方向408米左右",
        "tel": "",
        "category": "基础设施:公共设施:公共厕所",
        "type": 0,
        "location": {
            "lat": 35.099545,
            "lng": 112.499383
        },
        "ad_info": {
            "adcode": 419001,
            "province": "河南省",
            "city": "",
            "district": "济源市"
        }
    },
    {
        "id": "9034206319066753901",
        "title": "公共厕所",
        "address": "河南省济源市G208与G327交叉口正南方向147米左右",
        "tel": "",
        "category": "基础设施:公共设施:公共厕所",
        "type": 0,
        "location": {
            "lat": 35.078678,
            "lng": 112.680407
        },
        "ad_info": {
            "adcode": 419001,
            "province": "河南省",
            "city": "",
            "district": "济源市"
        }
    },
    {
        "id": "11708000965694218901",
        "title": "公共厕所",
        "address": "河南省济源市济阳路与燕川大道交叉口西北方向182米左右",
        "tel": "",
        "category": "基础设施:公共设施:公共厕所",
        "type": 0,
        "location": {
            "lat": 35.156998,
            "lng": 112.551928
        },
        "ad_info": {
            "adcode": 419001,
            "province": "河南省",
            "city": "",
            "district": "济源市"
        }
    },
    {
        "id": "17891397611976511457",
        "title": "公共厕所",
        "address": "河南省济源市东环路与河清街交叉口西南方向134米左右",
        "tel": "",
        "category": "基础设施:公共设施:公共厕所",
        "type": 0,
        "location": {
            "lat": 35.082391,
            "lng": 112.625917
        },
        "ad_info": {
            "adcode": 419001,
            "province": "河南省",
            "city": "",
            "district": "济源市"
        }
    },
    {
        "id": "11206941560697207385",
        "title": "公共厕所",
        "address": "河南省济源市北海大道与龙潭路交叉口西南方向56米左右",
        "tel": "",
        "category": "基础设施:公共设施:公共厕所",
        "type": 0,
        "location": {
            "lat": 35.101891,
            "lng": 112.565819
        },
        "ad_info": {
            "adcode": 419001,
            "province": "河南省",
            "city": "",
            "district": "济源市"
        }
    },
    {
        "id": "2726838669738692889",
        "title": "公共厕所",
        "address": "河南省济源市G327与温邵线交叉口正北方向552米左右",
        "tel": "",
        "category": "基础设施:公共设施:公共厕所",
        "type": 0,
        "location": {
            "lat": 35.082096,
            "lng": 112.707604
        },
        "ad_info": {
            "adcode": 419001,
            "province": "河南省",
            "city": "",
            "district": "济源市"
        }
    },
    {
        "id": "5934526304527900551",
        "title": "公共厕所",
        "address": "河南省济源市G327与曲阳路交叉口西北方向324米左右",
        "tel": "",
        "category": "基础设施:公共设施:公共厕所",
        "type": 0,
        "location": {
            "lat": 35.099354,
            "lng": 112.500283
        },
        "ad_info": {
            "adcode": 419001,
            "province": "河南省",
            "city": "",
            "district": "济源市"
        }
    },
    {
        "id": "5182140127206181166",
        "title": "公共厕所",
        "address": "河南省济源市G327与西二环交叉口正东方向247米左右",
        "tel": "",
        "category": "基础设施:公共设施:公共厕所",
        "type": 0,
        "location": {
            "lat": 35.097959,
            "lng": 112.534149
        },
        "ad_info": {
            "adcode": 419001,
            "province": "河南省",
            "city": "",
            "district": "济源市"
        }
    },
    {
        "id": "17251585337206258861",
        "title": "公共厕所",
        "address": "河南省济源市243省道与327国道交叉口东北340米",
        "tel": "",
        "category": "基础设施:公共设施:公共厕所",
        "type": 0,
        "location": {
            "lat": 35.055579,
            "lng": 112.567414
        },
        "ad_info": {
            "adcode": 419001,
            "province": "河南省",
            "city": "",
            "district": "济源市"
        }
    },
    {
        "id": "4339755714943237588",
        "title": "公共厕所",
        "address": "河南省济源市G327与曲阳路交叉口正西方向307米左右",
        "tel": "",
        "category": "基础设施:公共设施:公共厕所",
        "type": 0,
        "location": {
            "lat": 35.099112,
            "lng": 112.500356
        },
        "ad_info": {
            "adcode": 419001,
            "province": "河南省",
            "city": "",
            "district": "济源市"
        }
    },
    {
        "id": "15923761903381483216",
        "title": "公共厕所",
        "address": "河南省济源市沁园路与河合北街交叉口西北方向170米左右",
        "tel": "",
        "category": "基础设施:公共设施:公共厕所",
        "type": 0,
        "location": {
            "lat": 35.087954,
            "lng": 112.604974
        },
        "ad_info": {
            "adcode": 419001,
            "province": "河南省",
            "city": "",
            "district": "济源市"
        }
    },
    {
        "id": "14506633038469962968",
        "title": "公共厕所",
        "address": "河南省济源市S309与北阁南路交叉口正北方向124米左右",
        "tel": "",
        "category": "基础设施:公共设施:公共厕所",
        "type": 0,
        "location": {
            "lat": 35.040948,
            "lng": 112.59703
        },
        "ad_info": {
            "adcode": 419001,
            "province": "河南省",
            "city": "",
            "district": "济源市"
        }
    },
    {
        "id": "13306860972447814014",
        "title": "公共厕所",
        "address": "河南省济源市306省道北50米",
        "tel": "",
        "category": "基础设施:公共设施:公共厕所",
        "type": 0,
        "location": {
            "lat": 35.161561,
            "lng": 112.733931
        },
        "ad_info": {
            "adcode": 419001,
            "province": "河南省",
            "city": "",
            "district": "济源市"
        }
    },
    {
        "id": "13070739914727591194",
        "title": "公共厕所",
        "address": "河南省济源市Y005与屈东线交叉口正北方向410米左右",
        "tel": "",
        "category": "基础设施:公共设施:公共厕所",
        "type": 0,
        "location": {
            "lat": 35.053423,
            "lng": 112.727455
        },
        "ad_info": {
            "adcode": 419001,
            "province": "河南省",
            "city": "",
            "district": "济源市"
        }
    },
    {
        "id": "17185890903012619388",
        "title": "公共厕所",
        "address": "河南省济源市S243与建设大道交叉口正北方向394米左右",
        "tel": "",
        "category": "基础设施:公共设施:公共厕所",
        "type": 0,
        "location": {
            "lat": 35.122205,
            "lng": 112.580307
        },
        "ad_info": {
            "adcode": 419001,
            "province": "河南省",
            "city": "",
            "district": "济源市"
        }
    },
    {
        "id": "6867207734929112277",
        "title": "公共厕所",
        "address": "河南省济源市三旺线与阳长线交叉口正南方向275米左右",
        "tel": "",
        "category": "基础设施:公共设施:公共厕所",
        "type": 0,
        "location": {
            "lat": 35.079339,
            "lng": 112.234774
        },
        "ad_info": {
            "adcode": 419001,
            "province": "河南省",
            "city": "",
            "district": "济源市"
        }
    },
    {
        "id": "534129799670743927",
        "title": "公共厕所",
        "address": "河南省济源市G327与创业路交叉口东南方向369米左右",
        "tel": "",
        "category": "基础设施:公共设施:公共厕所",
        "type": 0,
        "location": {
            "lat": 35.103288,
            "lng": 112.438204
        },
        "ad_info": {
            "adcode": 419001,
            "province": "河南省",
            "city": "",
            "district": "济源市"
        }
    },
    {
        "id": "5641265984200372173",
        "title": "公共厕所",
        "address": "河南省济源市G55二广高速与济源北立交桥交叉口西北320米",
        "tel": "",
        "category": "基础设施:公共设施:公共厕所",
        "type": 0,
        "location": {
            "lat": 35.142393,
            "lng": 112.677218
        },
        "ad_info": {
            "adcode": 419001,
            "province": "河南省",
            "city": "",
            "district": "济源市"
        }
    },
    {
        "id": "5833334259430482706",
        "title": "公共厕所",
        "address": "河南省济源市天坛路与水厂街交叉口正北方向172米左右",
        "tel": "",
        "category": "基础设施:公共设施:公共厕所",
        "type": 0,
        "location": {
            "lat": 35.097427,
            "lng": 112.57446
        },
        "ad_info": {
            "adcode": 419001,
            "province": "河南省",
            "city": "",
            "district": "济源市"
        }
    },
    {
        "id": "14166125022502570341",
        "title": "公共厕所",
        "address": "河南省济源市济水大街中国石化济源中心加油站旁",
        "tel": "",
        "category": "基础设施:公共设施:公共厕所",
        "type": 0,
        "location": {
            "lat": 35.09135,
            "lng": 112.61053
        },
        "ad_info": {
            "adcode": 419001,
            "province": "河南省",
            "city": "",
            "district": "济源市"
        }
    },
    {
        "id": "13428075991137211167",
        "title": "公共厕所",
        "address": "河南省济源市滨湖路与福田路交叉口西南方向500米左右",
        "tel": "",
        "category": "基础设施:公共设施:公共厕所",
        "type": 0,
        "location": {
            "lat": 35.103865,
            "lng": 112.479342
        },
        "ad_info": {
            "adcode": 419001,
            "province": "河南省",
            "city": "",
            "district": "济源市"
        }
    },
    {
        "id": "13240356670182318512",
        "title": "公共厕所",
        "address": "河南省济源市G327与水牛线交叉口正西方向183米左右",
        "tel": "",
        "category": "基础设施:公共设施:公共厕所",
        "type": 0,
        "location": {
            "lat": 35.104339,
            "lng": 112.470914
        },
        "ad_info": {
            "adcode": 419001,
            "province": "河南省",
            "city": "",
            "district": "济源市"
        }
    },
    {
        "id": "540030528611189086",
        "title": "公共厕所",
        "address": "河南省济源市克留线与卫福安村道交叉口东北方向54米左右",
        "tel": "",
        "category": "基础设施:公共设施:公共厕所",
        "type": 0,
        "location": {
            "lat": 35.021015,
            "lng": 112.489391
        },
        "ad_info": {
            "adcode": 419001,
            "province": "河南省",
            "city": "",
            "district": "济源市"
        }
    },
    {
        "id": "17387506274581105653",
        "title": "公共厕所",
        "address": "河南省济源市济洛高速与阳济高速交叉口东北方向1560米左右",
        "tel": "",
        "category": "基础设施:公共设施:公共厕所",
        "type": 0,
        "location": {
            "lat": 35.098066,
            "lng": 112.396637
        },
        "ad_info": {
            "adcode": 419001,
            "province": "河南省",
            "city": "",
            "district": "济源市"
        }
    },
    {
        "id": "2443458523207480720",
        "title": "公共厕所",
        "address": "河南省济源市Y018与阳长线交叉口正南方向981米左右",
        "tel": "",
        "category": "基础设施:公共设施:公共厕所",
        "type": 0,
        "location": {
            "lat": 35.105602,
            "lng": 112.234923
        },
        "ad_info": {
            "adcode": 419001,
            "province": "河南省",
            "city": "",
            "district": "济源市"
        }
    },
    {
        "id": "9764667368783397814",
        "title": "世纪广场公共厕所",
        "address": "河南省济源市明德路与春华路交叉口西南120米",
        "tel": "",
        "category": "基础设施:公共设施:公共厕所",
        "type": 0,
        "location": {
            "lat": 35.074295,
            "lng": 112.603034
        },
        "ad_info": {
            "adcode": 419001,
            "province": "河南省",
            "city": "",
            "district": "济源市"
        }
    },
    {
        "id": "16556565797621499366",
        "title": "洛阳黄河小浪底风景区公共厕所",
        "address": "河南省济源市S245与小浪底8号路交叉口正西方向150米左右",
        "tel": "",
        "category": "基础设施:公共设施:公共厕所",
        "type": 0,
        "location": {
            "lat": 34.922897,
            "lng": 112.391833
        },
        "ad_info": {
            "adcode": 419001,
            "province": "河南省",
            "city": "",
            "district": "济源市"
        }
    },
    {
        "id": "9986607923483124133",
        "title": "济源服务区公共厕所",
        "address": "河南省济源市G208与S308交叉口西北方向1050米左右",
        "tel": "",
        "category": "基础设施:公共设施:公共厕所",
        "type": 0,
        "location": {
            "lat": 35.110824,
            "lng": 112.676468
        },
        "ad_info": {
            "adcode": 419001,
            "province": "河南省",
            "city": "",
            "district": "济源市"
        }
    },
    {
        "id": "6773462311592195531",
        "title": "公共厕所",
        "address": "河南省济源市吉安街与民康路交叉口西北方向67米左右",
        "tel": "",
        "category": "基础设施:公共设施:公共厕所",
        "type": 0,
        "location": {
            "lat": 35.091181,
            "lng": 112.57453
        },
        "ad_info": {
            "adcode": 419001,
            "province": "河南省",
            "city": "",
            "district": "济源市"
        }
    },
    {
        "id": "9103010137397470360",
        "title": "公共厕所",
        "address": "河南省济源市东环路与滨河南街交叉口正北方向180米左右",
        "tel": "",
        "category": "基础设施:公共设施:公共厕所",
        "type": 0,
        "location": {
            "lat": 35.087389,
            "lng": 112.626889
        },
        "ad_info": {
            "adcode": 419001,
            "province": "河南省",
            "city": "",
            "district": "济源市"
        }
    },
    {
        "id": "13766240802328612629",
        "title": "公共厕所",
        "address": "河南省济源市S312与东环路交叉口东北方向75米左右",
        "tel": "",
        "category": "基础设施:公共设施:公共厕所",
        "type": 0,
        "location": {
            "lat": 35.062468,
            "lng": 112.622613
        },
        "ad_info": {
            "adcode": 419001,
            "province": "河南省",
            "city": "",
            "district": "济源市"
        }
    },
    {
        "id": "1319746670236416034",
        "title": "公共厕所",
        "address": "河南省济源市汤帝路爱心幼儿园",
        "tel": "",
        "category": "基础设施:公共设施:公共厕所",
        "type": 0,
        "location": {
            "lat": 35.087395,
            "lng": 112.584946
        },
        "ad_info": {
            "adcode": 419001,
            "province": "河南省",
            "city": "",
            "district": "济源市"
        }
    },
    {
        "id": "17191591376419036901",
        "title": "王屋山服务区公共厕所",
        "address": "河南省济源市菏宝高速与阳长线交叉口东北方向578米左右",
        "tel": "",
        "category": "基础设施:公共设施:公共厕所",
        "type": 0,
        "location": {
            "lat": 35.103469,
            "lng": 112.251038
        },
        "ad_info": {
            "adcode": 419001,
            "province": "河南省",
            "city": "",
            "district": "济源市"
        }
    },
    {
        "id": "16189630395135212364",
        "title": "公共厕所",
        "address": "河南省济源市向阳街与沁园路交叉口东北方向121米左右",
        "tel": "",
        "category": "基础设施:公共设施:公共厕所",
        "type": 0,
        "location": {
            "lat": 35.083313,
            "lng": 112.606783
        },
        "ad_info": {
            "adcode": 419001,
            "province": "河南省",
            "city": "",
            "district": "济源市"
        }
    },
    {
        "id": "14962742949797259701",
        "title": "公共厕所",
        "address": "河南省济源市沁园路与御驾街南十巷交叉口北120米",
        "tel": "",
        "category": "基础设施:公共设施:公共厕所",
        "type": 0,
        "location": {
            "lat": 35.078987,
            "lng": 112.605387
        },
        "ad_info": {
            "adcode": 419001,
            "province": "河南省",
            "city": "",
            "district": "济源市"
        }
    },
    {
        "id": "16349318546832673726",
        "title": "小浪底北服务区公共厕所",
        "address": "河南省济源市济洛高速附近",
        "tel": "",
        "category": "基础设施:公共设施:公共厕所",
        "type": 0,
        "location": {
            "lat": 35.025228,
            "lng": 112.413072
        },
        "ad_info": {
            "adcode": 419001,
            "province": "河南省",
            "city": "",
            "district": "济源市"
        }
    },
    {
        "id": "4558260108010820274",
        "title": "济源服务区公共厕所",
        "address": "河南省济源市G208与S308交叉口西北方向918米左右",
        "tel": "",
        "category": "基础设施:公共设施:公共厕所",
        "type": 0,
        "location": {
            "lat": 35.111063,
            "lng": 112.678979
        },
        "ad_info": {
            "adcode": 419001,
            "province": "河南省",
            "city": "",
            "district": "济源市"
        }
    },
    {
        "id": "13773616109894160472",
        "title": "王屋山庄-公共厕所",
        "address": "河南省济源市王屋镇愚公村",
        "tel": "",
        "category": "基础设施:公共设施:公共厕所",
        "type": 0,
        "location": {
            "lat": 35.173527,
            "lng": 112.287642
        },
        "ad_info": {
            "adcode": 419001,
            "province": "河南省",
            "city": "",
            "district": "济源市"
        }
    },
    {
        "id": "836692657266965659",
        "title": "公共厕所",
        "address": "河南省济源市济水大街韵达快递东北(宏程家园附近)",
        "tel": "",
        "category": "基础设施:公共设施:公共厕所",
        "type": 0,
        "location": {
            "lat": 35.088536,
            "lng": 112.596288
        },
        "ad_info": {
            "adcode": 419001,
            "province": "河南省",
            "city": "",
            "district": "济源市"
        }
    },
    {
        "id": "11644119528548639892",
        "title": "公共厕所",
        "address": "河南省济源市关帝街与关帝路交叉口正南方向107米左右",
        "tel": "",
        "category": "基础设施:公共设施:公共厕所",
        "type": 0,
        "location": {
            "lat": 35.080389,
            "lng": 112.589113
        },
        "ad_info": {
            "adcode": 419001,
            "province": "河南省",
            "city": "",
            "district": "济源市"
        }
    },
    {
        "id": "8850193080530169837",
        "title": "公共厕所",
        "address": "河南省济源市关帝街238号",
        "tel": "",
        "category": "基础设施:公共设施:公共厕所",
        "type": 0,
        "location": {
            "lat": 35.089136,
            "lng": 112.590983
        },
        "ad_info": {
            "adcode": 419001,
            "province": "河南省",
            "city": "",
            "district": "济源市"
        }
    },
    {
        "id": "15310468275303117707",
        "title": "公共厕所",
        "address": "河南省济源市沁园路与玉川东街交叉口正东方向148米左右",
        "tel": "",
        "category": "基础设施:公共设施:公共厕所",
        "type": 0,
        "location": {
            "lat": 35.06955,
            "lng": 112.6065
        },
        "ad_info": {
            "adcode": 419001,
            "province": "河南省",
            "city": "",
            "district": "济源市"
        }
    },
    {
        "id": "7374733464136224397",
        "title": "公共厕所",
        "address": "河南省济源市沁园路与河合北街交叉口正东方向126米左右",
        "tel": "",
        "category": "基础设施:公共设施:公共厕所",
        "type": 0,
        "location": {
            "lat": 35.08713,
            "lng": 112.60799
        },
        "ad_info": {
            "adcode": 419001,
            "province": "河南省",
            "city": "",
            "district": "济源市"
        }
    },
    {
        "id": "12144723742471557634",
        "title": "公共厕所",
        "address": "河南省济源市汤帝北路与济渎大街交叉口西北方向239米左右",
        "tel": "",
        "category": "基础设施:公共设施:公共厕所",
        "type": 0,
        "location": {
            "lat": 35.10469,
            "lng": 112.58528
        },
        "ad_info": {
            "adcode": 419001,
            "province": "河南省",
            "city": "",
            "district": "济源市"
        }
    },
    {
        "id": "2942088080823841332",
        "title": "公共厕所",
        "address": "河南省济源市关帝街与济水大街交叉口正东方向84米左右",
        "tel": "",
        "category": "基础设施:公共设施:公共厕所",
        "type": 0,
        "location": {
            "lat": 35.08807,
            "lng": 112.591452
        },
        "ad_info": {
            "adcode": 419001,
            "province": "河南省",
            "city": "",
            "district": "济源市"
        }
    },
    {
        "id": "16113962317778324234",
        "title": "公共厕所",
        "address": "河南省济源市宏发路与小浪底路交叉口东北方向69米左右",
        "tel": "",
        "category": "基础设施:公共设施:公共厕所",
        "type": 0,
        "location": {
            "lat": 34.922037,
            "lng": 112.524622
        },
        "ad_info": {
            "adcode": 419001,
            "province": "河南省",
            "city": "",
            "district": "济源市"
        }
    },
    {
        "id": "15223650740112693801",
        "title": "公共厕所",
        "address": "河南省济源市关帝街与湨河南街交叉口正东方向80米左右",
        "tel": "",
        "category": "基础设施:公共设施:公共厕所",
        "type": 0,
        "location": {
            "lat": 35.081631,
            "lng": 112.59031
        },
        "ad_info": {
            "adcode": 419001,
            "province": "河南省",
            "city": "",
            "district": "济源市"
        }
    },
    {
        "id": "11049750664205980351",
        "title": "公共厕所",
        "address": "河南省济源市天坛路与荆梁街交叉口正南方向168米左右",
        "tel": "",
        "category": "基础设施:公共设施:公共厕所",
        "type": 0,
        "location": {
            "lat": 35.103557,
            "lng": 112.576743
        },
        "ad_info": {
            "adcode": 419001,
            "province": "河南省",
            "city": "",
            "district": "济源市"
        }
    },
    {
        "id": "12541704884014402245",
        "title": "公共厕所",
        "address": "河南省济源市湨河南街与西环路交叉口东北方向651米左右",
        "tel": "",
        "category": "基础设施:公共设施:公共厕所",
        "type": 0,
        "location": {
            "lat": 35.090517,
            "lng": 112.551645
        },
        "ad_info": {
            "adcode": 419001,
            "province": "河南省",
            "city": "",
            "district": "济源市"
        }
    },
    {
        "id": "18435561567593732220",
        "title": "公共厕所",
        "address": "河南省济源市北海大道与文昌路交叉口正北方向213米左右",
        "tel": "",
        "category": "基础设施:公共设施:公共厕所",
        "type": 0,
        "location": {
            "lat": 35.099541,
            "lng": 112.596826
        },
        "ad_info": {
            "adcode": 419001,
            "province": "河南省",
            "city": "",
            "district": "济源市"
        }
    },
    {
        "id": "7631458645149581394",
        "title": "公共厕所",
        "address": "河南省济源市泰和路与豫晋大道交叉口正南方向126米左右",
        "tel": "",
        "category": "基础设施:公共设施:公共厕所",
        "type": 0,
        "location": {
            "lat": 35.163063,
            "lng": 112.133596
        },
        "ad_info": {
            "adcode": 419001,
            "province": "河南省",
            "city": "",
            "district": "济源市"
        }
    },
    {
        "id": "12404252389926352094",
        "title": "公共厕所",
        "address": "河南省济源市北九巷与南四巷交叉口正北方向317米左右",
        "tel": "",
        "category": "基础设施:公共设施:公共厕所",
        "type": 0,
        "location": {
            "lat": 35.111365,
            "lng": 112.577412
        },
        "ad_info": {
            "adcode": 419001,
            "province": "河南省",
            "city": "",
            "district": "济源市"
        }
    },
    {
        "id": "3355689211065852532",
        "title": "公共厕所",
        "address": "河南省济源市健康街与民族路交叉口东北方向27米左右",
        "tel": "",
        "category": "基础设施:公共设施:公共厕所",
        "type": 0,
        "location": {
            "lat": 35.09706,
            "lng": 112.58138
        },
        "ad_info": {
            "adcode": 419001,
            "province": "河南省",
            "city": "",
            "district": "济源市"
        }
    },
    {
        "id": "10058986808903397812",
        "title": "卫生间",
        "address": "河南省济源市东环路与泉水湾西路交叉口正东方向234米左右",
        "tel": "",
        "category": "基础设施:公共设施:公共厕所",
        "type": 0,
        "location": {
            "lat": 35.109235,
            "lng": 112.633851
        },
        "ad_info": {
            "adcode": 419001,
            "province": "河南省",
            "city": "",
            "district": "济源市"
        }
    },
    {
        "id": "15837912910766336999",
        "title": "公共厕所",
        "address": "河南省济源市凤凰路与济渎大街交叉口西南方向81米左右",
        "tel": "",
        "category": "基础设施:公共设施:公共厕所",
        "type": 0,
        "location": {
            "lat": 35.100897,
            "lng": 112.613635
        },
        "ad_info": {
            "adcode": 419001,
            "province": "河南省",
            "city": "",
            "district": "济源市"
        }
    },
    {
        "id": "11800679744040767761",
        "title": "公共厕所",
        "address": "河南省济源市农开路3与水牛线交叉口正北方向1641米左右",
        "tel": "",
        "category": "基础设施:公共设施:公共厕所",
        "type": 0,
        "location": {
            "lat": 35.131728,
            "lng": 112.488976
        },
        "ad_info": {
            "adcode": 419001,
            "province": "河南省",
            "city": "",
            "district": "济源市"
        }
    },
    {
        "id": "4516886618660284002",
        "title": "公共厕所",
        "address": "河南省济源市春光路与湨河南街交叉口正东方向105米左右",
        "tel": "",
        "category": "基础设施:公共设施:公共厕所",
        "type": 0,
        "location": {
            "lat": 35.085944,
            "lng": 112.605707
        },
        "ad_info": {
            "adcode": 419001,
            "province": "河南省",
            "city": "",
            "district": "济源市"
        }
    },
    {
        "id": "6180284221873493780",
        "title": "公共厕所",
        "address": "河南省济源市G208与G327交叉口正南方向140米左右",
        "tel": "",
        "category": "基础设施:公共设施:公共厕所",
        "type": 0,
        "location": {
            "lat": 35.078733,
            "lng": 112.681035
        },
        "ad_info": {
            "adcode": 419001,
            "province": "河南省",
            "city": "",
            "district": "济源市"
        }
    },
    {
        "id": "17290744333149836891",
        "title": "公共厕所",
        "address": "河南省济源市G208与S309交叉口西南方向194米左右",
        "tel": "",
        "category": "基础设施:公共设施:公共厕所",
        "type": 0,
        "location": {
            "lat": 35.034932,
            "lng": 112.657521
        },
        "ad_info": {
            "adcode": 419001,
            "province": "河南省",
            "city": "",
            "district": "济源市"
        }
    },
    {
        "id": "15265535492168380156",
        "title": "公共厕所",
        "address": "河南省济源市桂花巷与水景街交叉口东南方向54米左右",
        "tel": "",
        "category": "基础设施:公共设施:公共厕所",
        "type": 0,
        "location": {
            "lat": 34.926716,
            "lng": 112.523723
        },
        "ad_info": {
            "adcode": 419001,
            "province": "河南省",
            "city": "",
            "district": "济源市"
        }
    },
    {
        "id": "23153187928337350",
        "title": "公共厕所",
        "address": "河南省济源市G327与水牛线交叉口正南方向81米左右",
        "tel": "",
        "category": "基础设施:公共设施:公共厕所",
        "type": 0,
        "location": {
            "lat": 35.103553,
            "lng": 112.472861
        },
        "ad_info": {
            "adcode": 419001,
            "province": "河南省",
            "city": "",
            "district": "济源市"
        }
    },
    {
        "id": "10507522424989297586",
        "title": "公共厕所",
        "address": "河南省济源市济源大道中国济源篮球城",
        "tel": "",
        "category": "基础设施:公共设施:公共厕所",
        "type": 0,
        "location": {
            "lat": 35.074863,
            "lng": 112.594017
        },
        "ad_info": {
            "adcode": 419001,
            "province": "河南省",
            "city": "",
            "district": "济源市"
        }
    },
    {
        "id": "18026374183178000991",
        "title": "公共厕所",
        "address": "河南省济源市X012(黄弧线)",
        "tel": "",
        "category": "基础设施:公共设施:公共厕所",
        "type": 0,
        "location": {
            "lat": 35.181708,
            "lng": 112.175134
        },
        "ad_info": {
            "adcode": 419001,
            "province": "河南省",
            "city": "",
            "district": "济源市"
        }
    },
    {
        "id": "6405859307903369169",
        "title": "公共厕所",
        "address": "河南省济源市208国道辅路与G3511菏宝高速入口交叉口东南80米",
        "tel": "",
        "category": "基础设施:公共设施:公共厕所",
        "type": 0,
        "location": {
            "lat": 35.069244,
            "lng": 112.679751
        },
        "ad_info": {
            "adcode": 419001,
            "province": "河南省",
            "city": "",
            "district": "济源市"
        }
    },
    {
        "id": "3005073677758482300",
        "title": "公共厕所",
        "address": "河南省济源市南环路与汤帝路交叉口正西方向345米左右",
        "tel": "",
        "category": "基础设施:公共设施:公共厕所",
        "type": 0,
        "location": {
            "lat": 35.061683,
            "lng": 112.576143
        },
        "ad_info": {
            "adcode": 419001,
            "province": "河南省",
            "city": "",
            "district": "济源市"
        }
    },
    {
        "id": "1964864294841883742",
        "title": "公共厕所",
        "address": "河南省济源市S240与庙凹大桥交叉口正南方向228米左右",
        "tel": "",
        "category": "基础设施:公共设施:公共厕所",
        "type": 0,
        "location": {
            "lat": 34.988002,
            "lng": 112.543002
        },
        "ad_info": {
            "adcode": 419001,
            "province": "河南省",
            "city": "",
            "district": "济源市"
        }
    },
    {
        "id": "4827894305089970277",
        "title": "公共厕所",
        "address": "河南省济源市文明路与爱国路交叉口正东方向443米左右",
        "tel": "",
        "category": "基础设施:公共设施:公共厕所",
        "type": 0,
        "location": {
            "lat": 35.065057,
            "lng": 112.546852
        },
        "ad_info": {
            "adcode": 419001,
            "province": "河南省",
            "city": "",
            "district": "济源市"
        }
    },
    {
        "id": "15355031957936089777",
        "title": "公共厕所",
        "address": "河南省济源市中华街与新大街交叉口西南方向110米左右",
        "tel": "",
        "category": "基础设施:公共设施:公共厕所",
        "type": 0,
        "location": {
            "lat": 35.032624,
            "lng": 112.202025
        },
        "ad_info": {
            "adcode": 419001,
            "province": "河南省",
            "city": "",
            "district": "济源市"
        }
    },
    {
        "id": "17746072472718401712",
        "title": "公共厕所",
        "address": "河南省济源市文昌路与湨河北街交叉口东南方向145米左右",
        "tel": "",
        "category": "基础设施:公共设施:公共厕所",
        "type": 0,
        "location": {
            "lat": 35.082706,
            "lng": 112.594602
        },
        "ad_info": {
            "adcode": 419001,
            "province": "河南省",
            "city": "",
            "district": "济源市"
        }
    },
    {
        "id": "2785176351968205760",
        "title": "公共厕所",
        "address": "河南省济源市文化路与绿色大道交叉口西北方向1067米左右",
        "tel": "",
        "category": "基础设施:公共设施:公共厕所",
        "type": 0,
        "location": {
            "lat": 35.135269,
            "lng": 112.529571
        },
        "ad_info": {
            "adcode": 419001,
            "province": "河南省",
            "city": "",
            "district": "济源市"
        }
    },
    {
        "id": "3510345798805509795",
        "title": "公共厕所",
        "address": "河南省济源市同心街与沁园路交叉口东南方向140米左右",
        "tel": "",
        "category": "基础设施:公共设施:公共厕所",
        "type": 0,
        "location": {
            "lat": 35.076568,
            "lng": 112.606796
        },
        "ad_info": {
            "adcode": 419001,
            "province": "河南省",
            "city": "",
            "district": "济源市"
        }
    },
    {
        "id": "303387689488676775",
        "title": "公共厕所",
        "address": "河南省济源市G327与创业路交叉口正北方向296米左右",
        "tel": "",
        "category": "基础设施:公共设施:公共厕所",
        "type": 0,
        "location": {
            "lat": 35.107309,
            "lng": 112.434267
        },
        "ad_info": {
            "adcode": 419001,
            "province": "河南省",
            "city": "",
            "district": "济源市"
        }
    },
    {
        "id": "1710806163535981452",
        "title": "公共厕所",
        "address": "河南省济源市文昌路济隆花城",
        "tel": "",
        "category": "基础设施:公共设施:公共厕所",
        "type": 0,
        "location": {
            "lat": 35.106422,
            "lng": 112.598259
        },
        "ad_info": {
            "adcode": 419001,
            "province": "河南省",
            "city": "",
            "district": "济源市"
        }
    },
    {
        "id": "16315153652480102486",
        "title": "公共厕所",
        "address": "河南省济源市广利街与文明北路交叉口正北方向54米左右",
        "tel": "",
        "category": "基础设施:公共设施:公共厕所",
        "type": 0,
        "location": {
            "lat": 35.135606,
            "lng": 112.68702
        },
        "ad_info": {
            "adcode": 419001,
            "province": "河南省",
            "city": "",
            "district": "济源市"
        }
    },
    {
        "id": "15570972708864621963",
        "title": "卫生间",
        "address": "河南省济源市北环路与沁园路交叉口正西方向660米左右",
        "tel": "",
        "category": "基础设施:公共设施:公共厕所",
        "type": 0,
        "location": {
            "lat": 35.112628,
            "lng": 112.601878
        },
        "ad_info": {
            "adcode": 419001,
            "province": "河南省",
            "city": "",
            "district": "济源市"
        }
    },
    {
        "id": "13182897345433712133",
        "title": "公共厕所",
        "address": "河南省济源市汤帝路与黄河大道交叉口正西方向98米左右",
        "tel": "",
        "category": "基础设施:公共设施:公共厕所",
        "type": 0,
        "location": {
            "lat": 35.068819,
            "lng": 112.580198
        },
        "ad_info": {
            "adcode": 419001,
            "province": "河南省",
            "city": "",
            "district": "济源市"
        }
    },
    {
        "id": "15727631557218961042",
        "title": "公共厕所",
        "address": "河南省济源市南环路与文昌路交叉口正西方向361米左右",
        "tel": "",
        "category": "基础设施:公共设施:公共厕所",
        "type": 0,
        "location": {
            "lat": 35.060337,
            "lng": 112.588714
        },
        "ad_info": {
            "adcode": 419001,
            "province": "河南省",
            "city": "",
            "district": "济源市"
        }
    },
    {
        "id": "18141662116283535675",
        "title": "公共厕所",
        "address": "河南省济源市复兴街与张家祠南路交叉口正南方向484米左右",
        "tel": "",
        "category": "基础设施:公共设施:公共厕所",
        "type": 0,
        "location": {
            "lat": 35.089294,
            "lng": 112.637679
        },
        "ad_info": {
            "adcode": 419001,
            "province": "河南省",
            "city": "",
            "district": "济源市"
        }
    },
    {
        "id": "7327982333921493466",
        "title": "公共厕所",
        "address": "河南省济源市北海大道与民族路交叉口正北方向96米左右",
        "tel": "",
        "category": "基础设施:公共设施:公共厕所",
        "type": 0,
        "location": {
            "lat": 35.101307,
            "lng": 112.581795
        },
        "ad_info": {
            "adcode": 419001,
            "province": "河南省",
            "city": "",
            "district": "济源市"
        }
    },
    {
        "id": "6757247596956075573",
        "title": "公共厕所",
        "address": "河南省济源市天坛路与湨河南街交叉口正南方向60米左右",
        "tel": "",
        "category": "基础设施:公共设施:公共厕所",
        "type": 0,
        "location": {
            "lat": 35.082182,
            "lng": 112.572632
        },
        "ad_info": {
            "adcode": 419001,
            "province": "河南省",
            "city": "",
            "district": "济源市"
        }
    },
    {
        "id": "16017357428195345093",
        "title": "公共厕所",
        "address": "河南省济源市梨苑大道西段10号",
        "tel": "",
        "category": "基础设施:公共设施:公共厕所",
        "type": 0,
        "location": {
            "lat": 35.076832,
            "lng": 112.709629
        },
        "ad_info": {
            "adcode": 419001,
            "province": "河南省",
            "city": "",
            "district": "济源市"
        }
    },
    {
        "id": "2555203857185873377",
        "title": "公共厕所",
        "address": "河南省济源市东环路与泉水湾西路交叉口西南方向91米左右",
        "tel": "",
        "category": "基础设施:公共设施:公共厕所",
        "type": 0,
        "location": {
            "lat": 35.109467,
            "lng": 112.630505
        },
        "ad_info": {
            "adcode": 419001,
            "province": "河南省",
            "city": "",
            "district": "济源市"
        }
    },
    {
        "id": "7743253163555948295",
        "title": "公共厕所",
        "address": "河南省济源市东环路与文明路交叉口正东方向53米左右",
        "tel": "",
        "category": "基础设施:公共设施:公共厕所",
        "type": 0,
        "location": {
            "lat": 35.10408,
            "lng": 112.631018
        },
        "ad_info": {
            "adcode": 419001,
            "province": "河南省",
            "city": "",
            "district": "济源市"
        }
    },
    {
        "id": "14824627235496362564",
        "title": "公共厕所",
        "address": "河南省济源市卢仝大街与水牛线交叉口西北方向64米左右",
        "tel": "",
        "category": "基础设施:公共设施:公共厕所",
        "type": 0,
        "location": {
            "lat": 35.111741,
            "lng": 112.510844
        },
        "ad_info": {
            "adcode": 419001,
            "province": "河南省",
            "city": "",
            "district": "济源市"
        }
    },
    {
        "id": "5753382504341457178",
        "title": "小浪底北服务区公共厕所",
        "address": "河南省济源市小浪底北服务区加油站西北侧110米",
        "tel": "",
        "category": "基础设施:公共设施:公共厕所",
        "type": 0,
        "location": {
            "lat": 35.025418,
            "lng": 112.412906
        },
        "ad_info": {
            "adcode": 419001,
            "province": "河南省",
            "city": "",
            "district": "济源市"
        }
    },
    {
        "id": "1502062311417806110",
        "title": "公共厕所",
        "address": "河南省济源市东环路与河清街交叉口正西方向93米左右",
        "tel": "",
        "category": "基础设施:公共设施:公共厕所",
        "type": 0,
        "location": {
            "lat": 35.083783,
            "lng": 112.625616
        },
        "ad_info": {
            "adcode": 419001,
            "province": "河南省",
            "city": "",
            "district": "济源市"
        }
    },
    {
        "id": "9332346098242979391",
        "title": "公共厕所",
        "address": "河南省济源市黄河大道富士花园",
        "tel": "",
        "category": "基础设施:公共设施:公共厕所",
        "type": 0,
        "location": {
            "lat": 35.079074,
            "lng": 112.510952
        },
        "ad_info": {
            "adcode": 419001,
            "province": "河南省",
            "city": "",
            "district": "济源市"
        }
    },
    {
        "id": "11187479028643847315",
        "title": "公共厕所",
        "address": "河南省济源市健康街与蟒河北街交叉口东北方向37米左右",
        "tel": "",
        "category": "基础设施:公共设施:公共厕所",
        "type": 0,
        "location": {
            "lat": 35.097049,
            "lng": 112.590418
        },
        "ad_info": {
            "adcode": 419001,
            "province": "河南省",
            "city": "",
            "district": "济源市"
        }
    },
    {
        "id": "1318208105791314929",
        "title": "小浪底北服务区公共厕所",
        "address": "河南省济源市济洛高速",
        "tel": "",
        "category": "基础设施:公共设施:公共厕所",
        "type": 0,
        "location": {
            "lat": 35.025521,
            "lng": 112.415339
        },
        "ad_info": {
            "adcode": 419001,
            "province": "河南省",
            "city": "",
            "district": "济源市"
        }
    },
    {
        "id": "6372147307517528521",
        "title": "公共厕所",
        "address": "河南省济源市汤帝路862号",
        "tel": "",
        "category": "基础设施:公共设施:公共厕所",
        "type": 0,
        "location": {
            "lat": 35.072745,
            "lng": 112.581041
        },
        "ad_info": {
            "adcode": 419001,
            "province": "河南省",
            "city": "",
            "district": "济源市"
        }
    },
    {
        "id": "15944187918042273623",
        "title": "公共厕所",
        "address": "河南省济源市济水大街一巷与狄庄街交叉口西南方向235米左右",
        "tel": "",
        "category": "基础设施:公共设施:公共厕所",
        "type": 0,
        "location": {
            "lat": 35.08551,
            "lng": 112.596015
        },
        "ad_info": {
            "adcode": 419001,
            "province": "河南省",
            "city": "",
            "district": "济源市"
        }
    },
    {
        "id": "1653779686791921398",
        "title": "公共厕所",
        "address": "河南省济源市愚公路与济水大街交叉口西南方向63米左右",
        "tel": "",
        "category": "基础设施:公共设施:公共厕所",
        "type": 0,
        "location": {
            "lat": 35.090888,
            "lng": 112.615989
        },
        "ad_info": {
            "adcode": 419001,
            "province": "河南省",
            "city": "",
            "district": "济源市"
        }
    },
    {
        "id": "10982312056594226767",
        "title": "公共厕所",
        "address": "河南省济源市济源大道与王屋路交叉口正东方向112米左右",
        "tel": "15670551962",
        "category": "基础设施:公共设施:公共厕所",
        "type": 0,
        "location": {
            "lat": 35.072948,
            "lng": 112.621066
        },
        "ad_info": {
            "adcode": 419001,
            "province": "河南省",
            "city": "",
            "district": "济源市"
        }
    },
    {
        "id": "9161139083273474724",
        "title": "公共厕所",
        "address": "河南省济源市沁园路贰仟家汽车产业园",
        "tel": "",
        "category": "基础设施:公共设施:公共厕所",
        "type": 0,
        "location": {
            "lat": 35.101948,
            "lng": 112.607188
        },
        "ad_info": {
            "adcode": 419001,
            "province": "河南省",
            "city": "",
            "district": "济源市"
        }
    },
    {
        "id": "8014275755346702444",
        "title": "公共厕所",
        "address": "河南省济源市力帆路与科工路交叉口正东方向111米左右",
        "tel": "",
        "category": "基础设施:公共设施:公共厕所",
        "type": 0,
        "location": {
            "lat": 35.046437,
            "lng": 112.62214
        },
        "ad_info": {
            "adcode": 419001,
            "province": "河南省",
            "city": "",
            "district": "济源市"
        }
    },
    {
        "id": "4107289499513846167",
        "title": "公共厕所",
        "address": "河南省济源市邵吉线与黄孤线交叉口东北方向637米左右",
        "tel": "",
        "category": "基础设施:公共设施:公共厕所",
        "type": 0,
        "location": {
            "lat": 35.097144,
            "lng": 112.175605
        },
        "ad_info": {
            "adcode": 419001,
            "province": "河南省",
            "city": "",
            "district": "济源市"
        }
    },
    {
        "id": "4112022704167294354",
        "title": "公共厕所",
        "address": "河南省济源市S307与文化路交叉口西南方向140米左右",
        "tel": "",
        "category": "基础设施:公共设施:公共厕所",
        "type": 0,
        "location": {
            "lat": 35.118076,
            "lng": 112.536072
        },
        "ad_info": {
            "adcode": 419001,
            "province": "河南省",
            "city": "",
            "district": "济源市"
        }
    },
    {
        "id": "8087065142512016410",
        "title": "公共厕所",
        "address": "河南省济源市S243与建设大道交叉口正北方向90米左右",
        "tel": "",
        "category": "基础设施:公共设施:公共厕所",
        "type": 0,
        "location": {
            "lat": 35.11946,
            "lng": 112.579796
        },
        "ad_info": {
            "adcode": 419001,
            "province": "河南省",
            "city": "",
            "district": "济源市"
        }
    },
    {
        "id": "7625454831929423988",
        "title": "公共厕所",
        "address": "河南省济源市宏发路与小浪底路交叉口正东方向76米左右",
        "tel": "",
        "category": "基础设施:公共设施:公共厕所",
        "type": 0,
        "location": {
            "lat": 34.921705,
            "lng": 112.524819
        },
        "ad_info": {
            "adcode": 419001,
            "province": "河南省",
            "city": "",
            "district": "济源市"
        }
    },
    {
        "id": "9280350223395281257",
        "title": "公共厕所",
        "address": "河南省济源市西寺线与邵吉线交叉口西南方向670米左右",
        "tel": "",
        "category": "基础设施:公共设施:公共厕所",
        "type": 0,
        "location": {
            "lat": 34.992475,
            "lng": 112.357236
        },
        "ad_info": {
            "adcode": 419001,
            "province": "河南省",
            "city": "",
            "district": "济源市"
        }
    },
    {
        "id": "4276560911929298105",
        "title": "小浪底北服务区公共厕所",
        "address": "河南省济源市小浪底北服务区与S95济洛高速交叉口东南340米",
        "tel": "",
        "category": "基础设施:公共设施:公共厕所",
        "type": 0,
        "location": {
            "lat": 35.025747,
            "lng": 112.415552
        },
        "ad_info": {
            "adcode": 419001,
            "province": "河南省",
            "city": "",
            "district": "济源市"
        }
    },
    {
        "id": "315413672906098195",
        "title": "公共厕所",
        "address": "河南省济源市文昌路与黄河大道交叉口西南方向93米左右",
        "tel": "",
        "category": "基础设施:公共设施:公共厕所",
        "type": 0,
        "location": {
            "lat": 35.067272,
            "lng": 112.59213
        },
        "ad_info": {
            "adcode": 419001,
            "province": "河南省",
            "city": "",
            "district": "济源市"
        }
    },
    {
        "id": "5803180861172664933",
        "title": "公共厕所",
        "address": "河南省济源市G207与G208交叉口西南方向169米左右",
        "tel": "",
        "category": "基础设施:公共设施:公共厕所",
        "type": 0,
        "location": {
            "lat": 35.177566,
            "lng": 112.709701
        },
        "ad_info": {
            "adcode": 419001,
            "province": "河南省",
            "city": "",
            "district": "济源市"
        }
    },
    {
        "id": "14400087927788373666",
        "title": "公共厕所",
        "address": "河南省济源市Y005与屈东线交叉口正北方向153米左右",
        "tel": "",
        "category": "基础设施:公共设施:公共厕所",
        "type": 0,
        "location": {
            "lat": 35.0512,
            "lng": 112.726328
        },
        "ad_info": {
            "adcode": 419001,
            "province": "河南省",
            "city": "",
            "district": "济源市"
        }
    },
    {
        "id": "5058206674328717484",
        "title": "公共厕所",
        "address": "河南省济源市西寺线",
        "tel": "",
        "category": "基础设施:公共设施:公共厕所",
        "type": 0,
        "location": {
            "lat": 35.121938,
            "lng": 112.322297
        },
        "ad_info": {
            "adcode": 419001,
            "province": "河南省",
            "city": "",
            "district": "济源市"
        }
    },
    {
        "id": "4256246242943736170",
        "title": "公共厕所",
        "address": "河南省济源市G207与S230交叉口西南方向261米左右",
        "tel": "",
        "category": "基础设施:公共设施:公共厕所",
        "type": 0,
        "location": {
            "lat": 35.173408,
            "lng": 112.706719
        },
        "ad_info": {
            "adcode": 419001,
            "province": "河南省",
            "city": "",
            "district": "济源市"
        }
    },
    {
        "id": "9709750679701787734",
        "title": "公共厕所",
        "address": "河南省济源市G208与卫柿线交叉口正西方向401米左右",
        "tel": "",
        "category": "基础设施:公共设施:公共厕所",
        "type": 0,
        "location": {
            "lat": 35.141872,
            "lng": 112.686156
        },
        "ad_info": {
            "adcode": 419001,
            "province": "河南省",
            "city": "",
            "district": "济源市"
        }
    },
    {
        "id": "17517592242410931509",
        "title": "公共厕所",
        "address": "河南省济源市G327与曲阳路交叉口西南方向145米左右",
        "tel": "",
        "category": "基础设施:公共设施:公共厕所",
        "type": 0,
        "location": {
            "lat": 35.097399,
            "lng": 112.502103
        },
        "ad_info": {
            "adcode": 419001,
            "province": "河南省",
            "city": "",
            "district": "济源市"
        }
    },
    {
        "id": "11993637816069957206",
        "title": "公共厕所",
        "address": "河南省济源市园丁路与平安大道交叉口正南方向130米左右",
        "tel": "",
        "category": "基础设施:公共设施:公共厕所",
        "type": 0,
        "location": {
            "lat": 34.923048,
            "lng": 112.524644
        },
        "ad_info": {
            "adcode": 419001,
            "province": "河南省",
            "city": "",
            "district": "济源市"
        }
    },
    {
        "id": "14643572296020596475",
        "title": "公共厕所",
        "address": "河南省济源市济渎大街与龙泉路交叉口正东方向169米左右",
        "tel": "",
        "category": "基础设施:公共设施:公共厕所",
        "type": 0,
        "location": {
            "lat": 35.103575,
            "lng": 112.593065
        },
        "ad_info": {
            "adcode": 419001,
            "province": "河南省",
            "city": "",
            "district": "济源市"
        }
    },
    {
        "id": "13097298822353743122",
        "title": "公共厕所",
        "address": "河南省济源市S240与S245交叉口东北方向127米左右",
        "tel": "",
        "category": "基础设施:公共设施:公共厕所",
        "type": 0,
        "location": {
            "lat": 34.928745,
            "lng": 112.470499
        },
        "ad_info": {
            "adcode": 419001,
            "province": "河南省",
            "city": "",
            "district": "济源市"
        }
    },
    {
        "id": "6649876621103299675",
        "title": "公共厕所",
        "address": "河南省济源市湨河南街与荆梁路交叉口西南方向24米左右",
        "tel": "",
        "category": "基础设施:公共设施:公共厕所",
        "type": 0,
        "location": {
            "lat": 35.082441,
            "lng": 112.577863
        },
        "ad_info": {
            "adcode": 419001,
            "province": "河南省",
            "city": "",
            "district": "济源市"
        }
    },
    {
        "id": "12567711553850157763",
        "title": "公共厕所",
        "address": "河南省济源市渠马线南庄加油站(康村)",
        "tel": "",
        "category": "基础设施:公共设施:公共厕所",
        "type": 0,
        "location": {
            "lat": 35.167111,
            "lng": 112.602645
        },
        "ad_info": {
            "adcode": 419001,
            "province": "河南省",
            "city": "",
            "district": "济源市"
        }
    },
    {
        "id": "16547186357010540336",
        "title": "公共厕所",
        "address": "河南省济源市中华街与新大街交叉口正西方向81米左右",
        "tel": "",
        "category": "基础设施:公共设施:公共厕所",
        "type": 0,
        "location": {
            "lat": 35.033235,
            "lng": 112.201925
        },
        "ad_info": {
            "adcode": 419001,
            "province": "河南省",
            "city": "",
            "district": "济源市"
        }
    },
    {
        "id": "18136718668512563517",
        "title": "公共厕所",
        "address": "河南省济源市平安大街与张家祠南路交叉口正北方向182米左右",
        "tel": "",
        "category": "基础设施:公共设施:公共厕所",
        "type": 0,
        "location": {
            "lat": 35.097166,
            "lng": 112.639322
        },
        "ad_info": {
            "adcode": 419001,
            "province": "河南省",
            "city": "",
            "district": "济源市"
        }
    },
    {
        "id": "10580836066014761078",
        "title": "公共厕所",
        "address": "河南省济源市健康路纸方北四巷与北海大道交叉口正西方向126米左右",
        "tel": "",
        "category": "基础设施:公共设施:公共厕所",
        "type": 0,
        "location": {
            "lat": 35.099839,
            "lng": 112.584226
        },
        "ad_info": {
            "adcode": 419001,
            "province": "河南省",
            "city": "",
            "district": "济源市"
        }
    },
    {
        "id": "3636442184912126338",
        "title": "公共厕所",
        "address": "河南省济源市南环路与汤帝路交叉口正西方向351米左右",
        "tel": "",
        "category": "基础设施:公共设施:公共厕所",
        "type": 0,
        "location": {
            "lat": 35.060502,
            "lng": 112.576005
        },
        "ad_info": {
            "adcode": 419001,
            "province": "河南省",
            "city": "",
            "district": "济源市"
        }
    },
    {
        "id": "11129778075551240705",
        "title": "公共厕所",
        "address": "河南省济源市三旺线与杨上线交叉口正南方向42米左右",
        "tel": "",
        "category": "基础设施:公共设施:公共厕所",
        "type": 0,
        "location": {
            "lat": 35.065689,
            "lng": 112.264055
        },
        "ad_info": {
            "adcode": 419001,
            "province": "河南省",
            "city": "",
            "district": "济源市"
        }
    },
    {
        "id": "14792022286599229476",
        "title": "公共厕所",
        "address": "河南省济源市南环路与文昌路交叉口正南方向143米左右",
        "tel": "",
        "category": "基础设施:公共设施:公共厕所",
        "type": 0,
        "location": {
            "lat": 35.058291,
            "lng": 112.592327
        },
        "ad_info": {
            "adcode": 419001,
            "province": "河南省",
            "city": "",
            "district": "济源市"
        }
    },
    {
        "id": "5599255341780772010",
        "title": "公共厕所",
        "address": "河南省济源市文昌路与济水大街交叉口正南方向163米左右",
        "tel": "",
        "category": "基础设施:公共设施:公共厕所",
        "type": 0,
        "location": {
            "lat": 35.086799,
            "lng": 112.593866
        },
        "ad_info": {
            "adcode": 419001,
            "province": "河南省",
            "city": "",
            "district": "济源市"
        }
    },
    {
        "id": "12167232056569055605",
        "title": "济源南服务区公共厕所",
        "address": "河南省济源市G208与张苏线交叉口西南方向1896米左右",
        "tel": "",
        "category": "基础设施:公共设施:公共厕所",
        "type": 0,
        "location": {
            "lat": 35.010924,
            "lng": 112.628968
        },
        "ad_info": {
            "adcode": 419001,
            "province": "河南省",
            "city": "",
            "district": "济源市"
        }
    },
    {
        "id": "5089458292115239695",
        "title": "公共厕所",
        "address": "河南省济源市S240与渠马线交叉口西南方向54米左右",
        "tel": "",
        "category": "基础设施:公共设施:公共厕所",
        "type": 0,
        "location": {
            "lat": 35.163716,
            "lng": 112.552218
        },
        "ad_info": {
            "adcode": 419001,
            "province": "河南省",
            "city": "",
            "district": "济源市"
        }
    },
    {
        "id": "3709122249265649838",
        "title": "公共厕所",
        "address": "河南省济源市平安大道与青灵路交叉口正南方向259米左右",
        "tel": "",
        "category": "基础设施:公共设施:公共厕所",
        "type": 0,
        "location": {
            "lat": 35.132081,
            "lng": 112.55426
        },
        "ad_info": {
            "adcode": 419001,
            "province": "河南省",
            "city": "",
            "district": "济源市"
        }
    },
    {
        "id": "9107005074831484178",
        "title": "公共厕所",
        "address": "河南省济源市一号线与玉川大道交叉口东南方向429米左右",
        "tel": "",
        "category": "基础设施:公共设施:公共厕所",
        "type": 0,
        "location": {
            "lat": 35.150509,
            "lng": 112.574704
        },
        "ad_info": {
            "adcode": 419001,
            "province": "河南省",
            "city": "",
            "district": "济源市"
        }
    },
    {
        "id": "5401599155316777451",
        "title": "公共卫生间",
        "address": "河南省济源市S240与丰田路交叉口正南方向111米左右",
        "tel": "",
        "category": "基础设施:公共设施:公共厕所",
        "type": 0,
        "location": {
            "lat": 35.130474,
            "lng": 112.562722
        },
        "ad_info": {
            "adcode": 419001,
            "province": "河南省",
            "city": "",
            "district": "济源市"
        }
    },
    {
        "id": "8451297050021500342",
        "title": "济源南服务区公共厕所",
        "address": "河南省济源市G208与张苏线交叉口西南方向1666米左右",
        "tel": "",
        "category": "基础设施:公共设施:公共厕所",
        "type": 0,
        "location": {
            "lat": 35.012137,
            "lng": 112.631079
        },
        "ad_info": {
            "adcode": 419001,
            "province": "河南省",
            "city": "",
            "district": "济源市"
        }
    },
    {
        "id": "12656545026432375877",
        "title": "公共厕所",
        "address": "河南省济源市文化路东一巷与文化路西一巷交叉口正西方向725米左右",
        "tel": "",
        "category": "基础设施:公共设施:公共厕所",
        "type": 0,
        "location": {
            "lat": 35.117686,
            "lng": 112.514879
        },
        "ad_info": {
            "adcode": 419001,
            "province": "河南省",
            "city": "",
            "district": "济源市"
        }
    },
    {
        "id": "16781034753628979865",
        "title": "公共厕所",
        "address": "河南省济源市G208与Y019交叉口西南方向38米左右",
        "tel": "",
        "category": "基础设施:公共设施:公共厕所",
        "type": 0,
        "location": {
            "lat": 35.062865,
            "lng": 112.677953
        },
        "ad_info": {
            "adcode": 419001,
            "province": "河南省",
            "city": "",
            "district": "济源市"
        }
    },
    {
        "id": "1843150778268960624",
        "title": "公共厕所",
        "address": "河南省济源市荆梁北街339号",
        "tel": "",
        "category": "基础设施:公共设施:公共厕所",
        "type": 0,
        "location": {
            "lat": 35.100077,
            "lng": 112.579062
        },
        "ad_info": {
            "adcode": 419001,
            "province": "河南省",
            "city": "",
            "district": "济源市"
        }
    },
    {
        "id": "2498455337774366331",
        "title": "公共厕所",
        "address": "河南省济源市沁园路与济渎大街辅路交叉口西南方向112米",
        "tel": "",
        "category": "基础设施:公共设施:公共厕所",
        "type": 0,
        "location": {
            "lat": 35.101991,
            "lng": 112.606921
        },
        "ad_info": {
            "adcode": 419001,
            "province": "河南省",
            "city": "",
            "district": "济源市"
        }
    },
    {
        "id": "7475423966441014037",
        "title": "公共厕所",
        "address": "河南省济源市健康街与荆梁街交叉口东南方向14米左右",
        "tel": "",
        "category": "基础设施:公共设施:公共厕所",
        "type": 0,
        "location": {
            "lat": 35.096885,
            "lng": 112.580169
        },
        "ad_info": {
            "adcode": 419001,
            "province": "河南省",
            "city": "",
            "district": "济源市"
        }
    },
    {
        "id": "10382879598141775112",
        "title": "公共厕所",
        "address": "河南省济源市文化路与绿色大道交叉口正北方向463米左右",
        "tel": "",
        "category": "基础设施:公共设施:公共厕所",
        "type": 0,
        "location": {
            "lat": 35.133904,
            "lng": 112.539724
        },
        "ad_info": {
            "adcode": 419001,
            "province": "河南省",
            "city": "",
            "district": "济源市"
        }
    },
    {
        "id": "6934660402482889551",
        "title": "公共厕所",
        "address": "河南省济源市G327与温邵线交叉口正北方向508米左右",
        "tel": "",
        "category": "基础设施:公共设施:公共厕所",
        "type": 0,
        "location": {
            "lat": 35.081809,
            "lng": 112.7069
        },
        "ad_info": {
            "adcode": 419001,
            "province": "河南省",
            "city": "",
            "district": "济源市"
        }
    },
    {
        "id": "17658522209488234673",
        "title": "无障碍公共厕所",
        "address": "河南省济源市周园路与西街新村第八巷交叉口正南方向25米左右",
        "tel": "",
        "category": "基础设施:公共设施:公共厕所",
        "type": 0,
        "location": {
            "lat": 35.085913,
            "lng": 112.581657
        },
        "ad_info": {
            "adcode": 419001,
            "province": "河南省",
            "city": "",
            "district": "济源市"
        }
    },
    {
        "id": "18438473346018921194",
        "title": "公共厕所",
        "address": "河南省济源市平安路与秋实街交叉口正西方向92米左右",
        "tel": "",
        "category": "基础设施:公共设施:公共厕所",
        "type": 0,
        "location": {
            "lat": 35.074494,
            "lng": 112.495141
        },
        "ad_info": {
            "adcode": 419001,
            "province": "河南省",
            "city": "",
            "district": "济源市"
        }
    },
    {
        "id": "2950157518442451581",
        "title": "公共厕所",
        "address": "河南省济源市福安花园西侧150米",
        "tel": "",
        "category": "基础设施:公共设施:公共厕所",
        "type": 0,
        "location": {
            "lat": 35.096331,
            "lng": 112.544216
        },
        "ad_info": {
            "adcode": 419001,
            "province": "河南省",
            "city": "",
            "district": "济源市"
        }
    },
    {
        "id": "12805261905709082535",
        "title": "公共厕所",
        "address": "河南省济源市中华街与新大街交叉口东北方向118米左右",
        "tel": "",
        "category": "基础设施:公共设施:公共厕所",
        "type": 0,
        "location": {
            "lat": 35.034327,
            "lng": 112.203431
        },
        "ad_info": {
            "adcode": 419001,
            "province": "河南省",
            "city": "",
            "district": "济源市"
        }
    },
    {
        "id": "11129778075551240705",
        "title": "公共厕所",
        "address": "河南省济源市三旺线与杨上线交叉口正南方向42米左右",
        "tel": "",
        "category": "基础设施:公共设施:公共厕所",
        "type": 0,
        "location": {
            "lat": 35.065689,
            "lng": 112.264055
        },
        "ad_info": {
            "adcode": 419001,
            "province": "河南省",
            "city": "",
            "district": "济源市"
        }
    },
    {
        "id": "14792022286599229476",
        "title": "公共厕所",
        "address": "河南省济源市南环路与文昌路交叉口正南方向143米左右",
        "tel": "",
        "category": "基础设施:公共设施:公共厕所",
        "type": 0,
        "location": {
            "lat": 35.058291,
            "lng": 112.592327
        },
        "ad_info": {
            "adcode": 419001,
            "province": "河南省",
            "city": "",
            "district": "济源市"
        }
    },
    {
        "id": "5599255341780772010",
        "title": "公共厕所",
        "address": "河南省济源市文昌路与济水大街交叉口正南方向163米左右",
        "tel": "",
        "category": "基础设施:公共设施:公共厕所",
        "type": 0,
        "location": {
            "lat": 35.086799,
            "lng": 112.593866
        },
        "ad_info": {
            "adcode": 419001,
            "province": "河南省",
            "city": "",
            "district": "济源市"
        }
    },
    {
        "id": "12167232056569055605",
        "title": "济源南服务区公共厕所",
        "address": "河南省济源市G208与张苏线交叉口西南方向1896米左右",
        "tel": "",
        "category": "基础设施:公共设施:公共厕所",
        "type": 0,
        "location": {
            "lat": 35.010924,
            "lng": 112.628968
        },
        "ad_info": {
            "adcode": 419001,
            "province": "河南省",
            "city": "",
            "district": "济源市"
        }
    },
    {
        "id": "5089458292115239695",
        "title": "公共厕所",
        "address": "河南省济源市S240与渠马线交叉口西南方向54米左右",
        "tel": "",
        "category": "基础设施:公共设施:公共厕所",
        "type": 0,
        "location": {
            "lat": 35.163716,
            "lng": 112.552218
        },
        "ad_info": {
            "adcode": 419001,
            "province": "河南省",
            "city": "",
            "district": "济源市"
        }
    },
    {
        "id": "3709122249265649838",
        "title": "公共厕所",
        "address": "河南省济源市平安大道与青灵路交叉口正南方向259米左右",
        "tel": "",
        "category": "基础设施:公共设施:公共厕所",
        "type": 0,
        "location": {
            "lat": 35.132081,
            "lng": 112.55426
        },
        "ad_info": {
            "adcode": 419001,
            "province": "河南省",
            "city": "",
            "district": "济源市"
        }
    },
    {
        "id": "9107005074831484178",
        "title": "公共厕所",
        "address": "河南省济源市一号线与玉川大道交叉口东南方向429米左右",
        "tel": "",
        "category": "基础设施:公共设施:公共厕所",
        "type": 0,
        "location": {
            "lat": 35.150509,
            "lng": 112.574704
        },
        "ad_info": {
            "adcode": 419001,
            "province": "河南省",
            "city": "",
            "district": "济源市"
        }
    },
    {
        "id": "5401599155316777451",
        "title": "公共卫生间",
        "address": "河南省济源市S240与丰田路交叉口正南方向111米左右",
        "tel": "",
        "category": "基础设施:公共设施:公共厕所",
        "type": 0,
        "location": {
            "lat": 35.130474,
            "lng": 112.562722
        },
        "ad_info": {
            "adcode": 419001,
            "province": "河南省",
            "city": "",
            "district": "济源市"
        }
    },
    {
        "id": "8451297050021500342",
        "title": "济源南服务区公共厕所",
        "address": "河南省济源市G208与张苏线交叉口西南方向1666米左右",
        "tel": "",
        "category": "基础设施:公共设施:公共厕所",
        "type": 0,
        "location": {
            "lat": 35.012137,
            "lng": 112.631079
        },
        "ad_info": {
            "adcode": 419001,
            "province": "河南省",
            "city": "",
            "district": "济源市"
        }
    },
    {
        "id": "12656545026432375877",
        "title": "公共厕所",
        "address": "河南省济源市文化路东一巷与文化路西一巷交叉口正西方向725米左右",
        "tel": "",
        "category": "基础设施:公共设施:公共厕所",
        "type": 0,
        "location": {
            "lat": 35.117686,
            "lng": 112.514879
        },
        "ad_info": {
            "adcode": 419001,
            "province": "河南省",
            "city": "",
            "district": "济源市"
        }
    },
    {
        "id": "16781034753628979865",
        "title": "公共厕所",
        "address": "河南省济源市G208与Y019交叉口西南方向38米左右",
        "tel": "",
        "category": "基础设施:公共设施:公共厕所",
        "type": 0,
        "location": {
            "lat": 35.062865,
            "lng": 112.677953
        },
        "ad_info": {
            "adcode": 419001,
            "province": "河南省",
            "city": "",
            "district": "济源市"
        }
    },
    {
        "id": "1843150778268960624",
        "title": "公共厕所",
        "address": "河南省济源市荆梁北街339号",
        "tel": "",
        "category": "基础设施:公共设施:公共厕所",
        "type": 0,
        "location": {
            "lat": 35.100077,
            "lng": 112.579062
        },
        "ad_info": {
            "adcode": 419001,
            "province": "河南省",
            "city": "",
            "district": "济源市"
        }
    },
    {
        "id": "2498455337774366331",
        "title": "公共厕所",
        "address": "河南省济源市沁园路与济渎大街辅路交叉口西南方向112米",
        "tel": "",
        "category": "基础设施:公共设施:公共厕所",
        "type": 0,
        "location": {
            "lat": 35.101991,
            "lng": 112.606921
        },
        "ad_info": {
            "adcode": 419001,
            "province": "河南省",
            "city": "",
            "district": "济源市"
        }
    },
    {
        "id": "7475423966441014037",
        "title": "公共厕所",
        "address": "河南省济源市健康街与荆梁街交叉口东南方向14米左右",
        "tel": "",
        "category": "基础设施:公共设施:公共厕所",
        "type": 0,
        "location": {
            "lat": 35.096885,
            "lng": 112.580169
        },
        "ad_info": {
            "adcode": 419001,
            "province": "河南省",
            "city": "",
            "district": "济源市"
        }
    },
    {
        "id": "10382879598141775112",
        "title": "公共厕所",
        "address": "河南省济源市文化路与绿色大道交叉口正北方向463米左右",
        "tel": "",
        "category": "基础设施:公共设施:公共厕所",
        "type": 0,
        "location": {
            "lat": 35.133904,
            "lng": 112.539724
        },
        "ad_info": {
            "adcode": 419001,
            "province": "河南省",
            "city": "",
            "district": "济源市"
        }
    },
    {
        "id": "6934660402482889551",
        "title": "公共厕所",
        "address": "河南省济源市G327与温邵线交叉口正北方向508米左右",
        "tel": "",
        "category": "基础设施:公共设施:公共厕所",
        "type": 0,
        "location": {
            "lat": 35.081809,
            "lng": 112.7069
        },
        "ad_info": {
            "adcode": 419001,
            "province": "河南省",
            "city": "",
            "district": "济源市"
        }
    },
    {
        "id": "17658522209488234673",
        "title": "无障碍公共厕所",
        "address": "河南省济源市周园路与西街新村第八巷交叉口正南方向25米左右",
        "tel": "",
        "category": "基础设施:公共设施:公共厕所",
        "type": 0,
        "location": {
            "lat": 35.085913,
            "lng": 112.581657
        },
        "ad_info": {
            "adcode": 419001,
            "province": "河南省",
            "city": "",
            "district": "济源市"
        }
    },
    {
        "id": "18438473346018921194",
        "title": "公共厕所",
        "address": "河南省济源市平安路与秋实街交叉口正西方向92米左右",
        "tel": "",
        "category": "基础设施:公共设施:公共厕所",
        "type": 0,
        "location": {
            "lat": 35.074494,
            "lng": 112.495141
        },
        "ad_info": {
            "adcode": 419001,
            "province": "河南省",
            "city": "",
            "district": "济源市"
        }
    },
    {
        "id": "2950157518442451581",
        "title": "公共厕所",
        "address": "河南省济源市福安花园西侧150米",
        "tel": "",
        "category": "基础设施:公共设施:公共厕所",
        "type": 0,
        "location": {
            "lat": 35.096331,
            "lng": 112.544216
        },
        "ad_info": {
            "adcode": 419001,
            "province": "河南省",
            "city": "",
            "district": "济源市"
        }
    },
    {
        "id": "12805261905709082535",
        "title": "公共厕所",
        "address": "河南省济源市中华街与新大街交叉口东北方向118米左右",
        "tel": "",
        "category": "基础设施:公共设施:公共厕所",
        "type": 0,
        "location": {
            "lat": 35.034327,
            "lng": 112.203431
        },
        "ad_info": {
            "adcode": 419001,
            "province": "河南省",
            "city": "",
            "district": "济源市"
        }
    }
]