[
    {
        "id": "9048985459349756941",
        "title": "洗手间",
        "address": "青海省海东市民和回族土族自治县人民街与双拥路交叉口东北方向104米左右",
        "tel": "",
        "category": "基础设施:公共设施:公共厕所",
        "type": 0,
        "location": {
            "lat": 36.322978,
            "lng": 102.834529
        },
        "ad_info": {
            "adcode": 630222,
            "province": "青海省",
            "city": "海东市",
            "district": "民和回族土族自治县"
        }
    },
    {
        "id": "5197260500202655426",
        "title": "公共厕所",
        "address": "青海省海东市平安区惠民路幸福嘉苑",
        "tel": "",
        "category": "基础设施:公共设施:公共厕所",
        "type": 0,
        "location": {
            "lat": 36.500235,
            "lng": 102.090528
        },
        "ad_info": {
            "adcode": 630203,
            "province": "青海省",
            "city": "海东市",
            "district": "平安区"
        }
    },
    {
        "id": "13766387663198118747",
        "title": "公共厕所",
        "address": "青海省海东市平安区109国道与G6京藏高速出口交叉口西北180米",
        "tel": "",
        "category": "基础设施:公共设施:公共厕所",
        "type": 0,
        "location": {
            "lat": 36.507252,
            "lng": 102.099418
        },
        "ad_info": {
            "adcode": 630203,
            "province": "青海省",
            "city": "海东市",
            "district": "平安区"
        }
    },
    {
        "id": "2875200780419308305",
        "title": "公共厕所",
        "address": "青海省海东市民和回族土族自治县湟水大道与西环路交叉口正南方向92米左右",
        "tel": "",
        "category": "基础设施:公共设施:公共厕所",
        "type": 0,
        "location": {
            "lat": 36.325427,
            "lng": 102.827124
        },
        "ad_info": {
            "adcode": 630222,
            "province": "青海省",
            "city": "海东市",
            "district": "民和回族土族自治县"
        }
    },
    {
        "id": "11395972624859630491",
        "title": "公共厕所",
        "address": "青海省海东市互助土族自治县三合路与高寨大街交叉口东南方向81米左右",
        "tel": "",
        "category": "基础设施:公共设施:公共厕所",
        "type": 0,
        "location": {
            "lat": 36.541949,
            "lng": 101.975899
        },
        "ad_info": {
            "adcode": 630223,
            "province": "青海省",
            "city": "海东市",
            "district": "互助土族自治县"
        }
    },
    {
        "id": "16883721284046143424",
        "title": "公共厕所",
        "address": "青海省海东市民和回族土族自治县史纳新路与西二路交叉口正南方向186米左右",
        "tel": "",
        "category": "基础设施:公共设施:公共厕所",
        "type": 0,
        "location": {
            "lat": 36.336025,
            "lng": 102.787695
        },
        "ad_info": {
            "adcode": 630222,
            "province": "青海省",
            "city": "海东市",
            "district": "民和回族土族自治县"
        }
    },
    {
        "id": "3846613635387310566",
        "title": "公共厕所",
        "address": "青海省海东市互助土族自治县富民巷富民路商业街",
        "tel": "",
        "category": "基础设施:公共设施:公共厕所",
        "type": 0,
        "location": {
            "lat": 36.839365,
            "lng": 101.961608
        },
        "ad_info": {
            "adcode": 630223,
            "province": "青海省",
            "city": "海东市",
            "district": "互助土族自治县"
        }
    },
    {
        "id": "11604906001802097776",
        "title": "公共厕所",
        "address": "青海省海东市平安区平安大道与民和路交叉口西北方向42米左右",
        "tel": "",
        "category": "基础设施:公共设施:公共厕所",
        "type": 0,
        "location": {
            "lat": 36.499611,
            "lng": 102.112173
        },
        "ad_info": {
            "adcode": 630203,
            "province": "青海省",
            "city": "海东市",
            "district": "平安区"
        }
    },
    {
        "id": "3674646255030049241",
        "title": "公共厕所",
        "address": "青海省海东市互助土族自治县东大街与天佑北路交叉口正南方向150米左右",
        "tel": "",
        "category": "基础设施:公共设施:公共厕所",
        "type": 0,
        "location": {
            "lat": 36.833815,
            "lng": 101.958648
        },
        "ad_info": {
            "adcode": 630223,
            "province": "青海省",
            "city": "海东市",
            "district": "互助土族自治县"
        }
    },
    {
        "id": "9937650831106092138",
        "title": "公共厕所",
        "address": "青海省海东市民和回族土族自治县南环街与双拥路交叉口西北方向120米左右",
        "tel": "",
        "category": "基础设施:公共设施:公共厕所",
        "type": 0,
        "location": {
            "lat": 36.317335,
            "lng": 102.829352
        },
        "ad_info": {
            "adcode": 630222,
            "province": "青海省",
            "city": "海东市",
            "district": "民和回族土族自治县"
        }
    },
    {
        "id": "7495066748780576392",
        "title": "公共厕所",
        "address": "青海省海东市平安区滨河路与驿州大道交叉口西北方向114米左右",
        "tel": "",
        "category": "基础设施:公共设施:公共厕所",
        "type": 0,
        "location": {
            "lat": 36.506398,
            "lng": 102.119617
        },
        "ad_info": {
            "adcode": 630203,
            "province": "青海省",
            "city": "海东市",
            "district": "平安区"
        }
    },
    {
        "id": "6557900935949954407",
        "title": "公共卫生间",
        "address": "青海省海东市互助土族自治县南大街与宁互公路交叉口正南方向48米左右",
        "tel": "",
        "category": "基础设施:公共设施:公共厕所",
        "type": 0,
        "location": {
            "lat": 36.832105,
            "lng": 101.950247
        },
        "ad_info": {
            "adcode": 630223,
            "province": "青海省",
            "city": "海东市",
            "district": "互助土族自治县"
        }
    },
    {
        "id": "17312794949228805539",
        "title": "公共厕所",
        "address": "青海省海东市平安区新安路与新平大道交叉口东北方向79米左右",
        "tel": "",
        "category": "基础设施:公共设施:公共厕所",
        "type": 0,
        "location": {
            "lat": 36.503601,
            "lng": 102.090586
        },
        "ad_info": {
            "adcode": 630203,
            "province": "青海省",
            "city": "海东市",
            "district": "平安区"
        }
    },
    {
        "id": "7694170423485668732",
        "title": "洗手间(永录民俗博物馆)",
        "address": "青海省海东市民和回族土族自治县满坪镇大庄村永录民俗博物馆",
        "tel": "",
        "category": "基础设施:公共设施:公共厕所",
        "type": 0,
        "location": {
            "lat": 36.022676,
            "lng": 102.750839
        },
        "ad_info": {
            "adcode": 630222,
            "province": "青海省",
            "city": "海东市",
            "district": "民和回族土族自治县"
        }
    },
    {
        "id": "11434420258447263426",
        "title": "公共厕所",
        "address": "青海省海东市民和回族土族自治县官亭镇喇家村喇家国家考古遗址公园1",
        "tel": "",
        "category": "基础设施:公共设施:公共厕所",
        "type": 0,
        "location": {
            "lat": 35.861703,
            "lng": 102.805749
        },
        "ad_info": {
            "adcode": 630222,
            "province": "青海省",
            "city": "海东市",
            "district": "民和回族土族自治县"
        }
    },
    {
        "id": "16992693761282602590",
        "title": "公共厕所",
        "address": "青海省海东市化隆回族自治县卡日岗路与和政路交叉口西南方向91米左右",
        "tel": "",
        "category": "基础设施:公共设施:公共厕所",
        "type": 0,
        "location": {
            "lat": 36.011962,
            "lng": 102.029843
        },
        "ad_info": {
            "adcode": 630224,
            "province": "青海省",
            "city": "海东市",
            "district": "化隆回族自治县"
        }
    },
    {
        "id": "1922607784092500096",
        "title": "公共厕所",
        "address": "青海省海东市平安区平安大道与平安路交叉口东北方向162米左右",
        "tel": "",
        "category": "基础设施:公共设施:公共厕所",
        "type": 0,
        "location": {
            "lat": 36.502034,
            "lng": 102.108076
        },
        "ad_info": {
            "adcode": 630203,
            "province": "青海省",
            "city": "海东市",
            "district": "平安区"
        }
    },
    {
        "id": "17635163686927921653",
        "title": "公共厕所",
        "address": "青海省海东市民和回族土族自治县马营镇马营小学南侧120米",
        "tel": "",
        "category": "基础设施:公共设施:公共厕所",
        "type": 0,
        "location": {
            "lat": 36.042126,
            "lng": 102.836743
        },
        "ad_info": {
            "adcode": 630222,
            "province": "青海省",
            "city": "海东市",
            "district": "民和回族土族自治县"
        }
    },
    {
        "id": "8045941132969849287",
        "title": "公共厕所",
        "address": "青海省海东市互助土族自治县振兴大道与迎宾大道交叉口正西方向196米左右",
        "tel": "",
        "category": "基础设施:公共设施:公共厕所",
        "type": 0,
        "location": {
            "lat": 36.827713,
            "lng": 101.956884
        },
        "ad_info": {
            "adcode": 630223,
            "province": "青海省",
            "city": "海东市",
            "district": "互助土族自治县"
        }
    },
    {
        "id": "10973689949862315495",
        "title": "公共厕所",
        "address": "青海省海东市互助土族自治县高寨镇西湾村四和撒拉大院西北处",
        "tel": "",
        "category": "基础设施:公共设施:公共厕所",
        "type": 0,
        "location": {
            "lat": 36.549825,
            "lng": 101.966515
        },
        "ad_info": {
            "adcode": 630223,
            "province": "青海省",
            "city": "海东市",
            "district": "互助土族自治县"
        }
    },
    {
        "id": "14915620038103896678",
        "title": "公共厕所",
        "address": "青海省海东市民和回族土族自治县东大街与北大街交叉口正东方向103米左右",
        "tel": "",
        "category": "基础设施:公共设施:公共厕所",
        "type": 0,
        "location": {
            "lat": 36.32897,
            "lng": 102.805726
        },
        "ad_info": {
            "adcode": 630222,
            "province": "青海省",
            "city": "海东市",
            "district": "民和回族土族自治县"
        }
    },
    {
        "id": "664360272638449142",
        "title": "公共厕所",
        "address": "青海省海东市互助土族自治县古井巷与西大街交叉口西北方向256米左右",
        "tel": "",
        "category": "基础设施:公共设施:公共厕所",
        "type": 0,
        "location": {
            "lat": 36.839162,
            "lng": 101.94929
        },
        "ad_info": {
            "adcode": 630223,
            "province": "青海省",
            "city": "海东市",
            "district": "互助土族自治县"
        }
    },
    {
        "id": "3384765509224276043",
        "title": "公共厕所(喇家民俗村)",
        "address": "青海省海东市民和回族土族自治县民俗大院西北侧230米",
        "tel": "",
        "category": "基础设施:公共设施:公共厕所",
        "type": 0,
        "location": {
            "lat": 35.868956,
            "lng": 102.797584
        },
        "ad_info": {
            "adcode": 630222,
            "province": "青海省",
            "city": "海东市",
            "district": "民和回族土族自治县"
        }
    },
    {
        "id": "17776859165427095407",
        "title": "公共厕所",
        "address": "青海省海东市互助土族自治县塞纳北路与振兴大道交叉口东南方向187米左右",
        "tel": "",
        "category": "基础设施:公共设施:公共厕所",
        "type": 0,
        "location": {
            "lat": 36.82494,
            "lng": 101.96103
        },
        "ad_info": {
            "adcode": 630223,
            "province": "青海省",
            "city": "海东市",
            "district": "互助土族自治县"
        }
    },
    {
        "id": "14158420902811654551",
        "title": "公共厕所",
        "address": "青海省海东市互助土族自治县毛斯南路与龙泉路交叉口东北方向146米左右",
        "tel": "",
        "category": "基础设施:公共设施:公共厕所",
        "type": 0,
        "location": {
            "lat": 36.824151,
            "lng": 101.959285
        },
        "ad_info": {
            "adcode": 630223,
            "province": "青海省",
            "city": "海东市",
            "district": "互助土族自治县"
        }
    },
    {
        "id": "16254128414145604952",
        "title": "公共厕所",
        "address": "青海省海东市互助土族自治县东大街与寺壕子路交叉口东南方向117米左右",
        "tel": "",
        "category": "基础设施:公共设施:公共厕所",
        "type": 0,
        "location": {
            "lat": 36.835293,
            "lng": 101.956984
        },
        "ad_info": {
            "adcode": 630223,
            "province": "青海省",
            "city": "海东市",
            "district": "互助土族自治县"
        }
    },
    {
        "id": "568618581807236746",
        "title": "公共厕所",
        "address": "青海省海东市平安区平安商业步行街与湟源路交叉口东北方向48米左右",
        "tel": "",
        "category": "基础设施:公共设施:公共厕所",
        "type": 0,
        "location": {
            "lat": 36.504505,
            "lng": 102.103436
        },
        "ad_info": {
            "adcode": 630203,
            "province": "青海省",
            "city": "海东市",
            "district": "平安区"
        }
    },
    {
        "id": "969024954367969485",
        "title": "公共厕所",
        "address": "青海省海东市民和回族土族自治县南大街与文化街交叉口东北方向63米左右",
        "tel": "",
        "category": "基础设施:公共设施:公共厕所",
        "type": 0,
        "location": {
            "lat": 36.327024,
            "lng": 102.803986
        },
        "ad_info": {
            "adcode": 630222,
            "province": "青海省",
            "city": "海东市",
            "district": "民和回族土族自治县"
        }
    },
    {
        "id": "11587982976412242398",
        "title": "公共卫生间",
        "address": "青海省海东市互助土族自治县东新街与塞纳北路交叉口正东方向152米左右",
        "tel": "",
        "category": "基础设施:公共设施:公共厕所",
        "type": 0,
        "location": {
            "lat": 36.831522,
            "lng": 101.966211
        },
        "ad_info": {
            "adcode": 630223,
            "province": "青海省",
            "city": "海东市",
            "district": "互助土族自治县"
        }
    },
    {
        "id": "15112358695739209538",
        "title": "公共厕所",
        "address": "青海省海东市化隆回族自治县东大街与北大街交叉口东北方向59米左右",
        "tel": "",
        "category": "基础设施:公共设施:公共厕所",
        "type": 0,
        "location": {
            "lat": 36.096883,
            "lng": 102.266281
        },
        "ad_info": {
            "adcode": 630224,
            "province": "青海省",
            "city": "海东市",
            "district": "化隆回族自治县"
        }
    },
    {
        "id": "629664565154086111",
        "title": "公共厕所",
        "address": "青海省海东市循化撒拉族自治县",
        "tel": "",
        "category": "基础设施:公共设施:公共厕所",
        "type": 0,
        "location": {
            "lat": 35.851649,
            "lng": 102.47717
        },
        "ad_info": {
            "adcode": 630225,
            "province": "青海省",
            "city": "海东市",
            "district": "循化撒拉族自治县"
        }
    },
    {
        "id": "627864685331912335",
        "title": "公共厕所",
        "address": "青海省海东市化隆回族自治县安达其哈花海入口唐卡基地门口",
        "tel": "",
        "category": "基础设施:公共设施:公共厕所",
        "type": 0,
        "location": {
            "lat": 36.004794,
            "lng": 101.996556
        },
        "ad_info": {
            "adcode": 630224,
            "province": "青海省",
            "city": "海东市",
            "district": "化隆回族自治县"
        }
    },
    {
        "id": "7801438617992671734",
        "title": "公共厕所",
        "address": "青海省海东市民和回族土族自治县川海大街与文昌路交叉口正北方向110米左右",
        "tel": "",
        "category": "基础设施:公共设施:公共厕所",
        "type": 0,
        "location": {
            "lat": 36.321521,
            "lng": 102.82741
        },
        "ad_info": {
            "adcode": 630222,
            "province": "青海省",
            "city": "海东市",
            "district": "民和回族土族自治县"
        }
    },
    {
        "id": "1423658893999454737",
        "title": "公共厕所",
        "address": "青海省海东市平安区乐都路与平安大道交叉口东北方向71米左右",
        "tel": "",
        "category": "基础设施:公共设施:公共厕所",
        "type": 0,
        "location": {
            "lat": 36.500642,
            "lng": 102.109885
        },
        "ad_info": {
            "adcode": 630203,
            "province": "青海省",
            "city": "海东市",
            "district": "平安区"
        }
    },
    {
        "id": "17660402804757394720",
        "title": "公共厕所",
        "address": "青海省海东市互助土族自治县彩虹路153号",
        "tel": "",
        "category": "基础设施:公共设施:公共厕所",
        "type": 0,
        "location": {
            "lat": 36.83484,
            "lng": 101.939589
        },
        "ad_info": {
            "adcode": 630223,
            "province": "青海省",
            "city": "海东市",
            "district": "互助土族自治县"
        }
    },
    {
        "id": "15995507630750258753",
        "title": "公共厕所",
        "address": "青海省海东市循化撒拉族自治县安馨之家内部",
        "tel": "",
        "category": "基础设施:公共设施:公共厕所",
        "type": 0,
        "location": {
            "lat": 35.853252,
            "lng": 102.432167
        },
        "ad_info": {
            "adcode": 630225,
            "province": "青海省",
            "city": "海东市",
            "district": "循化撒拉族自治县"
        }
    },
    {
        "id": "18360654735785434127",
        "title": "公共厕所",
        "address": "青海省海东市互助土族自治县佑宁东路与桦林路交叉口西南方向155米左右",
        "tel": "",
        "category": "基础设施:公共设施:公共厕所",
        "type": 0,
        "location": {
            "lat": 36.824436,
            "lng": 101.969277
        },
        "ad_info": {
            "adcode": 630223,
            "province": "青海省",
            "city": "海东市",
            "district": "互助土族自治县"
        }
    },
    {
        "id": "3811521370055240414",
        "title": "公共厕所",
        "address": "青海省海东市平安区古城大道与杨家路交叉口西南方向41米左右",
        "tel": "",
        "category": "基础设施:公共设施:公共厕所",
        "type": 0,
        "location": {
            "lat": 36.497489,
            "lng": 102.095152
        },
        "ad_info": {
            "adcode": 630203,
            "province": "青海省",
            "city": "海东市",
            "district": "平安区"
        }
    },
    {
        "id": "12848623600801359779",
        "title": "公共厕所",
        "address": "青海省海东市平安区古驿大道与平安路交叉口正东方向77米左右",
        "tel": "",
        "category": "基础设施:公共设施:公共厕所",
        "type": 0,
        "location": {
            "lat": 36.5039,
            "lng": 102.109291
        },
        "ad_info": {
            "adcode": 630203,
            "province": "青海省",
            "city": "海东市",
            "district": "平安区"
        }
    },
    {
        "id": "2342091893571653409",
        "title": "公共厕所",
        "address": "青海省海东市平安区互助北路与古驿大道交叉口西北方向73米左右",
        "tel": "",
        "category": "基础设施:公共设施:公共厕所",
        "type": 0,
        "location": {
            "lat": 36.507357,
            "lng": 102.094894
        },
        "ad_info": {
            "adcode": 630203,
            "province": "青海省",
            "city": "海东市",
            "district": "平安区"
        }
    },
    {
        "id": "1500227864913491264",
        "title": "公共厕所",
        "address": "青海省海东市平安区京拉线中国石油",
        "tel": "",
        "category": "基础设施:公共设施:公共厕所",
        "type": 0,
        "location": {
            "lat": 36.498631,
            "lng": 102.128372
        },
        "ad_info": {
            "adcode": 630203,
            "province": "青海省",
            "city": "海东市",
            "district": "平安区"
        }
    },
    {
        "id": "15487580401297443729",
        "title": "公共厕所",
        "address": "青海省海东市循化撒拉族自治县民族大道与骆驼泉路交叉口正东方向171米左右",
        "tel": "",
        "category": "基础设施:公共设施:公共厕所",
        "type": 0,
        "location": {
            "lat": 35.854765,
            "lng": 102.430966
        },
        "ad_info": {
            "adcode": 630225,
            "province": "青海省",
            "city": "海东市",
            "district": "循化撒拉族自治县"
        }
    },
    {
        "id": "2394162244394996736",
        "title": "公共厕所",
        "address": "青海省海东市互助土族自治县西大街1号",
        "tel": "",
        "category": "基础设施:公共设施:公共厕所",
        "type": 0,
        "location": {
            "lat": 36.837806,
            "lng": 101.952636
        },
        "ad_info": {
            "adcode": 630223,
            "province": "青海省",
            "city": "海东市",
            "district": "互助土族自治县"
        }
    },
    {
        "id": "2777213191139950006",
        "title": "公共卫生间",
        "address": "青海省海东市平安区新平大道与民和路交叉口西南方向58米左右",
        "tel": "",
        "category": "基础设施:公共设施:公共厕所",
        "type": 0,
        "location": {
            "lat": 36.496656,
            "lng": 102.11089
        },
        "ad_info": {
            "adcode": 630203,
            "province": "青海省",
            "city": "海东市",
            "district": "平安区"
        }
    },
    {
        "id": "13414906201241296415",
        "title": "公共厕所",
        "address": "青海省海东市互助土族自治县东和乡油嘴湾景区(景区内部)",
        "tel": "",
        "category": "基础设施:公共设施:公共厕所",
        "type": 0,
        "location": {
            "lat": 36.891558,
            "lng": 102.031241
        },
        "ad_info": {
            "adcode": 630223,
            "province": "青海省",
            "city": "海东市",
            "district": "互助土族自治县"
        }
    },
    {
        "id": "11116001437265705279",
        "title": "公共厕所",
        "address": "青海省海东市互助土族自治县257乡道",
        "tel": "",
        "category": "基础设施:公共设施:公共厕所",
        "type": 0,
        "location": {
            "lat": 36.856507,
            "lng": 102.022727
        },
        "ad_info": {
            "adcode": 630223,
            "province": "青海省",
            "city": "海东市",
            "district": "互助土族自治县"
        }
    },
    {
        "id": "9127059848312632904",
        "title": "公共厕所",
        "address": "青海省海东市平安区G109与古瓦公路交叉口正东方向109米左右",
        "tel": "",
        "category": "基础设施:公共设施:公共厕所",
        "type": 0,
        "location": {
            "lat": 36.508135,
            "lng": 102.075324
        },
        "ad_info": {
            "adcode": 630203,
            "province": "青海省",
            "city": "海东市",
            "district": "平安区"
        }
    },
    {
        "id": "14564349638535851254",
        "title": "公共厕所",
        "address": "青海省海东市民和回族土族自治县西沟镇凉平村游客接待中心",
        "tel": "",
        "category": "基础设施:公共设施:公共厕所",
        "type": 0,
        "location": {
            "lat": 36.177052,
            "lng": 102.661407
        },
        "ad_info": {
            "adcode": 630222,
            "province": "青海省",
            "city": "海东市",
            "district": "民和回族土族自治县"
        }
    },
    {
        "id": "3512664034339759093",
        "title": "公共厕所",
        "address": "青海省海东市民和回族土族自治县自由南街与西大街交叉口正西方向33米左右",
        "tel": "",
        "category": "基础设施:公共设施:公共厕所",
        "type": 0,
        "location": {
            "lat": 36.329087,
            "lng": 102.802591
        },
        "ad_info": {
            "adcode": 630222,
            "province": "青海省",
            "city": "海东市",
            "district": "民和回族土族自治县"
        }
    },
    {
        "id": "11655998905960795766",
        "title": "公共厕所",
        "address": "青海省海东市互助土族自治县佑宁东路与民安北路交叉口西南方向97米左右",
        "tel": "",
        "category": "基础设施:公共设施:公共厕所",
        "type": 0,
        "location": {
            "lat": 36.826236,
            "lng": 101.96721
        },
        "ad_info": {
            "adcode": 630223,
            "province": "青海省",
            "city": "海东市",
            "district": "互助土族自治县"
        }
    },
    {
        "id": "5893525153621288856",
        "title": "公共厕所",
        "address": "青海省海东市平安区上红庄路与驿州路交叉口正南方向113米左右",
        "tel": "",
        "category": "基础设施:公共设施:公共厕所",
        "type": 0,
        "location": {
            "lat": 36.505805,
            "lng": 102.043771
        },
        "ad_info": {
            "adcode": 630203,
            "province": "青海省",
            "city": "海东市",
            "district": "平安区"
        }
    },
    {
        "id": "12112960085021660730",
        "title": "公共厕所",
        "address": "青海省海东市平安区下店路与和顺路交叉口东北方向41米左右",
        "tel": "",
        "category": "基础设施:公共设施:公共厕所",
        "type": 0,
        "location": {
            "lat": 36.505278,
            "lng": 102.041485
        },
        "ad_info": {
            "adcode": 630203,
            "province": "青海省",
            "city": "海东市",
            "district": "平安区"
        }
    },
    {
        "id": "1641960331490187166",
        "title": "公共厕所",
        "address": "青海省海东市平安区古城大道与安夷路交叉口正东方向79米左右",
        "tel": "",
        "category": "基础设施:公共设施:公共厕所",
        "type": 0,
        "location": {
            "lat": 36.497948,
            "lng": 102.091513
        },
        "ad_info": {
            "adcode": 630203,
            "province": "青海省",
            "city": "海东市",
            "district": "平安区"
        }
    },
    {
        "id": "3880819828895119630",
        "title": "公共厕所",
        "address": "青海省海东市循化撒拉族自治县310国道与积石大街交叉口东40米",
        "tel": "",
        "category": "基础设施:公共设施:公共厕所",
        "type": 0,
        "location": {
            "lat": 35.849842,
            "lng": 102.476088
        },
        "ad_info": {
            "adcode": 630225,
            "province": "青海省",
            "city": "海东市",
            "district": "循化撒拉族自治县"
        }
    },
    {
        "id": "13860227025216293872",
        "title": "公共厕所",
        "address": "青海省海东市互助土族自治县西部故土园",
        "tel": "",
        "category": "基础设施:公共设施:公共厕所",
        "type": 0,
        "location": {
            "lat": 36.837597,
            "lng": 101.942744
        },
        "ad_info": {
            "adcode": 630223,
            "province": "青海省",
            "city": "海东市",
            "district": "互助土族自治县"
        }
    },
    {
        "id": "10502791399737774587",
        "title": "公共厕所",
        "address": "青海省海东市循化撒拉族自治县G310与S201交叉口西北方向241米左右",
        "tel": "",
        "category": "基础设施:公共设施:公共厕所",
        "type": 0,
        "location": {
            "lat": 35.873399,
            "lng": 102.242028
        },
        "ad_info": {
            "adcode": 630225,
            "province": "青海省",
            "city": "海东市",
            "district": "循化撒拉族自治县"
        }
    },
    {
        "id": "13434000814617518713",
        "title": "公共厕所",
        "address": "青海省海东市化隆回族自治县堪达佛学院侧",
        "tel": "",
        "category": "基础设施:公共设施:公共厕所",
        "type": 0,
        "location": {
            "lat": 36.273202,
            "lng": 101.762883
        },
        "ad_info": {
            "adcode": 630224,
            "province": "青海省",
            "city": "海东市",
            "district": "化隆回族自治县"
        }
    },
    {
        "id": "9438422874715589859",
        "title": "公共厕所",
        "address": "青海省海东市互助土族自治县迎宾大道安居小区",
        "tel": "",
        "category": "基础设施:公共设施:公共厕所",
        "type": 0,
        "location": {
            "lat": 36.832808,
            "lng": 101.965087
        },
        "ad_info": {
            "adcode": 630223,
            "province": "青海省",
            "city": "海东市",
            "district": "互助土族自治县"
        }
    },
    {
        "id": "2895856281613729960",
        "title": "公共厕所",
        "address": "青海省海东市平安区南环路与惠民路交叉口正南方向97米左右",
        "tel": "",
        "category": "基础设施:公共设施:公共厕所",
        "type": 0,
        "location": {
            "lat": 36.499146,
            "lng": 102.088007
        },
        "ad_info": {
            "adcode": 630203,
            "province": "青海省",
            "city": "海东市",
            "district": "平安区"
        }
    },
    {
        "id": "8481193655951741055",
        "title": "公共厕所",
        "address": "青海省海东市平安区平安路与新平大道交叉口正南方向83米左右",
        "tel": "",
        "category": "基础设施:公共设施:公共厕所",
        "type": 0,
        "location": {
            "lat": 36.497805,
            "lng": 102.106173
        },
        "ad_info": {
            "adcode": 630203,
            "province": "青海省",
            "city": "海东市",
            "district": "平安区"
        }
    },
    {
        "id": "17662370460188595372",
        "title": "公共厕所",
        "address": "青海省海东市互助土族自治县北大街与新安东路交叉口正南方向176米左右",
        "tel": "",
        "category": "基础设施:公共设施:公共厕所",
        "type": 0,
        "location": {
            "lat": 36.840341,
            "lng": 101.956476
        },
        "ad_info": {
            "adcode": 630223,
            "province": "青海省",
            "city": "海东市",
            "district": "互助土族自治县"
        }
    },
    {
        "id": "16441191698950983513",
        "title": "公共厕所",
        "address": "青海省海东市民和回族土族自治县G310与临大路交叉口东北方向291米左右",
        "tel": "",
        "category": "基础设施:公共设施:公共厕所",
        "type": 0,
        "location": {
            "lat": 35.844012,
            "lng": 102.762107
        },
        "ad_info": {
            "adcode": 630222,
            "province": "青海省",
            "city": "海东市",
            "district": "民和回族土族自治县"
        }
    },
    {
        "id": "267499381549878323",
        "title": "公共厕所",
        "address": "青海省海东市循化撒拉族自治县南环路与迎宾南路交叉口西南方向39米左右",
        "tel": "",
        "category": "基础设施:公共设施:公共厕所",
        "type": 0,
        "location": {
            "lat": 35.846052,
            "lng": 102.483252
        },
        "ad_info": {
            "adcode": 630225,
            "province": "青海省",
            "city": "海东市",
            "district": "循化撒拉族自治县"
        }
    },
    {
        "id": "5937844264962711694",
        "title": "公共厕所",
        "address": "青海省海东市互助土族自治县毛斯南路与龙泉路交叉口正东方向71米左右",
        "tel": "",
        "category": "基础设施:公共设施:公共厕所",
        "type": 0,
        "location": {
            "lat": 36.823727,
            "lng": 101.958571
        },
        "ad_info": {
            "adcode": 630223,
            "province": "青海省",
            "city": "海东市",
            "district": "互助土族自治县"
        }
    },
    {
        "id": "14063499663197738907",
        "title": "公共厕所",
        "address": "青海省海东市互助土族自治县025乡道",
        "tel": "",
        "category": "基础设施:公共设施:公共厕所",
        "type": 0,
        "location": {
            "lat": 37.066091,
            "lng": 101.900366
        },
        "ad_info": {
            "adcode": 630223,
            "province": "青海省",
            "city": "海东市",
            "district": "互助土族自治县"
        }
    },
    {
        "id": "16977758546761738420",
        "title": "公共厕所",
        "address": "青海省海东市互助土族自治县天佑德大道与酒城南路交叉口正西方向121米左右",
        "tel": "",
        "category": "基础设施:公共设施:公共厕所",
        "type": 0,
        "location": {
            "lat": 36.83285,
            "lng": 101.94571
        },
        "ad_info": {
            "adcode": 630223,
            "province": "青海省",
            "city": "海东市",
            "district": "互助土族自治县"
        }
    },
    {
        "id": "3444986242955014278",
        "title": "公共厕所",
        "address": "青海省海东市互助土族自治县互助南互通与吐谷浑大道交叉口西北方向150米左右",
        "tel": "",
        "category": "基础设施:公共设施:公共厕所",
        "type": 0,
        "location": {
            "lat": 36.822562,
            "lng": 101.953163
        },
        "ad_info": {
            "adcode": 630223,
            "province": "青海省",
            "city": "海东市",
            "district": "互助土族自治县"
        }
    },
    {
        "id": "18443244073378536057",
        "title": "公共厕所",
        "address": "青海省海东市互助土族自治县加西高速与西互高速交叉口正北方向687米左右",
        "tel": "",
        "category": "基础设施:公共设施:公共厕所",
        "type": 0,
        "location": {
            "lat": 36.89528,
            "lng": 102.038626
        },
        "ad_info": {
            "adcode": 630223,
            "province": "青海省",
            "city": "海东市",
            "district": "互助土族自治县"
        }
    },
    {
        "id": "16514046337246797465",
        "title": "公共厕所",
        "address": "青海省海东市循化撒拉族自治县天池北路与天池南路交叉口正西方向26米左右",
        "tel": "",
        "category": "基础设施:公共设施:公共厕所",
        "type": 0,
        "location": {
            "lat": 35.846904,
            "lng": 102.488376
        },
        "ad_info": {
            "adcode": 630225,
            "province": "青海省",
            "city": "海东市",
            "district": "循化撒拉族自治县"
        }
    },
    {
        "id": "7161322963725114217",
        "title": "公共厕所",
        "address": "青海省海东市互助土族自治县安定西路与毛斯北路交叉口正北方向27米左右",
        "tel": "",
        "category": "基础设施:公共设施:公共厕所",
        "type": 0,
        "location": {
            "lat": 36.835393,
            "lng": 101.967748
        },
        "ad_info": {
            "adcode": 630223,
            "province": "青海省",
            "city": "海东市",
            "district": "互助土族自治县"
        }
    },
    {
        "id": "17591588092662022426",
        "title": "公共厕所",
        "address": "青海省海东市互助土族自治县北大街与新安东路交叉口正西方向119米左右",
        "tel": "",
        "category": "基础设施:公共设施:公共厕所",
        "type": 0,
        "location": {
            "lat": 36.842261,
            "lng": 101.955438
        },
        "ad_info": {
            "adcode": 630223,
            "province": "青海省",
            "city": "海东市",
            "district": "互助土族自治县"
        }
    },
    {
        "id": "8415413727442695785",
        "title": "公共厕所",
        "address": "青海省海东市互助土族自治县威北公路与岗青公路交叉口正东方向229米左右",
        "tel": "",
        "category": "基础设施:公共设施:公共厕所",
        "type": 0,
        "location": {
            "lat": 36.952728,
            "lng": 102.485328
        },
        "ad_info": {
            "adcode": 630223,
            "province": "青海省",
            "city": "海东市",
            "district": "互助土族自治县"
        }
    },
    {
        "id": "4824277334489700431",
        "title": "公共厕所",
        "address": "青海省海东市互助土族自治县佑宁西路与南大街交叉口正西方向34米左右",
        "tel": "",
        "category": "基础设施:公共设施:公共厕所",
        "type": 0,
        "location": {
            "lat": 36.834114,
            "lng": 101.950901
        },
        "ad_info": {
            "adcode": 630223,
            "province": "青海省",
            "city": "海东市",
            "district": "互助土族自治县"
        }
    },
    {
        "id": "16721066782932383622",
        "title": "公共厕所",
        "address": "青海省海东市民和回族土族自治县川亭公路与川大高速交叉口正北方向961米左右",
        "tel": "",
        "category": "基础设施:公共设施:公共厕所",
        "type": 0,
        "location": {
            "lat": 36.232581,
            "lng": 102.767827
        },
        "ad_info": {
            "adcode": 630222,
            "province": "青海省",
            "city": "海东市",
            "district": "民和回族土族自治县"
        }
    },
    {
        "id": "16149623414094745550",
        "title": "公共厕所",
        "address": "青海省海东市民和回族土族自治县京藏高速与马场垣互通立交桥交叉口东北方向1357米左右",
        "tel": "",
        "category": "基础设施:公共设施:公共厕所",
        "type": 0,
        "location": {
            "lat": 36.33035,
            "lng": 102.892953
        },
        "ad_info": {
            "adcode": 630222,
            "province": "青海省",
            "city": "海东市",
            "district": "民和回族土族自治县"
        }
    },
    {
        "id": "3376337909078635695",
        "title": "公共厕所",
        "address": "青海省海东市互助土族自治县东新街与塞纳北路交叉口东南方向247米左右",
        "tel": "",
        "category": "基础设施:公共设施:公共厕所",
        "type": 0,
        "location": {
            "lat": 36.83082,
            "lng": 101.966988
        },
        "ad_info": {
            "adcode": 630223,
            "province": "青海省",
            "city": "海东市",
            "district": "互助土族自治县"
        }
    },
    {
        "id": "3391578285428078429",
        "title": "公共厕所",
        "address": "青海省海东市循化撒拉族自治县查汗都斯乡卫生院隔壁",
        "tel": "",
        "category": "基础设施:公共设施:公共厕所",
        "type": 0,
        "location": {
            "lat": 35.852742,
            "lng": 102.29928
        },
        "ad_info": {
            "adcode": 630225,
            "province": "青海省",
            "city": "海东市",
            "district": "循化撒拉族自治县"
        }
    },
    {
        "id": "13726793035321698928",
        "title": "公共厕所",
        "address": "青海省海东市互助土族自治县南大街与宁互公路交叉口正西方向112米左右",
        "tel": "",
        "category": "基础设施:公共设施:公共厕所",
        "type": 0,
        "location": {
            "lat": 36.832734,
            "lng": 101.948858
        },
        "ad_info": {
            "adcode": 630223,
            "province": "青海省",
            "city": "海东市",
            "district": "互助土族自治县"
        }
    },
    {
        "id": "2723055498034552171",
        "title": "公共厕所",
        "address": "青海省海东市乐都区朝阳大道与海东大道交叉口正南方向377米左右",
        "tel": "",
        "category": "基础设施:公共设施:公共厕所",
        "type": 0,
        "location": {
            "lat": 36.474959,
            "lng": 102.354139
        },
        "ad_info": {
            "adcode": 630202,
            "province": "青海省",
            "city": "海东市",
            "district": "乐都区"
        }
    },
    {
        "id": "8054531198123079760",
        "title": "公共厕所",
        "address": "青海省海东市民和回族土族自治县南大街与自由南街交叉口西南方向171米左右",
        "tel": "",
        "category": "基础设施:公共设施:公共厕所",
        "type": 0,
        "location": {
            "lat": 36.324918,
            "lng": 102.801726
        },
        "ad_info": {
            "adcode": 630222,
            "province": "青海省",
            "city": "海东市",
            "district": "民和回族土族自治县"
        }
    },
    {
        "id": "16259691235754605863",
        "title": "公共厕所",
        "address": "青海省海东市平安区G109与古驿大道交叉口西北方向133米左右",
        "tel": "",
        "category": "基础设施:公共设施:公共厕所",
        "type": 0,
        "location": {
            "lat": 36.507841,
            "lng": 102.082651
        },
        "ad_info": {
            "adcode": 630203,
            "province": "青海省",
            "city": "海东市",
            "district": "平安区"
        }
    },
    {
        "id": "13520082447849075951",
        "title": "洗手间",
        "address": "青海省海东市互助土族自治县南大街12-18号",
        "tel": "",
        "category": "基础设施:公共设施:公共厕所",
        "type": 0,
        "location": {
            "lat": 36.835626,
            "lng": 101.952463
        },
        "ad_info": {
            "adcode": 630223,
            "province": "青海省",
            "city": "海东市",
            "district": "互助土族自治县"
        }
    },
    {
        "id": "9647023510064809047",
        "title": "公共厕所",
        "address": "青海省海东市化隆回族自治县医院路与建设路交叉口东南方向63米左右",
        "tel": "",
        "category": "基础设施:公共设施:公共厕所",
        "type": 0,
        "location": {
            "lat": 36.097533,
            "lng": 102.261197
        },
        "ad_info": {
            "adcode": 630224,
            "province": "青海省",
            "city": "海东市",
            "district": "化隆回族自治县"
        }
    },
    {
        "id": "9135896664351860630",
        "title": "公共厕所",
        "address": "青海省海东市化隆回族自治县S202与建设路交叉口正东方向74米左右",
        "tel": "",
        "category": "基础设施:公共设施:公共厕所",
        "type": 0,
        "location": {
            "lat": 36.105474,
            "lng": 102.252559
        },
        "ad_info": {
            "adcode": 630224,
            "province": "青海省",
            "city": "海东市",
            "district": "化隆回族自治县"
        }
    },
    {
        "id": "6723787146099324472",
        "title": "公共厕所",
        "address": "青海省海东市乐都区引胜路172号朝阳山公园停车场内",
        "tel": "",
        "category": "基础设施:公共设施:公共厕所",
        "type": 0,
        "location": {
            "lat": 36.492726,
            "lng": 102.406888
        },
        "ad_info": {
            "adcode": 630202,
            "province": "青海省",
            "city": "海东市",
            "district": "乐都区"
        }
    },
    {
        "id": "11397462200471554794",
        "title": "公共厕所",
        "address": "青海省海东市平安区古城崖路与和顺路交叉口正南方向195米左右",
        "tel": "",
        "category": "基础设施:公共设施:公共厕所",
        "type": 0,
        "location": {
            "lat": 36.501591,
            "lng": 102.05418
        },
        "ad_info": {
            "adcode": 630203,
            "province": "青海省",
            "city": "海东市",
            "district": "平安区"
        }
    },
    {
        "id": "14519619016190592224",
        "title": "公共厕所",
        "address": "青海省海东市互助土族自治县彩虹大道与新陈线交叉口西北方向85米左右",
        "tel": "",
        "category": "基础设施:公共设施:公共厕所",
        "type": 0,
        "location": {
            "lat": 36.838079,
            "lng": 101.938484
        },
        "ad_info": {
            "adcode": 630223,
            "province": "青海省",
            "city": "海东市",
            "district": "互助土族自治县"
        }
    },
    {
        "id": "6685195448285017034",
        "title": "公共厕所",
        "address": "青海省海东市互助土族自治县凤池路与迎宾大道交叉口正西方向133米左右",
        "tel": "",
        "category": "基础设施:公共设施:公共厕所",
        "type": 0,
        "location": {
            "lat": 36.824214,
            "lng": 101.955478
        },
        "ad_info": {
            "adcode": 630223,
            "province": "青海省",
            "city": "海东市",
            "district": "互助土族自治县"
        }
    },
    {
        "id": "1037318036179238780",
        "title": "公共厕所",
        "address": "青海省海东市化隆回族自治县G213与S203交叉口正西方向948米左右",
        "tel": "",
        "category": "基础设施:公共设施:公共厕所",
        "type": 0,
        "location": {
            "lat": 36.041082,
            "lng": 101.983823
        },
        "ad_info": {
            "adcode": 630224,
            "province": "青海省",
            "city": "海东市",
            "district": "化隆回族自治县"
        }
    },
    {
        "id": "5874618434966082151",
        "title": "公共厕所",
        "address": "青海省海东市乐都区北门路与湟水路交叉口西南方向255米左右",
        "tel": "",
        "category": "基础设施:公共设施:公共厕所",
        "type": 0,
        "location": {
            "lat": 36.488692,
            "lng": 102.393913
        },
        "ad_info": {
            "adcode": 630202,
            "province": "青海省",
            "city": "海东市",
            "district": "乐都区"
        }
    },
    {
        "id": "18322359730957347196",
        "title": "公共厕所",
        "address": "青海省海东市互助土族自治县X248",
        "tel": "",
        "category": "基础设施:公共设施:公共厕所",
        "type": 0,
        "location": {
            "lat": 36.976217,
            "lng": 101.872132
        },
        "ad_info": {
            "adcode": 630223,
            "province": "青海省",
            "city": "海东市",
            "district": "互助土族自治县"
        }
    },
    {
        "id": "16391975070993028167",
        "title": "公共厕所",
        "address": "青海省海东市乐都区南凉大街与海东大道交叉口东南方向144米左右",
        "tel": "",
        "category": "基础设施:公共设施:公共厕所",
        "type": 0,
        "location": {
            "lat": 36.474521,
            "lng": 102.385802
        },
        "ad_info": {
            "adcode": 630202,
            "province": "青海省",
            "city": "海东市",
            "district": "乐都区"
        }
    },
    {
        "id": "14868780070297638710",
        "title": "公共厕所",
        "address": "青海省海东市化隆回族自治县203省道西50米",
        "tel": "",
        "category": "基础设施:公共设施:公共厕所",
        "type": 0,
        "location": {
            "lat": 35.968293,
            "lng": 102.039908
        },
        "ad_info": {
            "adcode": 630224,
            "province": "青海省",
            "city": "海东市",
            "district": "化隆回族自治县"
        }
    },
    {
        "id": "138160257325079024",
        "title": "公共厕所",
        "address": "青海省海东市民和回族土族自治县川亭公路与川大高速交叉口正北方向322米左右",
        "tel": "",
        "category": "基础设施:公共设施:公共厕所",
        "type": 0,
        "location": {
            "lat": 36.293591,
            "lng": 102.78846
        },
        "ad_info": {
            "adcode": 630222,
            "province": "青海省",
            "city": "海东市",
            "district": "民和回族土族自治县"
        }
    },
    {
        "id": "2042185314901974503",
        "title": "公共厕所",
        "address": "青海省海东市循化撒拉族自治县310国道与积石大街交叉口东南220米",
        "tel": "",
        "category": "基础设施:公共设施:公共厕所",
        "type": 0,
        "location": {
            "lat": 35.840102,
            "lng": 102.495134
        },
        "ad_info": {
            "adcode": 630225,
            "province": "青海省",
            "city": "海东市",
            "district": "循化撒拉族自治县"
        }
    },
    {
        "id": "11025959738915340466",
        "title": "公共厕所",
        "address": "青海省海东市乐都区南门台中段靠东侧",
        "tel": "",
        "category": "基础设施:公共设施:公共厕所",
        "type": 0,
        "location": {
            "lat": 36.480619,
            "lng": 102.400786
        },
        "ad_info": {
            "adcode": 630202,
            "province": "青海省",
            "city": "海东市",
            "district": "乐都区"
        }
    },
    {
        "id": "3180735487236423465",
        "title": "公共厕所",
        "address": "青海省海东市乐都区海东大道与祥瑞大街交叉口正南方向159米左右",
        "tel": "",
        "category": "基础设施:公共设施:公共厕所",
        "type": 0,
        "location": {
            "lat": 36.47598,
            "lng": 102.372723
        },
        "ad_info": {
            "adcode": 630202,
            "province": "青海省",
            "city": "海东市",
            "district": "乐都区"
        }
    },
    {
        "id": "10844706554289427747",
        "title": "公共厕所",
        "address": "青海省海东市乐都区滨河南路与规划二路交叉口正东方向23米左右",
        "tel": "",
        "category": "基础设施:公共设施:公共厕所",
        "type": 0,
        "location": {
            "lat": 36.480056,
            "lng": 102.377422
        },
        "ad_info": {
            "adcode": 630202,
            "province": "青海省",
            "city": "海东市",
            "district": "乐都区"
        }
    },
    {
        "id": "1957181364531892051",
        "title": "公共厕所",
        "address": "青海省海东市乐都区饮食城门前",
        "tel": "",
        "category": "基础设施:公共设施:公共厕所",
        "type": 0,
        "location": {
            "lat": 36.479915,
            "lng": 102.402338
        },
        "ad_info": {
            "adcode": 630202,
            "province": "青海省",
            "city": "海东市",
            "district": "乐都区"
        }
    },
    {
        "id": "12797508691677397826",
        "title": "公共厕所",
        "address": "青海省海东市乐都区祥福路19-20号",
        "tel": "",
        "category": "基础设施:公共设施:公共厕所",
        "type": 0,
        "location": {
            "lat": 36.477802,
            "lng": 102.369953
        },
        "ad_info": {
            "adcode": 630202,
            "province": "青海省",
            "city": "海东市",
            "district": "乐都区"
        }
    },
    {
        "id": "16639805768700104879",
        "title": "公共厕所",
        "address": "青海省海东市乐都区西关街68号",
        "tel": "",
        "category": "基础设施:公共设施:公共厕所",
        "type": 0,
        "location": {
            "lat": 36.481612,
            "lng": 102.393982
        },
        "ad_info": {
            "adcode": 630202,
            "province": "青海省",
            "city": "海东市",
            "district": "乐都区"
        }
    },
    {
        "id": "7197241216670415065",
        "title": "公共厕所",
        "address": "青海省海东市乐都区海东大道与祥瑞大街交叉口正西方向205米左右",
        "tel": "",
        "category": "基础设施:公共设施:公共厕所",
        "type": 0,
        "location": {
            "lat": 36.477939,
            "lng": 102.370252
        },
        "ad_info": {
            "adcode": 630202,
            "province": "青海省",
            "city": "海东市",
            "district": "乐都区"
        }
    },
    {
        "id": "14010963834787617149",
        "title": "公共厕所",
        "address": "青海省海东市乐都区X230与楼巷路交叉口正南方向657米左右",
        "tel": "",
        "category": "基础设施:公共设施:公共厕所",
        "type": 0,
        "location": {
            "lat": 36.43943,
            "lng": 102.549531
        },
        "ad_info": {
            "adcode": 630202,
            "province": "青海省",
            "city": "海东市",
            "district": "乐都区"
        }
    },
    {
        "id": "6873081787002495218",
        "title": "共公共厕所所",
        "address": "青海省海东市互助土族自治县南大街与吐谷浑大道交叉口正北方向74米左右",
        "tel": "",
        "category": "基础设施:公共设施:公共厕所",
        "type": 0,
        "location": {
            "lat": 36.825347,
            "lng": 101.946229
        },
        "ad_info": {
            "adcode": 630223,
            "province": "青海省",
            "city": "海东市",
            "district": "互助土族自治县"
        }
    },
    {
        "id": "11983619573126953874",
        "title": "公共厕所",
        "address": "青海省海东市乐都区文化街101号",
        "tel": "",
        "category": "基础设施:公共设施:公共厕所",
        "type": 0,
        "location": {
            "lat": 36.47018,
            "lng": 102.416021
        },
        "ad_info": {
            "adcode": 630202,
            "province": "青海省",
            "city": "海东市",
            "district": "乐都区"
        }
    },
    {
        "id": "3224208804683846073",
        "title": "公共厕所",
        "address": "青海省海东市民和回族土族自治县自由南街与西大街交叉口正南方向106米左右",
        "tel": "",
        "category": "基础设施:公共设施:公共厕所",
        "type": 0,
        "location": {
            "lat": 36.328259,
            "lng": 102.802509
        },
        "ad_info": {
            "adcode": 630222,
            "province": "青海省",
            "city": "海东市",
            "district": "民和回族土族自治县"
        }
    },
    {
        "id": "16805142286330065556",
        "title": "公共厕所",
        "address": "青海省海东市乐都区X230与楼巷路交叉口西南方向709米左右",
        "tel": "",
        "category": "基础设施:公共设施:公共厕所",
        "type": 0,
        "location": {
            "lat": 36.439824,
            "lng": 102.544378
        },
        "ad_info": {
            "adcode": 630202,
            "province": "青海省",
            "city": "海东市",
            "district": "乐都区"
        }
    },
    {
        "id": "4108298187330225545",
        "title": "曹家堡服务区公共厕所",
        "address": "青海省海东市互助土族自治县中关村西路与小峡路交叉口正东方向213米左右",
        "tel": "",
        "category": "基础设施:公共设施:公共厕所",
        "type": 0,
        "location": {
            "lat": 36.539655,
            "lng": 101.973825
        },
        "ad_info": {
            "adcode": 630223,
            "province": "青海省",
            "city": "海东市",
            "district": "互助土族自治县"
        }
    },
    {
        "id": "4926352714631458501",
        "title": "公共厕所",
        "address": "青海省海东市循化撒拉族自治县积石镇积石黄河大桥伊佳商务大厦东北",
        "tel": "",
        "category": "基础设施:公共设施:公共厕所",
        "type": 0,
        "location": {
            "lat": 35.853419,
            "lng": 102.489462
        },
        "ad_info": {
            "adcode": 630225,
            "province": "青海省",
            "city": "海东市",
            "district": "循化撒拉族自治县"
        }
    },
    {
        "id": "10014222668740515416",
        "title": "公共卫生间",
        "address": "青海省海东市乐都区向民路与站前路交叉口正西方向224米左右",
        "tel": "",
        "category": "基础设施:公共设施:公共厕所",
        "type": 0,
        "location": {
            "lat": 36.470828,
            "lng": 102.379415
        },
        "ad_info": {
            "adcode": 630202,
            "province": "青海省",
            "city": "海东市",
            "district": "乐都区"
        }
    },
    {
        "id": "5435886931119940682",
        "title": "马场垣服务区公共厕所",
        "address": "青海省海东市民和回族土族自治县川海大街与民小一级路交叉口东北方向1255米左右",
        "tel": "",
        "category": "基础设施:公共设施:公共厕所",
        "type": 0,
        "location": {
            "lat": 36.303137,
            "lng": 102.911351
        },
        "ad_info": {
            "adcode": 630222,
            "province": "青海省",
            "city": "海东市",
            "district": "民和回族土族自治县"
        }
    },
    {
        "id": "853029554941236068",
        "title": "沙沟乡石沟沿村公共厕所",
        "address": "青海省海东市平安区沙沟乡石沟沿村村委会对面",
        "tel": "",
        "category": "基础设施:公共设施:公共厕所",
        "type": 0,
        "location": {
            "lat": 36.437068,
            "lng": 102.04403
        },
        "ad_info": {
            "adcode": 630203,
            "province": "青海省",
            "city": "海东市",
            "district": "平安区"
        }
    },
    {
        "id": "7762044278946793032",
        "title": "群科服务区公共厕所",
        "address": "青海省海东市化隆回族自治县G213与迎宾大道交叉口东南方向1364米左右",
        "tel": "",
        "category": "基础设施:公共设施:公共厕所",
        "type": 0,
        "location": {
            "lat": 35.991099,
            "lng": 102.052306
        },
        "ad_info": {
            "adcode": 630224,
            "province": "青海省",
            "city": "海东市",
            "district": "化隆回族自治县"
        }
    },
    {
        "id": "9248650354030273211",
        "title": "公共厕所",
        "address": "青海省海东市乐都区扎碾公路",
        "tel": "",
        "category": "基础设施:公共设施:公共厕所",
        "type": 0,
        "location": {
            "lat": 36.630846,
            "lng": 102.397663
        },
        "ad_info": {
            "adcode": 630202,
            "province": "青海省",
            "city": "海东市",
            "district": "乐都区"
        }
    },
    {
        "id": "5599503048511451288",
        "title": "循化服务区公共厕所",
        "address": "青海省海东市循化撒拉族自治县循化服务区与G310循隆高速交叉口东南140米",
        "tel": "",
        "category": "基础设施:公共设施:公共厕所",
        "type": 0,
        "location": {
            "lat": 35.848806,
            "lng": 102.457002
        },
        "ad_info": {
            "adcode": 630225,
            "province": "青海省",
            "city": "海东市",
            "district": "循化撒拉族自治县"
        }
    },
    {
        "id": "9183652800784458264",
        "title": "无障碍公共厕所",
        "address": "青海省海东市乐都区北门路与火巷子街交叉口正南方向52米左右",
        "tel": "",
        "category": "基础设施:公共设施:公共厕所",
        "type": 0,
        "location": {
            "lat": 36.482739,
            "lng": 102.40487
        },
        "ad_info": {
            "adcode": 630202,
            "province": "青海省",
            "city": "海东市",
            "district": "乐都区"
        }
    },
    {
        "id": "12626243906547740671",
        "title": "乐都服务区公共厕所",
        "address": "青海省海东市乐都区瞿昙路与祥瑞大街交叉口西南方向576米左右",
        "tel": "",
        "category": "基础设施:公共设施:公共厕所",
        "type": 0,
        "location": {
            "lat": 36.471691,
            "lng": 102.36614
        },
        "ad_info": {
            "adcode": 630202,
            "province": "青海省",
            "city": "海东市",
            "district": "乐都区"
        }
    },
    {
        "id": "16003736177176852306",
        "title": "乐都服务区公共厕所",
        "address": "青海省海东市乐都区文博路与海东大道交叉口正南方向455米左右",
        "tel": "",
        "category": "基础设施:公共设施:公共厕所",
        "type": 0,
        "location": {
            "lat": 36.473488,
            "lng": 102.36502
        },
        "ad_info": {
            "adcode": 630202,
            "province": "青海省",
            "city": "海东市",
            "district": "乐都区"
        }
    },
    {
        "id": "2492962903225128308",
        "title": "马场垣服务区公共厕所",
        "address": "青海省海东市民和回族土族自治县川海大街与民小一级路交叉口东北方向1180米左右",
        "tel": "",
        "category": "基础设施:公共设施:公共厕所",
        "type": 0,
        "location": {
            "lat": 36.304304,
            "lng": 102.908646
        },
        "ad_info": {
            "adcode": 630222,
            "province": "青海省",
            "city": "海东市",
            "district": "民和回族土族自治县"
        }
    },
    {
        "id": "14272851027530796191",
        "title": "公共厕所",
        "address": "青海省海东市循化撒拉族自治县海润宾馆北侧150米",
        "tel": "",
        "category": "基础设施:公共设施:公共厕所",
        "type": 0,
        "location": {
            "lat": 35.718258,
            "lng": 102.574006
        },
        "ad_info": {
            "adcode": 630225,
            "province": "青海省",
            "city": "海东市",
            "district": "循化撒拉族自治县"
        }
    },
    {
        "id": "6076367813259472247",
        "title": "公共厕所",
        "address": "青海省海东市互助土族自治县东和乡麻吉村邮政旁",
        "tel": "",
        "category": "基础设施:公共设施:公共厕所",
        "type": 0,
        "location": {
            "lat": 36.910474,
            "lng": 102.04549
        },
        "ad_info": {
            "adcode": 630223,
            "province": "青海省",
            "city": "海东市",
            "district": "互助土族自治县"
        }
    },
    {
        "id": "9006915629146915128",
        "title": "公共厕所",
        "address": "青海省海东市民和回族土族自治县后街一路与川亭公路交叉口东北方向206米左右",
        "tel": "",
        "category": "基础设施:公共设施:公共厕所",
        "type": 0,
        "location": {
            "lat": 36.213488,
            "lng": 102.762483
        },
        "ad_info": {
            "adcode": 630222,
            "province": "青海省",
            "city": "海东市",
            "district": "民和回族土族自治县"
        }
    },
    {
        "id": "3468535171667804911",
        "title": "公共厕所",
        "address": "青海省海东市化隆回族自治县安达其哈花海游乐设施旁",
        "tel": "",
        "category": "基础设施:公共设施:公共厕所",
        "type": 0,
        "location": {
            "lat": 36.003672,
            "lng": 101.996155
        },
        "ad_info": {
            "adcode": 630224,
            "province": "青海省",
            "city": "海东市",
            "district": "化隆回族自治县"
        }
    },
    {
        "id": "1845982999207485011",
        "title": "公共厕所(永录康格达景区)",
        "address": "青海省海东市民和回族土族自治县满坪镇大庄村",
        "tel": "",
        "category": "基础设施:公共设施:公共厕所",
        "type": 0,
        "location": {
            "lat": 36.021524,
            "lng": 102.753836
        },
        "ad_info": {
            "adcode": 630222,
            "province": "青海省",
            "city": "海东市",
            "district": "民和回族土族自治县"
        }
    },
    {
        "id": "17117689119076629092",
        "title": "公共厕所",
        "address": "青海省海东市乐都区民生小区",
        "tel": "",
        "category": "基础设施:公共设施:公共厕所",
        "type": 0,
        "location": {
            "lat": 36.473012,
            "lng": 102.378344
        },
        "ad_info": {
            "adcode": 630202,
            "province": "青海省",
            "city": "海东市",
            "district": "乐都区"
        }
    },
    {
        "id": "17772902253623436532",
        "title": "公共厕所",
        "address": "青海省海东市化隆回族自治县中学路与医院路交叉口东北方向72米左右",
        "tel": "",
        "category": "基础设施:公共设施:公共厕所",
        "type": 0,
        "location": {
            "lat": 36.099928,
            "lng": 102.262816
        },
        "ad_info": {
            "adcode": 630224,
            "province": "青海省",
            "city": "海东市",
            "district": "化隆回族自治县"
        }
    },
    {
        "id": "15904431628300639803",
        "title": "公共厕所",
        "address": "青海省海东市民和回族土族自治县马场垣乡金星村韩国风景园厕所",
        "tel": "",
        "category": "基础设施:公共设施:公共厕所",
        "type": 0,
        "location": {
            "lat": 36.319092,
            "lng": 102.892674
        },
        "ad_info": {
            "adcode": 630222,
            "province": "青海省",
            "city": "海东市",
            "district": "民和回族土族自治县"
        }
    },
    {
        "id": "16242966989778539615",
        "title": "公共厕所",
        "address": "青海省海东市乐都区东门巷42号火车站停车场内",
        "tel": "",
        "category": "基础设施:公共设施:公共厕所",
        "type": 0,
        "location": {
            "lat": 36.476871,
            "lng": 102.434366
        },
        "ad_info": {
            "adcode": 630202,
            "province": "青海省",
            "city": "海东市",
            "district": "乐都区"
        }
    },
    {
        "id": "5398884259184594609",
        "title": "公共厕所",
        "address": "青海省海东市平安区石碑村花海景区内部厕所",
        "tel": "",
        "category": "基础设施:公共设施:公共厕所",
        "type": 0,
        "location": {
            "lat": 36.310646,
            "lng": 101.995976
        },
        "ad_info": {
            "adcode": 630203,
            "province": "青海省",
            "city": "海东市",
            "district": "平安区"
        }
    },
    {
        "id": "5699951609977408749",
        "title": "公共厕所",
        "address": "青海省海东市循化撒拉族自治县G310与S202交叉口正北方向223米左右",
        "tel": "",
        "category": "基础设施:公共设施:公共厕所",
        "type": 0,
        "location": {
            "lat": 35.868677,
            "lng": 102.426482
        },
        "ad_info": {
            "adcode": 630225,
            "province": "青海省",
            "city": "海东市",
            "district": "循化撒拉族自治县"
        }
    },
    {
        "id": "9223977841364084149",
        "title": "公共厕所",
        "address": "青海省海东市互助土族自治县毛斯南路与龙泉路交叉口东北方向176米左右",
        "tel": "",
        "category": "基础设施:公共设施:公共厕所",
        "type": 0,
        "location": {
            "lat": 36.824644,
            "lng": 101.959291
        },
        "ad_info": {
            "adcode": 630223,
            "province": "青海省",
            "city": "海东市",
            "district": "互助土族自治县"
        }
    },
    {
        "id": "17437138307519010021",
        "title": "公共厕所",
        "address": "青海省海东市循化撒拉族自治县街子镇三岔市场撒拉尔农家院旅游厕所",
        "tel": "",
        "category": "基础设施:公共设施:公共厕所",
        "type": 0,
        "location": {
            "lat": 35.866148,
            "lng": 102.424913
        },
        "ad_info": {
            "adcode": 630225,
            "province": "青海省",
            "city": "海东市",
            "district": "循化撒拉族自治县"
        }
    },
    {
        "id": "11642878211148590616",
        "title": "公共厕所",
        "address": "青海省海东市平安区新平大道204-13号",
        "tel": "",
        "category": "基础设施:公共设施:公共厕所",
        "type": 0,
        "location": {
            "lat": 36.49952,
            "lng": 102.104152
        },
        "ad_info": {
            "adcode": 630203,
            "province": "青海省",
            "city": "海东市",
            "district": "平安区"
        }
    },
    {
        "id": "3324849663343205393",
        "title": "公共厕所",
        "address": "青海省海东市乐都区教场街与滨河南路交叉口正东方向181米左右",
        "tel": "",
        "category": "基础设施:公共设施:公共厕所",
        "type": 0,
        "location": {
            "lat": 36.477658,
            "lng": 102.410901
        },
        "ad_info": {
            "adcode": 630202,
            "province": "青海省",
            "city": "海东市",
            "district": "乐都区"
        }
    },
    {
        "id": "8791134721719903063",
        "title": "公共卫生间",
        "address": "青海省海东市乐都区巴燕路与积石路交叉口正东方向143米左右",
        "tel": "",
        "category": "基础设施:公共设施:公共厕所",
        "type": 0,
        "location": {
            "lat": 36.491419,
            "lng": 102.368977
        },
        "ad_info": {
            "adcode": 630202,
            "province": "青海省",
            "city": "海东市",
            "district": "乐都区"
        }
    },
    {
        "id": "970107376493313026",
        "title": "阿岱停车区公共厕所",
        "address": "青海省海东市化隆回族自治县张汶高速与阿岱互通交叉口正南方向1827米左右",
        "tel": "",
        "category": "基础设施:公共设施:公共厕所",
        "type": 0,
        "location": {
            "lat": 36.171154,
            "lng": 101.998122
        },
        "ad_info": {
            "adcode": 630224,
            "province": "青海省",
            "city": "海东市",
            "district": "化隆回族自治县"
        }
    },
    {
        "id": "434464978772759305",
        "title": "公共厕所",
        "address": "青海省海东市互助土族自治县彩虹部落旅游公厕",
        "tel": "",
        "category": "基础设施:公共设施:公共厕所",
        "type": 0,
        "location": {
            "lat": 36.837293,
            "lng": 101.938621
        },
        "ad_info": {
            "adcode": 630223,
            "province": "青海省",
            "city": "海东市",
            "district": "互助土族自治县"
        }
    },
    {
        "id": "5388472357959434487",
        "title": "公共厕所",
        "address": "青海省海东市互助土族自治县尕山东路与民安北路交叉口西南方向100米左右",
        "tel": "",
        "category": "基础设施:公共设施:公共厕所",
        "type": 0,
        "location": {
            "lat": 36.830142,
            "lng": 101.971576
        },
        "ad_info": {
            "adcode": 630223,
            "province": "青海省",
            "city": "海东市",
            "district": "互助土族自治县"
        }
    },
    {
        "id": "1793525831689893006",
        "title": "厕所",
        "address": "青海省海东市乐都区新乐大街与河门街交叉口正南方向60米左右",
        "tel": "",
        "category": "基础设施:公共设施:公共厕所",
        "type": 0,
        "location": {
            "lat": 36.479232,
            "lng": 102.403376
        },
        "ad_info": {
            "adcode": 630202,
            "province": "青海省",
            "city": "海东市",
            "district": "乐都区"
        }
    },
    {
        "id": "2635644116369604",
        "title": "公共厕所",
        "address": "青海省海东市乐都区文化街170号梦圆居易地扶贫小区内",
        "tel": "",
        "category": "基础设施:公共设施:公共厕所",
        "type": 0,
        "location": {
            "lat": 36.465901,
            "lng": 102.422641
        },
        "ad_info": {
            "adcode": 630202,
            "province": "青海省",
            "city": "海东市",
            "district": "乐都区"
        }
    },
    {
        "id": "2372125699856986168",
        "title": "公共厕所",
        "address": "青海省海东市平安区牙扎村",
        "tel": "",
        "category": "基础设施:公共设施:公共厕所",
        "type": 0,
        "location": {
            "lat": 36.360285,
            "lng": 102.059082
        },
        "ad_info": {
            "adcode": 630203,
            "province": "青海省",
            "city": "海东市",
            "district": "平安区"
        }
    },
    {
        "id": "12562710745524935543",
        "title": "群科服务区公共厕所",
        "address": "青海省海东市化隆回族自治县G213与迎宾大道交叉口东南方向1373米左右",
        "tel": "",
        "category": "基础设施:公共设施:公共厕所",
        "type": 0,
        "location": {
            "lat": 35.990798,
            "lng": 102.052115
        },
        "ad_info": {
            "adcode": 630224,
            "province": "青海省",
            "city": "海东市",
            "district": "化隆回族自治县"
        }
    },
    {
        "id": "11358779821565524760",
        "title": "公共厕所",
        "address": "青海省海东市互助土族自治县花园路1号",
        "tel": "",
        "category": "基础设施:公共设施:公共厕所",
        "type": 0,
        "location": {
            "lat": 36.839539,
            "lng": 101.935707
        },
        "ad_info": {
            "adcode": 630223,
            "province": "青海省",
            "city": "海东市",
            "district": "互助土族自治县"
        }
    },
    {
        "id": "5722786716071801770",
        "title": "公共厕所",
        "address": "青海省海东市互助土族自治县佑宁东路与民安北路交叉口东北方向174米左右",
        "tel": "",
        "category": "基础设施:公共设施:公共厕所",
        "type": 0,
        "location": {
            "lat": 36.828171,
            "lng": 101.968913
        },
        "ad_info": {
            "adcode": 630223,
            "province": "青海省",
            "city": "海东市",
            "district": "互助土族自治县"
        }
    },
    {
        "id": "13950936235654592651",
        "title": "公共厕所",
        "address": "青海省海东市循化撒拉族自治县南环路与积石大街交叉口正北方向356米左右",
        "tel": "",
        "category": "基础设施:公共设施:公共厕所",
        "type": 0,
        "location": {
            "lat": 35.852991,
            "lng": 102.47448
        },
        "ad_info": {
            "adcode": 630225,
            "province": "青海省",
            "city": "海东市",
            "district": "循化撒拉族自治县"
        }
    },
    {
        "id": "10706622820464613554",
        "title": "公共厕所",
        "address": "青海省海东市平安区平安路与新平大道交叉口西北方向42米左右",
        "tel": "",
        "category": "基础设施:公共设施:公共厕所",
        "type": 0,
        "location": {
            "lat": 36.498899,
            "lng": 102.105983
        },
        "ad_info": {
            "adcode": 630203,
            "province": "青海省",
            "city": "海东市",
            "district": "平安区"
        }
    },
    {
        "id": "12869464924604805795",
        "title": "公共厕所",
        "address": "青海省海东市乐都区汽车站南侧",
        "tel": "",
        "category": "基础设施:公共设施:公共厕所",
        "type": 0,
        "location": {
            "lat": 36.472057,
            "lng": 102.38529
        },
        "ad_info": {
            "adcode": 630202,
            "province": "青海省",
            "city": "海东市",
            "district": "乐都区"
        }
    },
    {
        "id": "17984127917154156307",
        "title": "公共厕所",
        "address": "青海省海东市乐都区消防队对面",
        "tel": "",
        "category": "基础设施:公共设施:公共厕所",
        "type": 0,
        "location": {
            "lat": 36.475115,
            "lng": 102.40253
        },
        "ad_info": {
            "adcode": 630202,
            "province": "青海省",
            "city": "海东市",
            "district": "乐都区"
        }
    },
    {
        "id": "5356169203763303812",
        "title": "公共厕所",
        "address": "青海省海东市平安区夏宗寺天天红农家东南侧70米",
        "tel": "",
        "category": "基础设施:公共设施:公共厕所",
        "type": 0,
        "location": {
            "lat": 36.331604,
            "lng": 101.903679
        },
        "ad_info": {
            "adcode": 630203,
            "province": "青海省",
            "city": "海东市",
            "district": "平安区"
        }
    },
    {
        "id": "16477024327910454569",
        "title": "公共卫生间",
        "address": "青海省海东市平安区安夷路与平安大道交叉口西南方向93米左右",
        "tel": "",
        "category": "基础设施:公共设施:公共厕所",
        "type": 0,
        "location": {
            "lat": 36.504118,
            "lng": 102.087298
        },
        "ad_info": {
            "adcode": 630203,
            "province": "青海省",
            "city": "海东市",
            "district": "平安区"
        }
    },
    {
        "id": "823874567166148362",
        "title": "公共厕所",
        "address": "青海省海东市互助土族自治县威远北路与环城公路交叉口西南方向237米左右",
        "tel": "",
        "category": "基础设施:公共设施:公共厕所",
        "type": 0,
        "location": {
            "lat": 36.828824,
            "lng": 101.984954
        },
        "ad_info": {
            "adcode": 630223,
            "province": "青海省",
            "city": "海东市",
            "district": "互助土族自治县"
        }
    },
    {
        "id": "744385338283514987",
        "title": "公共厕所",
        "address": "青海省海东市化隆回族自治县堪达佛学院",
        "tel": "",
        "category": "基础设施:公共设施:公共厕所",
        "type": 0,
        "location": {
            "lat": 36.274723,
            "lng": 101.75341
        },
        "ad_info": {
            "adcode": 630224,
            "province": "青海省",
            "city": "海东市",
            "district": "化隆回族自治县"
        }
    },
    {
        "id": "631634647331850998",
        "title": "公共厕所",
        "address": "青海省海东市循化撒拉族自治县东门北街与积石大街交叉口东南方向107米左右",
        "tel": "",
        "category": "基础设施:公共设施:公共厕所",
        "type": 0,
        "location": {
            "lat": 35.844077,
            "lng": 102.492831
        },
        "ad_info": {
            "adcode": 630225,
            "province": "青海省",
            "city": "海东市",
            "district": "循化撒拉族自治县"
        }
    },
    {
        "id": "9088791971237809294",
        "title": "公共厕所",
        "address": "青海省海东市民和回族土族自治县官亭镇喇家村喇家国家考古遗址公园厕所",
        "tel": "",
        "category": "基础设施:公共设施:公共厕所",
        "type": 0,
        "location": {
            "lat": 35.860921,
            "lng": 102.812779
        },
        "ad_info": {
            "adcode": 630222,
            "province": "青海省",
            "city": "海东市",
            "district": "民和回族土族自治县"
        }
    },
    {
        "id": "7060696972053133059",
        "title": "公共厕所",
        "address": "青海省海东市乐都区祥福路19号",
        "tel": "",
        "category": "基础设施:公共设施:公共厕所",
        "type": 0,
        "location": {
            "lat": 36.480496,
            "lng": 102.377007
        },
        "ad_info": {
            "adcode": 630202,
            "province": "青海省",
            "city": "海东市",
            "district": "乐都区"
        }
    },
    {
        "id": "17586862663876553583",
        "title": "要去我家的厕所",
        "address": "青海省海东市化隆回族自治县二塘乡附近",
        "tel": "",
        "category": "基础设施:公共设施:公共厕所",
        "type": 0,
        "location": {
            "lat": 36.155956,
            "lng": 102.159972
        },
        "ad_info": {
            "adcode": 630224,
            "province": "青海省",
            "city": "海东市",
            "district": "化隆回族自治县"
        }
    },
    {
        "id": "6725696854411307981",
        "title": "公共厕所(永录康格达景区)",
        "address": "青海省海东市民和回族土族自治县满坪镇大庄村永录康格达景区厕所",
        "tel": "",
        "category": "基础设施:公共设施:公共厕所",
        "type": 0,
        "location": {
            "lat": 36.021725,
            "lng": 102.751343
        },
        "ad_info": {
            "adcode": 630222,
            "province": "青海省",
            "city": "海东市",
            "district": "民和回族土族自治县"
        }
    },
    {
        "id": "4297464886460768194",
        "title": "公共厕所",
        "address": "青海省海东市平安区区庄科村",
        "tel": "",
        "category": "基础设施:公共设施:公共厕所",
        "type": 0,
        "location": {
            "lat": 36.3534,
            "lng": 101.926016
        },
        "ad_info": {
            "adcode": 630203,
            "province": "青海省",
            "city": "海东市",
            "district": "平安区"
        }
    },
    {
        "id": "5935451981056056084",
        "title": "公共厕所",
        "address": "青海省海东市平安区扎门村",
        "tel": "",
        "category": "基础设施:公共设施:公共厕所",
        "type": 0,
        "location": {
            "lat": 36.332676,
            "lng": 101.997437
        },
        "ad_info": {
            "adcode": 630203,
            "province": "青海省",
            "city": "海东市",
            "district": "平安区"
        }
    },
    {
        "id": "15472733620543450591",
        "title": "公共厕所",
        "address": "青海省海东市互助土族自治县天佑北路与天佑南路交叉口西南方向147米左右",
        "tel": "",
        "category": "基础设施:公共设施:公共厕所",
        "type": 0,
        "location": {
            "lat": 36.828287,
            "lng": 101.953538
        },
        "ad_info": {
            "adcode": 630223,
            "province": "青海省",
            "city": "海东市",
            "district": "互助土族自治县"
        }
    },
    {
        "id": "12567676575315999644",
        "title": "公共厕所",
        "address": "青海省海东市互助土族自治县扎龙沟景区就旅游公厕",
        "tel": "",
        "category": "基础设施:公共设施:公共厕所",
        "type": 0,
        "location": {
            "lat": 36.872163,
            "lng": 102.581212
        },
        "ad_info": {
            "adcode": 630223,
            "province": "青海省",
            "city": "海东市",
            "district": "互助土族自治县"
        }
    },
    {
        "id": "12471883042454253192",
        "title": "公共厕所",
        "address": "青海省海东市平安区南环路与民和路交叉口西北方向77米左右",
        "tel": "",
        "category": "基础设施:公共设施:公共厕所",
        "type": 0,
        "location": {
            "lat": 36.493834,
            "lng": 102.108943
        },
        "ad_info": {
            "adcode": 630203,
            "province": "青海省",
            "city": "海东市",
            "district": "平安区"
        }
    },
    {
        "id": "2379177340915876414",
        "title": "沙沟乡牙扎村堂里公共厕所",
        "address": "青海省海东市平安区沙沟乡牙扎村卫生室斜对面",
        "tel": "",
        "category": "基础设施:公共设施:公共厕所",
        "type": 0,
        "location": {
            "lat": 36.352052,
            "lng": 102.062968
        },
        "ad_info": {
            "adcode": 630203,
            "province": "青海省",
            "city": "海东市",
            "district": "平安区"
        }
    },
    {
        "id": "15299209573763030632",
        "title": "公共厕所",
        "address": "青海省海东市平安区下店路与湟水路交叉口西南方向132米左右",
        "tel": "",
        "category": "基础设施:公共设施:公共厕所",
        "type": 0,
        "location": {
            "lat": 36.508842,
            "lng": 102.039764
        },
        "ad_info": {
            "adcode": 630203,
            "province": "青海省",
            "city": "海东市",
            "district": "平安区"
        }
    },
    {
        "id": "7606480632902726194",
        "title": "公共厕所",
        "address": "青海省海东市互助土族自治县威北公路与建材巷交叉口正西方向223米左右",
        "tel": "",
        "category": "基础设施:公共设施:公共厕所",
        "type": 0,
        "location": {
            "lat": 36.837642,
            "lng": 101.966361
        },
        "ad_info": {
            "adcode": 630223,
            "province": "青海省",
            "city": "海东市",
            "district": "互助土族自治县"
        }
    },
    {
        "id": "17415254426708629503",
        "title": "公共厕所",
        "address": "青海省海东市平安区乐都路与古驿大道交叉口正东方向52米左右",
        "tel": "",
        "category": "基础设施:公共设施:公共厕所",
        "type": 0,
        "location": {
            "lat": 36.50319,
            "lng": 102.111406
        },
        "ad_info": {
            "adcode": 630203,
            "province": "青海省",
            "city": "海东市",
            "district": "平安区"
        }
    },
    {
        "id": "9533331523072929155",
        "title": "公共厕所",
        "address": "青海省海东市平安区张汶高速与窑房枢纽互通交叉口东南方向357米左右",
        "tel": "",
        "category": "基础设施:公共设施:公共厕所",
        "type": 0,
        "location": {
            "lat": 36.484366,
            "lng": 102.093149
        },
        "ad_info": {
            "adcode": 630203,
            "province": "青海省",
            "city": "海东市",
            "district": "平安区"
        }
    },
    {
        "id": "16377723507314783507",
        "title": "马场垣服务区第二公共厕所",
        "address": "青海省海东市民和回族土族自治县G6京藏高速与马场垣服务区交叉口东160米",
        "tel": "",
        "category": "基础设施:公共设施:公共厕所",
        "type": 0,
        "location": {
            "lat": 36.306806,
            "lng": 102.907213
        },
        "ad_info": {
            "adcode": 630222,
            "province": "青海省",
            "city": "海东市",
            "district": "民和回族土族自治县"
        }
    },
    {
        "id": "5232850782545503572",
        "title": "循化服务区公共厕所",
        "address": "青海省海东市循化撒拉族自治县循化服务区与G310循隆高速交叉口北140米",
        "tel": "",
        "category": "基础设施:公共设施:公共厕所",
        "type": 0,
        "location": {
            "lat": 35.851302,
            "lng": 102.457255
        },
        "ad_info": {
            "adcode": 630225,
            "province": "青海省",
            "city": "海东市",
            "district": "循化撒拉族自治县"
        }
    },
    {
        "id": "866493286431570605",
        "title": "马场垣服务区第一公共厕所",
        "address": "青海省海东市民和回族土族自治县马场垣服务区与G6京藏高速交叉口西北280米",
        "tel": "",
        "category": "基础设施:公共设施:公共厕所",
        "type": 0,
        "location": {
            "lat": 36.306241,
            "lng": 102.909634
        },
        "ad_info": {
            "adcode": 630222,
            "province": "青海省",
            "city": "海东市",
            "district": "民和回族土族自治县"
        }
    },
    {
        "id": "9088900571738756291",
        "title": "公共厕所",
        "address": "青海省海东市互助土族自治县花园路与西大街交叉口东南方向425米左右",
        "tel": "",
        "category": "基础设施:公共设施:公共厕所",
        "type": 0,
        "location": {
            "lat": 36.837336,
            "lng": 101.945441
        },
        "ad_info": {
            "adcode": 630223,
            "province": "青海省",
            "city": "海东市",
            "district": "互助土族自治县"
        }
    },
    {
        "id": "5673134471241915716",
        "title": "公共厕所",
        "address": "青海省海东市民和回族土族自治县川海大街与育才路交叉口正北方向159米左右",
        "tel": "",
        "category": "基础设施:公共设施:公共厕所",
        "type": 0,
        "location": {
            "lat": 36.324152,
            "lng": 102.822695
        },
        "ad_info": {
            "adcode": 630222,
            "province": "青海省",
            "city": "海东市",
            "district": "民和回族土族自治县"
        }
    },
    {
        "id": "1258952136800178564",
        "title": "公共厕所",
        "address": "青海省海东市互助土族自治县X240与Y254交叉口东北方向224米左右",
        "tel": "",
        "category": "基础设施:公共设施:公共厕所",
        "type": 0,
        "location": {
            "lat": 36.77836,
            "lng": 102.099249
        },
        "ad_info": {
            "adcode": 630223,
            "province": "青海省",
            "city": "海东市",
            "district": "互助土族自治县"
        }
    },
    {
        "id": "2205550627083212670",
        "title": "无障碍公共厕所",
        "address": "青海省海东市互助土族自治县彩虹大道与新陈线交叉口正西方向369米左右",
        "tel": "",
        "category": "基础设施:公共设施:公共厕所",
        "type": 0,
        "location": {
            "lat": 36.836324,
            "lng": 101.935375
        },
        "ad_info": {
            "adcode": 630223,
            "province": "青海省",
            "city": "海东市",
            "district": "互助土族自治县"
        }
    },
    {
        "id": "11273965739227744480",
        "title": "公共厕所",
        "address": "青海省海东市化隆回族自治县黄河汽修换油中心西南侧190米",
        "tel": "",
        "category": "基础设施:公共设施:公共厕所",
        "type": 0,
        "location": {
            "lat": 36.075548,
            "lng": 101.949601
        },
        "ad_info": {
            "adcode": 630224,
            "province": "青海省",
            "city": "海东市",
            "district": "化隆回族自治县"
        }
    },
    {
        "id": "4534038256738672196",
        "title": "公共厕所",
        "address": "青海省海东市循化撒拉族自治县积石大街",
        "tel": "",
        "category": "基础设施:公共设施:公共厕所",
        "type": 0,
        "location": {
            "lat": 35.850066,
            "lng": 102.481353
        },
        "ad_info": {
            "adcode": 630225,
            "province": "青海省",
            "city": "海东市",
            "district": "循化撒拉族自治县"
        }
    },
    {
        "id": "9660558076010516891",
        "title": "公共厕所",
        "address": "青海省海东市民和回族土族自治县川海大街与育才路交叉口西北方向154米左右",
        "tel": "",
        "category": "基础设施:公共设施:公共厕所",
        "type": 0,
        "location": {
            "lat": 36.323692,
            "lng": 102.821053
        },
        "ad_info": {
            "adcode": 630222,
            "province": "青海省",
            "city": "海东市",
            "district": "民和回族土族自治县"
        }
    },
    {
        "id": "16833827056631555977",
        "title": "公共厕所",
        "address": "青海省海东市化隆回族自治县扎其段与扎哈公路交叉口东北方向1918米左右",
        "tel": "",
        "category": "基础设施:公共设施:公共厕所",
        "type": 0,
        "location": {
            "lat": 36.262447,
            "lng": 101.767104
        },
        "ad_info": {
            "adcode": 630224,
            "province": "青海省",
            "city": "海东市",
            "district": "化隆回族自治县"
        }
    },
    {
        "id": "4391829719843888945",
        "title": "公共厕所",
        "address": "青海省海东市平安区化隆路153号",
        "tel": "",
        "category": "基础设施:公共设施:公共厕所",
        "type": 0,
        "location": {
            "lat": 36.494151,
            "lng": 102.097715
        },
        "ad_info": {
            "adcode": 630203,
            "province": "青海省",
            "city": "海东市",
            "district": "平安区"
        }
    },
    {
        "id": "493953958465429438",
        "title": "公共厕所",
        "address": "青海省海东市互助土族自治县京藏高速与曹家堡飞机场互通匝道桥交叉口正北方向728米左右",
        "tel": "",
        "category": "基础设施:公共设施:公共厕所",
        "type": 0,
        "location": {
            "lat": 36.524392,
            "lng": 102.042435
        },
        "ad_info": {
            "adcode": 630223,
            "province": "青海省",
            "city": "海东市",
            "district": "互助土族自治县"
        }
    },
    {
        "id": "8877219368974725738",
        "title": "公共厕所",
        "address": "青海省海东市互助土族自治县塞纳北路与振兴大道交叉口西南方向105米左右",
        "tel": "",
        "category": "基础设施:公共设施:公共厕所",
        "type": 0,
        "location": {
            "lat": 36.825735,
            "lng": 101.959369
        },
        "ad_info": {
            "adcode": 630223,
            "province": "青海省",
            "city": "海东市",
            "district": "互助土族自治县"
        }
    },
    {
        "id": "4680054516586357342",
        "title": "沙沟乡桑昂村公共厕所",
        "address": "青海省海东市平安区沙沟乡桑昂村村委会向西10米",
        "tel": "",
        "category": "基础设施:公共设施:公共厕所",
        "type": 0,
        "location": {
            "lat": 36.371662,
            "lng": 102.050859
        },
        "ad_info": {
            "adcode": 630203,
            "province": "青海省",
            "city": "海东市",
            "district": "平安区"
        }
    },
    {
        "id": "5508596399024449628",
        "title": "公共厕所",
        "address": "青海省海东市循化撒拉族自治县南环路与广场南路交叉口正北方向145米左右",
        "tel": "",
        "category": "基础设施:公共设施:公共厕所",
        "type": 0,
        "location": {
            "lat": 35.848998,
            "lng": 102.480781
        },
        "ad_info": {
            "adcode": 630225,
            "province": "青海省",
            "city": "海东市",
            "district": "循化撒拉族自治县"
        }
    },
    {
        "id": "5807188857093898118",
        "title": "公共厕所",
        "address": "青海省海东市互助土族自治县塞纳北路与振兴大道交叉口正南方向115米左右",
        "tel": "",
        "category": "基础设施:公共设施:公共厕所",
        "type": 0,
        "location": {
            "lat": 36.825433,
            "lng": 101.960019
        },
        "ad_info": {
            "adcode": 630223,
            "province": "青海省",
            "city": "海东市",
            "district": "互助土族自治县"
        }
    },
    {
        "id": "10554542407916943214",
        "title": "公共厕所",
        "address": "青海省海东市循化撒拉族自治县广场北路与黄河西路交叉口正南方向30米左右",
        "tel": "",
        "category": "基础设施:公共设施:公共厕所",
        "type": 0,
        "location": {
            "lat": 35.851506,
            "lng": 102.482947
        },
        "ad_info": {
            "adcode": 630225,
            "province": "青海省",
            "city": "海东市",
            "district": "循化撒拉族自治县"
        }
    },
    {
        "id": "11524722651919944948",
        "title": "公共厕所",
        "address": "青海省海东市平安区享堂路与古驿大道交叉口东南方向45米左右",
        "tel": "",
        "category": "基础设施:公共设施:公共厕所",
        "type": 0,
        "location": {
            "lat": 36.5016,
            "lng": 102.117935
        },
        "ad_info": {
            "adcode": 630203,
            "province": "青海省",
            "city": "海东市",
            "district": "平安区"
        }
    },
    {
        "id": "14683086101631479584",
        "title": "公共厕所",
        "address": "青海省海东市平安区G109与三合路交叉口东北方向51米",
        "tel": "",
        "category": "基础设施:公共设施:公共厕所",
        "type": 0,
        "location": {
            "lat": 36.533046,
            "lng": 101.966278
        },
        "ad_info": {
            "adcode": 630203,
            "province": "青海省",
            "city": "海东市",
            "district": "平安区"
        }
    },
    {
        "id": "14446347526729733855",
        "title": "公共厕所",
        "address": "青海省海东市互助土族自治县安定西路与民安北路交叉口东北方向106米左右",
        "tel": "",
        "category": "基础设施:公共设施:公共厕所",
        "type": 0,
        "location": {
            "lat": 36.833248,
            "lng": 101.974043
        },
        "ad_info": {
            "adcode": 630223,
            "province": "青海省",
            "city": "海东市",
            "district": "互助土族自治县"
        }
    },
    {
        "id": "7296913338264471805",
        "title": "公共厕所",
        "address": "青海省海东市乐都区东大街与滨河南路交叉口正南方向56米左右",
        "tel": "",
        "category": "基础设施:公共设施:公共厕所",
        "type": 0,
        "location": {
            "lat": 36.474318,
            "lng": 102.416347
        },
        "ad_info": {
            "adcode": 630202,
            "province": "青海省",
            "city": "海东市",
            "district": "乐都区"
        }
    },
    {
        "id": "4235449536782470662",
        "title": "公共厕所",
        "address": "青海省海东市乐都区滨河北路西沙沟游园",
        "tel": "",
        "category": "基础设施:公共设施:公共厕所",
        "type": 0,
        "location": {
            "lat": 36.476675,
            "lng": 102.397381
        },
        "ad_info": {
            "adcode": 630202,
            "province": "青海省",
            "city": "海东市",
            "district": "乐都区"
        }
    },
    {
        "id": "5752180212073208620",
        "title": "沙沟乡芦草沟村公共厕所",
        "address": "青海省海东市平安区沙沟乡芦草沟村村委会院内",
        "tel": "",
        "category": "基础设施:公共设施:公共厕所",
        "type": 0,
        "location": {
            "lat": 36.390168,
            "lng": 102.049297
        },
        "ad_info": {
            "adcode": 630203,
            "province": "青海省",
            "city": "海东市",
            "district": "平安区"
        }
    },
    {
        "id": "5992253874869898609",
        "title": "公共厕所",
        "address": "青海省海东市乐都区东门巷与引胜路交叉口正东方向113米左右",
        "tel": "",
        "category": "基础设施:公共设施:公共厕所",
        "type": 0,
        "location": {
            "lat": 36.480018,
            "lng": 102.410545
        },
        "ad_info": {
            "adcode": 630202,
            "province": "青海省",
            "city": "海东市",
            "district": "乐都区"
        }
    },
    {
        "id": "23306181062585815",
        "title": "公共厕所",
        "address": "青海省海东市平安区化隆路与平安大道交叉口正东方向62米左右",
        "tel": "",
        "category": "基础设施:公共设施:公共厕所",
        "type": 0,
        "location": {
            "lat": 36.503247,
            "lng": 102.099818
        },
        "ad_info": {
            "adcode": 630203,
            "province": "青海省",
            "city": "海东市",
            "district": "平安区"
        }
    }
]