[
    {
        "id": "4410759457385978769",
        "title": "公共厕所(青海湖停车场)",
        "address": "青海省海南藏族自治州共和县青海湖二郎剑景区停车场",
        "tel": "",
        "category": "基础设施:公共设施:公共厕所",
        "type": 0,
        "location": {
            "lat": 36.578234,
            "lng": 100.492917
        },
        "ad_info": {
            "adcode": 632521,
            "province": "青海省",
            "city": "海南藏族自治州",
            "district": "共和县"
        }
    },
    {
        "id": "15890075296674902392",
        "title": "公共厕所",
        "address": "青海省海南藏族自治州贵德县校场路与河关大道交叉口正东方向240米左右",
        "tel": "",
        "category": "基础设施:公共设施:公共厕所",
        "type": 0,
        "location": {
            "lat": 36.040772,
            "lng": 101.43932
        },
        "ad_info": {
            "adcode": 632523,
            "province": "青海省",
            "city": "海南藏族自治州",
            "district": "贵德县"
        }
    },
    {
        "id": "7852514670721376945",
        "title": "公共厕所",
        "address": "青海省海南藏族自治州贵德县河关大道与西河西路交叉口西北方向29米左右",
        "tel": "",
        "category": "基础设施:公共设施:公共厕所",
        "type": 0,
        "location": {
            "lat": 36.032519,
            "lng": 101.401171
        },
        "ad_info": {
            "adcode": 632523,
            "province": "青海省",
            "city": "海南藏族自治州",
            "district": "贵德县"
        }
    },
    {
        "id": "3159025201460663091",
        "title": "公共厕所",
        "address": "青海省海南藏族自治州贵南县茫什多公路与西久公路交叉口东北方向20米左右",
        "tel": "",
        "category": "基础设施:公共设施:公共厕所",
        "type": 0,
        "location": {
            "lat": 35.503951,
            "lng": 101.108698
        },
        "ad_info": {
            "adcode": 632525,
            "province": "青海省",
            "city": "海南藏族自治州",
            "district": "贵南县"
        }
    },
    {
        "id": "10571268482793276169",
        "title": "公共厕所",
        "address": "青海省海南藏族自治州贵南县解放路167号",
        "tel": "",
        "category": "基础设施:公共设施:公共厕所",
        "type": 0,
        "location": {
            "lat": 35.593635,
            "lng": 100.737064
        },
        "ad_info": {
            "adcode": 632525,
            "province": "青海省",
            "city": "海南藏族自治州",
            "district": "贵南县"
        }
    },
    {
        "id": "6471820290318803948",
        "title": "公共厕所",
        "address": "青海省海南藏族自治州兴海县图旦达杰民俗文化景区龙藏民俗文化广场",
        "tel": "",
        "category": "基础设施:公共设施:公共厕所",
        "type": 0,
        "location": {
            "lat": 35.588905,
            "lng": 99.963
        },
        "ad_info": {
            "adcode": 632524,
            "province": "青海省",
            "city": "海南藏族自治州",
            "district": "兴海县"
        }
    },
    {
        "id": "3347919918442325302",
        "title": "公共厕所",
        "address": "青海省海南藏族自治州同德县同贵路与巴沟路交叉口西北方向13米左右",
        "tel": "",
        "category": "基础设施:公共设施:公共厕所",
        "type": 0,
        "location": {
            "lat": 35.270864,
            "lng": 100.560221
        },
        "ad_info": {
            "adcode": 632522,
            "province": "青海省",
            "city": "海南藏族自治州",
            "district": "同德县"
        }
    },
    {
        "id": "14263589641181730820",
        "title": "公共厕所",
        "address": "青海省海南藏族自治州贵南县白刺滩生态观光园厕所",
        "tel": "",
        "category": "基础设施:公共设施:公共厕所",
        "type": 0,
        "location": {
            "lat": 35.804633,
            "lng": 100.450343
        },
        "ad_info": {
            "adcode": 632525,
            "province": "青海省",
            "city": "海南藏族自治州",
            "district": "贵南县"
        }
    },
    {
        "id": "16889693681756497237",
        "title": "公共厕所(青海湖国家重点风景名胜区)",
        "address": "青海省海南藏族自治州共和县青海湖二郎剑景区内(东侧)",
        "tel": "",
        "category": "基础设施:公共设施:公共厕所",
        "type": 0,
        "location": {
            "lat": 36.579919,
            "lng": 100.499791
        },
        "ad_info": {
            "adcode": 632521,
            "province": "青海省",
            "city": "海南藏族自治州",
            "district": "共和县"
        }
    },
    {
        "id": "1353890863040439535",
        "title": "公共厕所",
        "address": "青海省海南藏族自治州贵南县鲁仓生态园",
        "tel": "",
        "category": "基础设施:公共设施:公共厕所",
        "type": 0,
        "location": {
            "lat": 35.601938,
            "lng": 100.737617
        },
        "ad_info": {
            "adcode": 632525,
            "province": "青海省",
            "city": "海南藏族自治州",
            "district": "贵南县"
        }
    },
    {
        "id": "3722848393185670299",
        "title": "公共厕所",
        "address": "青海省海南藏族自治州贵德县",
        "tel": "",
        "category": "基础设施:公共设施:公共厕所",
        "type": 0,
        "location": {
            "lat": 35.910514,
            "lng": 101.385215
        },
        "ad_info": {
            "adcode": 632523,
            "province": "青海省",
            "city": "海南藏族自治州",
            "district": "贵德县"
        }
    },
    {
        "id": "3938588448981236284",
        "title": "公共厕所",
        "address": "青海省海南藏族自治州贵德县北环路与西久公路交叉口正西方向1948米左右",
        "tel": "",
        "category": "基础设施:公共设施:公共厕所",
        "type": 0,
        "location": {
            "lat": 36.014924,
            "lng": 101.366183
        },
        "ad_info": {
            "adcode": 632523,
            "province": "青海省",
            "city": "海南藏族自治州",
            "district": "贵德县"
        }
    },
    {
        "id": "2565459793670371004",
        "title": "公共厕所",
        "address": "青海省海南藏族自治州贵德县",
        "tel": "",
        "category": "基础设施:公共设施:公共厕所",
        "type": 0,
        "location": {
            "lat": 36.133474,
            "lng": 101.585383
        },
        "ad_info": {
            "adcode": 632523,
            "province": "青海省",
            "city": "海南藏族自治州",
            "district": "贵德县"
        }
    },
    {
        "id": "13098111920426733583",
        "title": "公共厕所",
        "address": "青海省海南藏族自治州贵德县赛尔丹民俗园东侧100米",
        "tel": "",
        "category": "基础设施:公共设施:公共厕所",
        "type": 0,
        "location": {
            "lat": 36.163689,
            "lng": 101.655949
        },
        "ad_info": {
            "adcode": 632523,
            "province": "青海省",
            "city": "海南藏族自治州",
            "district": "贵德县"
        }
    },
    {
        "id": "8366040917431234918",
        "title": "公共厕所",
        "address": "青海省海南藏族自治州贵德县中国石化贵德南出口加油站西北侧300米",
        "tel": "",
        "category": "基础设施:公共设施:公共厕所",
        "type": 0,
        "location": {
            "lat": 36.018752,
            "lng": 101.371092
        },
        "ad_info": {
            "adcode": 632523,
            "province": "青海省",
            "city": "海南藏族自治州",
            "district": "贵德县"
        }
    },
    {
        "id": "8775695377423169652",
        "title": "公共厕所",
        "address": "青海省海南藏族自治州贵德县北环路与西久公路交叉口正西方向1787米左右",
        "tel": "",
        "category": "基础设施:公共设施:公共厕所",
        "type": 0,
        "location": {
            "lat": 36.01637,
            "lng": 101.367672
        },
        "ad_info": {
            "adcode": 632523,
            "province": "青海省",
            "city": "海南藏族自治州",
            "district": "贵德县"
        }
    },
    {
        "id": "9361399092115226728",
        "title": "公共厕所",
        "address": "青海省海南藏族自治州共和县倒淌河拉乙亥麻厕所",
        "tel": "",
        "category": "基础设施:公共设施:公共厕所",
        "type": 0,
        "location": {
            "lat": 36.35823,
            "lng": 100.807503
        },
        "ad_info": {
            "adcode": 632521,
            "province": "青海省",
            "city": "海南藏族自治州",
            "district": "共和县"
        }
    },
    {
        "id": "6595556826823380892",
        "title": "公共厕所",
        "address": "青海省海南藏族自治州共和县恰卜恰镇下塔迈乡村旅游扶贫村厕所",
        "tel": "",
        "category": "基础设施:公共设施:公共厕所",
        "type": 0,
        "location": {
            "lat": 36.231395,
            "lng": 100.667038
        },
        "ad_info": {
            "adcode": 632521,
            "province": "青海省",
            "city": "海南藏族自治州",
            "district": "共和县"
        }
    },
    {
        "id": "13139881582740831899",
        "title": "公共厕所",
        "address": "青海省海南藏族自治州兴海县文化广场旅游厕所",
        "tel": "",
        "category": "基础设施:公共设施:公共厕所",
        "type": 0,
        "location": {
            "lat": 35.588137,
            "lng": 99.979325
        },
        "ad_info": {
            "adcode": 632524,
            "province": "青海省",
            "city": "海南藏族自治州",
            "district": "兴海县"
        }
    },
    {
        "id": "6602250524262147492",
        "title": "公共厕所",
        "address": "青海省海南藏族自治州共和县当家寺2号旅游厕所",
        "tel": "",
        "category": "基础设施:公共设施:公共厕所",
        "type": 0,
        "location": {
            "lat": 36.200304,
            "lng": 100.906641
        },
        "ad_info": {
            "adcode": 632521,
            "province": "青海省",
            "city": "海南藏族自治州",
            "district": "共和县"
        }
    },
    {
        "id": "16130078935384526452",
        "title": "公共厕所",
        "address": "青海省海南藏族自治州共和县龙羊峡景区曹多隆村景点旅游公厕",
        "tel": "",
        "category": "基础设施:公共设施:公共厕所",
        "type": 0,
        "location": {
            "lat": 36.170947,
            "lng": 100.74081
        },
        "ad_info": {
            "adcode": 632521,
            "province": "青海省",
            "city": "海南藏族自治州",
            "district": "共和县"
        }
    },
    {
        "id": "11310909841304891995",
        "title": "公共厕所",
        "address": "青海省海南藏族自治州共和县龙羊峡景区黄河村景点旅游公厕",
        "tel": "",
        "category": "基础设施:公共设施:公共厕所",
        "type": 0,
        "location": {
            "lat": 36.1968,
            "lng": 100.717275
        },
        "ad_info": {
            "adcode": 632521,
            "province": "青海省",
            "city": "海南藏族自治州",
            "district": "共和县"
        }
    },
    {
        "id": "11978066844521818226",
        "title": "公共厕所",
        "address": "青海省海南藏族自治州共和县倒淌河拉乙亥麻旅游厕所",
        "tel": "",
        "category": "基础设施:公共设施:公共厕所",
        "type": 0,
        "location": {
            "lat": 36.433227,
            "lng": 100.87252
        },
        "ad_info": {
            "adcode": 632521,
            "province": "青海省",
            "city": "海南藏族自治州",
            "district": "共和县"
        }
    },
    {
        "id": "5441349993864766731",
        "title": "公共厕所",
        "address": "青海省海南藏族自治州贵德县迎宾西路7号",
        "tel": "",
        "category": "基础设施:公共设施:公共厕所",
        "type": 0,
        "location": {
            "lat": 36.039859,
            "lng": 101.432346
        },
        "ad_info": {
            "adcode": 632523,
            "province": "青海省",
            "city": "海南藏族自治州",
            "district": "贵德县"
        }
    },
    {
        "id": "2762344241984408439",
        "title": "公共厕所",
        "address": "青海省海南藏族自治州共和县江西沟乡莫热景区厕所",
        "tel": "",
        "category": "基础设施:公共设施:公共厕所",
        "type": 0,
        "location": {
            "lat": 36.5994,
            "lng": 100.360648
        },
        "ad_info": {
            "adcode": 632521,
            "province": "青海省",
            "city": "海南藏族自治州",
            "district": "共和县"
        }
    },
    {
        "id": "6618283747087691728",
        "title": "公共厕所",
        "address": "青海省海南藏族自治州贵南县塔秀村赛马场厕所",
        "tel": "",
        "category": "基础设施:公共设施:公共厕所",
        "type": 0,
        "location": {
            "lat": 35.524296,
            "lng": 100.651351
        },
        "ad_info": {
            "adcode": 632525,
            "province": "青海省",
            "city": "海南藏族自治州",
            "district": "贵南县"
        }
    },
    {
        "id": "12349242022218684032",
        "title": "公共厕所",
        "address": "青海省海南藏族自治州贵南县过马营镇三角滩黑账房油菜花景点",
        "tel": "",
        "category": "基础设施:公共设施:公共厕所",
        "type": 0,
        "location": {
            "lat": 35.776016,
            "lng": 101.235125
        },
        "ad_info": {
            "adcode": 632525,
            "province": "青海省",
            "city": "海南藏族自治州",
            "district": "贵南县"
        }
    },
    {
        "id": "10972910020026036448",
        "title": "公共厕所",
        "address": "青海省海南藏族自治州贵南县过马营镇直亥景区停车场厕所",
        "tel": "",
        "category": "基础设施:公共设施:公共厕所",
        "type": 0,
        "location": {
            "lat": 35.65498,
            "lng": 101.407753
        },
        "ad_info": {
            "adcode": 632525,
            "province": "青海省",
            "city": "海南藏族自治州",
            "district": "贵南县"
        }
    },
    {
        "id": "17860033080903679024",
        "title": "公共厕所",
        "address": "青海省海南藏族自治州兴海县夏塘村二社乡村旅游厕所",
        "tel": "",
        "category": "基础设施:公共设施:公共厕所",
        "type": 0,
        "location": {
            "lat": 35.504633,
            "lng": 99.970797
        },
        "ad_info": {
            "adcode": 632524,
            "province": "青海省",
            "city": "海南藏族自治州",
            "district": "兴海县"
        }
    },
    {
        "id": "4395922810699519249",
        "title": "公共厕所",
        "address": "青海省海南藏族自治州兴海县中铁乡吉浪滩旅游公厕",
        "tel": "",
        "category": "基础设施:公共设施:公共厕所",
        "type": 0,
        "location": {
            "lat": 35.244074,
            "lng": 100.139523
        },
        "ad_info": {
            "adcode": 632524,
            "province": "青海省",
            "city": "海南藏族自治州",
            "district": "兴海县"
        }
    },
    {
        "id": "10241520765204748540",
        "title": "公共厕所",
        "address": "青海省海南藏族自治州贵南县龙羊湖南岸旅游厕所",
        "tel": "",
        "category": "基础设施:公共设施:公共厕所",
        "type": 0,
        "location": {
            "lat": 35.869418,
            "lng": 100.567467
        },
        "ad_info": {
            "adcode": 632525,
            "province": "青海省",
            "city": "海南藏族自治州",
            "district": "贵南县"
        }
    },
    {
        "id": "16850716123681520466",
        "title": "公共厕所",
        "address": "青海省海南藏族自治州贵南县塔秀乡羊曲",
        "tel": "",
        "category": "基础设施:公共设施:公共厕所",
        "type": 0,
        "location": {
            "lat": 35.699723,
            "lng": 100.296835
        },
        "ad_info": {
            "adcode": 632525,
            "province": "青海省",
            "city": "海南藏族自治州",
            "district": "贵南县"
        }
    },
    {
        "id": "11078435494119146713",
        "title": "公共厕所",
        "address": "青海省海南藏族自治州共和县兴海东路与环城东路交叉口正北方向183米左右",
        "tel": "",
        "category": "基础设施:公共设施:公共厕所",
        "type": 0,
        "location": {
            "lat": 36.29709,
            "lng": 100.637219
        },
        "ad_info": {
            "adcode": 632521,
            "province": "青海省",
            "city": "海南藏族自治州",
            "district": "共和县"
        }
    },
    {
        "id": "3281565989576997812",
        "title": "公共厕所",
        "address": "青海省海南藏族自治州贵德县罗汉堂民族商店东北侧70米",
        "tel": "",
        "category": "基础设施:公共设施:公共厕所",
        "type": 0,
        "location": {
            "lat": 36.117884,
            "lng": 101.200695
        },
        "ad_info": {
            "adcode": 632523,
            "province": "青海省",
            "city": "海南藏族自治州",
            "district": "贵德县"
        }
    },
    {
        "id": "443824758580799102",
        "title": "公共厕所",
        "address": "青海省海南藏族自治州贵南县文化路与环西路交叉口正北方向73米左右",
        "tel": "",
        "category": "基础设施:公共设施:公共厕所",
        "type": 0,
        "location": {
            "lat": 35.595309,
            "lng": 100.742421
        },
        "ad_info": {
            "adcode": 632525,
            "province": "青海省",
            "city": "海南藏族自治州",
            "district": "贵南县"
        }
    },
    {
        "id": "15861461292718390966",
        "title": "公共厕所",
        "address": "青海省海南藏族自治州贵德县惠安小镇西北侧400米",
        "tel": "",
        "category": "基础设施:公共设施:公共厕所",
        "type": 0,
        "location": {
            "lat": 36.053946,
            "lng": 101.441383
        },
        "ad_info": {
            "adcode": 632523,
            "province": "青海省",
            "city": "海南藏族自治州",
            "district": "贵德县"
        }
    },
    {
        "id": "495842836545459463",
        "title": "公共厕所",
        "address": "青海省海南藏族自治州贵南县沙沟乡德茫村生态观光园旅游厕所",
        "tel": "",
        "category": "基础设施:公共设施:公共厕所",
        "type": 0,
        "location": {
            "lat": 35.976547,
            "lng": 100.850595
        },
        "ad_info": {
            "adcode": 632525,
            "province": "青海省",
            "city": "海南藏族自治州",
            "district": "贵南县"
        }
    },
    {
        "id": "9216006063450125169",
        "title": "公共厕所",
        "address": "青海省海南藏族自治州贵南县文化路与环西路交叉口东南方向166米左右",
        "tel": "",
        "category": "基础设施:公共设施:公共厕所",
        "type": 0,
        "location": {
            "lat": 35.593874,
            "lng": 100.744205
        },
        "ad_info": {
            "adcode": 632525,
            "province": "青海省",
            "city": "海南藏族自治州",
            "district": "贵南县"
        }
    },
    {
        "id": "17240495244375173403",
        "title": "公共厕所",
        "address": "青海省海南藏族自治州贵德县",
        "tel": "",
        "category": "基础设施:公共设施:公共厕所",
        "type": 0,
        "location": {
            "lat": 36.118721,
            "lng": 101.595643
        },
        "ad_info": {
            "adcode": 632523,
            "province": "青海省",
            "city": "海南藏族自治州",
            "district": "贵德县"
        }
    },
    {
        "id": "4985118861011539231",
        "title": "公共厕所",
        "address": "青海省海南藏族自治州贵德县",
        "tel": "",
        "category": "基础设施:公共设施:公共厕所",
        "type": 0,
        "location": {
            "lat": 36.013284,
            "lng": 101.36476
        },
        "ad_info": {
            "adcode": 632523,
            "province": "青海省",
            "city": "海南藏族自治州",
            "district": "贵德县"
        }
    },
    {
        "id": "14013001985387825421",
        "title": "公共厕所",
        "address": "青海省海南藏族自治州贵德县红岩村银泉生态园东侧80米",
        "tel": "",
        "category": "基础设施:公共设施:公共厕所",
        "type": 0,
        "location": {
            "lat": 36.015027,
            "lng": 101.402083
        },
        "ad_info": {
            "adcode": 632523,
            "province": "青海省",
            "city": "海南藏族自治州",
            "district": "贵德县"
        }
    },
    {
        "id": "14666707509116896958",
        "title": "公共厕所",
        "address": "青海省海南藏族自治州贵南县过马营汽车站厕所",
        "tel": "",
        "category": "基础设施:公共设施:公共厕所",
        "type": 0,
        "location": {
            "lat": 35.808176,
            "lng": 101.113372
        },
        "ad_info": {
            "adcode": 632525,
            "province": "青海省",
            "city": "海南藏族自治州",
            "district": "贵南县"
        }
    },
    {
        "id": "6917049178834691143",
        "title": "公共厕所",
        "address": "青海省海南藏族自治州共和县倒湖茶公路与环湖东路交叉口正南方向1345米左右",
        "tel": "",
        "category": "基础设施:公共设施:公共厕所",
        "type": 0,
        "location": {
            "lat": 36.514224,
            "lng": 100.711615
        },
        "ad_info": {
            "adcode": 632521,
            "province": "青海省",
            "city": "海南藏族自治州",
            "district": "共和县"
        }
    },
    {
        "id": "5521788756223696145",
        "title": "公共厕所",
        "address": "青海省海南藏族自治州共和县上塔迈旅游扶贫村停车场厕所",
        "tel": "",
        "category": "基础设施:公共设施:公共厕所",
        "type": 0,
        "location": {
            "lat": 36.225182,
            "lng": 100.608361
        },
        "ad_info": {
            "adcode": 632521,
            "province": "青海省",
            "city": "海南藏族自治州",
            "district": "共和县"
        }
    },
    {
        "id": "9354864717202737579",
        "title": "公共厕所",
        "address": "青海省海南藏族自治州兴海县温泉景区旅游厕所",
        "tel": "",
        "category": "基础设施:公共设施:公共厕所",
        "type": 0,
        "location": {
            "lat": 35.403799,
            "lng": 99.431735
        },
        "ad_info": {
            "adcode": 632524,
            "province": "青海省",
            "city": "海南藏族自治州",
            "district": "兴海县"
        }
    },
    {
        "id": "7929028863531565074",
        "title": "公共厕所",
        "address": "青海省海南藏族自治州贵德县迎宾西路73号",
        "tel": "",
        "category": "基础设施:公共设施:公共厕所",
        "type": 0,
        "location": {
            "lat": 36.039436,
            "lng": 101.431379
        },
        "ad_info": {
            "adcode": 632523,
            "province": "青海省",
            "city": "海南藏族自治州",
            "district": "贵德县"
        }
    },
    {
        "id": "1494182875790837374",
        "title": "公共厕所",
        "address": "青海省海南藏族自治州共和县龙羊峡景区后菊花村旅游厕所",
        "tel": "",
        "category": "基础设施:公共设施:公共厕所",
        "type": 0,
        "location": {
            "lat": 36.178312,
            "lng": 100.764071
        },
        "ad_info": {
            "adcode": 632521,
            "province": "青海省",
            "city": "海南藏族自治州",
            "district": "共和县"
        }
    },
    {
        "id": "6899301381774693742",
        "title": "公共厕所",
        "address": "青海省海南藏族自治州贵德县瑰丽·玫瑰庄园西北侧170米",
        "tel": "",
        "category": "基础设施:公共设施:公共厕所",
        "type": 0,
        "location": {
            "lat": 36.027118,
            "lng": 101.384195
        },
        "ad_info": {
            "adcode": 632523,
            "province": "青海省",
            "city": "海南藏族自治州",
            "district": "贵德县"
        }
    },
    {
        "id": "12440120178057590948",
        "title": "公共厕所",
        "address": "青海省海南藏族自治州贵德县北大街5号",
        "tel": "",
        "category": "基础设施:公共设施:公共厕所",
        "type": 0,
        "location": {
            "lat": 36.046917,
            "lng": 101.430771
        },
        "ad_info": {
            "adcode": 632523,
            "province": "青海省",
            "city": "海南藏族自治州",
            "district": "贵德县"
        }
    },
    {
        "id": "2004793215782243956",
        "title": "公共厕所",
        "address": "青海省海南藏族自治州共和县倒湖茶公路与希望路交叉口东北方向431米左右",
        "tel": "",
        "category": "基础设施:公共设施:公共厕所",
        "type": 0,
        "location": {
            "lat": 36.733873,
            "lng": 99.777989
        },
        "ad_info": {
            "adcode": 632521,
            "province": "青海省",
            "city": "海南藏族自治州",
            "district": "共和县"
        }
    },
    {
        "id": "11023341115529353359",
        "title": "公共厕所",
        "address": "青海省海南藏族自治州同德县东大街与西大街交叉口正南方向96米左右",
        "tel": "",
        "category": "基础设施:公共设施:公共厕所",
        "type": 0,
        "location": {
            "lat": 35.252501,
            "lng": 100.578761
        },
        "ad_info": {
            "adcode": 632522,
            "province": "青海省",
            "city": "海南藏族自治州",
            "district": "同德县"
        }
    },
    {
        "id": "8515452758715963553",
        "title": "公共厕所",
        "address": "青海省海南藏族自治州贵德县G310与育才路交叉口西南方向91米",
        "tel": "",
        "category": "基础设施:公共设施:公共厕所",
        "type": 0,
        "location": {
            "lat": 36.038009,
            "lng": 101.425069
        },
        "ad_info": {
            "adcode": 632523,
            "province": "青海省",
            "city": "海南藏族自治州",
            "district": "贵德县"
        }
    },
    {
        "id": "13733788029333638815",
        "title": "公共厕所(QH-HAN-0308)",
        "address": "青海省海南藏族自治州共和县环湖西路",
        "tel": "",
        "category": "基础设施:公共设施:公共厕所",
        "type": 0,
        "location": {
            "lat": 36.809329,
            "lng": 99.765519
        },
        "ad_info": {
            "adcode": 632521,
            "province": "青海省",
            "city": "海南藏族自治州",
            "district": "共和县"
        }
    },
    {
        "id": "12004143390090024202",
        "title": "公共厕所",
        "address": "青海省海南藏族自治州共和县G109",
        "tel": "",
        "category": "基础设施:公共设施:公共厕所",
        "type": 0,
        "location": {
            "lat": 36.615579,
            "lng": 100.330031
        },
        "ad_info": {
            "adcode": 632521,
            "province": "青海省",
            "city": "海南藏族自治州",
            "district": "共和县"
        }
    },
    {
        "id": "14506753706713493482",
        "title": "公共厕所",
        "address": "青海省海南藏族自治州共和县查那路与龙羊大街交叉口西北方向219米左右",
        "tel": "",
        "category": "基础设施:公共设施:公共厕所",
        "type": 0,
        "location": {
            "lat": 36.133355,
            "lng": 100.911778
        },
        "ad_info": {
            "adcode": 632521,
            "province": "青海省",
            "city": "海南藏族自治州",
            "district": "共和县"
        }
    },
    {
        "id": "1123956387768862407",
        "title": "公共厕所",
        "address": "青海省海南藏族自治州贵德县美地花田农场西南侧260米",
        "tel": "",
        "category": "基础设施:公共设施:公共厕所",
        "type": 0,
        "location": {
            "lat": 35.870621,
            "lng": 101.395172
        },
        "ad_info": {
            "adcode": 632523,
            "province": "青海省",
            "city": "海南藏族自治州",
            "district": "贵德县"
        }
    },
    {
        "id": "8594434661585683799",
        "title": "公共厕所",
        "address": "青海省海南藏族自治州贵南县G227",
        "tel": "",
        "category": "基础设施:公共设施:公共厕所",
        "type": 0,
        "location": {
            "lat": 35.777657,
            "lng": 101.23441
        },
        "ad_info": {
            "adcode": 632525,
            "province": "青海省",
            "city": "海南藏族自治州",
            "district": "贵南县"
        }
    },
    {
        "id": "17859441231440117607",
        "title": "公共厕所",
        "address": "青海省海南藏族自治州贵德县",
        "tel": "",
        "category": "基础设施:公共设施:公共厕所",
        "type": 0,
        "location": {
            "lat": 35.87067,
            "lng": 101.402273
        },
        "ad_info": {
            "adcode": 632523,
            "province": "青海省",
            "city": "海南藏族自治州",
            "district": "贵德县"
        }
    },
    {
        "id": "12601859973455156899",
        "title": "公共厕所",
        "address": "青海省海南藏族自治州贵德县中国石化贵德南出口加油站西北侧80米",
        "tel": "",
        "category": "基础设施:公共设施:公共厕所",
        "type": 0,
        "location": {
            "lat": 36.017149,
            "lng": 101.372284
        },
        "ad_info": {
            "adcode": 632523,
            "province": "青海省",
            "city": "海南藏族自治州",
            "district": "贵德县"
        }
    },
    {
        "id": "14140504653454744510",
        "title": "公共厕所",
        "address": "青海省海南藏族自治州贵德县黄河清国家湿地公园",
        "tel": "",
        "category": "基础设施:公共设施:公共厕所",
        "type": 0,
        "location": {
            "lat": 36.108468,
            "lng": 101.527433
        },
        "ad_info": {
            "adcode": 632523,
            "province": "青海省",
            "city": "海南藏族自治州",
            "district": "贵德县"
        }
    },
    {
        "id": "5020918907953464009",
        "title": "公共厕所",
        "address": "青海省海南藏族自治州贵德县擎天峡西侧150米",
        "tel": "",
        "category": "基础设施:公共设施:公共厕所",
        "type": 0,
        "location": {
            "lat": 36.137014,
            "lng": 101.585204
        },
        "ad_info": {
            "adcode": 632523,
            "province": "青海省",
            "city": "海南藏族自治州",
            "district": "贵德县"
        }
    },
    {
        "id": "7972269219636195585",
        "title": "公共厕所",
        "address": "青海省海南藏族自治州贵德县栅门街与歇春园路交叉口西南50米",
        "tel": "",
        "category": "基础设施:公共设施:公共厕所",
        "type": 0,
        "location": {
            "lat": 36.038279,
            "lng": 101.425722
        },
        "ad_info": {
            "adcode": 632523,
            "province": "青海省",
            "city": "海南藏族自治州",
            "district": "贵德县"
        }
    },
    {
        "id": "17191754105689088429",
        "title": "公共厕所",
        "address": "青海省海南藏族自治州共和县拉西瓦路与青海湖南大街交叉口正东方向95米左右",
        "tel": "",
        "category": "基础设施:公共设施:公共厕所",
        "type": 0,
        "location": {
            "lat": 36.272311,
            "lng": 100.62338
        },
        "ad_info": {
            "adcode": 632521,
            "province": "青海省",
            "city": "海南藏族自治州",
            "district": "共和县"
        }
    },
    {
        "id": "4378386538869805618",
        "title": "公共厕所",
        "address": "青海省海南藏族自治州同德县尕巴松多镇兴同公路鑫蓉商务宾馆",
        "tel": "",
        "category": "基础设施:公共设施:公共厕所",
        "type": 0,
        "location": {
            "lat": 35.253354,
            "lng": 100.578163
        },
        "ad_info": {
            "adcode": 632522,
            "province": "青海省",
            "city": "海南藏族自治州",
            "district": "同德县"
        }
    },
    {
        "id": "4337914878227461829",
        "title": "公共厕所",
        "address": "青海省海南藏族自治州兴海县G214与温泉北路交叉口正北方向238米左右",
        "tel": "",
        "category": "基础设施:公共设施:公共厕所",
        "type": 0,
        "location": {
            "lat": 35.405096,
            "lng": 99.437482
        },
        "ad_info": {
            "adcode": 632524,
            "province": "青海省",
            "city": "海南藏族自治州",
            "district": "兴海县"
        }
    },
    {
        "id": "13984815578124688744",
        "title": "公共厕所",
        "address": "青海省海南藏族自治州贵德县南海路与梨都大道交叉口东南方向637米左右",
        "tel": "",
        "category": "基础设施:公共设施:公共厕所",
        "type": 0,
        "location": {
            "lat": 36.027748,
            "lng": 101.440262
        },
        "ad_info": {
            "adcode": 632523,
            "province": "青海省",
            "city": "海南藏族自治州",
            "district": "贵德县"
        }
    },
    {
        "id": "7152820108236501126",
        "title": "公共厕所",
        "address": "青海省海南藏族自治州同德县东大街与西大街交叉口正东方向377米左右",
        "tel": "",
        "category": "基础设施:公共设施:公共厕所",
        "type": 0,
        "location": {
            "lat": 35.253639,
            "lng": 100.583141
        },
        "ad_info": {
            "adcode": 632522,
            "province": "青海省",
            "city": "海南藏族自治州",
            "district": "同德县"
        }
    },
    {
        "id": "7004970998717092427",
        "title": "公共厕所",
        "address": "青海省海南藏族自治州共和县倒淌河镇文化广场旅游厕所",
        "tel": "",
        "category": "基础设施:公共设施:公共厕所",
        "type": 0,
        "location": {
            "lat": 36.431861,
            "lng": 100.87239
        },
        "ad_info": {
            "adcode": 632521,
            "province": "青海省",
            "city": "海南藏族自治州",
            "district": "共和县"
        }
    },
    {
        "id": "584377352820396371",
        "title": "公共厕所",
        "address": "青海省海南藏族自治州共和县瓦里关山地汽车摩托车运动区厕所",
        "tel": "",
        "category": "基础设施:公共设施:公共厕所",
        "type": 0,
        "location": {
            "lat": 36.197928,
            "lng": 100.855686
        },
        "ad_info": {
            "adcode": 632521,
            "province": "青海省",
            "city": "海南藏族自治州",
            "district": "共和县"
        }
    },
    {
        "id": "14506813318678288835",
        "title": "公共厕所",
        "address": "青海省海南藏族自治州共和县贵德西路与黄河南大街交叉口正东方向68米左右",
        "tel": "",
        "category": "基础设施:公共设施:公共厕所",
        "type": 0,
        "location": {
            "lat": 36.273242,
            "lng": 100.613583
        },
        "ad_info": {
            "adcode": 632521,
            "province": "青海省",
            "city": "海南藏族自治州",
            "district": "共和县"
        }
    },
    {
        "id": "11570763331201869381",
        "title": "公共厕所",
        "address": "青海省海南藏族自治州贵德县古柳东路与迎宾东路交叉口东南方向24米左右",
        "tel": "",
        "category": "基础设施:公共设施:公共厕所",
        "type": 0,
        "location": {
            "lat": 36.045207,
            "lng": 101.441278
        },
        "ad_info": {
            "adcode": 632523,
            "province": "青海省",
            "city": "海南藏族自治州",
            "district": "贵德县"
        }
    },
    {
        "id": "4204710129857924419",
        "title": "公共厕所",
        "address": "青海省海南藏族自治州贵德县南滨河路与滨河南路交叉口正北方向371米左右",
        "tel": "",
        "category": "基础设施:公共设施:公共厕所",
        "type": 0,
        "location": {
            "lat": 36.040525,
            "lng": 101.403521
        },
        "ad_info": {
            "adcode": 632523,
            "province": "青海省",
            "city": "海南藏族自治州",
            "district": "贵德县"
        }
    },
    {
        "id": "14343797826686869805",
        "title": "公共厕所",
        "address": "青海省海南藏族自治州同德县东大街与兴同公路交叉口西北方向366米左右",
        "tel": "",
        "category": "基础设施:公共设施:公共厕所",
        "type": 0,
        "location": {
            "lat": 35.252699,
            "lng": 100.585906
        },
        "ad_info": {
            "adcode": 632522,
            "province": "青海省",
            "city": "海南藏族自治州",
            "district": "同德县"
        }
    },
    {
        "id": "14495783465333728835",
        "title": "公共厕所",
        "address": "青海省海南藏族自治州同德县唐谷镇美日克村尕干沟景区",
        "tel": "",
        "category": "基础设施:公共设施:公共厕所",
        "type": 0,
        "location": {
            "lat": 35.109748,
            "lng": 100.513884
        },
        "ad_info": {
            "adcode": 632522,
            "province": "青海省",
            "city": "海南藏族自治州",
            "district": "同德县"
        }
    },
    {
        "id": "15702682485270052759",
        "title": "公共厕所",
        "address": "青海省海南藏族自治州贵德县乜那寺路与环城西路交叉口正西方向153米左右",
        "tel": "",
        "category": "基础设施:公共设施:公共厕所",
        "type": 0,
        "location": {
            "lat": 36.044475,
            "lng": 101.422381
        },
        "ad_info": {
            "adcode": 632523,
            "province": "青海省",
            "city": "海南藏族自治州",
            "district": "贵德县"
        }
    },
    {
        "id": "16541723570522048240",
        "title": "公共厕所",
        "address": "青海省海南藏族自治州贵德县瑰丽·玫瑰庄园东侧130米",
        "tel": "",
        "category": "基础设施:公共设施:公共厕所",
        "type": 0,
        "location": {
            "lat": 36.025704,
            "lng": 101.386584
        },
        "ad_info": {
            "adcode": 632523,
            "province": "青海省",
            "city": "海南藏族自治州",
            "district": "贵德县"
        }
    },
    {
        "id": "1970025783211108349",
        "title": "公共厕所",
        "address": "青海省海南藏族自治州贵德县巴豆段",
        "tel": "",
        "category": "基础设施:公共设施:公共厕所",
        "type": 0,
        "location": {
            "lat": 36.278333,
            "lng": 101.140115
        },
        "ad_info": {
            "adcode": 632523,
            "province": "青海省",
            "city": "海南藏族自治州",
            "district": "贵德县"
        }
    },
    {
        "id": "5933035810668603797",
        "title": "公共厕所",
        "address": "青海省海南藏族自治州贵德县文昌路与文运路交叉口正西方向628米左右",
        "tel": "",
        "category": "基础设施:公共设施:公共厕所",
        "type": 0,
        "location": {
            "lat": 36.034352,
            "lng": 101.370711
        },
        "ad_info": {
            "adcode": 632523,
            "province": "青海省",
            "city": "海南藏族自治州",
            "district": "贵德县"
        }
    },
    {
        "id": "3452653871354896393",
        "title": "公共厕所",
        "address": "青海省海南藏族自治州贵德县G310",
        "tel": "",
        "category": "基础设施:公共设施:公共厕所",
        "type": 0,
        "location": {
            "lat": 36.059696,
            "lng": 101.308575
        },
        "ad_info": {
            "adcode": 632523,
            "province": "青海省",
            "city": "海南藏族自治州",
            "district": "贵德县"
        }
    },
    {
        "id": "7654146559976289064",
        "title": "公共厕所",
        "address": "青海省海南藏族自治州贵南县G227",
        "tel": "",
        "category": "基础设施:公共设施:公共厕所",
        "type": 0,
        "location": {
            "lat": 35.777396,
            "lng": 101.234062
        },
        "ad_info": {
            "adcode": 632525,
            "province": "青海省",
            "city": "海南藏族自治州",
            "district": "贵南县"
        }
    },
    {
        "id": "2955393574953038994",
        "title": "公共厕所",
        "address": "青海省海南藏族自治州同德县河北乡赛青丹霞旅游景点",
        "tel": "",
        "category": "基础设施:公共设施:公共厕所",
        "type": 0,
        "location": {
            "lat": 34.736699,
            "lng": 100.914563
        },
        "ad_info": {
            "adcode": 632522,
            "province": "青海省",
            "city": "海南藏族自治州",
            "district": "同德县"
        }
    },
    {
        "id": "9412250470486506725",
        "title": "公共厕所",
        "address": "青海省海南藏族自治州贵南县兴盛路与友谊路交叉口东北方向30米左右",
        "tel": "",
        "category": "基础设施:公共设施:公共厕所",
        "type": 0,
        "location": {
            "lat": 35.807476,
            "lng": 101.114141
        },
        "ad_info": {
            "adcode": 632525,
            "province": "青海省",
            "city": "海南藏族自治州",
            "district": "贵南县"
        }
    },
    {
        "id": "6397044125401071383",
        "title": "公共厕所",
        "address": "青海省海南藏族自治州共和县赛乾路与青海湖南大街交叉口东北方向204米左右",
        "tel": "",
        "category": "基础设施:公共设施:公共厕所",
        "type": 0,
        "location": {
            "lat": 36.280316,
            "lng": 100.622034
        },
        "ad_info": {
            "adcode": 632521,
            "province": "青海省",
            "city": "海南藏族自治州",
            "district": "共和县"
        }
    },
    {
        "id": "3980585279006158058",
        "title": "公共厕所",
        "address": "青海省海南藏族自治州同德县101省道东50米",
        "tel": "",
        "category": "基础设施:公共设施:公共厕所",
        "type": 0,
        "location": {
            "lat": 34.907575,
            "lng": 100.885992
        },
        "ad_info": {
            "adcode": 632522,
            "province": "青海省",
            "city": "海南藏族自治州",
            "district": "同德县"
        }
    },
    {
        "id": "10041446548104029028",
        "title": "公共厕所",
        "address": "青海省海南藏族自治州贵德县拉脊山隧道与西久公路交叉口西北方向600米左右",
        "tel": "",
        "category": "基础设施:公共设施:公共厕所",
        "type": 0,
        "location": {
            "lat": 36.314768,
            "lng": 101.515625
        },
        "ad_info": {
            "adcode": 632523,
            "province": "青海省",
            "city": "海南藏族自治州",
            "district": "贵德县"
        }
    },
    {
        "id": "16673864349023392560",
        "title": "公共厕所",
        "address": "青海省海南藏族自治州贵南县友谊路与滨河路交叉口正南方向314米左右",
        "tel": "",
        "category": "基础设施:公共设施:公共厕所",
        "type": 0,
        "location": {
            "lat": 35.790715,
            "lng": 101.112718
        },
        "ad_info": {
            "adcode": 632525,
            "province": "青海省",
            "city": "海南藏族自治州",
            "district": "贵南县"
        }
    },
    {
        "id": "7331687545696269426",
        "title": "公共厕所",
        "address": "青海省海南藏族自治州同德县兴同公路与西久公路交叉口东北方向1976米左右",
        "tel": "",
        "category": "基础设施:公共设施:公共厕所",
        "type": 0,
        "location": {
            "lat": 35.261014,
            "lng": 100.827071
        },
        "ad_info": {
            "adcode": 632522,
            "province": "青海省",
            "city": "海南藏族自治州",
            "district": "同德县"
        }
    },
    {
        "id": "3698181725914173909",
        "title": "公共厕所",
        "address": "青海省海南藏族自治州贵德县拉脊山隧道与西久公路交叉口西北方向583米左右",
        "tel": "",
        "category": "基础设施:公共设施:公共厕所",
        "type": 0,
        "location": {
            "lat": 36.315034,
            "lng": 101.516407
        },
        "ad_info": {
            "adcode": 632523,
            "province": "青海省",
            "city": "海南藏族自治州",
            "district": "贵德县"
        }
    },
    {
        "id": "6113832153410871962",
        "title": "日月山-公共厕所",
        "address": "青海省海南藏族自治州共和县日月线南50米",
        "tel": "",
        "category": "基础设施:公共设施:公共厕所",
        "type": 0,
        "location": {
            "lat": 36.43993,
            "lng": 101.092085
        },
        "ad_info": {
            "adcode": 632521,
            "province": "青海省",
            "city": "海南藏族自治州",
            "district": "共和县"
        }
    },
    {
        "id": "16741954193347013292",
        "title": "公共厕所",
        "address": "青海省海南藏族自治州共和县G109",
        "tel": "",
        "category": "基础设施:公共设施:公共厕所",
        "type": 0,
        "location": {
            "lat": 36.551029,
            "lng": 100.581024
        },
        "ad_info": {
            "adcode": 632521,
            "province": "青海省",
            "city": "海南藏族自治州",
            "district": "共和县"
        }
    },
    {
        "id": "16804068307771638257",
        "title": "公共厕所",
        "address": "青海省海南藏族自治州贵德县101省道东50米",
        "tel": "",
        "category": "基础设施:公共设施:公共厕所",
        "type": 0,
        "location": {
            "lat": 35.963938,
            "lng": 101.316942
        },
        "ad_info": {
            "adcode": 632523,
            "province": "青海省",
            "city": "海南藏族自治州",
            "district": "贵德县"
        }
    },
    {
        "id": "11475644451744398179",
        "title": "公共厕所",
        "address": "青海省海南藏族自治州共和县和谐路与政和大街交叉口正东方向47米左右",
        "tel": "18292573551",
        "category": "基础设施:公共设施:公共厕所",
        "type": 0,
        "location": {
            "lat": 36.299451,
            "lng": 100.626853
        },
        "ad_info": {
            "adcode": 632521,
            "province": "青海省",
            "city": "海南藏族自治州",
            "district": "共和县"
        }
    },
    {
        "id": "10875742742189503562",
        "title": "公共厕所",
        "address": "青海省海南藏族自治州贵德县河西乡刘屯小学东(西久公路北)",
        "tel": "",
        "category": "基础设施:公共设施:公共厕所",
        "type": 0,
        "location": {
            "lat": 36.018601,
            "lng": 101.382342
        },
        "ad_info": {
            "adcode": 632523,
            "province": "青海省",
            "city": "海南藏族自治州",
            "district": "贵德县"
        }
    },
    {
        "id": "17699152914593006948",
        "title": "公共厕所",
        "address": "青海省海南藏族自治州共和县G214与西城路交叉口正南方向263米左右",
        "tel": "",
        "category": "基础设施:公共设施:公共厕所",
        "type": 0,
        "location": {
            "lat": 36.250806,
            "lng": 100.605176
        },
        "ad_info": {
            "adcode": 632521,
            "province": "青海省",
            "city": "海南藏族自治州",
            "district": "共和县"
        }
    },
    {
        "id": "12441232539943121152",
        "title": "公共厕所",
        "address": "青海省海南藏族自治州共和县查那路与民河路交叉口西南方向268米左右",
        "tel": "",
        "category": "基础设施:公共设施:公共厕所",
        "type": 0,
        "location": {
            "lat": 36.129102,
            "lng": 100.912745
        },
        "ad_info": {
            "adcode": 632521,
            "province": "青海省",
            "city": "海南藏族自治州",
            "district": "共和县"
        }
    },
    {
        "id": "9788474699237014364",
        "title": "公共厕所",
        "address": "青海省海南藏族自治州共和县德吉滩互通桥与西景线交叉口正西方向50米左右",
        "tel": "",
        "category": "基础设施:公共设施:公共厕所",
        "type": 0,
        "location": {
            "lat": 36.308514,
            "lng": 100.645759
        },
        "ad_info": {
            "adcode": 632521,
            "province": "青海省",
            "city": "海南藏族自治州",
            "district": "共和县"
        }
    },
    {
        "id": "8727158452819801476",
        "title": "公共厕所",
        "address": "青海省海南藏族自治州共和县109国道北50米",
        "tel": "",
        "category": "基础设施:公共设施:公共厕所",
        "type": 0,
        "location": {
            "lat": 36.492044,
            "lng": 100.790962
        },
        "ad_info": {
            "adcode": 632521,
            "province": "青海省",
            "city": "海南藏族自治州",
            "district": "共和县"
        }
    },
    {
        "id": "12681951799149263326",
        "title": "公共厕所",
        "address": "青海省海南藏族自治州共和县G109",
        "tel": "",
        "category": "基础设施:公共设施:公共厕所",
        "type": 0,
        "location": {
            "lat": 36.544909,
            "lng": 100.612606
        },
        "ad_info": {
            "adcode": 632521,
            "province": "青海省",
            "city": "海南藏族自治州",
            "district": "共和县"
        }
    },
    {
        "id": "14885299255217271260",
        "title": "公共厕所",
        "address": "青海省海南藏族自治州共和县倒湖茶公路与环湖东路交叉口西北方向1089米左右",
        "tel": "",
        "category": "基础设施:公共设施:公共厕所",
        "type": 0,
        "location": {
            "lat": 36.530327,
            "lng": 100.704046
        },
        "ad_info": {
            "adcode": 632521,
            "province": "青海省",
            "city": "海南藏族自治州",
            "district": "共和县"
        }
    },
    {
        "id": "2849752926994483628",
        "title": "公共厕所",
        "address": "青海省海南藏族自治州共和县G214与X304交叉口东北方向441米左右",
        "tel": "",
        "category": "基础设施:公共设施:公共厕所",
        "type": 0,
        "location": {
            "lat": 36.241145,
            "lng": 100.600135
        },
        "ad_info": {
            "adcode": 632521,
            "province": "青海省",
            "city": "海南藏族自治州",
            "district": "共和县"
        }
    },
    {
        "id": "9536053278933753738",
        "title": "公共厕所",
        "address": "青海省海南藏族自治州共和县龙羊峡土林景点停车场公厕",
        "tel": "",
        "category": "基础设施:公共设施:公共厕所",
        "type": 0,
        "location": {
            "lat": 36.206681,
            "lng": 100.835665
        },
        "ad_info": {
            "adcode": 632521,
            "province": "青海省",
            "city": "海南藏族自治州",
            "district": "共和县"
        }
    },
    {
        "id": "10333338267505113101",
        "title": "公共厕所",
        "address": "青海省海南藏族自治州共和县环湖西路",
        "tel": "",
        "category": "基础设施:公共设施:公共厕所",
        "type": 0,
        "location": {
            "lat": 36.810762,
            "lng": 99.765873
        },
        "ad_info": {
            "adcode": 632521,
            "province": "青海省",
            "city": "海南藏族自治州",
            "district": "共和县"
        }
    },
    {
        "id": "884983254587799357",
        "title": "公共厕所",
        "address": "青海省海南藏族自治州共和县青藏路与市场路交叉口东南100米",
        "tel": "",
        "category": "基础设施:公共设施:公共厕所",
        "type": 0,
        "location": {
            "lat": 36.399535,
            "lng": 100.966351
        },
        "ad_info": {
            "adcode": 632521,
            "province": "青海省",
            "city": "海南藏族自治州",
            "district": "共和县"
        }
    },
    {
        "id": "11005141833968847202",
        "title": "公共厕所",
        "address": "青海省海南藏族自治州共和县宗日路与青海湖南大街交叉口东北方向111米左右",
        "tel": "",
        "category": "基础设施:公共设施:公共厕所",
        "type": 0,
        "location": {
            "lat": 36.278334,
            "lng": 100.622338
        },
        "ad_info": {
            "adcode": 632521,
            "province": "青海省",
            "city": "海南藏族自治州",
            "district": "共和县"
        }
    },
    {
        "id": "12137073594635465396",
        "title": "公共厕所",
        "address": "青海省海南藏族自治州贵德县校场路与河关大道交叉口正南方向167米左右",
        "tel": "",
        "category": "基础设施:公共设施:公共厕所",
        "type": 0,
        "location": {
            "lat": 36.039801,
            "lng": 101.437344
        },
        "ad_info": {
            "adcode": 632523,
            "province": "青海省",
            "city": "海南藏族自治州",
            "district": "贵德县"
        }
    },
    {
        "id": "163682584328540704",
        "title": "公共厕所",
        "address": "青海省海南藏族自治州共和县青海湖北大街2号",
        "tel": "",
        "category": "基础设施:公共设施:公共厕所",
        "type": 0,
        "location": {
            "lat": 36.282885,
            "lng": 100.620509
        },
        "ad_info": {
            "adcode": 632521,
            "province": "青海省",
            "city": "海南藏族自治州",
            "district": "共和县"
        }
    },
    {
        "id": "5119509644399131286",
        "title": "旅游厕所",
        "address": "青海省海南藏族自治州贵南县民主路20号",
        "tel": "",
        "category": "基础设施:公共设施:公共厕所",
        "type": 0,
        "location": {
            "lat": 35.58743,
            "lng": 100.746413
        },
        "ad_info": {
            "adcode": 632525,
            "province": "青海省",
            "city": "海南藏族自治州",
            "district": "贵南县"
        }
    },
    {
        "id": "7774572262639517016",
        "title": "公共厕所",
        "address": "青海省海南藏族自治州共和县恰雄路与青海湖南大街交叉口正西方向19米左右",
        "tel": "",
        "category": "基础设施:公共设施:公共厕所",
        "type": 0,
        "location": {
            "lat": 36.269418,
            "lng": 100.621481
        },
        "ad_info": {
            "adcode": 632521,
            "province": "青海省",
            "city": "海南藏族自治州",
            "district": "共和县"
        }
    },
    {
        "id": "14889519742405697458",
        "title": "同德县秀麻乡木合村原始森林景区旅厕",
        "address": "青海省海南藏族自治州同德县秀麻乡邮政所西南侧110米",
        "tel": "",
        "category": "基础设施:公共设施:公共厕所",
        "type": 0,
        "location": {
            "lat": 34.864896,
            "lng": 100.644214
        },
        "ad_info": {
            "adcode": 632522,
            "province": "青海省",
            "city": "海南藏族自治州",
            "district": "同德县"
        }
    },
    {
        "id": "3935661911729430179",
        "title": "同德县卡里岗游客中心公共厕所",
        "address": "青海省海南藏族自治州同德县卡里岗游客中心",
        "tel": "",
        "category": "基础设施:公共设施:公共厕所",
        "type": 0,
        "location": {
            "lat": 35.335705,
            "lng": 100.239704
        },
        "ad_info": {
            "adcode": 632522,
            "province": "青海省",
            "city": "海南藏族自治州",
            "district": "同德县"
        }
    },
    {
        "id": "2323472884541179783",
        "title": "停车区公共厕所",
        "address": "青海省海南藏族自治州共和县G6京藏高速与停车区交叉口西80米",
        "tel": "",
        "category": "基础设施:公共设施:公共厕所",
        "type": 0,
        "location": {
            "lat": 36.431516,
            "lng": 99.989209
        },
        "ad_info": {
            "adcode": 632521,
            "province": "青海省",
            "city": "海南藏族自治州",
            "district": "共和县"
        }
    },
    {
        "id": "14725422287024020132",
        "title": "停车区公共厕所",
        "address": "青海省海南藏族自治州共和县停车区与G6京藏高速交叉口西北240米",
        "tel": "",
        "category": "基础设施:公共设施:公共厕所",
        "type": 0,
        "location": {
            "lat": 36.432858,
            "lng": 99.987725
        },
        "ad_info": {
            "adcode": 632521,
            "province": "青海省",
            "city": "海南藏族自治州",
            "district": "共和县"
        }
    },
    {
        "id": "1657672036866433169",
        "title": "停车区第一公共厕所",
        "address": "青海省海南藏族自治州共和县G6京藏高速与停车区交叉口东北20米",
        "tel": "",
        "category": "基础设施:公共设施:公共厕所",
        "type": 0,
        "location": {
            "lat": 36.431925,
            "lng": 99.990182
        },
        "ad_info": {
            "adcode": 632521,
            "province": "青海省",
            "city": "海南藏族自治州",
            "district": "共和县"
        }
    },
    {
        "id": "10223577873075669236",
        "title": "同德县田野农家院公共厕所",
        "address": "青海省海南藏族自治州同德县田野农家院",
        "tel": "",
        "category": "基础设施:公共设施:公共厕所",
        "type": 0,
        "location": {
            "lat": 35.335129,
            "lng": 100.249973
        },
        "ad_info": {
            "adcode": 632522,
            "province": "青海省",
            "city": "海南藏族自治州",
            "district": "同德县"
        }
    },
    {
        "id": "11189986582785367684",
        "title": "倒淌河停车区公共厕所",
        "address": "青海省海南藏族自治州共和县倒淌河停车区超市西南侧",
        "tel": "",
        "category": "基础设施:公共设施:公共厕所",
        "type": 0,
        "location": {
            "lat": 36.416281,
            "lng": 101.041718
        },
        "ad_info": {
            "adcode": 632521,
            "province": "青海省",
            "city": "海南藏族自治州",
            "district": "共和县"
        }
    },
    {
        "id": "12455865794800875293",
        "title": "温泉服务区公共厕所",
        "address": "青海省海南藏族自治州兴海县中国石油交投能源温泉服务区加油站西侧100米",
        "tel": "",
        "category": "基础设施:公共设施:公共厕所",
        "type": 0,
        "location": {
            "lat": 35.40665,
            "lng": 99.415739
        },
        "ad_info": {
            "adcode": 632524,
            "province": "青海省",
            "city": "海南藏族自治州",
            "district": "兴海县"
        }
    },
    {
        "id": "2340620336414366312",
        "title": "温泉服务区公共厕所",
        "address": "青海省海南藏族自治州兴海县中国石油温泉服务区加油站东南侧90米",
        "tel": "",
        "category": "基础设施:公共设施:公共厕所",
        "type": 0,
        "location": {
            "lat": 35.407844,
            "lng": 99.417268
        },
        "ad_info": {
            "adcode": 632524,
            "province": "青海省",
            "city": "海南藏族自治州",
            "district": "兴海县"
        }
    },
    {
        "id": "5709221285443063406",
        "title": "共和服务区公共厕所",
        "address": "青海省海南藏族自治州共和县和平路与环城北路交叉口西北方向587米左右",
        "tel": "",
        "category": "基础设施:公共设施:公共厕所",
        "type": 0,
        "location": {
            "lat": 36.311087,
            "lng": 100.618345
        },
        "ad_info": {
            "adcode": 632521,
            "province": "青海省",
            "city": "海南藏族自治州",
            "district": "共和县"
        }
    },
    {
        "id": "7602562906041468001",
        "title": "共和服务区公共厕所",
        "address": "青海省海南藏族自治州共和县新区西路与环城北路交叉口东北方向454米左右",
        "tel": "",
        "category": "基础设施:公共设施:公共厕所",
        "type": 0,
        "location": {
            "lat": 36.310195,
            "lng": 100.616852
        },
        "ad_info": {
            "adcode": 632521,
            "province": "青海省",
            "city": "海南藏族自治州",
            "district": "共和县"
        }
    },
    {
        "id": "5938488272026387944",
        "title": "共和服务区第二公共厕所",
        "address": "青海省海南藏族自治州共和县和平路与环城北路交叉口西北方向503米左右",
        "tel": "",
        "category": "基础设施:公共设施:公共厕所",
        "type": 0,
        "location": {
            "lat": 36.310116,
            "lng": 100.618457
        },
        "ad_info": {
            "adcode": 632521,
            "province": "青海省",
            "city": "海南藏族自治州",
            "district": "共和县"
        }
    },
    {
        "id": "4449022727225763405",
        "title": "同德县新区旅厕",
        "address": "青海省海南藏族自治州同德县同贵路与纬一路交叉口西北方向41米左右",
        "tel": "",
        "category": "基础设施:公共设施:公共厕所",
        "type": 0,
        "location": {
            "lat": 35.267392,
            "lng": 100.561818
        },
        "ad_info": {
            "adcode": 632522,
            "province": "青海省",
            "city": "海南藏族自治州",
            "district": "同德县"
        }
    },
    {
        "id": "1488802751117683330",
        "title": "公共卫生间",
        "address": "青海省海南藏族自治州共和县共和餐饮文化街",
        "tel": "",
        "category": "基础设施:公共设施:公共厕所",
        "type": 0,
        "location": {
            "lat": 36.273466,
            "lng": 100.624145
        },
        "ad_info": {
            "adcode": 632521,
            "province": "青海省",
            "city": "海南藏族自治州",
            "district": "共和县"
        }
    },
    {
        "id": "461385967209821699",
        "title": "公共厕所",
        "address": "青海省海南藏族自治州贵德县美地花田农场西侧80米",
        "tel": "",
        "category": "基础设施:公共设施:公共厕所",
        "type": 0,
        "location": {
            "lat": 35.872273,
            "lng": 101.396365
        },
        "ad_info": {
            "adcode": 632523,
            "province": "青海省",
            "city": "海南藏族自治州",
            "district": "贵德县"
        }
    },
    {
        "id": "8956375428367868558",
        "title": "公共厕所",
        "address": "青海省海南藏族自治州共和县倒淌河景区旅游厕所",
        "tel": "",
        "category": "基础设施:公共设施:公共厕所",
        "type": 0,
        "location": {
            "lat": 36.399209,
            "lng": 100.971678
        },
        "ad_info": {
            "adcode": 632521,
            "province": "青海省",
            "city": "海南藏族自治州",
            "district": "共和县"
        }
    },
    {
        "id": "7384417566522510596",
        "title": "公共厕所",
        "address": "青海省海南藏族自治州兴海县公安巷与农牧路交叉口东南方向74米左右",
        "tel": "",
        "category": "基础设施:公共设施:公共厕所",
        "type": 0,
        "location": {
            "lat": 35.591764,
            "lng": 99.99046
        },
        "ad_info": {
            "adcode": 632524,
            "province": "青海省",
            "city": "海南藏族自治州",
            "district": "兴海县"
        }
    },
    {
        "id": "8464503453299545016",
        "title": "公共厕所",
        "address": "青海省海南藏族自治州贵南县洛加村穆格滩青稞酒业有限责任公司",
        "tel": "",
        "category": "基础设施:公共设施:公共厕所",
        "type": 0,
        "location": {
            "lat": 35.775942,
            "lng": 101.233934
        },
        "ad_info": {
            "adcode": 632525,
            "province": "青海省",
            "city": "海南藏族自治州",
            "district": "贵南县"
        }
    },
    {
        "id": "11750431919561587674",
        "title": "公共厕所",
        "address": "青海省海南藏族自治州兴海县河卡镇红旗万亩野花海观景点",
        "tel": "",
        "category": "基础设施:公共设施:公共厕所",
        "type": 0,
        "location": {
            "lat": 35.975967,
            "lng": 99.855623
        },
        "ad_info": {
            "adcode": 632524,
            "province": "青海省",
            "city": "海南藏族自治州",
            "district": "兴海县"
        }
    },
    {
        "id": "699654037102092238",
        "title": "公共厕所",
        "address": "青海省海南藏族自治州共和县龙羊峡景区龙羊新村景点旅游厕所",
        "tel": "",
        "category": "基础设施:公共设施:公共厕所",
        "type": 0,
        "location": {
            "lat": 36.189602,
            "lng": 100.855724
        },
        "ad_info": {
            "adcode": 632521,
            "province": "青海省",
            "city": "海南藏族自治州",
            "district": "共和县"
        }
    },
    {
        "id": "17285087943284947751",
        "title": "公共厕所",
        "address": "青海省海南藏族自治州贵德县友谊路与河关大道交叉口正东方向148米左右",
        "tel": "",
        "category": "基础设施:公共设施:公共厕所",
        "type": 0,
        "location": {
            "lat": 36.043826,
            "lng": 101.448568
        },
        "ad_info": {
            "adcode": 632523,
            "province": "青海省",
            "city": "海南藏族自治州",
            "district": "贵德县"
        }
    },
    {
        "id": "15056601610997646697",
        "title": "公共厕所",
        "address": "青海省海南藏族自治州贵德县东河西路与惠民路南段交叉口正东方向228米左右",
        "tel": "",
        "category": "基础设施:公共设施:公共厕所",
        "type": 0,
        "location": {
            "lat": 36.049351,
            "lng": 101.443828
        },
        "ad_info": {
            "adcode": 632523,
            "province": "青海省",
            "city": "海南藏族自治州",
            "district": "贵德县"
        }
    },
    {
        "id": "15056979838728438093",
        "title": "公共厕所",
        "address": "青海省海南藏族自治州贵德县古柳西路与环城西路交叉口东南方向70米左右",
        "tel": "",
        "category": "基础设施:公共设施:公共厕所",
        "type": 0,
        "location": {
            "lat": 36.041612,
            "lng": 101.425193
        },
        "ad_info": {
            "adcode": 632523,
            "province": "青海省",
            "city": "海南藏族自治州",
            "district": "贵德县"
        }
    },
    {
        "id": "15853858308184386610",
        "title": "公共厕所",
        "address": "青海省海南藏族自治州贵德县尕让乡阿什贡小学西南侧50米",
        "tel": "",
        "category": "基础设施:公共设施:公共厕所",
        "type": 0,
        "location": {
            "lat": 36.129615,
            "lng": 101.580524
        },
        "ad_info": {
            "adcode": 632523,
            "province": "青海省",
            "city": "海南藏族自治州",
            "district": "贵德县"
        }
    },
    {
        "id": "1028366961623012480",
        "title": "公共厕所",
        "address": "青海省海南藏族自治州共和县恰江公路与文成路交叉口东南方向16米左右",
        "tel": "",
        "category": "基础设施:公共设施:公共厕所",
        "type": 0,
        "location": {
            "lat": 36.576197,
            "lng": 100.486799
        },
        "ad_info": {
            "adcode": 632521,
            "province": "青海省",
            "city": "海南藏族自治州",
            "district": "共和县"
        }
    },
    {
        "id": "11217602605773088570",
        "title": "公共厕所",
        "address": "青海省海南藏族自治州贵德县文昌路与文运路交叉口西北方向869米左右",
        "tel": "",
        "category": "基础设施:公共设施:公共厕所",
        "type": 0,
        "location": {
            "lat": 36.03725,
            "lng": 101.369136
        },
        "ad_info": {
            "adcode": 632523,
            "province": "青海省",
            "city": "海南藏族自治州",
            "district": "贵德县"
        }
    },
    {
        "id": "11451279137841573016",
        "title": "公共厕所",
        "address": "青海省海南藏族自治州同德县东西大街与西大街交叉口正西方向201米左右",
        "tel": "",
        "category": "基础设施:公共设施:公共厕所",
        "type": 0,
        "location": {
            "lat": 35.254777,
            "lng": 100.573114
        },
        "ad_info": {
            "adcode": 632522,
            "province": "青海省",
            "city": "海南藏族自治州",
            "district": "同德县"
        }
    },
    {
        "id": "10111865324861162410",
        "title": "公共厕所",
        "address": "青海省海南藏族自治州贵德县河西北街与迎宾西路交叉口西北方向21米左右",
        "tel": "",
        "category": "基础设施:公共设施:公共厕所",
        "type": 0,
        "location": {
            "lat": 36.031799,
            "lng": 101.398382
        },
        "ad_info": {
            "adcode": 632523,
            "province": "青海省",
            "city": "海南藏族自治州",
            "district": "贵德县"
        }
    },
    {
        "id": "9456026011703435138",
        "title": "公共厕所",
        "address": "青海省海南藏族自治州贵德县文昌路与河西大道交叉口正西方向223米左右",
        "tel": "",
        "category": "基础设施:公共设施:公共厕所",
        "type": 0,
        "location": {
            "lat": 36.031608,
            "lng": 101.390138
        },
        "ad_info": {
            "adcode": 632523,
            "province": "青海省",
            "city": "海南藏族自治州",
            "district": "贵德县"
        }
    },
    {
        "id": "9830024190278520249",
        "title": "公共厕所",
        "address": "青海省海南藏族自治州贵德县贵德倚河园景区西南侧220米",
        "tel": "",
        "category": "基础设施:公共设施:公共厕所",
        "type": 0,
        "location": {
            "lat": 36.07449,
            "lng": 101.445064
        },
        "ad_info": {
            "adcode": 632523,
            "province": "青海省",
            "city": "海南藏族自治州",
            "district": "贵德县"
        }
    },
    {
        "id": "6926742239740938484",
        "title": "公共厕所",
        "address": "青海省海南藏族自治州同德县夏卜楞路与经一路交叉口西北方向74米左右",
        "tel": "",
        "category": "基础设施:公共设施:公共厕所",
        "type": 0,
        "location": {
            "lat": 35.264995,
            "lng": 100.561105
        },
        "ad_info": {
            "adcode": 632522,
            "province": "青海省",
            "city": "海南藏族自治州",
            "district": "同德县"
        }
    },
    {
        "id": "4366061632684241801",
        "title": "公共厕所",
        "address": "青海省海南藏族自治州贵德县101省道北50米",
        "tel": "",
        "category": "基础设施:公共设施:公共厕所",
        "type": 0,
        "location": {
            "lat": 36.079245,
            "lng": 101.465784
        },
        "ad_info": {
            "adcode": 632523,
            "province": "青海省",
            "city": "海南藏族自治州",
            "district": "贵德县"
        }
    },
    {
        "id": "93022122962786104",
        "title": "公共厕所",
        "address": "青海省海南藏族自治州共和县千卜录名俗文化景区厕所",
        "tel": "",
        "category": "基础设施:公共设施:公共厕所",
        "type": 0,
        "location": {
            "lat": 36.381494,
            "lng": 100.469935
        },
        "ad_info": {
            "adcode": 632521,
            "province": "青海省",
            "city": "海南藏族自治州",
            "district": "共和县"
        }
    },
    {
        "id": "11693613459250558892",
        "title": "公共厕所",
        "address": "青海省海南藏族自治州贵德县X320与河西南街交叉口西北方向223米左右",
        "tel": "",
        "category": "基础设施:公共设施:公共厕所",
        "type": 0,
        "location": {
            "lat": 36.022245,
            "lng": 101.397086
        },
        "ad_info": {
            "adcode": 632523,
            "province": "青海省",
            "city": "海南藏族自治州",
            "district": "贵德县"
        }
    },
    {
        "id": "7934159030685990366",
        "title": "公共厕所",
        "address": "青海省海南藏族自治州贵南县过马营直亥村旅游厕所",
        "tel": "",
        "category": "基础设施:公共设施:公共厕所",
        "type": 0,
        "location": {
            "lat": 35.656245,
            "lng": 101.40533
        },
        "ad_info": {
            "adcode": 632525,
            "province": "青海省",
            "city": "海南藏族自治州",
            "district": "贵南县"
        }
    },
    {
        "id": "8786808761384168233",
        "title": "公共厕所",
        "address": "青海省海南藏族自治州兴海县东大街与格萨尔商业街交叉口正南方向150米左右",
        "tel": "",
        "category": "基础设施:公共设施:公共厕所",
        "type": 0,
        "location": {
            "lat": 35.587095,
            "lng": 99.988256
        },
        "ad_info": {
            "adcode": 632524,
            "province": "青海省",
            "city": "海南藏族自治州",
            "district": "兴海县"
        }
    },
    {
        "id": "14392368135223323488",
        "title": "公共厕所",
        "address": "青海省海南藏族自治州共和县当家寺1号旅游厕所",
        "tel": "",
        "category": "基础设施:公共设施:公共厕所",
        "type": 0,
        "location": {
            "lat": 36.198321,
            "lng": 100.904595
        },
        "ad_info": {
            "adcode": 632521,
            "province": "青海省",
            "city": "海南藏族自治州",
            "district": "共和县"
        }
    },
    {
        "id": "3258946641325565071",
        "title": "公共厕所",
        "address": "青海省海南藏族自治州共和县龙羊峡景区水库西岸旅游厕所",
        "tel": "",
        "category": "基础设施:公共设施:公共厕所",
        "type": 0,
        "location": {
            "lat": 36.117148,
            "lng": 100.696752
        },
        "ad_info": {
            "adcode": 632521,
            "province": "青海省",
            "city": "海南藏族自治州",
            "district": "共和县"
        }
    },
    {
        "id": "1854265723807904373",
        "title": "公共厕所",
        "address": "青海省海南藏族自治州兴海县夏唐沙乃亥旅游厕所",
        "tel": "",
        "category": "基础设施:公共设施:公共厕所",
        "type": 0,
        "location": {
            "lat": 35.468793,
            "lng": 99.945226
        },
        "ad_info": {
            "adcode": 632524,
            "province": "青海省",
            "city": "海南藏族自治州",
            "district": "兴海县"
        }
    },
    {
        "id": "9770499524576271493",
        "title": "公共厕所",
        "address": "青海省海南藏族自治州贵南县沙沟乡德茫村文化产业园厕所",
        "tel": "",
        "category": "基础设施:公共设施:公共厕所",
        "type": 0,
        "location": {
            "lat": 35.977204,
            "lng": 100.860655
        },
        "ad_info": {
            "adcode": 632525,
            "province": "青海省",
            "city": "海南藏族自治州",
            "district": "贵南县"
        }
    },
    {
        "id": "12267117149019746981",
        "title": "公共厕所",
        "address": "青海省海南藏族自治州共和县江西沟镇旅游厕所",
        "tel": "",
        "category": "基础设施:公共设施:公共厕所",
        "type": 0,
        "location": {
            "lat": 36.600089,
            "lng": 100.363504
        },
        "ad_info": {
            "adcode": 632521,
            "province": "青海省",
            "city": "海南藏族自治州",
            "district": "共和县"
        }
    },
    {
        "id": "5268965500606560827",
        "title": "公共厕所",
        "address": "青海省海南藏族自治州贵德县",
        "tel": "",
        "category": "基础设施:公共设施:公共厕所",
        "type": 0,
        "location": {
            "lat": 36.121092,
            "lng": 101.589835
        },
        "ad_info": {
            "adcode": 632523,
            "province": "青海省",
            "city": "海南藏族自治州",
            "district": "贵德县"
        }
    },
    {
        "id": "4843397812465799249",
        "title": "公共厕所",
        "address": "青海省海南藏族自治州贵南县凤凰山",
        "tel": "",
        "category": "基础设施:公共设施:公共厕所",
        "type": 0,
        "location": {
            "lat": 35.589523,
            "lng": 100.765518
        },
        "ad_info": {
            "adcode": 632525,
            "province": "青海省",
            "city": "海南藏族自治州",
            "district": "贵南县"
        }
    },
    {
        "id": "2351186723799391756",
        "title": "公共厕所",
        "address": "青海省海南藏族自治州共和县109国道2175号",
        "tel": "",
        "category": "基础设施:公共设施:公共厕所",
        "type": 0,
        "location": {
            "lat": 36.731749,
            "lng": 99.772554
        },
        "ad_info": {
            "adcode": 632521,
            "province": "青海省",
            "city": "海南藏族自治州",
            "district": "共和县"
        }
    },
    {
        "id": "3010128410134962235",
        "title": "公共厕所",
        "address": "青海省海南藏族自治州兴海县黄河大峡谷鸡冠岭旅游厕所",
        "tel": "",
        "category": "基础设施:公共设施:公共厕所",
        "type": 0,
        "location": {
            "lat": 35.312254,
            "lng": 100.25826
        },
        "ad_info": {
            "adcode": 632524,
            "province": "青海省",
            "city": "海南藏族自治州",
            "district": "兴海县"
        }
    },
    {
        "id": "9450802197107952116",
        "title": "公共厕所",
        "address": "青海省海南藏族自治州共和县二郎庙景区厕所",
        "tel": "",
        "category": "基础设施:公共设施:公共厕所",
        "type": 0,
        "location": {
            "lat": 36.235095,
            "lng": 100.27611
        },
        "ad_info": {
            "adcode": 632521,
            "province": "青海省",
            "city": "海南藏族自治州",
            "district": "共和县"
        }
    },
    {
        "id": "3110504764662243305",
        "title": "公共厕所",
        "address": "青海省海南藏族自治州同德县G573与宗日路交叉口西南方向61米左右",
        "tel": "",
        "category": "基础设施:公共设施:公共厕所",
        "type": 0,
        "location": {
            "lat": 35.259821,
            "lng": 100.571556
        },
        "ad_info": {
            "adcode": 632522,
            "province": "青海省",
            "city": "海南藏族自治州",
            "district": "同德县"
        }
    },
    {
        "id": "13927505920278979578",
        "title": "公共厕所",
        "address": "青海省海南藏族自治州贵德县",
        "tel": "",
        "category": "基础设施:公共设施:公共厕所",
        "type": 0,
        "location": {
            "lat": 36.104145,
            "lng": 101.532268
        },
        "ad_info": {
            "adcode": 632523,
            "province": "青海省",
            "city": "海南藏族自治州",
            "district": "贵德县"
        }
    },
    {
        "id": "13352682458634679455",
        "title": "公共厕所",
        "address": "青海省海南藏族自治州贵德县美地花田农场东南侧220米",
        "tel": "",
        "category": "基础设施:公共设施:公共厕所",
        "type": 0,
        "location": {
            "lat": 35.870425,
            "lng": 101.398616
        },
        "ad_info": {
            "adcode": 632523,
            "province": "青海省",
            "city": "海南藏族自治州",
            "district": "贵德县"
        }
    },
    {
        "id": "18198359173669742172",
        "title": "公共厕所",
        "address": "青海省海南藏族自治州同德县秀麻乡木合村原始森林景区",
        "tel": "",
        "category": "基础设施:公共设施:公共厕所",
        "type": 0,
        "location": {
            "lat": 34.864953,
            "lng": 100.644421
        },
        "ad_info": {
            "adcode": 632522,
            "province": "青海省",
            "city": "海南藏族自治州",
            "district": "同德县"
        }
    },
    {
        "id": "8336647819729937569",
        "title": "公共厕所",
        "address": "青海省海南藏族自治州兴海县图旦达杰民俗文化景区子科滩民俗文化广场",
        "tel": "",
        "category": "基础设施:公共设施:公共厕所",
        "type": 0,
        "location": {
            "lat": 35.585156,
            "lng": 99.957836
        },
        "ad_info": {
            "adcode": 632524,
            "province": "青海省",
            "city": "海南藏族自治州",
            "district": "兴海县"
        }
    },
    {
        "id": "15412722546596465411",
        "title": "公共厕所",
        "address": "青海省海南藏族自治州兴海县羊曲景区旅游厕所",
        "tel": "",
        "category": "基础设施:公共设施:公共厕所",
        "type": 0,
        "location": {
            "lat": 35.694215,
            "lng": 100.241329
        },
        "ad_info": {
            "adcode": 632524,
            "province": "青海省",
            "city": "海南藏族自治州",
            "district": "兴海县"
        }
    },
    {
        "id": "1952880670641586149",
        "title": "倒淌河停车区公共厕所",
        "address": "青海省海南藏族自治州共和县倒淌河停车区与G6京藏高速交叉口西280米",
        "tel": "",
        "category": "基础设施:公共设施:公共厕所",
        "type": 0,
        "location": {
            "lat": 36.417699,
            "lng": 101.04091
        },
        "ad_info": {
            "adcode": 632521,
            "province": "青海省",
            "city": "海南藏族自治州",
            "district": "共和县"
        }
    },
    {
        "id": "4530366418185579530",
        "title": "公共卫生间",
        "address": "青海省海南藏族自治州共和县公安巷与哇晏巷交叉口正西方向300米左右",
        "tel": "",
        "category": "基础设施:公共设施:公共厕所",
        "type": 0,
        "location": {
            "lat": 36.285452,
            "lng": 100.61478
        },
        "ad_info": {
            "adcode": 632521,
            "province": "青海省",
            "city": "海南藏族自治州",
            "district": "共和县"
        }
    },
    {
        "id": "11852988015136512209",
        "title": "公共厕所",
        "address": "青海省海南藏族自治州共和县团结南路206号",
        "tel": "",
        "category": "基础设施:公共设施:公共厕所",
        "type": 0,
        "location": {
            "lat": 36.274637,
            "lng": 100.62212
        },
        "ad_info": {
            "adcode": 632521,
            "province": "青海省",
            "city": "海南藏族自治州",
            "district": "共和县"
        }
    },
    {
        "id": "1940467501390595020",
        "title": "公共厕所",
        "address": "青海省海南藏族自治州兴海县羊曲村大峡谷北岸观景台",
        "tel": "",
        "category": "基础设施:公共设施:公共厕所",
        "type": 0,
        "location": {
            "lat": 35.697353,
            "lng": 100.260843
        },
        "ad_info": {
            "adcode": 632524,
            "province": "青海省",
            "city": "海南藏族自治州",
            "district": "兴海县"
        }
    },
    {
        "id": "12365737730594837471",
        "title": "公共厕所",
        "address": "青海省海南藏族自治州贵德县南海路与梨都大道交叉口东南方向944米左右",
        "tel": "",
        "category": "基础设施:公共设施:公共厕所",
        "type": 0,
        "location": {
            "lat": 36.024846,
            "lng": 101.441359
        },
        "ad_info": {
            "adcode": 632523,
            "province": "青海省",
            "city": "海南藏族自治州",
            "district": "贵德县"
        }
    },
    {
        "id": "16443579408652210924",
        "title": "公共厕所",
        "address": "青海省海南藏族自治州贵德县320县道与直亥公路交叉口南280米",
        "tel": "",
        "category": "基础设施:公共设施:公共厕所",
        "type": 0,
        "location": {
            "lat": 35.716017,
            "lng": 101.37602
        },
        "ad_info": {
            "adcode": 632523,
            "province": "青海省",
            "city": "海南藏族自治州",
            "district": "贵德县"
        }
    },
    {
        "id": "12160087763767706023",
        "title": "公共厕所",
        "address": "青海省海南藏族自治州共和县贵德东路与贵德西路交叉口正西方向185米左右",
        "tel": "",
        "category": "基础设施:公共设施:公共厕所",
        "type": 0,
        "location": {
            "lat": 36.274527,
            "lng": 100.619856
        },
        "ad_info": {
            "adcode": 632521,
            "province": "青海省",
            "city": "海南藏族自治州",
            "district": "共和县"
        }
    },
    {
        "id": "13373030270914026897",
        "title": "公共厕所",
        "address": "青海省海南藏族自治州兴海县天仙居农家院",
        "tel": "",
        "category": "基础设施:公共设施:公共厕所",
        "type": 0,
        "location": {
            "lat": 35.551909,
            "lng": 99.932883
        },
        "ad_info": {
            "adcode": 632524,
            "province": "青海省",
            "city": "海南藏族自治州",
            "district": "兴海县"
        }
    },
    {
        "id": "15962174826023575731",
        "title": "公共厕所",
        "address": "青海省海南藏族自治州贵德县古柳西路与河阴旧西街交叉口正南方向17米左右",
        "tel": "",
        "category": "基础设施:公共设施:公共厕所",
        "type": 0,
        "location": {
            "lat": 36.042801,
            "lng": 101.43011
        },
        "ad_info": {
            "adcode": 632523,
            "province": "青海省",
            "city": "海南藏族自治州",
            "district": "贵德县"
        }
    },
    {
        "id": "3171556703332774810",
        "title": "公共厕所",
        "address": "青海省海南藏族自治州同德县G573与西久公路交叉口西南方向50米左右",
        "tel": "",
        "category": "基础设施:公共设施:公共厕所",
        "type": 0,
        "location": {
            "lat": 35.25188,
            "lng": 100.804674
        },
        "ad_info": {
            "adcode": 632522,
            "province": "青海省",
            "city": "海南藏族自治州",
            "district": "同德县"
        }
    },
    {
        "id": "10944291069017798228",
        "title": "公共厕所",
        "address": "青海省海南藏族自治州共和县拉乙亥路与西倒一级公路交叉口西北方向86米左右",
        "tel": "",
        "category": "基础设施:公共设施:公共厕所",
        "type": 0,
        "location": {
            "lat": 36.398535,
            "lng": 100.974408
        },
        "ad_info": {
            "adcode": 632521,
            "province": "青海省",
            "city": "海南藏族自治州",
            "district": "共和县"
        }
    },
    {
        "id": "15415077262853667445",
        "title": "公共厕所",
        "address": "青海省海南藏族自治州共和县倒湖茶公路与环湖东路交叉口正东方向700米左右",
        "tel": "",
        "category": "基础设施:公共设施:公共厕所",
        "type": 0,
        "location": {
            "lat": 36.523723,
            "lng": 100.722265
        },
        "ad_info": {
            "adcode": 632521,
            "province": "青海省",
            "city": "海南藏族自治州",
            "district": "共和县"
        }
    },
    {
        "id": "7768062107625135130",
        "title": "公共厕所",
        "address": "青海省海南藏族自治州贵德县",
        "tel": "",
        "category": "基础设施:公共设施:公共厕所",
        "type": 0,
        "location": {
            "lat": 36.080181,
            "lng": 101.483194
        },
        "ad_info": {
            "adcode": 632523,
            "province": "青海省",
            "city": "海南藏族自治州",
            "district": "贵德县"
        }
    },
    {
        "id": "17365732644526171648",
        "title": "公共厕所",
        "address": "青海省海南藏族自治州兴海县东大街与健康路交叉口东北方向69米左右",
        "tel": "",
        "category": "基础设施:公共设施:公共厕所",
        "type": 0,
        "location": {
            "lat": 35.588709,
            "lng": 99.991303
        },
        "ad_info": {
            "adcode": 632524,
            "province": "青海省",
            "city": "海南藏族自治州",
            "district": "兴海县"
        }
    },
    {
        "id": "4571220858171215300",
        "title": "公共厕所",
        "address": "青海省海南藏族自治州兴海县外环西路与子青路交叉口东南方向350米左右",
        "tel": "",
        "category": "基础设施:公共设施:公共厕所",
        "type": 0,
        "location": {
            "lat": 35.580033,
            "lng": 99.973104
        },
        "ad_info": {
            "adcode": 632524,
            "province": "青海省",
            "city": "海南藏族自治州",
            "district": "兴海县"
        }
    },
    {
        "id": "11963647182533766244",
        "title": "同德县河北乡金科村公共厕所",
        "address": "青海省海南藏族自治州同德县石藏民俗文化景区丹霞地貌停车场",
        "tel": "",
        "category": "基础设施:公共设施:公共厕所",
        "type": 0,
        "location": {
            "lat": 34.821795,
            "lng": 101.03297
        },
        "ad_info": {
            "adcode": 632522,
            "province": "青海省",
            "city": "海南藏族自治州",
            "district": "同德县"
        }
    },
    {
        "id": "9798474576672060835",
        "title": "公共厕所",
        "address": "青海省海南藏族自治州贵南县前进港与幸福路交叉口西北方向150米左右",
        "tel": "",
        "category": "基础设施:公共设施:公共厕所",
        "type": 0,
        "location": {
            "lat": 35.583159,
            "lng": 100.749382
        },
        "ad_info": {
            "adcode": 632525,
            "province": "青海省",
            "city": "海南藏族自治州",
            "district": "贵南县"
        }
    },
    {
        "id": "7990167492226267185",
        "title": "公共厕所",
        "address": "青海省海南藏族自治州贵德县古城东路与环城路交叉口东北方向228米左右",
        "tel": "",
        "category": "基础设施:公共设施:公共厕所",
        "type": 0,
        "location": {
            "lat": 36.050376,
            "lng": 101.431829
        },
        "ad_info": {
            "adcode": 632523,
            "province": "青海省",
            "city": "海南藏族自治州",
            "district": "贵德县"
        }
    },
    {
        "id": "15045877794769117339",
        "title": "公共厕所",
        "address": "青海省海南藏族自治州共和县倒湖茶公路辅路与环湖西路交叉口东北方向392米左右",
        "tel": "",
        "category": "基础设施:公共设施:公共厕所",
        "type": 0,
        "location": {
            "lat": 36.733753,
            "lng": 99.777533
        },
        "ad_info": {
            "adcode": 632521,
            "province": "青海省",
            "city": "海南藏族自治州",
            "district": "共和县"
        }
    },
    {
        "id": "5084657987965403358",
        "title": "公共厕所",
        "address": "青海省海南藏族自治州贵德县G310与河西大道交叉口西南方向338米左右",
        "tel": "",
        "category": "基础设施:公共设施:公共厕所",
        "type": 0,
        "location": {
            "lat": 36.035808,
            "lng": 101.392726
        },
        "ad_info": {
            "adcode": 632523,
            "province": "青海省",
            "city": "海南藏族自治州",
            "district": "贵德县"
        }
    },
    {
        "id": "14021377226995289118",
        "title": "公共厕所",
        "address": "青海省海南藏族自治州贵德县",
        "tel": "",
        "category": "基础设施:公共设施:公共厕所",
        "type": 0,
        "location": {
            "lat": 36.117413,
            "lng": 101.572268
        },
        "ad_info": {
            "adcode": 632523,
            "province": "青海省",
            "city": "海南藏族自治州",
            "district": "贵德县"
        }
    },
    {
        "id": "1564390109673307114",
        "title": "公共厕所",
        "address": "青海省海南藏族自治州贵德县玫瑰园西北侧",
        "tel": "",
        "category": "基础设施:公共设施:公共厕所",
        "type": 0,
        "location": {
            "lat": 36.030406,
            "lng": 101.437882
        },
        "ad_info": {
            "adcode": 632523,
            "province": "青海省",
            "city": "海南藏族自治州",
            "district": "贵德县"
        }
    },
    {
        "id": "18410579775504708998",
        "title": "公共厕所",
        "address": "青海省海南藏族自治州共和县共和西路与黄河北大街交叉口正南方向45米左右",
        "tel": "",
        "category": "基础设施:公共设施:公共厕所",
        "type": 0,
        "location": {
            "lat": 36.282214,
            "lng": 100.614604
        },
        "ad_info": {
            "adcode": 632521,
            "province": "青海省",
            "city": "海南藏族自治州",
            "district": "共和县"
        }
    },
    {
        "id": "1300048663972984143",
        "title": "同德县宗日文化遗址停车场公共厕所",
        "address": "青海省海南藏族自治州同德县宗日文化遗址停车场",
        "tel": "",
        "category": "基础设施:公共设施:公共厕所",
        "type": 0,
        "location": {
            "lat": 35.327959,
            "lng": 100.274404
        },
        "ad_info": {
            "adcode": 632522,
            "province": "青海省",
            "city": "海南藏族自治州",
            "district": "同德县"
        }
    },
    {
        "id": "15280366240176498590",
        "title": "公共厕所",
        "address": "青海省海南藏族自治州贵德县G310与河西大道交叉口正南方向360米左右",
        "tel": "",
        "category": "基础设施:公共设施:公共厕所",
        "type": 0,
        "location": {
            "lat": 36.035259,
            "lng": 101.394239
        },
        "ad_info": {
            "adcode": 632523,
            "province": "青海省",
            "city": "海南藏族自治州",
            "district": "贵德县"
        }
    },
    {
        "id": "13159246257291650230",
        "title": "公共厕所",
        "address": "青海省海南藏族自治州共和县寿山路与文成路交叉口正西方向231米左右",
        "tel": "",
        "category": "基础设施:公共设施:公共厕所",
        "type": 0,
        "location": {
            "lat": 36.574015,
            "lng": 100.491413
        },
        "ad_info": {
            "adcode": 632521,
            "province": "青海省",
            "city": "海南藏族自治州",
            "district": "共和县"
        }
    },
    {
        "id": "11285582377296725058",
        "title": "公共厕所",
        "address": "青海省海南藏族自治州共和县京拉线",
        "tel": "",
        "category": "基础设施:公共设施:公共厕所",
        "type": 0,
        "location": {
            "lat": 36.703705,
            "lng": 99.844633
        },
        "ad_info": {
            "adcode": 632521,
            "province": "青海省",
            "city": "海南藏族自治州",
            "district": "共和县"
        }
    },
    {
        "id": "6374559686297241513",
        "title": "公共厕所",
        "address": "青海省海南藏族自治州共和县和谐路与政和大街交叉口正北方向129米左右",
        "tel": "",
        "category": "基础设施:公共设施:公共厕所",
        "type": 0,
        "location": {
            "lat": 36.30019,
            "lng": 100.626592
        },
        "ad_info": {
            "adcode": 632521,
            "province": "青海省",
            "city": "海南藏族自治州",
            "district": "共和县"
        }
    },
    {
        "id": "16153471155540275205",
        "title": "公共厕所",
        "address": "青海省海南藏族自治州共和县东山路与共和东路交叉口正南方向116米左右",
        "tel": "",
        "category": "基础设施:公共设施:公共厕所",
        "type": 0,
        "location": {
            "lat": 36.2819,
            "lng": 100.625337
        },
        "ad_info": {
            "adcode": 632521,
            "province": "青海省",
            "city": "海南藏族自治州",
            "district": "共和县"
        }
    },
    {
        "id": "8636177533000108261",
        "title": "同德县北巴滩公共厕所",
        "address": "青海省海南藏族自治州同德县兴同公路与西久公路交叉口东北方向418米左右",
        "tel": "",
        "category": "基础设施:公共设施:公共厕所",
        "type": 0,
        "location": {
            "lat": 35.255551,
            "lng": 100.811264
        },
        "ad_info": {
            "adcode": 632522,
            "province": "青海省",
            "city": "海南藏族自治州",
            "district": "同德县"
        }
    },
    {
        "id": "7138537281603537806",
        "title": "公共厕所",
        "address": "青海省海南藏族自治州贵德县文昌路与文运路交叉口西南方向245米左右",
        "tel": "",
        "category": "基础设施:公共设施:公共厕所",
        "type": 0,
        "location": {
            "lat": 36.032164,
            "lng": 101.375454
        },
        "ad_info": {
            "adcode": 632523,
            "province": "青海省",
            "city": "海南藏族自治州",
            "district": "贵德县"
        }
    },
    {
        "id": "9147616840218190607",
        "title": "公共厕所",
        "address": "青海省海南藏族自治州同德县东西大街与西大街交叉口正北方向196米左右",
        "tel": "",
        "category": "基础设施:公共设施:公共厕所",
        "type": 0,
        "location": {
            "lat": 35.256192,
            "lng": 100.575241
        },
        "ad_info": {
            "adcode": 632522,
            "province": "青海省",
            "city": "海南藏族自治州",
            "district": "同德县"
        }
    },
    {
        "id": "7494541594787439107",
        "title": "公共厕所",
        "address": "青海省海南藏族自治州贵德县水务局家属院(迎宾东路东)",
        "tel": "",
        "category": "基础设施:公共设施:公共厕所",
        "type": 0,
        "location": {
            "lat": 36.040902,
            "lng": 101.434666
        },
        "ad_info": {
            "adcode": 632523,
            "province": "青海省",
            "city": "海南藏族自治州",
            "district": "贵德县"
        }
    },
    {
        "id": "5741533737661285618",
        "title": "公共厕所",
        "address": "青海省海南藏族自治州贵德县河阴旧西街与西栅门路交叉口东南方向172米左右",
        "tel": "",
        "category": "基础设施:公共设施:公共厕所",
        "type": 0,
        "location": {
            "lat": 36.039136,
            "lng": 101.429164
        },
        "ad_info": {
            "adcode": 632523,
            "province": "青海省",
            "city": "海南藏族自治州",
            "district": "贵德县"
        }
    },
    {
        "id": "6278448412677280359",
        "title": "公共厕所",
        "address": "青海省海南藏族自治州共和县环湖西路38号",
        "tel": "",
        "category": "基础设施:公共设施:公共厕所",
        "type": 0,
        "location": {
            "lat": 36.999964,
            "lng": 99.630074
        },
        "ad_info": {
            "adcode": 632521,
            "province": "青海省",
            "city": "海南藏族自治州",
            "district": "共和县"
        }
    },
    {
        "id": "4333280941816560441",
        "title": "公共卫生间",
        "address": "青海省海南藏族自治州共和县查那路与龙羊大街交叉口西南方向438米左右",
        "tel": "",
        "category": "基础设施:公共设施:公共厕所",
        "type": 0,
        "location": {
            "lat": 36.129283,
            "lng": 100.90971
        },
        "ad_info": {
            "adcode": 632521,
            "province": "青海省",
            "city": "海南藏族自治州",
            "district": "共和县"
        }
    },
    {
        "id": "5431766109069455858",
        "title": "卫生间",
        "address": "青海省海南藏族自治州共和县",
        "tel": "",
        "category": "基础设施:公共设施:公共厕所",
        "type": 0,
        "location": {
            "lat": 36.541736,
            "lng": 100.62678
        },
        "ad_info": {
            "adcode": 632521,
            "province": "青海省",
            "city": "海南藏族自治州",
            "district": "共和县"
        }
    },
    {
        "id": "16992765798395782976",
        "title": "同德县黄河农家院公共厕所",
        "address": "青海省海南藏族自治州同德县黄河农家院",
        "tel": "",
        "category": "基础设施:公共设施:公共厕所",
        "type": 0,
        "location": {
            "lat": 35.334383,
            "lng": 100.248681
        },
        "ad_info": {
            "adcode": 632522,
            "province": "青海省",
            "city": "海南藏族自治州",
            "district": "同德县"
        }
    },
    {
        "id": "5140568835120059652",
        "title": "公共厕所",
        "address": "青海省海南藏族自治州共和县倒湖茶公路与通海路交叉口西北方向649米左右",
        "tel": "",
        "category": "基础设施:公共设施:公共厕所",
        "type": 0,
        "location": {
            "lat": 36.576433,
            "lng": 100.506881
        },
        "ad_info": {
            "adcode": 632521,
            "province": "青海省",
            "city": "海南藏族自治州",
            "district": "共和县"
        }
    },
    {
        "id": "6645979579235304339",
        "title": "公共厕所",
        "address": "青海省海南藏族自治州共和县切吉西路与黄河北大街交叉口西南方向33米左右",
        "tel": "",
        "category": "基础设施:公共设施:公共厕所",
        "type": 0,
        "location": {
            "lat": 36.276532,
            "lng": 100.613253
        },
        "ad_info": {
            "adcode": 632521,
            "province": "青海省",
            "city": "海南藏族自治州",
            "district": "共和县"
        }
    },
    {
        "id": "14021377226995289118",
        "title": "公共厕所",
        "address": "青海省海南藏族自治州贵德县",
        "tel": "",
        "category": "基础设施:公共设施:公共厕所",
        "type": 0,
        "location": {
            "lat": 36.117413,
            "lng": 101.572268
        },
        "ad_info": {
            "adcode": 632523,
            "province": "青海省",
            "city": "海南藏族自治州",
            "district": "贵德县"
        }
    },
    {
        "id": "1564390109673307114",
        "title": "公共厕所",
        "address": "青海省海南藏族自治州贵德县玫瑰园西北侧",
        "tel": "",
        "category": "基础设施:公共设施:公共厕所",
        "type": 0,
        "location": {
            "lat": 36.030406,
            "lng": 101.437882
        },
        "ad_info": {
            "adcode": 632523,
            "province": "青海省",
            "city": "海南藏族自治州",
            "district": "贵德县"
        }
    },
    {
        "id": "18410579775504708998",
        "title": "公共厕所",
        "address": "青海省海南藏族自治州共和县共和西路与黄河北大街交叉口正南方向45米左右",
        "tel": "",
        "category": "基础设施:公共设施:公共厕所",
        "type": 0,
        "location": {
            "lat": 36.282214,
            "lng": 100.614604
        },
        "ad_info": {
            "adcode": 632521,
            "province": "青海省",
            "city": "海南藏族自治州",
            "district": "共和县"
        }
    },
    {
        "id": "1300048663972984143",
        "title": "同德县宗日文化遗址停车场公共厕所",
        "address": "青海省海南藏族自治州同德县宗日文化遗址停车场",
        "tel": "",
        "category": "基础设施:公共设施:公共厕所",
        "type": 0,
        "location": {
            "lat": 35.327959,
            "lng": 100.274404
        },
        "ad_info": {
            "adcode": 632522,
            "province": "青海省",
            "city": "海南藏族自治州",
            "district": "同德县"
        }
    },
    {
        "id": "15280366240176498590",
        "title": "公共厕所",
        "address": "青海省海南藏族自治州贵德县G310与河西大道交叉口正南方向360米左右",
        "tel": "",
        "category": "基础设施:公共设施:公共厕所",
        "type": 0,
        "location": {
            "lat": 36.035259,
            "lng": 101.394239
        },
        "ad_info": {
            "adcode": 632523,
            "province": "青海省",
            "city": "海南藏族自治州",
            "district": "贵德县"
        }
    },
    {
        "id": "13159246257291650230",
        "title": "公共厕所",
        "address": "青海省海南藏族自治州共和县寿山路与文成路交叉口正西方向231米左右",
        "tel": "",
        "category": "基础设施:公共设施:公共厕所",
        "type": 0,
        "location": {
            "lat": 36.574015,
            "lng": 100.491413
        },
        "ad_info": {
            "adcode": 632521,
            "province": "青海省",
            "city": "海南藏族自治州",
            "district": "共和县"
        }
    },
    {
        "id": "11285582377296725058",
        "title": "公共厕所",
        "address": "青海省海南藏族自治州共和县京拉线",
        "tel": "",
        "category": "基础设施:公共设施:公共厕所",
        "type": 0,
        "location": {
            "lat": 36.703705,
            "lng": 99.844633
        },
        "ad_info": {
            "adcode": 632521,
            "province": "青海省",
            "city": "海南藏族自治州",
            "district": "共和县"
        }
    },
    {
        "id": "6374559686297241513",
        "title": "公共厕所",
        "address": "青海省海南藏族自治州共和县和谐路与政和大街交叉口正北方向129米左右",
        "tel": "",
        "category": "基础设施:公共设施:公共厕所",
        "type": 0,
        "location": {
            "lat": 36.30019,
            "lng": 100.626592
        },
        "ad_info": {
            "adcode": 632521,
            "province": "青海省",
            "city": "海南藏族自治州",
            "district": "共和县"
        }
    },
    {
        "id": "16153471155540275205",
        "title": "公共厕所",
        "address": "青海省海南藏族自治州共和县东山路与共和东路交叉口正南方向116米左右",
        "tel": "",
        "category": "基础设施:公共设施:公共厕所",
        "type": 0,
        "location": {
            "lat": 36.2819,
            "lng": 100.625337
        },
        "ad_info": {
            "adcode": 632521,
            "province": "青海省",
            "city": "海南藏族自治州",
            "district": "共和县"
        }
    },
    {
        "id": "8636177533000108261",
        "title": "同德县北巴滩公共厕所",
        "address": "青海省海南藏族自治州同德县兴同公路与西久公路交叉口东北方向418米左右",
        "tel": "",
        "category": "基础设施:公共设施:公共厕所",
        "type": 0,
        "location": {
            "lat": 35.255551,
            "lng": 100.811264
        },
        "ad_info": {
            "adcode": 632522,
            "province": "青海省",
            "city": "海南藏族自治州",
            "district": "同德县"
        }
    },
    {
        "id": "7138537281603537806",
        "title": "公共厕所",
        "address": "青海省海南藏族自治州贵德县文昌路与文运路交叉口西南方向245米左右",
        "tel": "",
        "category": "基础设施:公共设施:公共厕所",
        "type": 0,
        "location": {
            "lat": 36.032164,
            "lng": 101.375454
        },
        "ad_info": {
            "adcode": 632523,
            "province": "青海省",
            "city": "海南藏族自治州",
            "district": "贵德县"
        }
    },
    {
        "id": "9147616840218190607",
        "title": "公共厕所",
        "address": "青海省海南藏族自治州同德县东西大街与西大街交叉口正北方向196米左右",
        "tel": "",
        "category": "基础设施:公共设施:公共厕所",
        "type": 0,
        "location": {
            "lat": 35.256192,
            "lng": 100.575241
        },
        "ad_info": {
            "adcode": 632522,
            "province": "青海省",
            "city": "海南藏族自治州",
            "district": "同德县"
        }
    },
    {
        "id": "7494541594787439107",
        "title": "公共厕所",
        "address": "青海省海南藏族自治州贵德县水务局家属院(迎宾东路东)",
        "tel": "",
        "category": "基础设施:公共设施:公共厕所",
        "type": 0,
        "location": {
            "lat": 36.040902,
            "lng": 101.434666
        },
        "ad_info": {
            "adcode": 632523,
            "province": "青海省",
            "city": "海南藏族自治州",
            "district": "贵德县"
        }
    },
    {
        "id": "5741533737661285618",
        "title": "公共厕所",
        "address": "青海省海南藏族自治州贵德县河阴旧西街与西栅门路交叉口东南方向172米左右",
        "tel": "",
        "category": "基础设施:公共设施:公共厕所",
        "type": 0,
        "location": {
            "lat": 36.039136,
            "lng": 101.429164
        },
        "ad_info": {
            "adcode": 632523,
            "province": "青海省",
            "city": "海南藏族自治州",
            "district": "贵德县"
        }
    },
    {
        "id": "6278448412677280359",
        "title": "公共厕所",
        "address": "青海省海南藏族自治州共和县环湖西路38号",
        "tel": "",
        "category": "基础设施:公共设施:公共厕所",
        "type": 0,
        "location": {
            "lat": 36.999964,
            "lng": 99.630074
        },
        "ad_info": {
            "adcode": 632521,
            "province": "青海省",
            "city": "海南藏族自治州",
            "district": "共和县"
        }
    },
    {
        "id": "4333280941816560441",
        "title": "公共卫生间",
        "address": "青海省海南藏族自治州共和县查那路与龙羊大街交叉口西南方向438米左右",
        "tel": "",
        "category": "基础设施:公共设施:公共厕所",
        "type": 0,
        "location": {
            "lat": 36.129283,
            "lng": 100.90971
        },
        "ad_info": {
            "adcode": 632521,
            "province": "青海省",
            "city": "海南藏族自治州",
            "district": "共和县"
        }
    },
    {
        "id": "5431766109069455858",
        "title": "卫生间",
        "address": "青海省海南藏族自治州共和县",
        "tel": "",
        "category": "基础设施:公共设施:公共厕所",
        "type": 0,
        "location": {
            "lat": 36.541736,
            "lng": 100.62678
        },
        "ad_info": {
            "adcode": 632521,
            "province": "青海省",
            "city": "海南藏族自治州",
            "district": "共和县"
        }
    },
    {
        "id": "16992765798395782976",
        "title": "同德县黄河农家院公共厕所",
        "address": "青海省海南藏族自治州同德县黄河农家院",
        "tel": "",
        "category": "基础设施:公共设施:公共厕所",
        "type": 0,
        "location": {
            "lat": 35.334383,
            "lng": 100.248681
        },
        "ad_info": {
            "adcode": 632522,
            "province": "青海省",
            "city": "海南藏族自治州",
            "district": "同德县"
        }
    },
    {
        "id": "5140568835120059652",
        "title": "公共厕所",
        "address": "青海省海南藏族自治州共和县倒湖茶公路与通海路交叉口西北方向649米左右",
        "tel": "",
        "category": "基础设施:公共设施:公共厕所",
        "type": 0,
        "location": {
            "lat": 36.576433,
            "lng": 100.506881
        },
        "ad_info": {
            "adcode": 632521,
            "province": "青海省",
            "city": "海南藏族自治州",
            "district": "共和县"
        }
    },
    {
        "id": "6645979579235304339",
        "title": "公共厕所",
        "address": "青海省海南藏族自治州共和县切吉西路与黄河北大街交叉口西南方向33米左右",
        "tel": "",
        "category": "基础设施:公共设施:公共厕所",
        "type": 0,
        "location": {
            "lat": 36.276532,
            "lng": 100.613253
        },
        "ad_info": {
            "adcode": 632521,
            "province": "青海省",
            "city": "海南藏族自治州",
            "district": "共和县"
        }
    }
]