[
    {
        "id": "8392915654591001327",
        "title": "公共厕所",
        "address": "青海省海北藏族自治州海晏县刚察路与祁连路交叉口正东方向115米左右",
        "tel": "",
        "category": "基础设施:公共设施:公共厕所",
        "type": 0,
        "location": {
            "lat": 36.962508,
            "lng": 100.898281
        },
        "ad_info": {
            "adcode": 632223,
            "province": "青海省",
            "city": "海北藏族自治州",
            "district": "海晏县"
        }
    },
    {
        "id": "11382894037307014394",
        "title": "公共厕所",
        "address": "青海省海北藏族自治州海晏县银滩路与龙夷大街交叉口东南方向94米左右",
        "tel": "",
        "category": "基础设施:公共设施:公共厕所",
        "type": 0,
        "location": {
            "lat": 36.900253,
            "lng": 100.992248
        },
        "ad_info": {
            "adcode": 632223,
            "province": "青海省",
            "city": "海北藏族自治州",
            "district": "海晏县"
        }
    },
    {
        "id": "4757536696481744863",
        "title": "公共厕所",
        "address": "青海省海北藏族自治州海晏县政府路与银滩路交叉口东南方向136米左右",
        "tel": "",
        "category": "基础设施:公共设施:公共厕所",
        "type": 0,
        "location": {
            "lat": 36.954493,
            "lng": 100.903345
        },
        "ad_info": {
            "adcode": 632223,
            "province": "青海省",
            "city": "海北藏族自治州",
            "district": "海晏县"
        }
    },
    {
        "id": "12555190268229529326",
        "title": "公共厕所",
        "address": "青海省海北藏族自治州门源回族自治县外环北路与龙驹路交叉口西南方向54米左右",
        "tel": "",
        "category": "基础设施:公共设施:公共厕所",
        "type": 0,
        "location": {
            "lat": 37.384444,
            "lng": 101.616669
        },
        "ad_info": {
            "adcode": 632221,
            "province": "青海省",
            "city": "海北藏族自治州",
            "district": "门源回族自治县"
        }
    },
    {
        "id": "8889811291864830401",
        "title": "公共厕所",
        "address": "青海省海北藏族自治州祁连县福临宾馆旁巷子",
        "tel": "",
        "category": "基础设施:公共设施:公共厕所",
        "type": 0,
        "location": {
            "lat": 38.181287,
            "lng": 100.243232
        },
        "ad_info": {
            "adcode": 632222,
            "province": "青海省",
            "city": "海北藏族自治州",
            "district": "祁连县"
        }
    },
    {
        "id": "17900019591384764902",
        "title": "公共厕所",
        "address": "青海省海北藏族自治州祁连县G227与岗嘎路交叉口正北方向122米左右",
        "tel": "",
        "category": "基础设施:公共设施:公共厕所",
        "type": 0,
        "location": {
            "lat": 37.967373,
            "lng": 100.939358
        },
        "ad_info": {
            "adcode": 632222,
            "province": "青海省",
            "city": "海北藏族自治州",
            "district": "祁连县"
        }
    },
    {
        "id": "5377612382749733002",
        "title": "公共卫生间",
        "address": "青海省海北藏族自治州门源回族自治县富裕路与育才路交叉口东南方向92米左右",
        "tel": "",
        "category": "基础设施:公共设施:公共厕所",
        "type": 0,
        "location": {
            "lat": 37.377572,
            "lng": 101.599384
        },
        "ad_info": {
            "adcode": 632221,
            "province": "青海省",
            "city": "海北藏族自治州",
            "district": "门源回族自治县"
        }
    },
    {
        "id": "4247233104948893073",
        "title": "公共厕所",
        "address": "青海省海北藏族自治州祁连县人民路与健康路交叉口东北方向14米左右",
        "tel": "",
        "category": "基础设施:公共设施:公共厕所",
        "type": 0,
        "location": {
            "lat": 38.173184,
            "lng": 100.254959
        },
        "ad_info": {
            "adcode": 632222,
            "province": "青海省",
            "city": "海北藏族自治州",
            "district": "祁连县"
        }
    },
    {
        "id": "15331592116309935491",
        "title": "公共厕所",
        "address": "青海省海北藏族自治州门源回族自治县北关中路西秀水花园",
        "tel": "",
        "category": "基础设施:公共设施:公共厕所",
        "type": 0,
        "location": {
            "lat": 37.383101,
            "lng": 101.600697
        },
        "ad_info": {
            "adcode": 632221,
            "province": "青海省",
            "city": "海北藏族自治州",
            "district": "门源回族自治县"
        }
    },
    {
        "id": "10050967305873399818",
        "title": "公共厕所",
        "address": "青海省海北藏族自治州祁连县卓尔山拉洞台停车场",
        "tel": "",
        "category": "基础设施:公共设施:公共厕所",
        "type": 0,
        "location": {
            "lat": 38.169599,
            "lng": 100.280822
        },
        "ad_info": {
            "adcode": 632222,
            "province": "青海省",
            "city": "海北藏族自治州",
            "district": "祁连县"
        }
    },
    {
        "id": "18361419713371982414",
        "title": "公共厕所",
        "address": "青海省海北藏族自治州刚察县金发花园北区(东大街北)",
        "tel": "",
        "category": "基础设施:公共设施:公共厕所",
        "type": 0,
        "location": {
            "lat": 37.325383,
            "lng": 100.139259
        },
        "ad_info": {
            "adcode": 632224,
            "province": "青海省",
            "city": "海北藏族自治州",
            "district": "刚察县"
        }
    },
    {
        "id": "15227110864664734930",
        "title": "公共厕所",
        "address": "青海省海北藏族自治州刚察县尕小公路与沙柳河路交叉口东南方向100米左右",
        "tel": "",
        "category": "基础设施:公共设施:公共厕所",
        "type": 0,
        "location": {
            "lat": 37.3296,
            "lng": 100.146194
        },
        "ad_info": {
            "adcode": 632224,
            "province": "青海省",
            "city": "海北藏族自治州",
            "district": "刚察县"
        }
    },
    {
        "id": "16119973150303624878",
        "title": "公共厕所",
        "address": "青海省海北藏族自治州祁连县扎麻什乡夏塘村旅游公厕",
        "tel": "",
        "category": "基础设施:公共设施:公共厕所",
        "type": 0,
        "location": {
            "lat": 38.214968,
            "lng": 100.000849
        },
        "ad_info": {
            "adcode": 632222,
            "province": "青海省",
            "city": "海北藏族自治州",
            "district": "祁连县"
        }
    },
    {
        "id": "6789570257625244557",
        "title": "公共厕所",
        "address": "青海省海北藏族自治州刚察县吉尔孟路与瓦颜路交叉口正西方向91米左右",
        "tel": "",
        "category": "基础设施:公共设施:公共厕所",
        "type": 0,
        "location": {
            "lat": 37.330505,
            "lng": 100.133005
        },
        "ad_info": {
            "adcode": 632224,
            "province": "青海省",
            "city": "海北藏族自治州",
            "district": "刚察县"
        }
    },
    {
        "id": "601764840690012828",
        "title": "公共厕所",
        "address": "青海省海北藏族自治州祁连县健康路与滨河路交叉口东南方向45米左右",
        "tel": "",
        "category": "基础设施:公共设施:公共厕所",
        "type": 0,
        "location": {
            "lat": 38.175517,
            "lng": 100.259274
        },
        "ad_info": {
            "adcode": 632222,
            "province": "青海省",
            "city": "海北藏族自治州",
            "district": "祁连县"
        }
    },
    {
        "id": "3536887647574693265",
        "title": "公共厕所",
        "address": "青海省海北藏族自治州海晏县五一路与同宝路交叉口东北方向54米左右",
        "tel": "",
        "category": "基础设施:公共设施:公共厕所",
        "type": 0,
        "location": {
            "lat": 36.952479,
            "lng": 100.893321
        },
        "ad_info": {
            "adcode": 632223,
            "province": "青海省",
            "city": "海北藏族自治州",
            "district": "海晏县"
        }
    },
    {
        "id": "10225387779183726869",
        "title": "公共厕所",
        "address": "青海省海北藏族自治州祁连县振兴路与滨河路交叉口正东方向209米左右",
        "tel": "",
        "category": "基础设施:公共设施:公共厕所",
        "type": 0,
        "location": {
            "lat": 38.16053,
            "lng": 100.271415
        },
        "ad_info": {
            "adcode": 632222,
            "province": "青海省",
            "city": "海北藏族自治州",
            "district": "祁连县"
        }
    },
    {
        "id": "12171261927980354926",
        "title": "公共厕所",
        "address": "青海省海北藏族自治州祁连县二尕公路与边麻路交叉口正东方向592米左右",
        "tel": "",
        "category": "基础设施:公共设施:公共厕所",
        "type": 0,
        "location": {
            "lat": 38.455113,
            "lng": 99.546558
        },
        "ad_info": {
            "adcode": 632222,
            "province": "青海省",
            "city": "海北藏族自治州",
            "district": "祁连县"
        }
    },
    {
        "id": "219701256532842541",
        "title": "公共厕所",
        "address": "青海省海北藏族自治州门源回族自治县珠固乡邮政所东侧130米",
        "tel": "",
        "category": "基础设施:公共设施:公共厕所",
        "type": 0,
        "location": {
            "lat": 37.160283,
            "lng": 102.223757
        },
        "ad_info": {
            "adcode": 632221,
            "province": "青海省",
            "city": "海北藏族自治州",
            "district": "门源回族自治县"
        }
    },
    {
        "id": "734770041294338119",
        "title": "公共厕所",
        "address": "青海省海北藏族自治州门源回族自治县东街与宁张公路交叉口正南方向72米左右",
        "tel": "",
        "category": "基础设施:公共设施:公共厕所",
        "type": 0,
        "location": {
            "lat": 37.465169,
            "lng": 101.429157
        },
        "ad_info": {
            "adcode": 632221,
            "province": "青海省",
            "city": "海北藏族自治州",
            "district": "门源回族自治县"
        }
    },
    {
        "id": "8907948465820734807",
        "title": "公共厕所",
        "address": "青海省海北藏族自治州海晏县青藏易购隔壁",
        "tel": "",
        "category": "基础设施:公共设施:公共厕所",
        "type": 0,
        "location": {
            "lat": 36.89833,
            "lng": 100.997646
        },
        "ad_info": {
            "adcode": 632223,
            "province": "青海省",
            "city": "海北藏族自治州",
            "district": "海晏县"
        }
    },
    {
        "id": "10064589028873393537",
        "title": "公共厕所",
        "address": "青海省海北藏族自治州海晏县居士浪段与湟西一级公路交叉口西北方向909米左右",
        "tel": "",
        "category": "基础设施:公共设施:公共厕所",
        "type": 0,
        "location": {
            "lat": 36.814791,
            "lng": 101.093701
        },
        "ad_info": {
            "adcode": 632223,
            "province": "青海省",
            "city": "海北藏族自治州",
            "district": "海晏县"
        }
    },
    {
        "id": "8726947377897162738",
        "title": "公共厕所",
        "address": "青海省海北藏族自治州门源回族自治县珠固乡邮政所东侧250米",
        "tel": "",
        "category": "基础设施:公共设施:公共厕所",
        "type": 0,
        "location": {
            "lat": 37.16064,
            "lng": 102.224896
        },
        "ad_info": {
            "adcode": 632221,
            "province": "青海省",
            "city": "海北藏族自治州",
            "district": "门源回族自治县"
        }
    },
    {
        "id": "6987370403232401526",
        "title": "公共厕所",
        "address": "青海省海北藏族自治州刚察县",
        "tel": "",
        "category": "基础设施:公共设施:公共厕所",
        "type": 0,
        "location": {
            "lat": 37.244186,
            "lng": 100.374277
        },
        "ad_info": {
            "adcode": 632224,
            "province": "青海省",
            "city": "海北藏族自治州",
            "district": "刚察县"
        }
    },
    {
        "id": "12968351798447089792",
        "title": "公共厕所",
        "address": "青海省海北藏族自治州刚察县团结巷与瓦颜路交叉口正南方向22米左右",
        "tel": "",
        "category": "基础设施:公共设施:公共厕所",
        "type": 0,
        "location": {
            "lat": 37.328916,
            "lng": 100.136103
        },
        "ad_info": {
            "adcode": 632224,
            "province": "青海省",
            "city": "海北藏族自治州",
            "district": "刚察县"
        }
    },
    {
        "id": "16822492238662610521",
        "title": "公共厕所",
        "address": "青海省海北藏族自治州祁连县G227与岗嘎路交叉口正南方向89米左右",
        "tel": "",
        "category": "基础设施:公共设施:公共厕所",
        "type": 0,
        "location": {
            "lat": 37.968312,
            "lng": 100.935774
        },
        "ad_info": {
            "adcode": 632222,
            "province": "青海省",
            "city": "海北藏族自治州",
            "district": "祁连县"
        }
    },
    {
        "id": "5895343085566540348",
        "title": "公共卫生间",
        "address": "青海省海北藏族自治州刚察县南大街与拉色波商业街交叉口正南方向33米左右",
        "tel": "",
        "category": "基础设施:公共设施:公共厕所",
        "type": 0,
        "location": {
            "lat": 37.325178,
            "lng": 100.135649
        },
        "ad_info": {
            "adcode": 632224,
            "province": "青海省",
            "city": "海北藏族自治州",
            "district": "刚察县"
        }
    },
    {
        "id": "17506482054580104236",
        "title": "公共厕所",
        "address": "青海省海北藏族自治州门源回族自治县东关街中国石油东关加油站",
        "tel": "",
        "category": "基础设施:公共设施:公共厕所",
        "type": 0,
        "location": {
            "lat": 37.376411,
            "lng": 101.630442
        },
        "ad_info": {
            "adcode": 632221,
            "province": "青海省",
            "city": "海北藏族自治州",
            "district": "门源回族自治县"
        }
    },
    {
        "id": "9186686744510052192",
        "title": "公共厕所",
        "address": "青海省海北藏族自治州祁连县G227与清真路交叉口东南方向61米左右",
        "tel": "",
        "category": "基础设施:公共设施:公共厕所",
        "type": 0,
        "location": {
            "lat": 37.970533,
            "lng": 100.934892
        },
        "ad_info": {
            "adcode": 632222,
            "province": "青海省",
            "city": "海北藏族自治州",
            "district": "祁连县"
        }
    },
    {
        "id": "6061896151433844908",
        "title": "公共厕所",
        "address": "青海省海北藏族自治州海晏县同宝路与门源路交叉口西南方向41米左右",
        "tel": "",
        "category": "基础设施:公共设施:公共厕所",
        "type": 0,
        "location": {
            "lat": 36.951594,
            "lng": 100.90648
        },
        "ad_info": {
            "adcode": 632223,
            "province": "青海省",
            "city": "海北藏族自治州",
            "district": "海晏县"
        }
    },
    {
        "id": "15708861299300306734",
        "title": "公共厕所",
        "address": "青海省海北藏族自治州刚察县G213与贡公麻路交叉口东北方向62米左右",
        "tel": "",
        "category": "基础设施:公共设施:公共厕所",
        "type": 0,
        "location": {
            "lat": 37.601443,
            "lng": 100.430405
        },
        "ad_info": {
            "adcode": 632224,
            "province": "青海省",
            "city": "海北藏族自治州",
            "district": "刚察县"
        }
    },
    {
        "id": "18365052250369078042",
        "title": "公共厕所",
        "address": "青海省海北藏族自治州海晏县三角城大街与同宝路交叉口正西方向55米左右",
        "tel": "",
        "category": "基础设施:公共设施:公共厕所",
        "type": 0,
        "location": {
            "lat": 36.902028,
            "lng": 100.997872
        },
        "ad_info": {
            "adcode": 632223,
            "province": "青海省",
            "city": "海北藏族自治州",
            "district": "海晏县"
        }
    },
    {
        "id": "2871700475889887571",
        "title": "公共厕所",
        "address": "青海省海北藏族自治州刚察县青海湖岛旅游专线",
        "tel": "",
        "category": "基础设施:公共设施:公共厕所",
        "type": 0,
        "location": {
            "lat": 37.036364,
            "lng": 99.743427
        },
        "ad_info": {
            "adcode": 632224,
            "province": "青海省",
            "city": "海北藏族自治州",
            "district": "刚察县"
        }
    },
    {
        "id": "16784348277191818801",
        "title": "公共厕所",
        "address": "青海省海北藏族自治州祁连县G213与吉隆口至老日根公路交叉口东南方向1715米左右",
        "tel": "",
        "category": "基础设施:公共设施:公共厕所",
        "type": 0,
        "location": {
            "lat": 37.963327,
            "lng": 100.29994
        },
        "ad_info": {
            "adcode": 632222,
            "province": "青海省",
            "city": "海北藏族自治州",
            "district": "祁连县"
        }
    },
    {
        "id": "1066425217871454620",
        "title": "公共厕所",
        "address": "青海省海北藏族自治州刚察县315国道北50米",
        "tel": "",
        "category": "基础设施:公共设施:公共厕所",
        "type": 0,
        "location": {
            "lat": 37.274767,
            "lng": 100.280511
        },
        "ad_info": {
            "adcode": 632224,
            "province": "青海省",
            "city": "海北藏族自治州",
            "district": "刚察县"
        }
    },
    {
        "id": "10726798993702095781",
        "title": "公共厕所",
        "address": "青海省海北藏族自治州海晏县居士浪段与湟西一级公路交叉口西北方向885米左右",
        "tel": "",
        "category": "基础设施:公共设施:公共厕所",
        "type": 0,
        "location": {
            "lat": 36.814381,
            "lng": 101.0935
        },
        "ad_info": {
            "adcode": 632223,
            "province": "青海省",
            "city": "海北藏族自治州",
            "district": "海晏县"
        }
    },
    {
        "id": "6714044667882799302",
        "title": "公共厕所",
        "address": "青海省海北藏族自治州海晏县湟水大街与金滩路交叉口正南方向47米左右",
        "tel": "",
        "category": "基础设施:公共设施:公共厕所",
        "type": 0,
        "location": {
            "lat": 36.89904,
            "lng": 101.004752
        },
        "ad_info": {
            "adcode": 632223,
            "province": "青海省",
            "city": "海北藏族自治州",
            "district": "海晏县"
        }
    },
    {
        "id": "17597333251088085722",
        "title": "公共厕所",
        "address": "青海省海北藏族自治州海晏县三角城大街与同宝路交叉口西南方向108米左右",
        "tel": "",
        "category": "基础设施:公共设施:公共厕所",
        "type": 0,
        "location": {
            "lat": 36.901078,
            "lng": 100.997767
        },
        "ad_info": {
            "adcode": 632223,
            "province": "青海省",
            "city": "海北藏族自治州",
            "district": "海晏县"
        }
    },
    {
        "id": "8226660930726527845",
        "title": "公共厕所",
        "address": "青海省海北藏族自治州刚察县恩乃巷与末尼林卡路交叉口东北方向24米左右",
        "tel": "",
        "category": "基础设施:公共设施:公共厕所",
        "type": 0,
        "location": {
            "lat": 37.320338,
            "lng": 100.142193
        },
        "ad_info": {
            "adcode": 632224,
            "province": "青海省",
            "city": "海北藏族自治州",
            "district": "刚察县"
        }
    },
    {
        "id": "4949733416576577622",
        "title": "公共厕所",
        "address": "青海省海北藏族自治州海晏县G213与S310交叉口正东方向87米左右",
        "tel": "",
        "category": "基础设施:公共设施:公共厕所",
        "type": 0,
        "location": {
            "lat": 36.986998,
            "lng": 100.854973
        },
        "ad_info": {
            "adcode": 632223,
            "province": "青海省",
            "city": "海北藏族自治州",
            "district": "海晏县"
        }
    },
    {
        "id": "4568063451158425610",
        "title": "公共厕所",
        "address": "青海省海北藏族自治州海晏县G213与五一路交叉口正南方向1498米左右",
        "tel": "",
        "category": "基础设施:公共设施:公共厕所",
        "type": 0,
        "location": {
            "lat": 36.935933,
            "lng": 100.887286
        },
        "ad_info": {
            "adcode": 632223,
            "province": "青海省",
            "city": "海北藏族自治州",
            "district": "海晏县"
        }
    },
    {
        "id": "15960972494863752406",
        "title": "公共厕所",
        "address": "青海省海北藏族自治州刚察县仙女湾景区停车场",
        "tel": "",
        "category": "基础设施:公共设施:公共厕所",
        "type": 0,
        "location": {
            "lat": 37.201624,
            "lng": 100.115285
        },
        "ad_info": {
            "adcode": 632224,
            "province": "青海省",
            "city": "海北藏族自治州",
            "district": "刚察县"
        }
    },
    {
        "id": "18267257525553220550",
        "title": "公共厕所",
        "address": "青海省海北藏族自治州祁连县富强路与盘大公路交叉口西南方向151米左右",
        "tel": "",
        "category": "基础设施:公共设施:公共厕所",
        "type": 0,
        "location": {
            "lat": 37.715447,
            "lng": 100.576729
        },
        "ad_info": {
            "adcode": 632222,
            "province": "青海省",
            "city": "海北藏族自治州",
            "district": "祁连县"
        }
    },
    {
        "id": "9149829716755222885",
        "title": "公共厕所",
        "address": "青海省海北藏族自治州祁连县二尕公路北50米",
        "tel": "",
        "category": "基础设施:公共设施:公共厕所",
        "type": 0,
        "location": {
            "lat": 38.763849,
            "lng": 98.515778
        },
        "ad_info": {
            "adcode": 632222,
            "province": "青海省",
            "city": "海北藏族自治州",
            "district": "祁连县"
        }
    },
    {
        "id": "2794437984262897331",
        "title": "公共厕所",
        "address": "青海省海北藏族自治州祁连县麻拉河游客中心",
        "tel": "",
        "category": "基础设施:公共设施:公共厕所",
        "type": 0,
        "location": {
            "lat": 38.196255,
            "lng": 100.272317
        },
        "ad_info": {
            "adcode": 632222,
            "province": "青海省",
            "city": "海北藏族自治州",
            "district": "祁连县"
        }
    },
    {
        "id": "9235862538049158745",
        "title": "公共厕所",
        "address": "青海省海北藏族自治州刚察县G315与经四路交叉口东南方向272米左右",
        "tel": "",
        "category": "基础设施:公共设施:公共厕所",
        "type": 0,
        "location": {
            "lat": 37.22225,
            "lng": 100.419913
        },
        "ad_info": {
            "adcode": 632224,
            "province": "青海省",
            "city": "海北藏族自治州",
            "district": "刚察县"
        }
    },
    {
        "id": "7495283738280547867",
        "title": "公共厕所",
        "address": "青海省海北藏族自治州祁连县东沟公路与二尕公路交叉口正东方向160米左右",
        "tel": "",
        "category": "基础设施:公共设施:公共厕所",
        "type": 0,
        "location": {
            "lat": 38.223642,
            "lng": 100.04958
        },
        "ad_info": {
            "adcode": 632222,
            "province": "青海省",
            "city": "海北藏族自治州",
            "district": "祁连县"
        }
    },
    {
        "id": "10042052974994915070",
        "title": "公共厕所",
        "address": "青海省海北藏族自治州祁连县林场路68号",
        "tel": "",
        "category": "基础设施:公共设施:公共厕所",
        "type": 0,
        "location": {
            "lat": 38.16234,
            "lng": 100.266435
        },
        "ad_info": {
            "adcode": 632222,
            "province": "青海省",
            "city": "海北藏族自治州",
            "district": "祁连县"
        }
    },
    {
        "id": "5106051246888859194",
        "title": "公共厕所",
        "address": "青海省海北藏族自治州刚察县G315与新城大道交叉口西南方向1933米左右",
        "tel": "",
        "category": "基础设施:公共设施:公共厕所",
        "type": 0,
        "location": {
            "lat": 37.292969,
            "lng": 100.078422
        },
        "ad_info": {
            "adcode": 632224,
            "province": "青海省",
            "city": "海北藏族自治州",
            "district": "刚察县"
        }
    },
    {
        "id": "10551741884880499352",
        "title": "公共厕所",
        "address": "青海省海北藏族自治州刚察县吉尔孟路与江仓路交叉口西南方向60米左右",
        "tel": "",
        "category": "基础设施:公共设施:公共厕所",
        "type": 0,
        "location": {
            "lat": 37.331938,
            "lng": 100.135211
        },
        "ad_info": {
            "adcode": 632224,
            "province": "青海省",
            "city": "海北藏族自治州",
            "district": "刚察县"
        }
    },
    {
        "id": "11771880853917098070",
        "title": "公共厕所",
        "address": "青海省海北藏族自治州祁连县高塄东路与高塄支路五交叉口正南方向1804米左右",
        "tel": "",
        "category": "基础设施:公共设施:公共厕所",
        "type": 0,
        "location": {
            "lat": 38.132463,
            "lng": 100.290824
        },
        "ad_info": {
            "adcode": 632222,
            "province": "青海省",
            "city": "海北藏族自治州",
            "district": "祁连县"
        }
    },
    {
        "id": "7312428563679405885",
        "title": "公共厕所",
        "address": "青海省海北藏族自治州海晏县光明路与湟西一级公路交叉口西南方向50米左右",
        "tel": "",
        "category": "基础设施:公共设施:公共厕所",
        "type": 0,
        "location": {
            "lat": 36.830517,
            "lng": 101.081057
        },
        "ad_info": {
            "adcode": 632223,
            "province": "青海省",
            "city": "海北藏族自治州",
            "district": "海晏县"
        }
    },
    {
        "id": "9966035982457278065",
        "title": "公共厕所",
        "address": "青海省海北藏族自治州海晏县S304与白佛寺公路交叉口西北方向1590米左右",
        "tel": "",
        "category": "基础设施:公共设施:公共厕所",
        "type": 0,
        "location": {
            "lat": 36.915111,
            "lng": 100.706623
        },
        "ad_info": {
            "adcode": 632223,
            "province": "青海省",
            "city": "海北藏族自治州",
            "district": "海晏县"
        }
    },
    {
        "id": "15748347341317470165",
        "title": "公共厕所",
        "address": "青海省海北藏族自治州刚察县315国道南50米",
        "tel": "",
        "category": "基础设施:公共设施:公共厕所",
        "type": 0,
        "location": {
            "lat": 37.271661,
            "lng": 100.037136
        },
        "ad_info": {
            "adcode": 632224,
            "province": "青海省",
            "city": "海北藏族自治州",
            "district": "刚察县"
        }
    },
    {
        "id": "7040646188127424644",
        "title": "公共厕所",
        "address": "青海省海北藏族自治州祁连县卓尔山风景区北侧170米",
        "tel": "",
        "category": "基础设施:公共设施:公共厕所",
        "type": 0,
        "location": {
            "lat": 38.184936,
            "lng": 100.276256
        },
        "ad_info": {
            "adcode": 632222,
            "province": "青海省",
            "city": "海北藏族自治州",
            "district": "祁连县"
        }
    },
    {
        "id": "10807349004003538321",
        "title": "公共厕所",
        "address": "青海省海北藏族自治州祁连县G213与盘大公路交叉口正东方向52米左右",
        "tel": "",
        "category": "基础设施:公共设施:公共厕所",
        "type": 0,
        "location": {
            "lat": 37.714059,
            "lng": 100.575307
        },
        "ad_info": {
            "adcode": 632222,
            "province": "青海省",
            "city": "海北藏族自治州",
            "district": "祁连县"
        }
    },
    {
        "id": "5985092025546709555",
        "title": "公共厕所",
        "address": "青海省海北藏族自治州刚察县G315与经二路交叉口正西方向269米左右",
        "tel": "",
        "category": "基础设施:公共设施:公共厕所",
        "type": 0,
        "location": {
            "lat": 37.225832,
            "lng": 100.40923
        },
        "ad_info": {
            "adcode": 632224,
            "province": "青海省",
            "city": "海北藏族自治州",
            "district": "刚察县"
        }
    },
    {
        "id": "10456441008632005814",
        "title": "C057公共厕所",
        "address": "青海省海北藏族自治州祁连县滨河路与瑞士印象街交叉口西北方向90米左右",
        "tel": "",
        "category": "基础设施:公共设施:公共厕所",
        "type": 0,
        "location": {
            "lat": 38.184558,
            "lng": 100.248381
        },
        "ad_info": {
            "adcode": 632222,
            "province": "青海省",
            "city": "海北藏族自治州",
            "district": "祁连县"
        }
    },
    {
        "id": "16706840446138702247",
        "title": "旅游公共厕所",
        "address": "青海省海北藏族自治州刚察县东大街117号",
        "tel": "",
        "category": "基础设施:公共设施:公共厕所",
        "type": 0,
        "location": {
            "lat": 37.324576,
            "lng": 100.139132
        },
        "ad_info": {
            "adcode": 632224,
            "province": "青海省",
            "city": "海北藏族自治州",
            "district": "刚察县"
        }
    },
    {
        "id": "1642847176230874372",
        "title": "天境圣湖旅游公厕大",
        "address": "青海省海北藏族自治州祁连县",
        "tel": "",
        "category": "基础设施:公共设施:公共厕所",
        "type": 0,
        "location": {
            "lat": 37.648095,
            "lng": 101.106509
        },
        "ad_info": {
            "adcode": 632222,
            "province": "青海省",
            "city": "海北藏族自治州",
            "district": "祁连县"
        }
    },
    {
        "id": "15990433797452659596",
        "title": "河清海晏旅游公共厕所",
        "address": "青海省海北藏族自治州海晏县三角城大街与青海湖路交叉口西南方向66米左右",
        "tel": "",
        "category": "基础设施:公共设施:公共厕所",
        "type": 0,
        "location": {
            "lat": 36.899931,
            "lng": 101.000183
        },
        "ad_info": {
            "adcode": 632223,
            "province": "青海省",
            "city": "海北藏族自治州",
            "district": "海晏县"
        }
    },
    {
        "id": "5239204649297652794",
        "title": "天境圣湖旅游公厕",
        "address": "青海省海北藏族自治州祁连县",
        "tel": "",
        "category": "基础设施:公共设施:公共厕所",
        "type": 0,
        "location": {
            "lat": 37.647558,
            "lng": 101.111105
        },
        "ad_info": {
            "adcode": 632222,
            "province": "青海省",
            "city": "海北藏族自治州",
            "district": "祁连县"
        }
    },
    {
        "id": "10580821736235279316",
        "title": "祁华锦绣峨堡古城驿站旅游公厕",
        "address": "青海省海北藏族自治州祁连县G227",
        "tel": "",
        "category": "基础设施:公共设施:公共厕所",
        "type": 0,
        "location": {
            "lat": 37.959654,
            "lng": 100.947632
        },
        "ad_info": {
            "adcode": 632222,
            "province": "青海省",
            "city": "海北藏族自治州",
            "district": "祁连县"
        }
    },
    {
        "id": "16188625611361418218",
        "title": "峨堡广场旅游公厕",
        "address": "青海省海北藏族自治州祁连县峨祁公路",
        "tel": "",
        "category": "基础设施:公共设施:公共厕所",
        "type": 0,
        "location": {
            "lat": 37.968185,
            "lng": 100.93549
        },
        "ad_info": {
            "adcode": 632222,
            "province": "青海省",
            "city": "海北藏族自治州",
            "district": "祁连县"
        }
    },
    {
        "id": "15793746312725920508",
        "title": "黙勒镇海浪旅游公厕",
        "address": "青海省海北藏族自治州祁连县茶默公路",
        "tel": "",
        "category": "基础设施:公共设施:公共厕所",
        "type": 0,
        "location": {
            "lat": 37.691009,
            "lng": 100.757688
        },
        "ad_info": {
            "adcode": 632222,
            "province": "青海省",
            "city": "海北藏族自治州",
            "district": "祁连县"
        }
    },
    {
        "id": "8984211379132042360",
        "title": "黙勒镇吉隆口公共厕所",
        "address": "青海省海北藏族自治州祁连县S204",
        "tel": "",
        "category": "基础设施:公共设施:公共厕所",
        "type": 0,
        "location": {
            "lat": 37.96065,
            "lng": 100.298854
        },
        "ad_info": {
            "adcode": 632222,
            "province": "青海省",
            "city": "海北藏族自治州",
            "district": "祁连县"
        }
    },
    {
        "id": "2291071713805627545",
        "title": "黙勒镇游客驿站旅游公厕",
        "address": "青海省海北藏族自治州祁连县S204",
        "tel": "",
        "category": "基础设施:公共设施:公共厕所",
        "type": 0,
        "location": {
            "lat": 37.716249,
            "lng": 100.573478
        },
        "ad_info": {
            "adcode": 632222,
            "province": "青海省",
            "city": "海北藏族自治州",
            "district": "祁连县"
        }
    },
    {
        "id": "13007169070141731224",
        "title": "黙勒镇瓦日尕旅游公厕",
        "address": "青海省海北藏族自治州祁连县S204",
        "tel": "",
        "category": "基础设施:公共设施:公共厕所",
        "type": 0,
        "location": {
            "lat": 37.798723,
            "lng": 100.478288
        },
        "ad_info": {
            "adcode": 632222,
            "province": "青海省",
            "city": "海北藏族自治州",
            "district": "祁连县"
        }
    },
    {
        "id": "10198008983198723526",
        "title": "海晏县文体旅游广电局厕所",
        "address": "青海省海北藏族自治州海晏县湟水大街与金滩路交叉口西北方向112米左右",
        "tel": "",
        "category": "基础设施:公共设施:公共厕所",
        "type": 0,
        "location": {
            "lat": 36.899869,
            "lng": 101.003428
        },
        "ad_info": {
            "adcode": 632223,
            "province": "青海省",
            "city": "海北藏族自治州",
            "district": "海晏县"
        }
    },
    {
        "id": "9054301754703124585",
        "title": "城镇公共厕所",
        "address": "青海省海北藏族自治州海晏县三角城大街与青海湖路交叉口西南方向79米左右",
        "tel": "",
        "category": "基础设施:公共设施:公共厕所",
        "type": 0,
        "location": {
            "lat": 36.89985,
            "lng": 101.000074
        },
        "ad_info": {
            "adcode": 632223,
            "province": "青海省",
            "city": "海北藏族自治州",
            "district": "海晏县"
        }
    },
    {
        "id": "5431209097298496392",
        "title": "峨堡镇舞马城旅游公厕",
        "address": "青海省海北藏族自治州祁连县G227",
        "tel": "",
        "category": "基础设施:公共设施:公共厕所",
        "type": 0,
        "location": {
            "lat": 37.966268,
            "lng": 100.93902
        },
        "ad_info": {
            "adcode": 632222,
            "province": "青海省",
            "city": "海北藏族自治州",
            "district": "祁连县"
        }
    },
    {
        "id": "15222940409301627650",
        "title": "祁连县阿柔乡兄鹿山庄旅游公厕",
        "address": "青海省海北藏族自治州祁连县C084与S302交叉口正西方向1173米左右",
        "tel": "",
        "category": "基础设施:公共设施:公共厕所",
        "type": 0,
        "location": {
            "lat": 38.076686,
            "lng": 100.379836
        },
        "ad_info": {
            "adcode": 632222,
            "province": "青海省",
            "city": "海北藏族自治州",
            "district": "祁连县"
        }
    },
    {
        "id": "3139472265454724014",
        "title": "中国石油旅游公共厕所",
        "address": "青海省海北藏族自治州刚察县东大街与哈尔盖路交叉口东南方向134米左右",
        "tel": "",
        "category": "基础设施:公共设施:公共厕所",
        "type": 0,
        "location": {
            "lat": 37.318509,
            "lng": 100.151514
        },
        "ad_info": {
            "adcode": 632224,
            "province": "青海省",
            "city": "海北藏族自治州",
            "district": "刚察县"
        }
    },
    {
        "id": "6485191771028891875",
        "title": "峨堡镇旅游公厕",
        "address": "青海省海北藏族自治州祁连县G227",
        "tel": "",
        "category": "基础设施:公共设施:公共厕所",
        "type": 0,
        "location": {
            "lat": 37.967164,
            "lng": 100.93875
        },
        "ad_info": {
            "adcode": 632222,
            "province": "青海省",
            "city": "海北藏族自治州",
            "district": "祁连县"
        }
    },
    {
        "id": "14596610181094913422",
        "title": "阿柔大寺旅游公厕",
        "address": "青海省海北藏族自治州祁连县",
        "tel": "",
        "category": "基础设施:公共设施:公共厕所",
        "type": 0,
        "location": {
            "lat": 38.063627,
            "lng": 100.451492
        },
        "ad_info": {
            "adcode": 632222,
            "province": "青海省",
            "city": "海北藏族自治州",
            "district": "祁连县"
        }
    },
    {
        "id": "16995438012503276481",
        "title": "公共厕所",
        "address": "青海省海北藏族自治州海晏县G213与湟嘉公路交叉口西南方向82米",
        "tel": "",
        "category": "基础设施:公共设施:公共厕所",
        "type": 0,
        "location": {
            "lat": 36.948334,
            "lng": 100.895944
        },
        "ad_info": {
            "adcode": 632223,
            "province": "青海省",
            "city": "海北藏族自治州",
            "district": "海晏县"
        }
    }
]