[
    {
        "id": "16341407156014671775",
        "title": "洗手间",
        "address": "青海省海西蒙古族藏族自治州乌兰县茶卡镇盐湖路9号茶卡盐湖景区(北侧)",
        "tel": "",
        "category": "基础设施:公共设施:公共厕所",
        "type": 0,
        "location": {
            "lat": 36.761861,
            "lng": 99.077523
        },
        "ad_info": {
            "adcode": 632821,
            "province": "青海省",
            "city": "海西蒙古族藏族自治州",
            "district": "乌兰县"
        }
    },
    {
        "id": "14613816568333123186",
        "title": "公共厕所(都兰县考肖图景区)",
        "address": "青海省海西蒙古族藏族自治州都兰县",
        "tel": "",
        "category": "基础设施:公共设施:公共厕所",
        "type": 0,
        "location": {
            "lat": 35.992706,
            "lng": 98.107095
        },
        "ad_info": {
            "adcode": 632822,
            "province": "青海省",
            "city": "海西蒙古族藏族自治州",
            "district": "都兰县"
        }
    },
    {
        "id": "12273579819074103144",
        "title": "公共厕所",
        "address": "青海省海西蒙古族藏族自治州乌兰县中兴大街与幸福路交叉口正北方向63米左右",
        "tel": "",
        "category": "基础设施:公共设施:公共厕所",
        "type": 0,
        "location": {
            "lat": 36.791427,
            "lng": 99.080577
        },
        "ad_info": {
            "adcode": 632821,
            "province": "青海省",
            "city": "海西蒙古族藏族自治州",
            "district": "乌兰县"
        }
    },
    {
        "id": "1615850685552817272",
        "title": "公共厕所",
        "address": "青海省海西蒙古族藏族自治州茫崖市315国道与G0612西和高速入口交叉口北320米",
        "tel": "",
        "category": "基础设施:公共设施:公共厕所",
        "type": 0,
        "location": {
            "lat": 38.254776,
            "lng": 90.83369
        },
        "ad_info": {
            "adcode": 632803,
            "province": "青海省",
            "city": "海西蒙古族藏族自治州",
            "district": "茫崖市"
        }
    },
    {
        "id": "8370004584419684882",
        "title": "公共卫生间",
        "address": "青海省海西蒙古族藏族自治州乌兰县北小街",
        "tel": "",
        "category": "基础设施:公共设施:公共厕所",
        "type": 0,
        "location": {
            "lat": 36.933231,
            "lng": 98.481633
        },
        "ad_info": {
            "adcode": 632821,
            "province": "青海省",
            "city": "海西蒙古族藏族自治州",
            "district": "乌兰县"
        }
    },
    {
        "id": "882061278927878093",
        "title": "公共厕所",
        "address": "青海省海西蒙古族藏族自治州格尔木市建设西路与银河巷交叉口正东方向56米左右",
        "tel": "",
        "category": "基础设施:公共设施:公共厕所",
        "type": 0,
        "location": {
            "lat": 36.392412,
            "lng": 94.899767
        },
        "ad_info": {
            "adcode": 632801,
            "province": "青海省",
            "city": "海西蒙古族藏族自治州",
            "district": "格尔木市"
        }
    },
    {
        "id": "113909758200515876",
        "title": "公共厕所",
        "address": "青海省海西蒙古族藏族自治州天峻县丽水路与生态东路交叉口东北方向134米左右",
        "tel": "",
        "category": "基础设施:公共设施:公共厕所",
        "type": 0,
        "location": {
            "lat": 37.293033,
            "lng": 99.025573
        },
        "ad_info": {
            "adcode": 632823,
            "province": "青海省",
            "city": "海西蒙古族藏族自治州",
            "district": "天峻县"
        }
    },
    {
        "id": "7164889795268529838",
        "title": "公共厕所",
        "address": "青海省海西蒙古族藏族自治州大柴旦行政委员会人民路与园丁巷交叉口东北方向87米左右",
        "tel": "",
        "category": "基础设施:公共设施:公共厕所",
        "type": 0,
        "location": {
            "lat": 37.855876,
            "lng": 95.357557
        },
        "ad_info": {
            "adcode": 632857,
            "province": "青海省",
            "city": "海西蒙古族藏族自治州",
            "district": "大柴旦行政委员会"
        }
    },
    {
        "id": "7646476729712720938",
        "title": "公共厕所",
        "address": "青海省海西蒙古族藏族自治州都兰县X407与怀诺公路交叉口正西方向1564米左右",
        "tel": "",
        "category": "基础设施:公共设施:公共厕所",
        "type": 0,
        "location": {
            "lat": 36.437802,
            "lng": 96.439122
        },
        "ad_info": {
            "adcode": 632822,
            "province": "青海省",
            "city": "海西蒙古族藏族自治州",
            "district": "都兰县"
        }
    },
    {
        "id": "12321018075415045008",
        "title": "公共厕所",
        "address": "青海省海西蒙古族藏族自治州都兰县枸杞产业园基地旅游厕所",
        "tel": "",
        "category": "基础设施:公共设施:公共厕所",
        "type": 0,
        "location": {
            "lat": 36.413374,
            "lng": 96.483869
        },
        "ad_info": {
            "adcode": 632822,
            "province": "青海省",
            "city": "海西蒙古族藏族自治州",
            "district": "都兰县"
        }
    },
    {
        "id": "555112676763340735",
        "title": "公共厕所",
        "address": "青海省海西蒙古族藏族自治州天峻县新源西路与草原路交叉口正西方向91米左右",
        "tel": "",
        "category": "基础设施:公共设施:公共厕所",
        "type": 0,
        "location": {
            "lat": 37.300779,
            "lng": 99.015415
        },
        "ad_info": {
            "adcode": 632823,
            "province": "青海省",
            "city": "海西蒙古族藏族自治州",
            "district": "天峻县"
        }
    },
    {
        "id": "8392083036770458627",
        "title": "公共厕所",
        "address": "青海省海西蒙古族藏族自治州都兰县文化路与新华街交叉口正西方向83米左右",
        "tel": "",
        "category": "基础设施:公共设施:公共厕所",
        "type": 0,
        "location": {
            "lat": 36.300593,
            "lng": 98.086505
        },
        "ad_info": {
            "adcode": 632822,
            "province": "青海省",
            "city": "海西蒙古族藏族自治州",
            "district": "都兰县"
        }
    },
    {
        "id": "16723467251988582018",
        "title": "公共厕所",
        "address": "青海省海西蒙古族藏族自治州天峻县G315与天木中路交叉口正东方向99米左右",
        "tel": "",
        "category": "基础设施:公共设施:公共厕所",
        "type": 0,
        "location": {
            "lat": 37.293808,
            "lng": 99.012019
        },
        "ad_info": {
            "adcode": 632823,
            "province": "青海省",
            "city": "海西蒙古族藏族自治州",
            "district": "天峻县"
        }
    },
    {
        "id": "17746123802639448974",
        "title": "公共厕所",
        "address": "青海省海西蒙古族藏族自治州大柴旦行政委员会人民东路32号",
        "tel": "",
        "category": "基础设施:公共设施:公共厕所",
        "type": 0,
        "location": {
            "lat": 37.853288,
            "lng": 95.359568
        },
        "ad_info": {
            "adcode": 632857,
            "province": "青海省",
            "city": "海西蒙古族藏族自治州",
            "district": "大柴旦行政委员会"
        }
    },
    {
        "id": "11670558694565567400",
        "title": "公共厕所",
        "address": "青海省海西蒙古族藏族自治州格尔木市小雨嘀嗒智能自助洗车(青海格尔木)东北侧80米",
        "tel": "",
        "category": "基础设施:公共设施:公共厕所",
        "type": 0,
        "location": {
            "lat": 36.382788,
            "lng": 94.874497
        },
        "ad_info": {
            "adcode": 632801,
            "province": "青海省",
            "city": "海西蒙古族藏族自治州",
            "district": "格尔木市"
        }
    },
    {
        "id": "15340345775325428897",
        "title": "公共厕所",
        "address": "青海省海西蒙古族藏族自治州大柴旦行政委员会G215",
        "tel": "",
        "category": "基础设施:公共设施:公共厕所",
        "type": 0,
        "location": {
            "lat": 37.959646,
            "lng": 94.291823
        },
        "ad_info": {
            "adcode": 632857,
            "province": "青海省",
            "city": "海西蒙古族藏族自治州",
            "district": "大柴旦行政委员会"
        }
    },
    {
        "id": "4912783866340952196",
        "title": "公共厕所",
        "address": "青海省海西蒙古族藏族自治州乌兰县109国道与G6京藏高速入口交叉口西北150米",
        "tel": "",
        "category": "基础设施:公共设施:公共厕所",
        "type": 0,
        "location": {
            "lat": 36.786876,
            "lng": 99.111453
        },
        "ad_info": {
            "adcode": 632821,
            "province": "青海省",
            "city": "海西蒙古族藏族自治州",
            "district": "乌兰县"
        }
    },
    {
        "id": "2651925009349984107",
        "title": "公共厕所",
        "address": "青海省海西蒙古族藏族自治州乌兰县东大街9-1号",
        "tel": "",
        "category": "基础设施:公共设施:公共厕所",
        "type": 0,
        "location": {
            "lat": 36.929844,
            "lng": 98.479795
        },
        "ad_info": {
            "adcode": 632821,
            "province": "青海省",
            "city": "海西蒙古族藏族自治州",
            "district": "乌兰县"
        }
    },
    {
        "id": "1603223328761831986",
        "title": "公共厕所",
        "address": "青海省海西蒙古族藏族自治州乌兰县转角品味东侧150米",
        "tel": "",
        "category": "基础设施:公共设施:公共厕所",
        "type": 0,
        "location": {
            "lat": 36.782216,
            "lng": 99.113913
        },
        "ad_info": {
            "adcode": 632821,
            "province": "青海省",
            "city": "海西蒙古族藏族自治州",
            "district": "乌兰县"
        }
    },
    {
        "id": "7730432472473754331",
        "title": "公共厕所",
        "address": "青海省海西蒙古族藏族自治州都兰县南新街与商业街交叉口西南方向26米左右",
        "tel": "",
        "category": "基础设施:公共设施:公共厕所",
        "type": 0,
        "location": {
            "lat": 36.294502,
            "lng": 98.090376
        },
        "ad_info": {
            "adcode": 632822,
            "province": "青海省",
            "city": "海西蒙古族藏族自治州",
            "district": "都兰县"
        }
    },
    {
        "id": "15201569103788952542",
        "title": "公共厕所",
        "address": "青海省海西蒙古族藏族自治州乌兰县柴达木路与环城东路交叉口正南方向104米左右",
        "tel": "",
        "category": "基础设施:公共设施:公共厕所",
        "type": 0,
        "location": {
            "lat": 36.944861,
            "lng": 98.493353
        },
        "ad_info": {
            "adcode": 632821,
            "province": "青海省",
            "city": "海西蒙古族藏族自治州",
            "district": "乌兰县"
        }
    },
    {
        "id": "12987666537801602005",
        "title": "公共厕所",
        "address": "青海省海西蒙古族藏族自治州乌兰县乌兰台克士餐饮店西侧180米",
        "tel": "",
        "category": "基础设施:公共设施:公共厕所",
        "type": 0,
        "location": {
            "lat": 36.782512,
            "lng": 99.109555
        },
        "ad_info": {
            "adcode": 632821,
            "province": "青海省",
            "city": "海西蒙古族藏族自治州",
            "district": "乌兰县"
        }
    },
    {
        "id": "2923182122360657998",
        "title": "公共厕所",
        "address": "青海省海西蒙古族藏族自治州都兰县G109与南北街交叉口正东方向449米左右",
        "tel": "",
        "category": "基础设施:公共设施:公共厕所",
        "type": 0,
        "location": {
            "lat": 35.993838,
            "lng": 97.89193
        },
        "ad_info": {
            "adcode": 632822,
            "province": "青海省",
            "city": "海西蒙古族藏族自治州",
            "district": "都兰县"
        }
    },
    {
        "id": "15905384305496726834",
        "title": "公共厕所",
        "address": "青海省海西蒙古族藏族自治州都兰县和平街与建设街交叉口正北方向171米左右",
        "tel": "",
        "category": "基础设施:公共设施:公共厕所",
        "type": 0,
        "location": {
            "lat": 36.299063,
            "lng": 98.092842
        },
        "ad_info": {
            "adcode": 632822,
            "province": "青海省",
            "city": "海西蒙古族藏族自治州",
            "district": "都兰县"
        }
    },
    {
        "id": "13512496372782544817",
        "title": "公共厕所",
        "address": "青海省海西蒙古族藏族自治州都兰县宗加镇艾斯力金村旅游厕所",
        "tel": "",
        "category": "基础设施:公共设施:公共厕所",
        "type": 0,
        "location": {
            "lat": 36.380899,
            "lng": 96.455968
        },
        "ad_info": {
            "adcode": 632822,
            "province": "青海省",
            "city": "海西蒙古族藏族自治州",
            "district": "都兰县"
        }
    },
    {
        "id": "969785695712330001",
        "title": "公共厕所",
        "address": "青海省海西蒙古族藏族自治州都兰县建设街与新华街交叉口正东方向78米左右",
        "tel": "",
        "category": "基础设施:公共设施:公共厕所",
        "type": 0,
        "location": {
            "lat": 36.301039,
            "lng": 98.093425
        },
        "ad_info": {
            "adcode": 632822,
            "province": "青海省",
            "city": "海西蒙古族藏族自治州",
            "district": "都兰县"
        }
    },
    {
        "id": "8171780631484199434",
        "title": "公共厕所",
        "address": "青海省海西蒙古族藏族自治州乌兰县柴达木路与解放路交叉口西南方向73米左右",
        "tel": "",
        "category": "基础设施:公共设施:公共厕所",
        "type": 0,
        "location": {
            "lat": 36.944497,
            "lng": 98.482669
        },
        "ad_info": {
            "adcode": 632821,
            "province": "青海省",
            "city": "海西蒙古族藏族自治州",
            "district": "乌兰县"
        }
    },
    {
        "id": "15734249947424475461",
        "title": "公共卫生间",
        "address": "青海省海西蒙古族藏族自治州都兰县京藏高速附近",
        "tel": "",
        "category": "基础设施:公共设施:公共厕所",
        "type": 0,
        "location": {
            "lat": 36.355934,
            "lng": 98.116468
        },
        "ad_info": {
            "adcode": 632822,
            "province": "青海省",
            "city": "海西蒙古族藏族自治州",
            "district": "都兰县"
        }
    },
    {
        "id": "18410415743999520365",
        "title": "公共厕所",
        "address": "青海省海西蒙古族藏族自治州大柴旦行政委员会团结路与大华街交叉口正北方向28米左右",
        "tel": "",
        "category": "基础设施:公共设施:公共厕所",
        "type": 0,
        "location": {
            "lat": 37.856239,
            "lng": 95.35267
        },
        "ad_info": {
            "adcode": 632857,
            "province": "青海省",
            "city": "海西蒙古族藏族自治州",
            "district": "大柴旦行政委员会"
        }
    },
    {
        "id": "9386198551144289159",
        "title": "公共厕所",
        "address": "青海省海西蒙古族藏族自治州都兰县G109与南北街交叉口正北方向96米左右",
        "tel": "",
        "category": "基础设施:公共设施:公共厕所",
        "type": 0,
        "location": {
            "lat": 35.994254,
            "lng": 97.887301
        },
        "ad_info": {
            "adcode": 632822,
            "province": "青海省",
            "city": "海西蒙古族藏族自治州",
            "district": "都兰县"
        }
    },
    {
        "id": "16007534992494633248",
        "title": "公共厕所",
        "address": "青海省海西蒙古族藏族自治州大柴旦行政委员会中天街与团结路交叉口正南方向46米左右",
        "tel": "",
        "category": "基础设施:公共设施:公共厕所",
        "type": 0,
        "location": {
            "lat": 37.858163,
            "lng": 95.349751
        },
        "ad_info": {
            "adcode": 632857,
            "province": "青海省",
            "city": "海西蒙古族藏族自治州",
            "district": "大柴旦行政委员会"
        }
    },
    {
        "id": "3606781625047390678",
        "title": "公共厕所",
        "address": "青海省海西蒙古族藏族自治州大柴旦行政委员会中天街与锡铁山路交叉口东北方向45米左右",
        "tel": "",
        "category": "基础设施:公共设施:公共厕所",
        "type": 0,
        "location": {
            "lat": 37.857703,
            "lng": 95.34825
        },
        "ad_info": {
            "adcode": 632857,
            "province": "青海省",
            "city": "海西蒙古族藏族自治州",
            "district": "大柴旦行政委员会"
        }
    },
    {
        "id": "804562061823017094",
        "title": "公共厕所",
        "address": "青海省海西蒙古族藏族自治州乌兰县G109与京拉线交叉口正东方向756米左右",
        "tel": "",
        "category": "基础设施:公共设施:公共厕所",
        "type": 0,
        "location": {
            "lat": 36.708824,
            "lng": 99.2845
        },
        "ad_info": {
            "adcode": 632821,
            "province": "青海省",
            "city": "海西蒙古族藏族自治州",
            "district": "乌兰县"
        }
    },
    {
        "id": "8298494597206949728",
        "title": "公共厕所",
        "address": "青海省海西蒙古族藏族自治州格尔木市昆仑中路7号附15号",
        "tel": "",
        "category": "基础设施:公共设施:公共厕所",
        "type": 0,
        "location": {
            "lat": 36.410396,
            "lng": 94.903044
        },
        "ad_info": {
            "adcode": 632801,
            "province": "青海省",
            "city": "海西蒙古族藏族自治州",
            "district": "格尔木市"
        }
    },
    {
        "id": "15328655380309775713",
        "title": "公共厕所",
        "address": "青海省海西蒙古族藏族自治州格尔木市察尔汗南路与蓝天巷交叉口西南方向69米左右",
        "tel": "",
        "category": "基础设施:公共设施:公共厕所",
        "type": 0,
        "location": {
            "lat": 36.393609,
            "lng": 94.925767
        },
        "ad_info": {
            "adcode": 632801,
            "province": "青海省",
            "city": "海西蒙古族藏族自治州",
            "district": "格尔木市"
        }
    },
    {
        "id": "4058558508607631454",
        "title": "公共厕所",
        "address": "青海省海西蒙古族藏族自治州格尔木市建兴巷与红柳巷交叉口正东方向182米左右",
        "tel": "",
        "category": "基础设施:公共设施:公共厕所",
        "type": 0,
        "location": {
            "lat": 36.403378,
            "lng": 94.924155
        },
        "ad_info": {
            "adcode": 632801,
            "province": "青海省",
            "city": "海西蒙古族藏族自治州",
            "district": "格尔木市"
        }
    },
    {
        "id": "1364528894136117805",
        "title": "公共厕所",
        "address": "青海省海西蒙古族藏族自治州大柴旦行政委员会人民路与大华街交叉口正东方向35米左右",
        "tel": "",
        "category": "基础设施:公共设施:公共厕所",
        "type": 0,
        "location": {
            "lat": 37.85736,
            "lng": 95.35484
        },
        "ad_info": {
            "adcode": 632857,
            "province": "青海省",
            "city": "海西蒙古族藏族自治州",
            "district": "大柴旦行政委员会"
        }
    },
    {
        "id": "13847497079058033553",
        "title": "公共厕所",
        "address": "青海省海西蒙古族藏族自治州格尔木市昆仑中路与食品街交叉口西南方向33米左右",
        "tel": "",
        "category": "基础设施:公共设施:公共厕所",
        "type": 0,
        "location": {
            "lat": 36.40098,
            "lng": 94.902605
        },
        "ad_info": {
            "adcode": 632801,
            "province": "青海省",
            "city": "海西蒙古族藏族自治州",
            "district": "格尔木市"
        }
    },
    {
        "id": "6326946847666217571",
        "title": "公共厕所",
        "address": "青海省海西蒙古族藏族自治州德令哈市双拥巷与子美巷交叉口西北方向25米左右",
        "tel": "",
        "category": "基础设施:公共设施:公共厕所",
        "type": 0,
        "location": {
            "lat": 37.365607,
            "lng": 97.362308
        },
        "ad_info": {
            "adcode": 632802,
            "province": "青海省",
            "city": "海西蒙古族藏族自治州",
            "district": "德令哈市"
        }
    },
    {
        "id": "12082775602641684682",
        "title": "公共厕所",
        "address": "青海省海西蒙古族藏族自治州都兰县新华街与长青路交叉口东北方向23米左右",
        "tel": "",
        "category": "基础设施:公共设施:公共厕所",
        "type": 0,
        "location": {
            "lat": 36.300334,
            "lng": 98.084246
        },
        "ad_info": {
            "adcode": 632822,
            "province": "青海省",
            "city": "海西蒙古族藏族自治州",
            "district": "都兰县"
        }
    },
    {
        "id": "5448828099468248598",
        "title": "公共厕所",
        "address": "青海省海西蒙古族藏族自治州都兰县育才街与香裕路交叉口正南方向160米左右",
        "tel": "",
        "category": "基础设施:公共设施:公共厕所",
        "type": 0,
        "location": {
            "lat": 35.995057,
            "lng": 97.884156
        },
        "ad_info": {
            "adcode": 632822,
            "province": "青海省",
            "city": "海西蒙古族藏族自治州",
            "district": "都兰县"
        }
    },
    {
        "id": "16095644313015765817",
        "title": "公共厕所",
        "address": "青海省海西蒙古族藏族自治州大柴旦行政委员会",
        "tel": "",
        "category": "基础设施:公共设施:公共厕所",
        "type": 0,
        "location": {
            "lat": 37.932595,
            "lng": 95.376547
        },
        "ad_info": {
            "adcode": 632857,
            "province": "青海省",
            "city": "海西蒙古族藏族自治州",
            "district": "大柴旦行政委员会"
        }
    },
    {
        "id": "7401673185456735862",
        "title": "公共厕所",
        "address": "青海省海西蒙古族藏族自治州格尔木市109国道南50米",
        "tel": "",
        "category": "基础设施:公共设施:公共厕所",
        "type": 0,
        "location": {
            "lat": 35.875334,
            "lng": 94.573204
        },
        "ad_info": {
            "adcode": 632801,
            "province": "青海省",
            "city": "海西蒙古族藏族自治州",
            "district": "格尔木市"
        }
    },
    {
        "id": "6458480273809357128",
        "title": "公共厕所",
        "address": "青海省海西蒙古族藏族自治州都兰县和平街与希望街交叉口正北方向200米左右",
        "tel": "",
        "category": "基础设施:公共设施:公共厕所",
        "type": 0,
        "location": {
            "lat": 36.299356,
            "lng": 98.094727
        },
        "ad_info": {
            "adcode": 632822,
            "province": "青海省",
            "city": "海西蒙古族藏族自治州",
            "district": "都兰县"
        }
    },
    {
        "id": "13888871368088621988",
        "title": "公共厕所",
        "address": "青海省海西蒙古族藏族自治州都兰县和平街与解放路交叉口东南方向149米左右",
        "tel": "",
        "category": "基础设施:公共设施:公共厕所",
        "type": 0,
        "location": {
            "lat": 36.296203,
            "lng": 98.087053
        },
        "ad_info": {
            "adcode": 632822,
            "province": "青海省",
            "city": "海西蒙古族藏族自治州",
            "district": "都兰县"
        }
    },
    {
        "id": "13034185420651613875",
        "title": "公共厕所",
        "address": "青海省海西蒙古族藏族自治州格尔木市胖子补胎北侧210米",
        "tel": "",
        "category": "基础设施:公共设施:公共厕所",
        "type": 0,
        "location": {
            "lat": 33.461056,
            "lng": 91.939823
        },
        "ad_info": {
            "adcode": 632801,
            "province": "青海省",
            "city": "海西蒙古族藏族自治州",
            "district": "格尔木市"
        }
    },
    {
        "id": "3512040328206620050",
        "title": "公共厕所",
        "address": "青海省海西蒙古族藏族自治州乌兰县茶德高速乌兰站",
        "tel": "",
        "category": "基础设施:公共设施:公共厕所",
        "type": 0,
        "location": {
            "lat": 36.953837,
            "lng": 98.467062
        },
        "ad_info": {
            "adcode": 632821,
            "province": "青海省",
            "city": "海西蒙古族藏族自治州",
            "district": "乌兰县"
        }
    },
    {
        "id": "7467819294824366607",
        "title": "公共厕所",
        "address": "青海省海西蒙古族藏族自治州德令哈市景明巷与莲湖路交叉口正东方向26米左右",
        "tel": "",
        "category": "基础设施:公共设施:公共厕所",
        "type": 0,
        "location": {
            "lat": 37.370357,
            "lng": 97.363298
        },
        "ad_info": {
            "adcode": 632802,
            "province": "青海省",
            "city": "海西蒙古族藏族自治州",
            "district": "德令哈市"
        }
    },
    {
        "id": "8377888296727022377",
        "title": "公共厕所",
        "address": "青海省海西蒙古族藏族自治州都兰县G109与X407交叉口正西方向137米左右",
        "tel": "",
        "category": "基础设施:公共设施:公共厕所",
        "type": 0,
        "location": {
            "lat": 36.381425,
            "lng": 96.447457
        },
        "ad_info": {
            "adcode": 632822,
            "province": "青海省",
            "city": "海西蒙古族藏族自治州",
            "district": "都兰县"
        }
    },
    {
        "id": "2820835037150858156",
        "title": "公共厕所",
        "address": "青海省海西蒙古族藏族自治州格尔木市黄河中路电信枢纽大厦",
        "tel": "",
        "category": "基础设施:公共设施:公共厕所",
        "type": 0,
        "location": {
            "lat": 36.390438,
            "lng": 94.908579
        },
        "ad_info": {
            "adcode": 632801,
            "province": "青海省",
            "city": "海西蒙古族藏族自治州",
            "district": "格尔木市"
        }
    },
    {
        "id": "2744073048508961167",
        "title": "公共厕所",
        "address": "青海省海西蒙古族藏族自治州都兰县X407与怀诺公路交叉口正东方向261米左右",
        "tel": "",
        "category": "基础设施:公共设施:公共厕所",
        "type": 0,
        "location": {
            "lat": 36.433222,
            "lng": 96.45865
        },
        "ad_info": {
            "adcode": 632822,
            "province": "青海省",
            "city": "海西蒙古族藏族自治州",
            "district": "都兰县"
        }
    },
    {
        "id": "8132815599021747085",
        "title": "公共厕所",
        "address": "青海省海西蒙古族藏族自治州格尔木市雁石坪公路养护段八工区东北侧60米",
        "tel": "",
        "category": "基础设施:公共设施:公共厕所",
        "type": 0,
        "location": {
            "lat": 33.867856,
            "lng": 92.364551
        },
        "ad_info": {
            "adcode": 632801,
            "province": "青海省",
            "city": "海西蒙古族藏族自治州",
            "district": "格尔木市"
        }
    },
    {
        "id": "8323133561905231005",
        "title": "公共厕所",
        "address": "青海省海西蒙古族藏族自治州格尔木市永宁路与盐桥中路交叉口东北方向32米左右",
        "tel": "",
        "category": "基础设施:公共设施:公共厕所",
        "type": 0,
        "location": {
            "lat": 36.411206,
            "lng": 94.887766
        },
        "ad_info": {
            "adcode": 632801,
            "province": "青海省",
            "city": "海西蒙古族藏族自治州",
            "district": "格尔木市"
        }
    },
    {
        "id": "5236658413250630297",
        "title": "公共厕所",
        "address": "青海省海西蒙古族藏族自治州格尔木市江源北路与金南三巷交叉口西南方向36米左右",
        "tel": "",
        "category": "基础设施:公共设施:公共厕所",
        "type": 0,
        "location": {
            "lat": 36.410648,
            "lng": 94.909804
        },
        "ad_info": {
            "adcode": 632801,
            "province": "青海省",
            "city": "海西蒙古族藏族自治州",
            "district": "格尔木市"
        }
    },
    {
        "id": "12569434090890083784",
        "title": "公共厕所",
        "address": "青海省海西蒙古族藏族自治州格尔木市人民路与大众路交叉口西南方向31米左右",
        "tel": "",
        "category": "基础设施:公共设施:公共厕所",
        "type": 0,
        "location": {
            "lat": 36.422904,
            "lng": 94.908265
        },
        "ad_info": {
            "adcode": 632801,
            "province": "青海省",
            "city": "海西蒙古族藏族自治州",
            "district": "格尔木市"
        }
    },
    {
        "id": "1415952421243713406",
        "title": "公共卫生间",
        "address": "青海省海西蒙古族藏族自治州格尔木市八一中路与荣盛步行街交叉口西南方向83米左右",
        "tel": "",
        "category": "基础设施:公共设施:公共厕所",
        "type": 0,
        "location": {
            "lat": 36.405856,
            "lng": 94.904978
        },
        "ad_info": {
            "adcode": 632801,
            "province": "青海省",
            "city": "海西蒙古族藏族自治州",
            "district": "格尔木市"
        }
    },
    {
        "id": "1876674274813236445",
        "title": "公共厕所",
        "address": "青海省海西蒙古族藏族自治州格尔木市黄河中路28号",
        "tel": "",
        "category": "基础设施:公共设施:公共厕所",
        "type": 0,
        "location": {
            "lat": 36.390574,
            "lng": 94.910299
        },
        "ad_info": {
            "adcode": 632801,
            "province": "青海省",
            "city": "海西蒙古族藏族自治州",
            "district": "格尔木市"
        }
    },
    {
        "id": "15536240203191440159",
        "title": "公共厕所",
        "address": "青海省海西蒙古族藏族自治州格尔木市昆仑中路与杨树巷交叉口正北方向97米左右",
        "tel": "",
        "category": "基础设施:公共设施:公共厕所",
        "type": 0,
        "location": {
            "lat": 36.411705,
            "lng": 94.902931
        },
        "ad_info": {
            "adcode": 632801,
            "province": "青海省",
            "city": "海西蒙古族藏族自治州",
            "district": "格尔木市"
        }
    },
    {
        "id": "9846981105542623736",
        "title": "公共厕所",
        "address": "青海省海西蒙古族藏族自治州格尔木市盐桥中路与盐桥北路交叉口西北方向87米左右",
        "tel": "",
        "category": "基础设施:公共设施:公共厕所",
        "type": 0,
        "location": {
            "lat": 36.415684,
            "lng": 94.887957
        },
        "ad_info": {
            "adcode": 632801,
            "province": "青海省",
            "city": "海西蒙古族藏族自治州",
            "district": "格尔木市"
        }
    },
    {
        "id": "2851113402132324256",
        "title": "公共厕所",
        "address": "青海省海西蒙古族藏族自治州格尔木市东顺巷博爱花苑",
        "tel": "",
        "category": "基础设施:公共设施:公共厕所",
        "type": 0,
        "location": {
            "lat": 36.405064,
            "lng": 94.899335
        },
        "ad_info": {
            "adcode": 632801,
            "province": "青海省",
            "city": "海西蒙古族藏族自治州",
            "district": "格尔木市"
        }
    },
    {
        "id": "14521703844571033738",
        "title": "公共厕所",
        "address": "青海省海西蒙古族藏族自治州格尔木市红柳巷与黄河东路交叉口正北方向50米左右",
        "tel": "",
        "category": "基础设施:公共设施:公共厕所",
        "type": 0,
        "location": {
            "lat": 36.390108,
            "lng": 94.922004
        },
        "ad_info": {
            "adcode": 632801,
            "province": "青海省",
            "city": "海西蒙古族藏族自治州",
            "district": "格尔木市"
        }
    },
    {
        "id": "3950050105305141389",
        "title": "公共厕所",
        "address": "青海省海西蒙古族藏族自治州格尔木市公安巷与柴达木中路交叉口东南方向93米左右",
        "tel": "",
        "category": "基础设施:公共设施:公共厕所",
        "type": 0,
        "location": {
            "lat": 36.39684,
            "lng": 94.915028
        },
        "ad_info": {
            "adcode": 632801,
            "province": "青海省",
            "city": "海西蒙古族藏族自治州",
            "district": "格尔木市"
        }
    },
    {
        "id": "5137379322533042214",
        "title": "公共厕所",
        "address": "青海省海西蒙古族藏族自治州德令哈市步行东街与步行南街交叉口西南方向95米左右",
        "tel": "",
        "category": "基础设施:公共设施:公共厕所",
        "type": 0,
        "location": {
            "lat": 37.374665,
            "lng": 97.367903
        },
        "ad_info": {
            "adcode": 632802,
            "province": "青海省",
            "city": "海西蒙古族藏族自治州",
            "district": "德令哈市"
        }
    },
    {
        "id": "12072770197984941146",
        "title": "公共厕所",
        "address": "青海省海西蒙古族藏族自治州格尔木市明西巷与星光巷交叉口西北方向87米左右",
        "tel": "",
        "category": "基础设施:公共设施:公共厕所",
        "type": 0,
        "location": {
            "lat": 36.394222,
            "lng": 94.887984
        },
        "ad_info": {
            "adcode": 632801,
            "province": "青海省",
            "city": "海西蒙古族藏族自治州",
            "district": "格尔木市"
        }
    },
    {
        "id": "17394044990923768573",
        "title": "公共厕所",
        "address": "青海省海西蒙古族藏族自治州格尔木市G109",
        "tel": "",
        "category": "基础设施:公共设施:公共厕所",
        "type": 0,
        "location": {
            "lat": 36.138966,
            "lng": 94.780117
        },
        "ad_info": {
            "adcode": 632801,
            "province": "青海省",
            "city": "海西蒙古族藏族自治州",
            "district": "格尔木市"
        }
    },
    {
        "id": "11005942738564628050",
        "title": "公共厕所",
        "address": "青海省海西蒙古族藏族自治州德令哈市都兰东路与黄河路交叉口东南方向110米左右",
        "tel": "",
        "category": "基础设施:公共设施:公共厕所",
        "type": 0,
        "location": {
            "lat": 37.350954,
            "lng": 97.385535
        },
        "ad_info": {
            "adcode": 632802,
            "province": "青海省",
            "city": "海西蒙古族藏族自治州",
            "district": "德令哈市"
        }
    },
    {
        "id": "5600779034174473019",
        "title": "公共厕所",
        "address": "青海省海西蒙古族藏族自治州德令哈市尕海镇泉水村卫生室南侧180米",
        "tel": "",
        "category": "基础设施:公共设施:公共厕所",
        "type": 0,
        "location": {
            "lat": 37.23603,
            "lng": 97.45051
        },
        "ad_info": {
            "adcode": 632802,
            "province": "青海省",
            "city": "海西蒙古族藏族自治州",
            "district": "德令哈市"
        }
    },
    {
        "id": "8357751642855019674",
        "title": "公共厕所",
        "address": "青海省海西蒙古族藏族自治州格尔木市明珠巷金龙小区",
        "tel": "",
        "category": "基础设施:公共设施:公共厕所",
        "type": 0,
        "location": {
            "lat": 36.398161,
            "lng": 94.898622
        },
        "ad_info": {
            "adcode": 632801,
            "province": "青海省",
            "city": "海西蒙古族藏族自治州",
            "district": "格尔木市"
        }
    },
    {
        "id": "3885525778500375196",
        "title": "公共厕所",
        "address": "青海省海西蒙古族藏族自治州格尔木市303省道西100米",
        "tel": "",
        "category": "基础设施:公共设施:公共厕所",
        "type": 0,
        "location": {
            "lat": 37.272959,
            "lng": 92.48036
        },
        "ad_info": {
            "adcode": 632801,
            "province": "青海省",
            "city": "海西蒙古族藏族自治州",
            "district": "格尔木市"
        }
    },
    {
        "id": "3070746378513907582",
        "title": "公共厕所",
        "address": "青海省海西蒙古族藏族自治州格尔木市109国道西50米",
        "tel": "",
        "category": "基础设施:公共设施:公共厕所",
        "type": 0,
        "location": {
            "lat": 35.885954,
            "lng": 94.368411
        },
        "ad_info": {
            "adcode": 632801,
            "province": "青海省",
            "city": "海西蒙古族藏族自治州",
            "district": "格尔木市"
        }
    },
    {
        "id": "17974086103876845522",
        "title": "公共厕所",
        "address": "青海省海西蒙古族藏族自治州格尔木市光明路与黄河西路交叉口东南方向73米左右",
        "tel": "",
        "category": "基础设施:公共设施:公共厕所",
        "type": 0,
        "location": {
            "lat": 36.389755,
            "lng": 94.890998
        },
        "ad_info": {
            "adcode": 632801,
            "province": "青海省",
            "city": "海西蒙古族藏族自治州",
            "district": "格尔木市"
        }
    },
    {
        "id": "16758768947114798040",
        "title": "公共厕所",
        "address": "青海省海西蒙古族藏族自治州格尔木市光明路与建设西路交叉口正南方向111米左右",
        "tel": "",
        "category": "基础设施:公共设施:公共厕所",
        "type": 0,
        "location": {
            "lat": 36.391671,
            "lng": 94.890896
        },
        "ad_info": {
            "adcode": 632801,
            "province": "青海省",
            "city": "海西蒙古族藏族自治州",
            "district": "格尔木市"
        }
    },
    {
        "id": "495628149968839359",
        "title": "公共厕所",
        "address": "青海省海西蒙古族藏族自治州格尔木市中山路与黄河中路交叉口西南方向79米左右",
        "tel": "",
        "category": "基础设施:公共设施:公共厕所",
        "type": 0,
        "location": {
            "lat": 36.389601,
            "lng": 94.894933
        },
        "ad_info": {
            "adcode": 632801,
            "province": "青海省",
            "city": "海西蒙古族藏族自治州",
            "district": "格尔木市"
        }
    },
    {
        "id": "8011567915999166056",
        "title": "公共厕所",
        "address": "青海省海西蒙古族藏族自治州格尔木市人民路与大众路交叉口正北方向293米左右",
        "tel": "",
        "category": "基础设施:公共设施:公共厕所",
        "type": 0,
        "location": {
            "lat": 36.425783,
            "lng": 94.90879
        },
        "ad_info": {
            "adcode": 632801,
            "province": "青海省",
            "city": "海西蒙古族藏族自治州",
            "district": "格尔木市"
        }
    },
    {
        "id": "2130830503646849036",
        "title": "公共厕所",
        "address": "青海省海西蒙古族藏族自治州格尔木市京拉线",
        "tel": "",
        "category": "基础设施:公共设施:公共厕所",
        "type": 0,
        "location": {
            "lat": 33.584444,
            "lng": 92.066856
        },
        "ad_info": {
            "adcode": 632801,
            "province": "青海省",
            "city": "海西蒙古族藏族自治州",
            "district": "格尔木市"
        }
    },
    {
        "id": "13088105014292078460",
        "title": "公共厕所",
        "address": "青海省海西蒙古族藏族自治州格尔木市滨河北路与滨河路交叉口正西方向504米左右",
        "tel": "",
        "category": "基础设施:公共设施:公共厕所",
        "type": 0,
        "location": {
            "lat": 36.435074,
            "lng": 94.884661
        },
        "ad_info": {
            "adcode": 632801,
            "province": "青海省",
            "city": "海西蒙古族藏族自治州",
            "district": "格尔木市"
        }
    },
    {
        "id": "7827629203323676388",
        "title": "公共厕所",
        "address": "青海省海西蒙古族藏族自治州德令哈市茶汗哈达村",
        "tel": "",
        "category": "基础设施:公共设施:公共厕所",
        "type": 0,
        "location": {
            "lat": 37.349413,
            "lng": 97.810634
        },
        "ad_info": {
            "adcode": 632802,
            "province": "青海省",
            "city": "海西蒙古族藏族自治州",
            "district": "德令哈市"
        }
    },
    {
        "id": "5274640351079526879",
        "title": "公共厕所",
        "address": "青海省海西蒙古族藏族自治州格尔木市安宁巷与江源中路交叉口正南方向198米左右",
        "tel": "",
        "category": "基础设施:公共设施:公共厕所",
        "type": 0,
        "location": {
            "lat": 36.398235,
            "lng": 94.909359
        },
        "ad_info": {
            "adcode": 632801,
            "province": "青海省",
            "city": "海西蒙古族藏族自治州",
            "district": "格尔木市"
        }
    },
    {
        "id": "11130139581177560606",
        "title": "公共厕所",
        "address": "青海省海西蒙古族藏族自治州德令哈市乌兰东路20号",
        "tel": "",
        "category": "基础设施:公共设施:公共厕所",
        "type": 0,
        "location": {
            "lat": 37.376987,
            "lng": 97.364866
        },
        "ad_info": {
            "adcode": 632802,
            "province": "青海省",
            "city": "海西蒙古族藏族自治州",
            "district": "德令哈市"
        }
    },
    {
        "id": "9636682823181196918",
        "title": "公共厕所",
        "address": "青海省海西蒙古族藏族自治州德令哈市S2013茶德高速北50米",
        "tel": "",
        "category": "基础设施:公共设施:公共厕所",
        "type": 0,
        "location": {
            "lat": 37.074031,
            "lng": 97.745373
        },
        "ad_info": {
            "adcode": 632802,
            "province": "青海省",
            "city": "海西蒙古族藏族自治州",
            "district": "德令哈市"
        }
    },
    {
        "id": "16858887703311483370",
        "title": "公共厕所",
        "address": "青海省海西蒙古族藏族自治州格尔木市303省道东50米",
        "tel": "",
        "category": "基础设施:公共设施:公共厕所",
        "type": 0,
        "location": {
            "lat": 36.894098,
            "lng": 93.060079
        },
        "ad_info": {
            "adcode": 632801,
            "province": "青海省",
            "city": "海西蒙古族藏族自治州",
            "district": "格尔木市"
        }
    },
    {
        "id": "12819791041035474399",
        "title": "公共厕所",
        "address": "青海省海西蒙古族藏族自治州格尔木市109国道东50米",
        "tel": "",
        "category": "基础设施:公共设施:公共厕所",
        "type": 0,
        "location": {
            "lat": 33.59297,
            "lng": 92.068124
        },
        "ad_info": {
            "adcode": 632801,
            "province": "青海省",
            "city": "海西蒙古族藏族自治州",
            "district": "格尔木市"
        }
    },
    {
        "id": "8630373915522175663",
        "title": "公共厕所",
        "address": "青海省海西蒙古族藏族自治州德令哈市停车场西南角",
        "tel": "",
        "category": "基础设施:公共设施:公共厕所",
        "type": 0,
        "location": {
            "lat": 37.316001,
            "lng": 97.382285
        },
        "ad_info": {
            "adcode": 632802,
            "province": "青海省",
            "city": "海西蒙古族藏族自治州",
            "district": "德令哈市"
        }
    },
    {
        "id": "2712226077993081461",
        "title": "公共厕所",
        "address": "青海省海西蒙古族藏族自治州格尔木市光明路与柴达木西路交叉口东南方向105米左右",
        "tel": "",
        "category": "基础设施:公共设施:公共厕所",
        "type": 0,
        "location": {
            "lat": 36.397786,
            "lng": 94.891461
        },
        "ad_info": {
            "adcode": 632801,
            "province": "青海省",
            "city": "海西蒙古族藏族自治州",
            "district": "格尔木市"
        }
    },
    {
        "id": "6066096180008128990",
        "title": "公共厕所",
        "address": "青海省海西蒙古族藏族自治州德令哈市乌兰东路与滨河东路交叉口东北方向200米左右",
        "tel": "",
        "category": "基础设施:公共设施:公共厕所",
        "type": 0,
        "location": {
            "lat": 37.377951,
            "lng": 97.36636
        },
        "ad_info": {
            "adcode": 632802,
            "province": "青海省",
            "city": "海西蒙古族藏族自治州",
            "district": "德令哈市"
        }
    },
    {
        "id": "7740759423246620290",
        "title": "公共厕所",
        "address": "青海省海西蒙古族藏族自治州德令哈市区划大队西排",
        "tel": "",
        "category": "基础设施:公共设施:公共厕所",
        "type": 0,
        "location": {
            "lat": 37.385869,
            "lng": 97.368369
        },
        "ad_info": {
            "adcode": 632802,
            "province": "青海省",
            "city": "海西蒙古族藏族自治州",
            "district": "德令哈市"
        }
    },
    {
        "id": "274648510431038654",
        "title": "公共厕所",
        "address": "青海省海西蒙古族藏族自治州德令哈市茶德高速",
        "tel": "",
        "category": "基础设施:公共设施:公共厕所",
        "type": 0,
        "location": {
            "lat": 37.140332,
            "lng": 97.579431
        },
        "ad_info": {
            "adcode": 632802,
            "province": "青海省",
            "city": "海西蒙古族藏族自治州",
            "district": "德令哈市"
        }
    },
    {
        "id": "11539814178668208298",
        "title": "公路厕所",
        "address": "青海省海西蒙古族藏族自治州都兰县",
        "tel": "",
        "category": "基础设施:公共设施:公共厕所",
        "type": 0,
        "location": {
            "lat": 36.449609,
            "lng": 98.374252
        },
        "ad_info": {
            "adcode": 632822,
            "province": "青海省",
            "city": "海西蒙古族藏族自治州",
            "district": "都兰县"
        }
    },
    {
        "id": "4512033162493659858",
        "title": "公共厕所",
        "address": "青海省海西蒙古族藏族自治州德令哈市天峻西路4号",
        "tel": "",
        "category": "基础设施:公共设施:公共厕所",
        "type": 0,
        "location": {
            "lat": 37.365139,
            "lng": 97.364705
        },
        "ad_info": {
            "adcode": 632802,
            "province": "青海省",
            "city": "海西蒙古族藏族自治州",
            "district": "德令哈市"
        }
    },
    {
        "id": "8875974696950296819",
        "title": "服务区公共厕所",
        "address": "青海省海西蒙古族藏族自治州乌兰县服务区与S2013茶德高速出口交叉口南60米",
        "tel": "",
        "category": "基础设施:公共设施:公共厕所",
        "type": 0,
        "location": {
            "lat": 37.002188,
            "lng": 98.840613
        },
        "ad_info": {
            "adcode": 632821,
            "province": "青海省",
            "city": "海西蒙古族藏族自治州",
            "district": "乌兰县"
        }
    },
    {
        "id": "3172080400164646317",
        "title": "公共厕所",
        "address": "青海省海西蒙古族藏族自治州格尔木市光明路与柴达木西路交叉口东北方向58米左右",
        "tel": "",
        "category": "基础设施:公共设施:公共厕所",
        "type": 0,
        "location": {
            "lat": 36.398862,
            "lng": 94.891325
        },
        "ad_info": {
            "adcode": 632801,
            "province": "青海省",
            "city": "海西蒙古族藏族自治州",
            "district": "格尔木市"
        }
    },
    {
        "id": "6736752606947090545",
        "title": "公共厕所",
        "address": "青海省海西蒙古族藏族自治州格尔木市小龙巷与昆保巷交叉口正西方向63米左右",
        "tel": "",
        "category": "基础设施:公共设施:公共厕所",
        "type": 0,
        "location": {
            "lat": 36.405435,
            "lng": 94.901177
        },
        "ad_info": {
            "adcode": 632801,
            "province": "青海省",
            "city": "海西蒙古族藏族自治州",
            "district": "格尔木市"
        }
    },
    {
        "id": "14792380826765970285",
        "title": "都兰服务区公共厕所",
        "address": "青海省海西蒙古族藏族自治州都兰县",
        "tel": "",
        "category": "基础设施:公共设施:公共厕所",
        "type": 0,
        "location": {
            "lat": 36.35575,
            "lng": 98.11671
        },
        "ad_info": {
            "adcode": 632822,
            "province": "青海省",
            "city": "海西蒙古族藏族自治州",
            "district": "都兰县"
        }
    },
    {
        "id": "4339418776687451618",
        "title": "公共厕所",
        "address": "青海省海西蒙古族藏族自治州格尔木市G109",
        "tel": "",
        "category": "基础设施:公共设施:公共厕所",
        "type": 0,
        "location": {
            "lat": 36.115293,
            "lng": 94.815015
        },
        "ad_info": {
            "adcode": 632801,
            "province": "青海省",
            "city": "海西蒙古族藏族自治州",
            "district": "格尔木市"
        }
    },
    {
        "id": "10335867070526256119",
        "title": "公共厕所",
        "address": "青海省海西蒙古族藏族自治州格尔木市站前二路青港宾馆(温州故里中)",
        "tel": "",
        "category": "基础设施:公共设施:公共厕所",
        "type": 0,
        "location": {
            "lat": 36.387767,
            "lng": 94.909214
        },
        "ad_info": {
            "adcode": 632801,
            "province": "青海省",
            "city": "海西蒙古族藏族自治州",
            "district": "格尔木市"
        }
    },
    {
        "id": "17725664026438872304",
        "title": "公共厕所",
        "address": "青海省海西蒙古族藏族自治州格尔木市江源中路与河东市场步行街交叉口西北方向46米左右",
        "tel": "",
        "category": "基础设施:公共设施:公共厕所",
        "type": 0,
        "location": {
            "lat": 36.40458,
            "lng": 94.909745
        },
        "ad_info": {
            "adcode": 632801,
            "province": "青海省",
            "city": "海西蒙古族藏族自治州",
            "district": "格尔木市"
        }
    },
    {
        "id": "6263581195354283572",
        "title": "伊克高里服务区公共厕所",
        "address": "青海省海西蒙古族藏族自治州都兰县G109与巴隆乡道交叉口正西方向1644米左右",
        "tel": "",
        "category": "基础设施:公共设施:公共厕所",
        "type": 0,
        "location": {
            "lat": 36.049857,
            "lng": 97.528088
        },
        "ad_info": {
            "adcode": 632822,
            "province": "青海省",
            "city": "海西蒙古族藏族自治州",
            "district": "都兰县"
        }
    },
    {
        "id": "13883492834543024873",
        "title": "公共厕所",
        "address": "青海省海西蒙古族藏族自治州格尔木市八一西路与盐桥中路交叉口正南方向408米左右",
        "tel": "",
        "category": "基础设施:公共设施:公共厕所",
        "type": 0,
        "location": {
            "lat": 36.404847,
            "lng": 94.885462
        },
        "ad_info": {
            "adcode": 632801,
            "province": "青海省",
            "city": "海西蒙古族藏族自治州",
            "district": "格尔木市"
        }
    },
    {
        "id": "18128796045339645826",
        "title": "公共厕所",
        "address": "青海省海西蒙古族藏族自治州格尔木市树林巷与金峰中路交叉口西南方向165米左右",
        "tel": "",
        "category": "基础设施:公共设施:公共厕所",
        "type": 0,
        "location": {
            "lat": 36.411913,
            "lng": 94.897767
        },
        "ad_info": {
            "adcode": 632801,
            "province": "青海省",
            "city": "海西蒙古族藏族自治州",
            "district": "格尔木市"
        }
    },
    {
        "id": "13399816492841779396",
        "title": "乌兰服务区第一公共厕所",
        "address": "青海省海西蒙古族藏族自治州乌兰县茶德高速与西莎线交叉口西北方向608米左右",
        "tel": "",
        "category": "基础设施:公共设施:公共厕所",
        "type": 0,
        "location": {
            "lat": 36.960427,
            "lng": 98.420995
        },
        "ad_info": {
            "adcode": 632821,
            "province": "青海省",
            "city": "海西蒙古族藏族自治州",
            "district": "乌兰县"
        }
    },
    {
        "id": "10079984185777518821",
        "title": "诺木洪服务区公共厕所",
        "address": "青海省海西蒙古族藏族自治州都兰县中国石化诺木洪南侧加油站西北侧260米",
        "tel": "",
        "category": "基础设施:公共设施:公共厕所",
        "type": 0,
        "location": {
            "lat": 36.374797,
            "lng": 96.47478
        },
        "ad_info": {
            "adcode": 632822,
            "province": "青海省",
            "city": "海西蒙古族藏族自治州",
            "district": "都兰县"
        }
    },
    {
        "id": "7195249083476754044",
        "title": "乌兰服务区第二公共厕所",
        "address": "青海省海西蒙古族藏族自治州乌兰县茶德高速与西莎线交叉口西北方向522米左右",
        "tel": "",
        "category": "基础设施:公共设施:公共厕所",
        "type": 0,
        "location": {
            "lat": 36.960234,
            "lng": 98.421997
        },
        "ad_info": {
            "adcode": 632821,
            "province": "青海省",
            "city": "海西蒙古族藏族自治州",
            "district": "乌兰县"
        }
    },
    {
        "id": "9956772399264833589",
        "title": "公共厕所",
        "address": "青海省海西蒙古族藏族自治州格尔木市星光巷与盐桥南路交叉口正东方向122米左右",
        "tel": "",
        "category": "基础设施:公共设施:公共厕所",
        "type": 0,
        "location": {
            "lat": 36.394908,
            "lng": 94.884376
        },
        "ad_info": {
            "adcode": 632801,
            "province": "青海省",
            "city": "海西蒙古族藏族自治州",
            "district": "格尔木市"
        }
    },
    {
        "id": "18195228313028224327",
        "title": "都兰服务区公共厕所",
        "address": "青海省海西蒙古族藏族自治州都兰县G6京藏高速与都兰服务区交叉口南420米",
        "tel": "",
        "category": "基础设施:公共设施:公共厕所",
        "type": 0,
        "location": {
            "lat": 36.354838,
            "lng": 98.113769
        },
        "ad_info": {
            "adcode": 632822,
            "province": "青海省",
            "city": "海西蒙古族藏族自治州",
            "district": "都兰县"
        }
    },
    {
        "id": "6888601949013291782",
        "title": "公共厕所",
        "address": "青海省海西蒙古族藏族自治州格尔木市东台巷与江源中路交叉口正西方向62米左右",
        "tel": "",
        "category": "基础设施:公共设施:公共厕所",
        "type": 0,
        "location": {
            "lat": 36.394928,
            "lng": 94.909069
        },
        "ad_info": {
            "adcode": 632801,
            "province": "青海省",
            "city": "海西蒙古族藏族自治州",
            "district": "格尔木市"
        }
    },
    {
        "id": "3735532536057521009",
        "title": "免费公共厕所",
        "address": "青海省海西蒙古族藏族自治州格尔木市光明路与航空巷交叉口东南方向35米左右",
        "tel": "",
        "category": "基础设施:公共设施:公共厕所",
        "type": 0,
        "location": {
            "lat": 36.39506,
            "lng": 94.89103
        },
        "ad_info": {
            "adcode": 632801,
            "province": "青海省",
            "city": "海西蒙古族藏族自治州",
            "district": "格尔木市"
        }
    },
    {
        "id": "15966356307541041778",
        "title": "公共厕所",
        "address": "青海省海西蒙古族藏族自治州格尔木市盐桥南路与黄河西路交叉口东南方向56米左右",
        "tel": "",
        "category": "基础设施:公共设施:公共厕所",
        "type": 0,
        "location": {
            "lat": 36.38999,
            "lng": 94.881109
        },
        "ad_info": {
            "adcode": 632801,
            "province": "青海省",
            "city": "海西蒙古族藏族自治州",
            "district": "格尔木市"
        }
    },
    {
        "id": "11675548024272249968",
        "title": "无障碍公共厕所",
        "address": "青海省海西蒙古族藏族自治州格尔木市雁石坪游客中心北侧60米",
        "tel": "",
        "category": "基础设施:公共设施:公共厕所",
        "type": 0,
        "location": {
            "lat": 33.614392,
            "lng": 92.081346
        },
        "ad_info": {
            "adcode": 632801,
            "province": "青海省",
            "city": "海西蒙古族藏族自治州",
            "district": "格尔木市"
        }
    },
    {
        "id": "4589912185115382762",
        "title": "旅游公共厕所",
        "address": "青海省海西蒙古族藏族自治州天峻县",
        "tel": "",
        "category": "基础设施:公共设施:公共厕所",
        "type": 0,
        "location": {
            "lat": 37.343809,
            "lng": 98.8042
        },
        "ad_info": {
            "adcode": 632823,
            "province": "青海省",
            "city": "海西蒙古族藏族自治州",
            "district": "天峻县"
        }
    },
    {
        "id": "4298629065630098828",
        "title": "鱼卡服务区第一公共厕所",
        "address": "青海省海西蒙古族藏族自治州大柴旦行政委员会G3011柳格高速与鱼卡服务区交叉口西北320米",
        "tel": "",
        "category": "基础设施:公共设施:公共厕所",
        "type": 0,
        "location": {
            "lat": 38.037208,
            "lng": 95.01301
        },
        "ad_info": {
            "adcode": 632857,
            "province": "青海省",
            "city": "海西蒙古族藏族自治州",
            "district": "大柴旦行政委员会"
        }
    },
    {
        "id": "2258140197383590935",
        "title": "诺木洪服务区公共厕所",
        "address": "青海省海西蒙古族藏族自治州都兰县中国石化诺木洪服务区南侧加油站西侧160米",
        "tel": "",
        "category": "基础设施:公共设施:公共厕所",
        "type": 0,
        "location": {
            "lat": 36.372622,
            "lng": 96.474821
        },
        "ad_info": {
            "adcode": 632822,
            "province": "青海省",
            "city": "海西蒙古族藏族自治州",
            "district": "都兰县"
        }
    },
    {
        "id": "16332153281884573228",
        "title": "鱼卡服务区公共厕所",
        "address": "青海省海西蒙古族藏族自治州大柴旦行政委员会G3011柳格高速与鱼卡服务区交叉口西360米",
        "tel": "",
        "category": "基础设施:公共设施:公共厕所",
        "type": 0,
        "location": {
            "lat": 38.036226,
            "lng": 95.011206
        },
        "ad_info": {
            "adcode": 632857,
            "province": "青海省",
            "city": "海西蒙古族藏族自治州",
            "district": "大柴旦行政委员会"
        }
    },
    {
        "id": "2566843366733858524",
        "title": "沟里服务区公共厕所",
        "address": "青海省海西蒙古族藏族自治州都兰县德马高速",
        "tel": "",
        "category": "基础设施:公共设施:公共厕所",
        "type": 0,
        "location": {
            "lat": 35.727021,
            "lng": 98.364986
        },
        "ad_info": {
            "adcode": 632822,
            "province": "青海省",
            "city": "海西蒙古族藏族自治州",
            "district": "都兰县"
        }
    },
    {
        "id": "12592783827327643516",
        "title": "鱼卡服务区公共厕所",
        "address": "青海省海西蒙古族藏族自治州大柴旦行政委员会S314与柳格高速交叉口正东方向292米左右",
        "tel": "",
        "category": "基础设施:公共设施:公共厕所",
        "type": 0,
        "location": {
            "lat": 38.03834,
            "lng": 95.013102
        },
        "ad_info": {
            "adcode": 632857,
            "province": "青海省",
            "city": "海西蒙古族藏族自治州",
            "district": "大柴旦行政委员会"
        }
    },
    {
        "id": "404132358759519503",
        "title": "乌兰服务区第二公共厕所",
        "address": "青海省海西蒙古族藏族自治州乌兰县茶德高速与西莎线交叉口西北方向714米左右",
        "tel": "",
        "category": "基础设施:公共设施:公共厕所",
        "type": 0,
        "location": {
            "lat": 36.962439,
            "lng": 98.421588
        },
        "ad_info": {
            "adcode": 632821,
            "province": "青海省",
            "city": "海西蒙古族藏族自治州",
            "district": "乌兰县"
        }
    },
    {
        "id": "16067546480947374514",
        "title": "中国石化柯鲁克服务区公共厕所",
        "address": "青海省海西蒙古族藏族自治州德令哈市德小高速与茶德高速交叉口正西方向1580米左右",
        "tel": "",
        "category": "基础设施:公共设施:公共厕所",
        "type": 0,
        "location": {
            "lat": 37.340977,
            "lng": 97.215756
        },
        "ad_info": {
            "adcode": 632802,
            "province": "青海省",
            "city": "海西蒙古族藏族自治州",
            "district": "德令哈市"
        }
    },
    {
        "id": "15149698450235138085",
        "title": "中国石化柯鲁克服务区公共厕所",
        "address": "青海省海西蒙古族藏族自治州德令哈市S20德小高速与中国石化柯鲁克服务区交叉口东南300米",
        "tel": "",
        "category": "基础设施:公共设施:公共厕所",
        "type": 0,
        "location": {
            "lat": 37.338312,
            "lng": 97.221447
        },
        "ad_info": {
            "adcode": 632802,
            "province": "青海省",
            "city": "海西蒙古族藏族自治州",
            "district": "德令哈市"
        }
    },
    {
        "id": "7656175186254117207",
        "title": "怀头他拉服务区第二公共厕所",
        "address": "青海省海西蒙古族藏族自治州德令哈市X407与农怀段交叉口正北方向1449米左右",
        "tel": "",
        "category": "基础设施:公共设施:公共厕所",
        "type": 0,
        "location": {
            "lat": 37.357733,
            "lng": 96.739276
        },
        "ad_info": {
            "adcode": 632802,
            "province": "青海省",
            "city": "海西蒙古族藏族自治州",
            "district": "德令哈市"
        }
    },
    {
        "id": "6315806728959716709",
        "title": "怀头他拉服务区公共厕所",
        "address": "青海省海西蒙古族藏族自治州德令哈市S20德小高速与怀头他拉服务区交叉口东北220米",
        "tel": "",
        "category": "基础设施:公共设施:公共厕所",
        "type": 0,
        "location": {
            "lat": 37.361375,
            "lng": 96.73865
        },
        "ad_info": {
            "adcode": 632802,
            "province": "青海省",
            "city": "海西蒙古族藏族自治州",
            "district": "德令哈市"
        }
    },
    {
        "id": "8637307451055040666",
        "title": "怀头他拉服务区第二公共厕所",
        "address": "青海省海西蒙古族藏族自治州德令哈市S20德小高速与怀头他拉服务区交叉口东南160米",
        "tel": "",
        "category": "基础设施:公共设施:公共厕所",
        "type": 0,
        "location": {
            "lat": 37.357278,
            "lng": 96.737435
        },
        "ad_info": {
            "adcode": 632802,
            "province": "青海省",
            "city": "海西蒙古族藏族自治州",
            "district": "德令哈市"
        }
    },
    {
        "id": "17237130084198865583",
        "title": "公共厕所",
        "address": "青海省海西蒙古族藏族自治州茫崖市团结路与盐化路交叉口正东方向82米左右",
        "tel": "",
        "category": "基础设施:公共设施:公共厕所",
        "type": 0,
        "location": {
            "lat": 38.725225,
            "lng": 93.343273
        },
        "ad_info": {
            "adcode": 632803,
            "province": "青海省",
            "city": "海西蒙古族藏族自治州",
            "district": "茫崖市"
        }
    },
    {
        "id": "7483594535494449701",
        "title": "公共厕所",
        "address": "青海省海西蒙古族藏族自治州德令哈市天峻西路与滨河西路交叉口正北方向125米左右",
        "tel": "",
        "category": "基础设施:公共设施:公共厕所",
        "type": 0,
        "location": {
            "lat": 37.364299,
            "lng": 97.370117
        },
        "ad_info": {
            "adcode": 632802,
            "province": "青海省",
            "city": "海西蒙古族藏族自治州",
            "district": "德令哈市"
        }
    },
    {
        "id": "10391304394249733767",
        "title": "伊克高里服务区公共厕所",
        "address": "青海省海西蒙古族藏族自治州都兰县G109与巴隆乡道交叉口正西方向1661米左右",
        "tel": "",
        "category": "基础设施:公共设施:公共厕所",
        "type": 0,
        "location": {
            "lat": 36.052394,
            "lng": 97.527564
        },
        "ad_info": {
            "adcode": 632822,
            "province": "青海省",
            "city": "海西蒙古族藏族自治州",
            "district": "都兰县"
        }
    },
    {
        "id": "1994821644580725139",
        "title": "流沙坪停车区公共厕所",
        "address": "青海省海西蒙古族藏族自治州都兰县柳格高速",
        "tel": "",
        "category": "基础设施:公共设施:公共厕所",
        "type": 0,
        "location": {
            "lat": 37.132656,
            "lng": 95.467658
        },
        "ad_info": {
            "adcode": 632822,
            "province": "青海省",
            "city": "海西蒙古族藏族自治州",
            "district": "都兰县"
        }
    },
    {
        "id": "10099963924116828797",
        "title": "公共厕所",
        "address": "青海省海西蒙古族藏族自治州德令哈市乌兰东路与桃园路交叉口正南方向117米左右",
        "tel": "",
        "category": "基础设施:公共设施:公共厕所",
        "type": 0,
        "location": {
            "lat": 37.375609,
            "lng": 97.37331
        },
        "ad_info": {
            "adcode": 632802,
            "province": "青海省",
            "city": "海西蒙古族藏族自治州",
            "district": "德令哈市"
        }
    },
    {
        "id": "4248416456176796993",
        "title": "公共厕所",
        "address": "青海省海西蒙古族藏族自治州格尔木市星光巷与星南巷交叉口正南方向138米左右",
        "tel": "",
        "category": "基础设施:公共设施:公共厕所",
        "type": 0,
        "location": {
            "lat": 36.393088,
            "lng": 94.886352
        },
        "ad_info": {
            "adcode": 632801,
            "province": "青海省",
            "city": "海西蒙古族藏族自治州",
            "district": "格尔木市"
        }
    },
    {
        "id": "17072405279654235564",
        "title": "环保公共厕所",
        "address": "青海省海西蒙古族藏族自治州格尔木市昆仑中路与昆仑南路交叉口西北方向49米左右",
        "tel": "",
        "category": "基础设施:公共设施:公共厕所",
        "type": 0,
        "location": {
            "lat": 36.397776,
            "lng": 94.902506
        },
        "ad_info": {
            "adcode": 632801,
            "province": "青海省",
            "city": "海西蒙古族藏族自治州",
            "district": "格尔木市"
        }
    },
    {
        "id": "17029328336950139335",
        "title": "公共厕所",
        "address": "青海省海西蒙古族藏族自治州大柴旦行政委员会人民西路与人民路交叉口西北方向290米左右",
        "tel": "",
        "category": "基础设施:公共设施:公共厕所",
        "type": 0,
        "location": {
            "lat": 37.880271,
            "lng": 95.320021
        },
        "ad_info": {
            "adcode": 632857,
            "province": "青海省",
            "city": "海西蒙古族藏族自治州",
            "district": "大柴旦行政委员会"
        }
    },
    {
        "id": "13813006856199197885",
        "title": "公共厕所",
        "address": "青海省海西蒙古族藏族自治州格尔木市中山路与育才巷交叉口正东方向88米左右",
        "tel": "",
        "category": "基础设施:公共设施:公共厕所",
        "type": 0,
        "location": {
            "lat": 36.40146,
            "lng": 94.896596
        },
        "ad_info": {
            "adcode": 632801,
            "province": "青海省",
            "city": "海西蒙古族藏族自治州",
            "district": "格尔木市"
        }
    },
    {
        "id": "2286270463299306313",
        "title": "公共厕所",
        "address": "青海省海西蒙古族藏族自治州都兰县希望路与民主路交叉口正南方向71米左右",
        "tel": "",
        "category": "基础设施:公共设施:公共厕所",
        "type": 0,
        "location": {
            "lat": 36.306657,
            "lng": 98.094697
        },
        "ad_info": {
            "adcode": 632822,
            "province": "青海省",
            "city": "海西蒙古族藏族自治州",
            "district": "都兰县"
        }
    },
    {
        "id": "16345189433270433269",
        "title": "公共厕所",
        "address": "青海省海西蒙古族藏族自治州大柴旦行政委员会商业步行街与建设路交叉口西南方向91米左右",
        "tel": "",
        "category": "基础设施:公共设施:公共厕所",
        "type": 0,
        "location": {
            "lat": 37.854071,
            "lng": 95.360892
        },
        "ad_info": {
            "adcode": 632857,
            "province": "青海省",
            "city": "海西蒙古族藏族自治州",
            "district": "大柴旦行政委员会"
        }
    },
    {
        "id": "8075537246216356994",
        "title": "公共厕所",
        "address": "青海省海西蒙古族藏族自治州格尔木市柳树巷与金峰中路交叉口正南方向115米左右",
        "tel": "",
        "category": "基础设施:公共设施:公共厕所",
        "type": 0,
        "location": {
            "lat": 36.411916,
            "lng": 94.90111
        },
        "ad_info": {
            "adcode": 632801,
            "province": "青海省",
            "city": "海西蒙古族藏族自治州",
            "district": "格尔木市"
        }
    },
    {
        "id": "6281999106852828510",
        "title": "公共厕所",
        "address": "青海省海西蒙古族藏族自治州格尔木市昆仑中路与食品街交叉口东南方向200米左右",
        "tel": "",
        "category": "基础设施:公共设施:公共厕所",
        "type": 0,
        "location": {
            "lat": 36.399514,
            "lng": 94.903821
        },
        "ad_info": {
            "adcode": 632801,
            "province": "青海省",
            "city": "海西蒙古族藏族自治州",
            "district": "格尔木市"
        }
    },
    {
        "id": "15244268210417631325",
        "title": "公共厕所",
        "address": "青海省海西蒙古族藏族自治州都兰县文化路与新华街交叉口正北方向193米左右",
        "tel": "",
        "category": "基础设施:公共设施:公共厕所",
        "type": 0,
        "location": {
            "lat": 36.302271,
            "lng": 98.087681
        },
        "ad_info": {
            "adcode": 632822,
            "province": "青海省",
            "city": "海西蒙古族藏族自治州",
            "district": "都兰县"
        }
    },
    {
        "id": "1793844177776340973",
        "title": "公共厕所",
        "address": "青海省海西蒙古族藏族自治州格尔木市西二路与黄河中路交叉口西南方向35米左右",
        "tel": "",
        "category": "基础设施:公共设施:公共厕所",
        "type": 0,
        "location": {
            "lat": 36.389813,
            "lng": 94.901733
        },
        "ad_info": {
            "adcode": 632801,
            "province": "青海省",
            "city": "海西蒙古族藏族自治州",
            "district": "格尔木市"
        }
    },
    {
        "id": "13836981569034194052",
        "title": "公共厕所",
        "address": "青海省海西蒙古族藏族自治州德令哈市长江北路辅路与红光巷交叉口正东方向325米左右",
        "tel": "",
        "category": "基础设施:公共设施:公共厕所",
        "type": 0,
        "location": {
            "lat": 37.365114,
            "lng": 97.380771
        },
        "ad_info": {
            "adcode": 632802,
            "province": "青海省",
            "city": "海西蒙古族藏族自治州",
            "district": "德令哈市"
        }
    },
    {
        "id": "7141866180248582343",
        "title": "公共厕所",
        "address": "青海省海西蒙古族藏族自治州乌兰县G109与京拉线交叉口正东方向826米左右",
        "tel": "",
        "category": "基础设施:公共设施:公共厕所",
        "type": 0,
        "location": {
            "lat": 36.708728,
            "lng": 99.285276
        },
        "ad_info": {
            "adcode": 632821,
            "province": "青海省",
            "city": "海西蒙古族藏族自治州",
            "district": "乌兰县"
        }
    },
    {
        "id": "16531004779197614442",
        "title": "公共厕所",
        "address": "青海省海西蒙古族藏族自治州德令哈市乌兰东路与环城北路交叉口正西方向223米左右",
        "tel": "",
        "category": "基础设施:公共设施:公共厕所",
        "type": 0,
        "location": {
            "lat": 37.376622,
            "lng": 97.382484
        },
        "ad_info": {
            "adcode": 632802,
            "province": "青海省",
            "city": "海西蒙古族藏族自治州",
            "district": "德令哈市"
        }
    },
    {
        "id": "15414267988276347692",
        "title": "公共厕所",
        "address": "青海省海西蒙古族藏族自治州德令哈市兴隆巷与新源路交叉口正南方向224米左右",
        "tel": "",
        "category": "基础设施:公共设施:公共厕所",
        "type": 0,
        "location": {
            "lat": 37.365092,
            "lng": 97.366297
        },
        "ad_info": {
            "adcode": 632802,
            "province": "青海省",
            "city": "海西蒙古族藏族自治州",
            "district": "德令哈市"
        }
    },
    {
        "id": "3465938039035835288",
        "title": "流沙坪停车区公共厕所",
        "address": "青海省海西蒙古族藏族自治州都兰县G3011柳格高速东50米",
        "tel": "",
        "category": "基础设施:公共设施:公共厕所",
        "type": 0,
        "location": {
            "lat": 37.132688,
            "lng": 95.468626
        },
        "ad_info": {
            "adcode": 632822,
            "province": "青海省",
            "city": "海西蒙古族藏族自治州",
            "district": "都兰县"
        }
    },
    {
        "id": "423759275250343335",
        "title": "公共厕所",
        "address": "青海省海西蒙古族藏族自治州格尔木市江源北路与金峰东路辅路交叉口东北40米",
        "tel": "",
        "category": "基础设施:公共设施:公共厕所",
        "type": 0,
        "location": {
            "lat": 36.41446,
            "lng": 94.910782
        },
        "ad_info": {
            "adcode": 632801,
            "province": "青海省",
            "city": "海西蒙古族藏族自治州",
            "district": "格尔木市"
        }
    },
    {
        "id": "14341410757109511479",
        "title": "公共厕所",
        "address": "青海省海西蒙古族藏族自治州都兰县G109",
        "tel": "",
        "category": "基础设施:公共设施:公共厕所",
        "type": 0,
        "location": {
            "lat": 36.101286,
            "lng": 97.378846
        },
        "ad_info": {
            "adcode": 632822,
            "province": "青海省",
            "city": "海西蒙古族藏族自治州",
            "district": "都兰县"
        }
    },
    {
        "id": "14040555701802059546",
        "title": "公共厕所",
        "address": "青海省海西蒙古族藏族自治州格尔木市109国道北50米",
        "tel": "",
        "category": "基础设施:公共设施:公共厕所",
        "type": 0,
        "location": {
            "lat": 36.373948,
            "lng": 95.77524
        },
        "ad_info": {
            "adcode": 632801,
            "province": "青海省",
            "city": "海西蒙古族藏族自治州",
            "district": "格尔木市"
        }
    },
    {
        "id": "15700230934439275556",
        "title": "公共厕所",
        "address": "青海省海西蒙古族藏族自治州格尔木市中山路与建设西路交叉口正南方向99米左右",
        "tel": "",
        "category": "基础设施:公共设施:公共厕所",
        "type": 0,
        "location": {
            "lat": 36.391715,
            "lng": 94.895158
        },
        "ad_info": {
            "adcode": 632801,
            "province": "青海省",
            "city": "海西蒙古族藏族自治州",
            "district": "格尔木市"
        }
    },
    {
        "id": "12800949487945532444",
        "title": "都兰服务区公共厕所",
        "address": "青海省海西蒙古族藏族自治州都兰县(京藏高速公路西)",
        "tel": "",
        "category": "基础设施:公共设施:公共厕所",
        "type": 0,
        "location": {
            "lat": 36.355919,
            "lng": 98.117441
        },
        "ad_info": {
            "adcode": 632822,
            "province": "青海省",
            "city": "海西蒙古族藏族自治州",
            "district": "都兰县"
        }
    },
    {
        "id": "6563068873013569233",
        "title": "公共厕所",
        "address": "青海省海西蒙古族藏族自治州天峻县X412与滨河西路交叉口西南方向441米左右",
        "tel": "",
        "category": "基础设施:公共设施:公共厕所",
        "type": 0,
        "location": {
            "lat": 37.315805,
            "lng": 99.000621
        },
        "ad_info": {
            "adcode": 632823,
            "province": "青海省",
            "city": "海西蒙古族藏族自治州",
            "district": "天峻县"
        }
    },
    {
        "id": "14417958983183122497",
        "title": "公共厕所",
        "address": "青海省海西蒙古族藏族自治州格尔木市中山路与柴达木西路交叉口正西方向87米左右",
        "tel": "",
        "category": "基础设施:公共设施:公共厕所",
        "type": 0,
        "location": {
            "lat": 36.397961,
            "lng": 94.894543
        },
        "ad_info": {
            "adcode": 632801,
            "province": "青海省",
            "city": "海西蒙古族藏族自治州",
            "district": "格尔木市"
        }
    },
    {
        "id": "4031281519459412053",
        "title": "公共厕所",
        "address": "青海省海西蒙古族藏族自治州格尔木市建材巷与芦苇巷交叉口正南方向79米左右",
        "tel": "",
        "category": "基础设施:公共设施:公共厕所",
        "type": 0,
        "location": {
            "lat": 36.39464,
            "lng": 94.92391
        },
        "ad_info": {
            "adcode": 632801,
            "province": "青海省",
            "city": "海西蒙古族藏族自治州",
            "district": "格尔木市"
        }
    },
    {
        "id": "4195544663478347730",
        "title": "公共厕所",
        "address": "青海省海西蒙古族藏族自治州德令哈市天峻东路与长江北路交叉口东北方向99米左右",
        "tel": "",
        "category": "基础设施:公共设施:公共厕所",
        "type": 0,
        "location": {
            "lat": 37.364038,
            "lng": 97.377908
        },
        "ad_info": {
            "adcode": 632802,
            "province": "青海省",
            "city": "海西蒙古族藏族自治州",
            "district": "德令哈市"
        }
    },
    {
        "id": "17613260779173781213",
        "title": "公共厕所",
        "address": "青海省海西蒙古族藏族自治州格尔木市东台巷与文体街交叉口西南方向66米左右",
        "tel": "",
        "category": "基础设施:公共设施:公共厕所",
        "type": 0,
        "location": {
            "lat": 36.39358,
            "lng": 94.905909
        },
        "ad_info": {
            "adcode": 632801,
            "province": "青海省",
            "city": "海西蒙古族藏族自治州",
            "district": "格尔木市"
        }
    },
    {
        "id": "1199564778808033863",
        "title": "公共厕所",
        "address": "青海省海西蒙古族藏族自治州格尔木市金峰路派出所(花园巷西)",
        "tel": "",
        "category": "基础设施:公共设施:公共厕所",
        "type": 0,
        "location": {
            "lat": 36.413,
            "lng": 94.905218
        },
        "ad_info": {
            "adcode": 632801,
            "province": "青海省",
            "city": "海西蒙古族藏族自治州",
            "district": "格尔木市"
        }
    },
    {
        "id": "6277190713222261086",
        "title": "公共厕所",
        "address": "青海省海西蒙古族藏族自治州格尔木市盐桥中路与盐桥北路交叉口正北方向90米左右",
        "tel": "",
        "category": "基础设施:公共设施:公共厕所",
        "type": 0,
        "location": {
            "lat": 36.415955,
            "lng": 94.888614
        },
        "ad_info": {
            "adcode": 632801,
            "province": "青海省",
            "city": "海西蒙古族藏族自治州",
            "district": "格尔木市"
        }
    },
    {
        "id": "6483562793531639917",
        "title": "乌兰服务区第一公共厕所",
        "address": "青海省海西蒙古族藏族自治州乌兰县茶德高速与西莎线交叉口西北方向586米左右",
        "tel": "",
        "category": "基础设施:公共设施:公共厕所",
        "type": 0,
        "location": {
            "lat": 36.962076,
            "lng": 98.423388
        },
        "ad_info": {
            "adcode": 632821,
            "province": "青海省",
            "city": "海西蒙古族藏族自治州",
            "district": "乌兰县"
        }
    },
    {
        "id": "4047237092203438697",
        "title": "公共厕所",
        "address": "青海省海西蒙古族藏族自治州德令哈市朝阳路与格尔木西路交叉口东北方向61米左右",
        "tel": "",
        "category": "基础设施:公共设施:公共厕所",
        "type": 0,
        "location": {
            "lat": 37.369423,
            "lng": 97.356776
        },
        "ad_info": {
            "adcode": 632802,
            "province": "青海省",
            "city": "海西蒙古族藏族自治州",
            "district": "德令哈市"
        }
    },
    {
        "id": "2478815690521755564",
        "title": "公共厕所",
        "address": "青海省海西蒙古族藏族自治州格尔木市建兴巷与泰山中路交叉口正东方向98米左右",
        "tel": "",
        "category": "基础设施:公共设施:公共厕所",
        "type": 0,
        "location": {
            "lat": 36.403494,
            "lng": 94.919315
        },
        "ad_info": {
            "adcode": 632801,
            "province": "青海省",
            "city": "海西蒙古族藏族自治州",
            "district": "格尔木市"
        }
    },
    {
        "id": "7691739441558137128",
        "title": "公共厕所",
        "address": "青海省海西蒙古族藏族自治州格尔木市宝岛路与知青路交叉口正南方向185米左右",
        "tel": "",
        "category": "基础设施:公共设施:公共厕所",
        "type": 0,
        "location": {
            "lat": 36.422926,
            "lng": 94.87617
        },
        "ad_info": {
            "adcode": 632801,
            "province": "青海省",
            "city": "海西蒙古族藏族自治州",
            "district": "格尔木市"
        }
    },
    {
        "id": "17705144397195876341",
        "title": "公共厕所",
        "address": "青海省海西蒙古族藏族自治州格尔木市杨树巷与树林巷交叉口西南方向34米左右",
        "tel": "",
        "category": "基础设施:公共设施:公共厕所",
        "type": 0,
        "location": {
            "lat": 36.409329,
            "lng": 94.899241
        },
        "ad_info": {
            "adcode": 632801,
            "province": "青海省",
            "city": "海西蒙古族藏族自治州",
            "district": "格尔木市"
        }
    },
    {
        "id": "17932615254314140586",
        "title": "公共厕所",
        "address": "青海省海西蒙古族藏族自治州德令哈市固始汉文化步行街与浩星街交叉口西南方向58米左右",
        "tel": "",
        "category": "基础设施:公共设施:公共厕所",
        "type": 0,
        "location": {
            "lat": 37.370952,
            "lng": 97.36957
        },
        "ad_info": {
            "adcode": 632802,
            "province": "青海省",
            "city": "海西蒙古族藏族自治州",
            "district": "德令哈市"
        }
    }
]