[
    {
        "id": "4625526219989633849",
        "title": "公共厕所",
        "address": "山东省淄博市桓台县中心大街与少海路交叉口正北方向308米左右",
        "tel": "",
        "category": "基础设施:公共设施:公共厕所",
        "type": 0,
        "location": {
            "lat": 36.96166,
            "lng": 118.086563
        },
        "ad_info": {
            "adcode": 370321,
            "province": "山东省",
            "city": "淄博市",
            "district": "桓台县"
        }
    },
    {
        "id": "1731312399805836932",
        "title": "公共厕所",
        "address": "山东省淄博市张店区北西六路与联通路交叉口正西方向145米左右",
        "tel": "",
        "category": "基础设施:公共设施:公共厕所",
        "type": 0,
        "location": {
            "lat": 36.829167,
            "lng": 118.030704
        },
        "ad_info": {
            "adcode": 370303,
            "province": "山东省",
            "city": "淄博市",
            "district": "张店区"
        }
    },
    {
        "id": "4689879970295883453",
        "title": "公共厕所",
        "address": "山东省淄博市张店区法治文化公园内(西南角)",
        "tel": "",
        "category": "基础设施:公共设施:公共厕所",
        "type": 0,
        "location": {
            "lat": 36.883374,
            "lng": 118.070241
        },
        "ad_info": {
            "adcode": 370303,
            "province": "山东省",
            "city": "淄博市",
            "district": "张店区"
        }
    },
    {
        "id": "17528005602157958975",
        "title": "公共厕所",
        "address": "山东省淄博市张店区人民西路与心环西路交叉口正东方向124米左右",
        "tel": "",
        "category": "基础设施:公共设施:公共厕所",
        "type": 0,
        "location": {
            "lat": 36.81704,
            "lng": 117.98511
        },
        "ad_info": {
            "adcode": 370303,
            "province": "山东省",
            "city": "淄博市",
            "district": "张店区"
        }
    },
    {
        "id": "3415373163077067952",
        "title": "公共厕所",
        "address": "山东省淄博市张店区西六路与鲁泰大道交叉口正北方向61米左右",
        "tel": "",
        "category": "基础设施:公共设施:公共厕所",
        "type": 0,
        "location": {
            "lat": 36.848094,
            "lng": 118.032143
        },
        "ad_info": {
            "adcode": 370303,
            "province": "山东省",
            "city": "淄博市",
            "district": "张店区"
        }
    },
    {
        "id": "6362869536096608093",
        "title": "公共厕所",
        "address": "山东省淄博市张店区东二路与洪沟路交叉口正北方向60米左右",
        "tel": "",
        "category": "基础设施:公共设施:公共厕所",
        "type": 0,
        "location": {
            "lat": 36.792102,
            "lng": 118.067634
        },
        "ad_info": {
            "adcode": 370303,
            "province": "山东省",
            "city": "淄博市",
            "district": "张店区"
        }
    },
    {
        "id": "13159935723601086258",
        "title": "公共厕所",
        "address": "山东省淄博市张店区中润大道与济南路交叉口东南方向140米左右",
        "tel": "",
        "category": "基础设施:公共设施:公共厕所",
        "type": 0,
        "location": {
            "lat": 36.838822,
            "lng": 117.97107
        },
        "ad_info": {
            "adcode": 370303,
            "province": "山东省",
            "city": "淄博市",
            "district": "张店区"
        }
    },
    {
        "id": "17028059211098330906",
        "title": "公共厕所",
        "address": "山东省淄博市沂源县历山路与新城路交叉口正东方向122米左右",
        "tel": "",
        "category": "基础设施:公共设施:公共厕所",
        "type": 0,
        "location": {
            "lat": 36.198638,
            "lng": 118.164846
        },
        "ad_info": {
            "adcode": 370323,
            "province": "山东省",
            "city": "淄博市",
            "district": "沂源县"
        }
    },
    {
        "id": "3570636527435392989",
        "title": "公共厕所",
        "address": "山东省淄博市桓台县中心路与槐荫路交叉口正东方向153米左右",
        "tel": "",
        "category": "基础设施:公共设施:公共厕所",
        "type": 0,
        "location": {
            "lat": 36.962749,
            "lng": 118.052921
        },
        "ad_info": {
            "adcode": 370321,
            "province": "山东省",
            "city": "淄博市",
            "district": "桓台县"
        }
    },
    {
        "id": "12160422393632100372",
        "title": "公共厕所",
        "address": "山东省淄博市张店区北京路与华光路交叉口东北方向140米左右",
        "tel": "",
        "category": "基础设施:公共设施:公共厕所",
        "type": 0,
        "location": {
            "lat": 36.824961,
            "lng": 117.995245
        },
        "ad_info": {
            "adcode": 370303,
            "province": "山东省",
            "city": "淄博市",
            "district": "张店区"
        }
    },
    {
        "id": "12097081247485491863",
        "title": "公共厕所",
        "address": "山东省淄博市淄川区商城西街与淄城路交叉口西南方向113米左右",
        "tel": "",
        "category": "基础设施:公共设施:公共厕所",
        "type": 0,
        "location": {
            "lat": 36.645707,
            "lng": 117.957789
        },
        "ad_info": {
            "adcode": 370302,
            "province": "山东省",
            "city": "淄博市",
            "district": "淄川区"
        }
    },
    {
        "id": "14372201894966223418",
        "title": "公共厕所",
        "address": "山东省淄博市桓台县兴桓路与建设街交叉口正南方向80米左右",
        "tel": "",
        "category": "基础设施:公共设施:公共厕所",
        "type": 0,
        "location": {
            "lat": 36.964437,
            "lng": 118.099275
        },
        "ad_info": {
            "adcode": 370321,
            "province": "山东省",
            "city": "淄博市",
            "district": "桓台县"
        }
    },
    {
        "id": "9045663928565928082",
        "title": "公共厕所",
        "address": "山东省淄博市张店区甘北路与赵王路交叉口正南方向234米左右",
        "tel": "",
        "category": "基础设施:公共设施:公共厕所",
        "type": 0,
        "location": {
            "lat": 36.871304,
            "lng": 118.071898
        },
        "ad_info": {
            "adcode": 370303,
            "province": "山东省",
            "city": "淄博市",
            "district": "张店区"
        }
    },
    {
        "id": "5980203135718713407",
        "title": "公共厕所",
        "address": "山东省淄博市张店区南西五路与西五路交叉口西北方向63米",
        "tel": "",
        "category": "基础设施:公共设施:公共厕所",
        "type": 0,
        "location": {
            "lat": 36.807536,
            "lng": 118.036479
        },
        "ad_info": {
            "adcode": 370303,
            "province": "山东省",
            "city": "淄博市",
            "district": "张店区"
        }
    },
    {
        "id": "9476580647506420397",
        "title": "公共厕所",
        "address": "山东省淄博市张店区潘南东路与潘南西路交叉口正北方向132米左右",
        "tel": "",
        "category": "基础设施:公共设施:公共厕所",
        "type": 0,
        "location": {
            "lat": 36.81608,
            "lng": 118.063812
        },
        "ad_info": {
            "adcode": 370303,
            "province": "山东省",
            "city": "淄博市",
            "district": "张店区"
        }
    },
    {
        "id": "3737673241299099157",
        "title": "公共厕所",
        "address": "山东省淄博市淄川区城里大街与建设巷交叉口东南方向74米左右",
        "tel": "",
        "category": "基础设施:公共设施:公共厕所",
        "type": 0,
        "location": {
            "lat": 36.646145,
            "lng": 117.964424
        },
        "ad_info": {
            "adcode": 370302,
            "province": "山东省",
            "city": "淄博市",
            "district": "淄川区"
        }
    },
    {
        "id": "2999949202037263770",
        "title": "公共厕所",
        "address": "山东省淄博市张店区南西五路与海岱大道交叉口西南方向91米左右",
        "tel": "",
        "category": "基础设施:公共设施:公共厕所",
        "type": 0,
        "location": {
            "lat": 36.768896,
            "lng": 118.030209
        },
        "ad_info": {
            "adcode": 370303,
            "province": "山东省",
            "city": "淄博市",
            "district": "张店区"
        }
    },
    {
        "id": "10118910692791501888",
        "title": "公共厕所",
        "address": "山东省淄博市张店区鲁泰大道68号",
        "tel": "",
        "category": "基础设施:公共设施:公共厕所",
        "type": 0,
        "location": {
            "lat": 36.846499,
            "lng": 118.049711
        },
        "ad_info": {
            "adcode": 370303,
            "province": "山东省",
            "city": "淄博市",
            "district": "张店区"
        }
    },
    {
        "id": "17390133338868491240",
        "title": "公共厕所",
        "address": "山东省淄博市张店区南西五路与商场西街交叉口正南方向133米左右",
        "tel": "",
        "category": "基础设施:公共设施:公共厕所",
        "type": 0,
        "location": {
            "lat": 36.803685,
            "lng": 118.036686
        },
        "ad_info": {
            "adcode": 370303,
            "province": "山东省",
            "city": "淄博市",
            "district": "张店区"
        }
    },
    {
        "id": "4660700044158860006",
        "title": "公共厕所",
        "address": "山东省淄博市淄川区淄城路与留仙湖路交叉口正西方向174米左右",
        "tel": "",
        "category": "基础设施:公共设施:公共厕所",
        "type": 0,
        "location": {
            "lat": 36.642397,
            "lng": 117.951529
        },
        "ad_info": {
            "adcode": 370302,
            "province": "山东省",
            "city": "淄博市",
            "district": "淄川区"
        }
    },
    {
        "id": "7725777736953312283",
        "title": "公共厕所",
        "address": "山东省淄博市桓台县少海路与渔洋街交叉口正东方向221米左右",
        "tel": "",
        "category": "基础设施:公共设施:公共厕所",
        "type": 0,
        "location": {
            "lat": 36.951131,
            "lng": 118.088713
        },
        "ad_info": {
            "adcode": 370321,
            "province": "山东省",
            "city": "淄博市",
            "district": "桓台县"
        }
    },
    {
        "id": "9761737842499642196",
        "title": "公共厕所",
        "address": "山东省淄博市张店区商场东街广场小区",
        "tel": "",
        "category": "基础设施:公共设施:公共厕所",
        "type": 0,
        "location": {
            "lat": 36.801685,
            "lng": 118.066966
        },
        "ad_info": {
            "adcode": 370303,
            "province": "山东省",
            "city": "淄博市",
            "district": "张店区"
        }
    },
    {
        "id": "4189038172567074920",
        "title": "公共厕所",
        "address": "山东省淄博市张店区唐家山路与昌国路辅路交叉口正南方向110米左右",
        "tel": "",
        "category": "基础设施:公共设施:公共厕所",
        "type": 0,
        "location": {
            "lat": 36.785505,
            "lng": 118.017726
        },
        "ad_info": {
            "adcode": 370303,
            "province": "山东省",
            "city": "淄博市",
            "district": "张店区"
        }
    },
    {
        "id": "4610703834972708387",
        "title": "公共厕所",
        "address": "山东省淄博市张店区昌国路与重庆路交叉口正东方向310米左右",
        "tel": "",
        "category": "基础设施:公共设施:公共厕所",
        "type": 0,
        "location": {
            "lat": 36.786293,
            "lng": 118.002113
        },
        "ad_info": {
            "adcode": 370303,
            "province": "山东省",
            "city": "淄博市",
            "district": "张店区"
        }
    },
    {
        "id": "5560971869614780607",
        "title": "公共厕所",
        "address": "山东省淄博市张店区科苑便民综合农贸市场东南角",
        "tel": "",
        "category": "基础设施:公共设施:公共厕所",
        "type": 0,
        "location": {
            "lat": 36.828921,
            "lng": 118.045311
        },
        "ad_info": {
            "adcode": 370303,
            "province": "山东省",
            "city": "淄博市",
            "district": "张店区"
        }
    },
    {
        "id": "17646257791068509017",
        "title": "公共厕所",
        "address": "山东省淄博市张店区世纪路与张柳路交叉口西北方向155米左右",
        "tel": "",
        "category": "基础设施:公共设施:公共厕所",
        "type": 0,
        "location": {
            "lat": 36.864319,
            "lng": 118.01623
        },
        "ad_info": {
            "adcode": 370303,
            "province": "山东省",
            "city": "淄博市",
            "district": "张店区"
        }
    },
    {
        "id": "13873786991769325920",
        "title": "公共厕所",
        "address": "山东省淄博市张店区柳泉路辅路与裕民路交叉口正南方向201米左右",
        "tel": "",
        "category": "基础设施:公共设施:公共厕所",
        "type": 0,
        "location": {
            "lat": 36.863582,
            "lng": 118.063845
        },
        "ad_info": {
            "adcode": 370303,
            "province": "山东省",
            "city": "淄博市",
            "district": "张店区"
        }
    },
    {
        "id": "14752004775260322225",
        "title": "公共厕所",
        "address": "山东省淄博市张店区联通路427号",
        "tel": "",
        "category": "基础设施:公共设施:公共厕所",
        "type": 0,
        "location": {
            "lat": 36.830926,
            "lng": 117.979054
        },
        "ad_info": {
            "adcode": 370303,
            "province": "山东省",
            "city": "淄博市",
            "district": "张店区"
        }
    },
    {
        "id": "18005025674701441990",
        "title": "公共厕所",
        "address": "山东省淄博市淄川区向阳村中心路与淄河大道交叉口东北方向105米左右",
        "tel": "",
        "category": "基础设施:公共设施:公共厕所",
        "type": 0,
        "location": {
            "lat": 36.746483,
            "lng": 117.990977
        },
        "ad_info": {
            "adcode": 370302,
            "province": "山东省",
            "city": "淄博市",
            "district": "淄川区"
        }
    },
    {
        "id": "207563417636379333",
        "title": "公共厕所",
        "address": "山东省淄博市张店区丰安路与北京路交叉口正北方向145米左右",
        "tel": "",
        "category": "基础设施:公共设施:公共厕所",
        "type": 0,
        "location": {
            "lat": 36.842521,
            "lng": 117.996248
        },
        "ad_info": {
            "adcode": 370303,
            "province": "山东省",
            "city": "淄博市",
            "district": "张店区"
        }
    },
    {
        "id": "2897792531251349821",
        "title": "公共厕所",
        "address": "山东省淄博市张店区世纪路与中润大道交叉口西北方向86米左右",
        "tel": "",
        "category": "基础设施:公共设施:公共厕所",
        "type": 0,
        "location": {
            "lat": 36.83762,
            "lng": 118.025572
        },
        "ad_info": {
            "adcode": 370303,
            "province": "山东省",
            "city": "淄博市",
            "district": "张店区"
        }
    },
    {
        "id": "232095694897474910",
        "title": "公共厕所",
        "address": "山东省淄博市桓台县果里大道与黄山路交叉口正北方向383米左右",
        "tel": "",
        "category": "基础设施:公共设施:公共厕所",
        "type": 0,
        "location": {
            "lat": 36.91912,
            "lng": 118.067728
        },
        "ad_info": {
            "adcode": 370321,
            "province": "山东省",
            "city": "淄博市",
            "district": "桓台县"
        }
    },
    {
        "id": "15323968298535441671",
        "title": "公共厕所",
        "address": "山东省淄博市张店区南西六路与和平路交叉口西北方向279米左右",
        "tel": "",
        "category": "基础设施:公共设施:公共厕所",
        "type": 0,
        "location": {
            "lat": 36.799481,
            "lng": 118.029357
        },
        "ad_info": {
            "adcode": 370303,
            "province": "山东省",
            "city": "淄博市",
            "district": "张店区"
        }
    },
    {
        "id": "7320906086739848326",
        "title": "公共厕所",
        "address": "山东省淄博市淄川区淄城路与留仙湖路交叉口正南方向209米左右",
        "tel": "",
        "category": "基础设施:公共设施:公共厕所",
        "type": 0,
        "location": {
            "lat": 36.641027,
            "lng": 117.952739
        },
        "ad_info": {
            "adcode": 370302,
            "province": "山东省",
            "city": "淄博市",
            "district": "淄川区"
        }
    },
    {
        "id": "11694190660336994233",
        "title": "公共厕所",
        "address": "山东省淄博市博山区白虎山路淄博博山长途汽车站",
        "tel": "",
        "category": "基础设施:公共设施:公共厕所",
        "type": 0,
        "location": {
            "lat": 36.5139,
            "lng": 117.861531
        },
        "ad_info": {
            "adcode": 370304,
            "province": "山东省",
            "city": "淄博市",
            "district": "博山区"
        }
    },
    {
        "id": "4865192335754712438",
        "title": "公共厕所",
        "address": "山东省淄博市张店区人民东路与宝沣路交叉口东南方向121米左右",
        "tel": "",
        "category": "基础设施:公共设施:公共厕所",
        "type": 0,
        "location": {
            "lat": 36.806548,
            "lng": 118.08198
        },
        "ad_info": {
            "adcode": 370303,
            "province": "山东省",
            "city": "淄博市",
            "district": "张店区"
        }
    },
    {
        "id": "8249442006169003309",
        "title": "公共厕所",
        "address": "山东省淄博市淄川区淄城路124号",
        "tel": "",
        "category": "基础设施:公共设施:公共厕所",
        "type": 0,
        "location": {
            "lat": 36.660867,
            "lng": 117.981093
        },
        "ad_info": {
            "adcode": 370302,
            "province": "山东省",
            "city": "淄博市",
            "district": "淄川区"
        }
    },
    {
        "id": "5635427744326870242",
        "title": "公共厕所",
        "address": "山东省淄博市桓台县张北路2054号",
        "tel": "",
        "category": "基础设施:公共设施:公共厕所",
        "type": 0,
        "location": {
            "lat": 36.952138,
            "lng": 118.102547
        },
        "ad_info": {
            "adcode": 370321,
            "province": "山东省",
            "city": "淄博市",
            "district": "桓台县"
        }
    },
    {
        "id": "6812389894700095443",
        "title": "公共厕所",
        "address": "山东省淄博市淄川区华洋街北关小区",
        "tel": "",
        "category": "基础设施:公共设施:公共厕所",
        "type": 0,
        "location": {
            "lat": 36.65133,
            "lng": 117.968253
        },
        "ad_info": {
            "adcode": 370302,
            "province": "山东省",
            "city": "淄博市",
            "district": "淄川区"
        }
    },
    {
        "id": "16040226685306841572",
        "title": "公共厕所",
        "address": "山东省淄博市张店区华菁园西路与民祥路交叉口西北方向172米左右",
        "tel": "",
        "category": "基础设施:公共设施:公共厕所",
        "type": 0,
        "location": {
            "lat": 36.855505,
            "lng": 118.070677
        },
        "ad_info": {
            "adcode": 370303,
            "province": "山东省",
            "city": "淄博市",
            "district": "张店区"
        }
    },
    {
        "id": "1905061413587887529",
        "title": "公共厕所",
        "address": "山东省淄博市张店区心环东路淄博新区水系公园(东侧)",
        "tel": "",
        "category": "基础设施:公共设施:公共厕所",
        "type": 0,
        "location": {
            "lat": 36.821218,
            "lng": 117.990351
        },
        "ad_info": {
            "adcode": 370303,
            "province": "山东省",
            "city": "淄博市",
            "district": "张店区"
        }
    },
    {
        "id": "8829283750854380715",
        "title": "公共厕所",
        "address": "山东省淄博市淄川区北二路与南二路交叉口西北方向81米左右",
        "tel": "",
        "category": "基础设施:公共设施:公共厕所",
        "type": 0,
        "location": {
            "lat": 36.667194,
            "lng": 117.961091
        },
        "ad_info": {
            "adcode": 370302,
            "province": "山东省",
            "city": "淄博市",
            "district": "淄川区"
        }
    },
    {
        "id": "908062249219664583",
        "title": "公共厕所",
        "address": "山东省淄博市高青县田北路与青城路交叉口东北方向137米左右",
        "tel": "",
        "category": "基础设施:公共设施:公共厕所",
        "type": 0,
        "location": {
            "lat": 37.169446,
            "lng": 117.831649
        },
        "ad_info": {
            "adcode": 370322,
            "province": "山东省",
            "city": "淄博市",
            "district": "高青县"
        }
    },
    {
        "id": "1620467577389484972",
        "title": "公共厕所",
        "address": "山东省淄博市张店区联通路366号",
        "tel": "",
        "category": "基础设施:公共设施:公共厕所",
        "type": 0,
        "location": {
            "lat": 36.832683,
            "lng": 117.961951
        },
        "ad_info": {
            "adcode": 370303,
            "province": "山东省",
            "city": "淄博市",
            "district": "张店区"
        }
    },
    {
        "id": "11490755122281917156",
        "title": "公共厕所",
        "address": "山东省淄博市张店区世纪路与规划八路交叉口正东方向245米左右",
        "tel": "",
        "category": "基础设施:公共设施:公共厕所",
        "type": 0,
        "location": {
            "lat": 36.777424,
            "lng": 118.025887
        },
        "ad_info": {
            "adcode": 370303,
            "province": "山东省",
            "city": "淄博市",
            "district": "张店区"
        }
    },
    {
        "id": "2599264136577235652",
        "title": "公共厕所",
        "address": "山东省淄博市张店区王舍路孝妇河湿地公园内(东侧)",
        "tel": "",
        "category": "基础设施:公共设施:公共厕所",
        "type": 0,
        "location": {
            "lat": 36.790389,
            "lng": 117.984694
        },
        "ad_info": {
            "adcode": 370303,
            "province": "山东省",
            "city": "淄博市",
            "district": "张店区"
        }
    },
    {
        "id": "9573612277588458977",
        "title": "公共厕所",
        "address": "山东省淄博市张店区张南路与朝阳路交叉口正北方向100米左右",
        "tel": "",
        "category": "基础设施:公共设施:公共厕所",
        "type": 0,
        "location": {
            "lat": 36.770731,
            "lng": 118.050212
        },
        "ad_info": {
            "adcode": 370303,
            "province": "山东省",
            "city": "淄博市",
            "district": "张店区"
        }
    },
    {
        "id": "1236864720231456300",
        "title": "公共厕所",
        "address": "山东省淄博市张店区柳泉路国脉加油站",
        "tel": "",
        "category": "基础设施:公共设施:公共厕所",
        "type": 0,
        "location": {
            "lat": 36.775771,
            "lng": 118.042469
        },
        "ad_info": {
            "adcode": 370303,
            "province": "山东省",
            "city": "淄博市",
            "district": "张店区"
        }
    },
    {
        "id": "18417001035420183440",
        "title": "公共厕所",
        "address": "山东省淄博市淄川区雁阳路与鲁泰文化路交叉口正南方向210米左右",
        "tel": "",
        "category": "基础设施:公共设施:公共厕所",
        "type": 0,
        "location": {
            "lat": 36.655753,
            "lng": 117.986778
        },
        "ad_info": {
            "adcode": 370302,
            "province": "山东省",
            "city": "淄博市",
            "district": "淄川区"
        }
    },
    {
        "id": "8989328862139357224",
        "title": "公共厕所",
        "address": "山东省淄博市沂源县松山路与荆山西路交叉口东北方向62米左右",
        "tel": "",
        "category": "基础设施:公共设施:公共厕所",
        "type": 0,
        "location": {
            "lat": 36.179925,
            "lng": 118.151102
        },
        "ad_info": {
            "adcode": 370323,
            "province": "山东省",
            "city": "淄博市",
            "district": "沂源县"
        }
    },
    {
        "id": "7067671586715120212",
        "title": "公共厕所",
        "address": "山东省淄博市张店区南京路山东理工大学",
        "tel": "",
        "category": "基础设施:公共设施:公共厕所",
        "type": 0,
        "location": {
            "lat": 36.809082,
            "lng": 118.010296
        },
        "ad_info": {
            "adcode": 370303,
            "province": "山东省",
            "city": "淄博市",
            "district": "张店区"
        }
    },
    {
        "id": "1491852850612956177",
        "title": "公共厕所",
        "address": "山东省淄博市张店区共青团西路辅路与王府井时尚街交叉口西南方向92米左右",
        "tel": "",
        "category": "基础设施:公共设施:公共厕所",
        "type": 0,
        "location": {
            "lat": 36.805393,
            "lng": 118.052348
        },
        "ad_info": {
            "adcode": 370303,
            "province": "山东省",
            "city": "淄博市",
            "district": "张店区"
        }
    },
    {
        "id": "16139025200372121469",
        "title": "无障碍公共厕所",
        "address": "山东省淄博市淄川区壳牌淄城路加油站西南侧100米",
        "tel": "",
        "category": "基础设施:公共设施:公共厕所",
        "type": 0,
        "location": {
            "lat": 36.654875,
            "lng": 117.968498
        },
        "ad_info": {
            "adcode": 370302,
            "province": "山东省",
            "city": "淄博市",
            "district": "淄川区"
        }
    },
    {
        "id": "10083786726461394992",
        "title": "公共厕所",
        "address": "山东省淄博市张店区玉龙商街与玉龙商街南街交叉口正南方向226米左右",
        "tel": "",
        "category": "基础设施:公共设施:公共厕所",
        "type": 0,
        "location": {
            "lat": 36.824042,
            "lng": 118.024801
        },
        "ad_info": {
            "adcode": 370303,
            "province": "山东省",
            "city": "淄博市",
            "district": "张店区"
        }
    },
    {
        "id": "8180645958459400611",
        "title": "公共厕所",
        "address": "山东省淄博市张店区杏园东路与杏园西路交叉口正南方向44米左右",
        "tel": "",
        "category": "基础设施:公共设施:公共厕所",
        "type": 0,
        "location": {
            "lat": 36.789668,
            "lng": 118.058048
        },
        "ad_info": {
            "adcode": 370303,
            "province": "山东省",
            "city": "淄博市",
            "district": "张店区"
        }
    },
    {
        "id": "12931542318721240431",
        "title": "公共厕所",
        "address": "山东省淄博市张店区华光路与柳泉路交叉口东南方向104米左右",
        "tel": "",
        "category": "基础设施:公共设施:公共厕所",
        "type": 0,
        "location": {
            "lat": 36.820049,
            "lng": 118.054228
        },
        "ad_info": {
            "adcode": 370303,
            "province": "山东省",
            "city": "淄博市",
            "district": "张店区"
        }
    },
    {
        "id": "10031204688127737050",
        "title": "公共厕所",
        "address": "山东省淄博市张店区复兴路淄博盛乡源综合农贸市场",
        "tel": "",
        "category": "基础设施:公共设施:公共厕所",
        "type": 0,
        "location": {
            "lat": 36.784062,
            "lng": 118.012529
        },
        "ad_info": {
            "adcode": 370303,
            "province": "山东省",
            "city": "淄博市",
            "district": "张店区"
        }
    },
    {
        "id": "7222579861819580647",
        "title": "无障碍公共厕所",
        "address": "山东省淄博市张店区洪沟路27号",
        "tel": "",
        "category": "基础设施:公共设施:公共厕所",
        "type": 0,
        "location": {
            "lat": 36.790802,
            "lng": 118.075931
        },
        "ad_info": {
            "adcode": 370303,
            "province": "山东省",
            "city": "淄博市",
            "district": "张店区"
        }
    },
    {
        "id": "7915212893044495028",
        "title": "男卫生间(印象汇)",
        "address": "山东省淄博市张店区柳泉路67号印象汇2层",
        "tel": "",
        "category": "基础设施:公共设施:公共厕所",
        "type": 0,
        "location": {
            "lat": 36.822326,
            "lng": 118.052593
        },
        "ad_info": {
            "adcode": 370303,
            "province": "山东省",
            "city": "淄博市",
            "district": "张店区"
        }
    },
    {
        "id": "14292448578493158375",
        "title": "公共厕所",
        "address": "山东省淄博市张店区人民东路与人民东路北二巷交叉口正北方向75米左右",
        "tel": "",
        "category": "基础设施:公共设施:公共厕所",
        "type": 0,
        "location": {
            "lat": 36.811599,
            "lng": 118.065456
        },
        "ad_info": {
            "adcode": 370303,
            "province": "山东省",
            "city": "淄博市",
            "district": "张店区"
        }
    },
    {
        "id": "13902314214606917169",
        "title": "公共厕所",
        "address": "山东省淄博市沂源县南麻老街127号",
        "tel": "",
        "category": "基础设施:公共设施:公共厕所",
        "type": 0,
        "location": {
            "lat": 36.183826,
            "lng": 118.165724
        },
        "ad_info": {
            "adcode": 370323,
            "province": "山东省",
            "city": "淄博市",
            "district": "沂源县"
        }
    },
    {
        "id": "10449640104566997701",
        "title": "公共厕所",
        "address": "山东省淄博市临淄区雪宫路与齐城路交叉口正北方向92米左右",
        "tel": "",
        "category": "基础设施:公共设施:公共厕所",
        "type": 0,
        "location": {
            "lat": 36.810236,
            "lng": 118.303284
        },
        "ad_info": {
            "adcode": 370305,
            "province": "山东省",
            "city": "淄博市",
            "district": "临淄区"
        }
    },
    {
        "id": "10737824923697759116",
        "title": "公共厕所",
        "address": "山东省淄博市张店区兴学街与西一路交叉口东北方向23米左右",
        "tel": "",
        "category": "基础设施:公共设施:公共厕所",
        "type": 0,
        "location": {
            "lat": 36.79373,
            "lng": 118.05693
        },
        "ad_info": {
            "adcode": 370303,
            "province": "山东省",
            "city": "淄博市",
            "district": "张店区"
        }
    },
    {
        "id": "12185726531071639731",
        "title": "公共卫生间",
        "address": "山东省淄博市张店区金晶大道103号",
        "tel": "",
        "category": "基础设施:公共设施:公共厕所",
        "type": 0,
        "location": {
            "lat": 36.799239,
            "lng": 118.05904
        },
        "ad_info": {
            "adcode": 370303,
            "province": "山东省",
            "city": "淄博市",
            "district": "张店区"
        }
    },
    {
        "id": "8070245992065270043",
        "title": "莲池公园公共厕所",
        "address": "山东省淄博市张店区北西六路莲池公园内",
        "tel": "",
        "category": "基础设施:公共设施:公共厕所",
        "type": 0,
        "location": {
            "lat": 36.822348,
            "lng": 118.032954
        },
        "ad_info": {
            "adcode": 370303,
            "province": "山东省",
            "city": "淄博市",
            "district": "张店区"
        }
    },
    {
        "id": "14101904925682405800",
        "title": "公共厕所",
        "address": "山东省淄博市张店区健康街40号",
        "tel": "",
        "category": "基础设施:公共设施:公共厕所",
        "type": 0,
        "location": {
            "lat": 36.800675,
            "lng": 118.050654
        },
        "ad_info": {
            "adcode": 370303,
            "province": "山东省",
            "city": "淄博市",
            "district": "张店区"
        }
    },
    {
        "id": "8545970610723331896",
        "title": "公共厕所",
        "address": "山东省淄博市张店区政通路与泰美路交叉口正东方向55米左右",
        "tel": "",
        "category": "基础设施:公共设施:公共厕所",
        "type": 0,
        "location": {
            "lat": 36.838616,
            "lng": 118.05073
        },
        "ad_info": {
            "adcode": 370303,
            "province": "山东省",
            "city": "淄博市",
            "district": "张店区"
        }
    },
    {
        "id": "14248723552101323053",
        "title": "公共厕所",
        "address": "山东省淄博市张店区张南路崔军派出所对面",
        "tel": "",
        "category": "基础设施:公共设施:公共厕所",
        "type": 0,
        "location": {
            "lat": 36.750705,
            "lng": 118.046328
        },
        "ad_info": {
            "adcode": 370303,
            "province": "山东省",
            "city": "淄博市",
            "district": "张店区"
        }
    },
    {
        "id": "10004384782297882870",
        "title": "公共厕所",
        "address": "山东省淄博市张店区北西五路与华光路交叉口正南方向395米左右",
        "tel": "",
        "category": "基础设施:公共设施:公共厕所",
        "type": 0,
        "location": {
            "lat": 36.817817,
            "lng": 118.036633
        },
        "ad_info": {
            "adcode": 370303,
            "province": "山东省",
            "city": "淄博市",
            "district": "张店区"
        }
    },
    {
        "id": "7062962989030125290",
        "title": "公共厕所",
        "address": "山东省淄博市沂源县润生路沂源县妇幼保健医院",
        "tel": "",
        "category": "基础设施:公共设施:公共厕所",
        "type": 0,
        "location": {
            "lat": 36.192677,
            "lng": 118.188647
        },
        "ad_info": {
            "adcode": 370323,
            "province": "山东省",
            "city": "淄博市",
            "district": "沂源县"
        }
    },
    {
        "id": "5717534297087432791",
        "title": "公共厕所",
        "address": "山东省淄博市张店区创业·齐悦国际花园一期(山东理工大学西)",
        "tel": "",
        "category": "基础设施:公共设施:公共厕所",
        "type": 0,
        "location": {
            "lat": 36.811918,
            "lng": 117.992422
        },
        "ad_info": {
            "adcode": 370303,
            "province": "山东省",
            "city": "淄博市",
            "district": "张店区"
        }
    },
    {
        "id": "12043722835015983073",
        "title": "公共厕所",
        "address": "山东省淄博市张店区南西五路与和平路交叉口东北方向48米左右",
        "tel": "",
        "category": "基础设施:公共设施:公共厕所",
        "type": 0,
        "location": {
            "lat": 36.797069,
            "lng": 118.037828
        },
        "ad_info": {
            "adcode": 370303,
            "province": "山东省",
            "city": "淄博市",
            "district": "张店区"
        }
    },
    {
        "id": "9598456490142760070",
        "title": "公共厕所",
        "address": "山东省淄博市沂源县新城路与瑞阳路交叉口正东方向210米左右",
        "tel": "",
        "category": "基础设施:公共设施:公共厕所",
        "type": 0,
        "location": {
            "lat": 36.200087,
            "lng": 118.182117
        },
        "ad_info": {
            "adcode": 370323,
            "province": "山东省",
            "city": "淄博市",
            "district": "沂源县"
        }
    },
    {
        "id": "12325887851659121961",
        "title": "男洗手间(淄博购物广场)",
        "address": "山东省淄博市张店区商场路2号淄博购物广场F1层",
        "tel": "",
        "category": "基础设施:公共设施:公共厕所",
        "type": 0,
        "location": {
            "lat": 36.800699,
            "lng": 118.060968
        },
        "ad_info": {
            "adcode": 370303,
            "province": "山东省",
            "city": "淄博市",
            "district": "张店区"
        }
    },
    {
        "id": "9255245603839425857",
        "title": "公共厕所",
        "address": "山东省淄博市张店区魏家路与魏家路西一巷交叉口正南方向256米左右",
        "tel": "",
        "category": "基础设施:公共设施:公共厕所",
        "type": 0,
        "location": {
            "lat": 36.83059,
            "lng": 118.05999
        },
        "ad_info": {
            "adcode": 370303,
            "province": "山东省",
            "city": "淄博市",
            "district": "张店区"
        }
    },
    {
        "id": "1179221801174419089",
        "title": "公共厕所",
        "address": "山东省淄博市张店区柳泉路152号",
        "tel": "",
        "category": "基础设施:公共设施:公共厕所",
        "type": 0,
        "location": {
            "lat": 36.806744,
            "lng": 118.051485
        },
        "ad_info": {
            "adcode": 370303,
            "province": "山东省",
            "city": "淄博市",
            "district": "张店区"
        }
    },
    {
        "id": "8524331456215560690",
        "title": "公共厕所",
        "address": "山东省淄博市张店区共青团西路南六巷与柳泉路西一巷交叉口西北方向80米左右",
        "tel": "",
        "category": "基础设施:公共设施:公共厕所",
        "type": 0,
        "location": {
            "lat": 36.80606,
            "lng": 118.045622
        },
        "ad_info": {
            "adcode": 370303,
            "province": "山东省",
            "city": "淄博市",
            "district": "张店区"
        }
    },
    {
        "id": "6429136324694299324",
        "title": "公共厕所",
        "address": "山东省淄博市张店区新世界商业街42号",
        "tel": "",
        "category": "基础设施:公共设施:公共厕所",
        "type": 0,
        "location": {
            "lat": 36.810788,
            "lng": 118.042032
        },
        "ad_info": {
            "adcode": 370303,
            "province": "山东省",
            "city": "淄博市",
            "district": "张店区"
        }
    },
    {
        "id": "2291123761080164766",
        "title": "公共厕所",
        "address": "山东省淄博市张店区兰雁大道与柳泉路交叉口西南方向119米左右",
        "tel": "",
        "category": "基础设施:公共设施:公共厕所",
        "type": 0,
        "location": {
            "lat": 36.851201,
            "lng": 118.060945
        },
        "ad_info": {
            "adcode": 370303,
            "province": "山东省",
            "city": "淄博市",
            "district": "张店区"
        }
    },
    {
        "id": "1439249580113854231",
        "title": "淄博站-男洗手间",
        "address": "山东省淄博市张店区杏园西路1号淄博站F3层",
        "tel": "",
        "category": "基础设施:公共设施:公共厕所",
        "type": 0,
        "location": {
            "lat": 36.789009,
            "lng": 118.057373
        },
        "ad_info": {
            "adcode": 370303,
            "province": "山东省",
            "city": "淄博市",
            "district": "张店区"
        }
    },
    {
        "id": "17982963565927108558",
        "title": "公共厕所",
        "address": "山东省淄博市张店区金晶大道16号甲1号",
        "tel": "",
        "category": "基础设施:公共设施:公共厕所",
        "type": 0,
        "location": {
            "lat": 36.795265,
            "lng": 118.058727
        },
        "ad_info": {
            "adcode": 370303,
            "province": "山东省",
            "city": "淄博市",
            "district": "张店区"
        }
    },
    {
        "id": "3253350420381786935",
        "title": "公共厕所",
        "address": "山东省淄博市张店区北西五路与十七中北街交叉口西北方向31米左右",
        "tel": "",
        "category": "基础设施:公共设施:公共厕所",
        "type": 0,
        "location": {
            "lat": 36.81165,
            "lng": 118.03675
        },
        "ad_info": {
            "adcode": 370303,
            "province": "山东省",
            "city": "淄博市",
            "district": "张店区"
        }
    },
    {
        "id": "11796614664281790378",
        "title": "公共厕所",
        "address": "山东省淄博市沂源县历山路33号",
        "tel": "",
        "category": "基础设施:公共设施:公共厕所",
        "type": 0,
        "location": {
            "lat": 36.187649,
            "lng": 118.163032
        },
        "ad_info": {
            "adcode": 370323,
            "province": "山东省",
            "city": "淄博市",
            "district": "沂源县"
        }
    },
    {
        "id": "17525805931952194226",
        "title": "公共厕所",
        "address": "山东省淄博市临淄区辛化路与齐兴路交叉口正南方向81米左右",
        "tel": "",
        "category": "基础设施:公共设施:公共厕所",
        "type": 0,
        "location": {
            "lat": 36.83047,
            "lng": 118.279021
        },
        "ad_info": {
            "adcode": 370305,
            "province": "山东省",
            "city": "淄博市",
            "district": "临淄区"
        }
    },
    {
        "id": "13123914837007059792",
        "title": "公共厕所",
        "address": "山东省淄博市张店区北京路与王舍路交叉口东南方向319米左右",
        "tel": "",
        "category": "基础设施:公共设施:公共厕所",
        "type": 0,
        "location": {
            "lat": 36.790657,
            "lng": 117.993911
        },
        "ad_info": {
            "adcode": 370303,
            "province": "山东省",
            "city": "淄博市",
            "district": "张店区"
        }
    },
    {
        "id": "5451945709480710121",
        "title": "公共厕所",
        "address": "山东省淄博市张店区健康街5号",
        "tel": "",
        "category": "基础设施:公共设施:公共厕所",
        "type": 0,
        "location": {
            "lat": 36.794583,
            "lng": 118.049589
        },
        "ad_info": {
            "adcode": 370303,
            "province": "山东省",
            "city": "淄博市",
            "district": "张店区"
        }
    },
    {
        "id": "11408945544132627643",
        "title": "公共厕所",
        "address": "山东省淄博市张店区甘北路与齐祥路交叉口正北方向178米左右",
        "tel": "",
        "category": "基础设施:公共设施:公共厕所",
        "type": 0,
        "location": {
            "lat": 36.88414,
            "lng": 118.074492
        },
        "ad_info": {
            "adcode": 370303,
            "province": "山东省",
            "city": "淄博市",
            "district": "张店区"
        }
    },
    {
        "id": "1024158108151644178",
        "title": "公共厕所",
        "address": "山东省淄博市张店区潘南西路9号",
        "tel": "",
        "category": "基础设施:公共设施:公共厕所",
        "type": 0,
        "location": {
            "lat": 36.815506,
            "lng": 118.059602
        },
        "ad_info": {
            "adcode": 370303,
            "province": "山东省",
            "city": "淄博市",
            "district": "张店区"
        }
    },
    {
        "id": "14552679162687371407",
        "title": "公共厕所",
        "address": "山东省淄博市淄川区东景街与松龄东路交叉口西北方向63米左右",
        "tel": "",
        "category": "基础设施:公共设施:公共厕所",
        "type": 0,
        "location": {
            "lat": 36.647582,
            "lng": 117.978495
        },
        "ad_info": {
            "adcode": 370302,
            "province": "山东省",
            "city": "淄博市",
            "district": "淄川区"
        }
    },
    {
        "id": "8800704634888774676",
        "title": "公共厕所",
        "address": "山东省淄博市临淄区牛山路与闻韶路交叉口西南方向80米左右",
        "tel": "",
        "category": "基础设施:公共设施:公共厕所",
        "type": 0,
        "location": {
            "lat": 36.806654,
            "lng": 118.308088
        },
        "ad_info": {
            "adcode": 370305,
            "province": "山东省",
            "city": "淄博市",
            "district": "临淄区"
        }
    },
    {
        "id": "2555573633237466407",
        "title": "无障碍公共厕所",
        "address": "山东省淄博市桓台县张北路2054号",
        "tel": "",
        "category": "基础设施:公共设施:公共厕所",
        "type": 0,
        "location": {
            "lat": 36.954609,
            "lng": 118.103138
        },
        "ad_info": {
            "adcode": 370321,
            "province": "山东省",
            "city": "淄博市",
            "district": "桓台县"
        }
    },
    {
        "id": "4269259476447016581",
        "title": "公共厕所",
        "address": "山东省淄博市临淄区辛化路2737号",
        "tel": "",
        "category": "基础设施:公共设施:公共厕所",
        "type": 0,
        "location": {
            "lat": 36.805579,
            "lng": 118.276699
        },
        "ad_info": {
            "adcode": 370305,
            "province": "山东省",
            "city": "淄博市",
            "district": "临淄区"
        }
    },
    {
        "id": "17893438860567126782",
        "title": "公共厕所",
        "address": "山东省淄博市周村区东门路159号",
        "tel": "",
        "category": "基础设施:公共设施:公共厕所",
        "type": 0,
        "location": {
            "lat": 36.801809,
            "lng": 117.849282
        },
        "ad_info": {
            "adcode": 370306,
            "province": "山东省",
            "city": "淄博市",
            "district": "周村区"
        }
    },
    {
        "id": "17825889801113347361",
        "title": "沂源服务区公共厕所",
        "address": "山东省淄博市沂源县烟台路与瑞阳路交叉口正南方向1016米左右",
        "tel": "",
        "category": "基础设施:公共设施:公共厕所",
        "type": 0,
        "location": {
            "lat": 36.16461,
            "lng": 118.184937
        },
        "ad_info": {
            "adcode": 370323,
            "province": "山东省",
            "city": "淄博市",
            "district": "沂源县"
        }
    },
    {
        "id": "8660919585715299996",
        "title": "公共厕所",
        "address": "山东省淄博市周村区张周路中国石化加油站",
        "tel": "",
        "category": "基础设施:公共设施:公共厕所",
        "type": 0,
        "location": {
            "lat": 36.805089,
            "lng": 117.9394
        },
        "ad_info": {
            "adcode": 370306,
            "province": "山东省",
            "city": "淄博市",
            "district": "周村区"
        }
    },
    {
        "id": "5085341456943055189",
        "title": "沂源服务区公共厕所",
        "address": "山东省淄博市沂源县烟台路与瑞阳路交叉口正南方向1231米左右",
        "tel": "",
        "category": "基础设施:公共设施:公共厕所",
        "type": 0,
        "location": {
            "lat": 36.162455,
            "lng": 118.184457
        },
        "ad_info": {
            "adcode": 370323,
            "province": "山东省",
            "city": "淄博市",
            "district": "沂源县"
        }
    },
    {
        "id": "3643643779851018127",
        "title": "公共厕所",
        "address": "山东省淄博市周村区国税街与棉花市街交叉口正北方向56米左右",
        "tel": "",
        "category": "基础设施:公共设施:公共厕所",
        "type": 0,
        "location": {
            "lat": 36.795302,
            "lng": 117.847155
        },
        "ad_info": {
            "adcode": 370306,
            "province": "山东省",
            "city": "淄博市",
            "district": "周村区"
        }
    },
    {
        "id": "11749271964274078021",
        "title": "公共厕所",
        "address": "山东省淄博市临淄区杨坡路花园市场",
        "tel": "",
        "category": "基础设施:公共设施:公共厕所",
        "type": 0,
        "location": {
            "lat": 36.826916,
            "lng": 118.291042
        },
        "ad_info": {
            "adcode": 370305,
            "province": "山东省",
            "city": "淄博市",
            "district": "临淄区"
        }
    },
    {
        "id": "313053578364497968",
        "title": "公共厕所",
        "address": "山东省淄博市周村区丝厂西街与站北路交叉口正南方向72米左右",
        "tel": "",
        "category": "基础设施:公共设施:公共厕所",
        "type": 0,
        "location": {
            "lat": 36.794027,
            "lng": 117.85409
        },
        "ad_info": {
            "adcode": 370306,
            "province": "山东省",
            "city": "淄博市",
            "district": "周村区"
        }
    },
    {
        "id": "2473658457219014518",
        "title": "男洗手间(银座·奥特莱斯柳泉路店)",
        "address": "山东省淄博市张店区柳泉路105号银座·奥特莱斯柳泉路店F4",
        "tel": "",
        "category": "基础设施:公共设施:公共厕所",
        "type": 0,
        "location": {
            "lat": 36.834152,
            "lng": 118.055614
        },
        "ad_info": {
            "adcode": 370303,
            "province": "山东省",
            "city": "淄博市",
            "district": "张店区"
        }
    },
    {
        "id": "10802532467647117830",
        "title": "旅游公共厕所",
        "address": "山东省淄博市博山区白虎山西路淄博一中宿舍区-馨园",
        "tel": "",
        "category": "基础设施:公共设施:公共厕所",
        "type": 0,
        "location": {
            "lat": 36.510964,
            "lng": 117.855385
        },
        "ad_info": {
            "adcode": 370304,
            "province": "山东省",
            "city": "淄博市",
            "district": "博山区"
        }
    },
    {
        "id": "2539883969546580326",
        "title": "公共厕所",
        "address": "山东省淄博市周村区石佛东路与胶王路交叉口正西方向356米左右",
        "tel": "",
        "category": "基础设施:公共设施:公共厕所",
        "type": 0,
        "location": {
            "lat": 36.661441,
            "lng": 117.863953
        },
        "ad_info": {
            "adcode": 370306,
            "province": "山东省",
            "city": "淄博市",
            "district": "周村区"
        }
    },
    {
        "id": "15020514179283926732",
        "title": "高青服务区第二公共厕所",
        "address": "山东省淄博市高青县高青服务区与S29滨莱高速交叉口西北300米",
        "tel": "",
        "category": "基础设施:公共设施:公共厕所",
        "type": 0,
        "location": {
            "lat": 37.11927,
            "lng": 117.972658
        },
        "ad_info": {
            "adcode": 370322,
            "province": "山东省",
            "city": "淄博市",
            "district": "高青县"
        }
    },
    {
        "id": "2071924512569507437",
        "title": "公共厕所",
        "address": "山东省淄博市周村区青年路富瑞特城市广场",
        "tel": "",
        "category": "基础设施:公共设施:公共厕所",
        "type": 0,
        "location": {
            "lat": 36.807929,
            "lng": 117.850776
        },
        "ad_info": {
            "adcode": 370306,
            "province": "山东省",
            "city": "淄博市",
            "district": "周村区"
        }
    },
    {
        "id": "3756462419278307888",
        "title": "公共厕所",
        "address": "山东省淄博市周村区东门路与青年路交叉口东南300米",
        "tel": "",
        "category": "基础设施:公共设施:公共厕所",
        "type": 0,
        "location": {
            "lat": 36.804393,
            "lng": 117.850678
        },
        "ad_info": {
            "adcode": 370306,
            "province": "山东省",
            "city": "淄博市",
            "district": "周村区"
        }
    },
    {
        "id": "1896355983066778181",
        "title": "公共厕所",
        "address": "山东省淄博市临淄区中兴路与临淄大道交叉口东南方向88米左右",
        "tel": "",
        "category": "基础设施:公共设施:公共厕所",
        "type": 0,
        "location": {
            "lat": 36.824423,
            "lng": 118.29694
        },
        "ad_info": {
            "adcode": 370305,
            "province": "山东省",
            "city": "淄博市",
            "district": "临淄区"
        }
    },
    {
        "id": "2258384352643496557",
        "title": "公共厕所",
        "address": "山东省淄博市临淄区齐兴路小刘家生活区",
        "tel": "",
        "category": "基础设施:公共设施:公共厕所",
        "type": 0,
        "location": {
            "lat": 36.829331,
            "lng": 118.315104
        },
        "ad_info": {
            "adcode": 370305,
            "province": "山东省",
            "city": "淄博市",
            "district": "临淄区"
        }
    },
    {
        "id": "16380299083003293215",
        "title": "公共厕所",
        "address": "山东省淄博市临淄区闻韶路39号(与恒公路交汇处)",
        "tel": "",
        "category": "基础设施:公共设施:公共厕所",
        "type": 0,
        "location": {
            "lat": 36.810477,
            "lng": 118.309627
        },
        "ad_info": {
            "adcode": 370305,
            "province": "山东省",
            "city": "淄博市",
            "district": "临淄区"
        }
    },
    {
        "id": "15895997079625502975",
        "title": "无障碍公共厕所",
        "address": "山东省淄博市临淄区稷下路68-2号",
        "tel": "",
        "category": "基础设施:公共设施:公共厕所",
        "type": 0,
        "location": {
            "lat": 36.814468,
            "lng": 118.315715
        },
        "ad_info": {
            "adcode": 370305,
            "province": "山东省",
            "city": "淄博市",
            "district": "临淄区"
        }
    },
    {
        "id": "14131927822788737137",
        "title": "公共厕所",
        "address": "山东省淄博市周村区凤鸣路与青年路交叉口正南方向221米左右",
        "tel": "",
        "category": "基础设施:公共设施:公共厕所",
        "type": 0,
        "location": {
            "lat": 36.805111,
            "lng": 117.871365
        },
        "ad_info": {
            "adcode": 370306,
            "province": "山东省",
            "city": "淄博市",
            "district": "周村区"
        }
    },
    {
        "id": "17850279178168160798",
        "title": "公共厕所",
        "address": "山东省淄博市周村区马路街周村站",
        "tel": "",
        "category": "基础设施:公共设施:公共厕所",
        "type": 0,
        "location": {
            "lat": 36.791556,
            "lng": 117.86146
        },
        "ad_info": {
            "adcode": 370306,
            "province": "山东省",
            "city": "淄博市",
            "district": "周村区"
        }
    },
    {
        "id": "5716193765835655310",
        "title": "无障碍公共厕所",
        "address": "山东省淄博市周村区丝绸路与机场路交叉口正北方向172米左右",
        "tel": "",
        "category": "基础设施:公共设施:公共厕所",
        "type": 0,
        "location": {
            "lat": 36.811627,
            "lng": 117.858088
        },
        "ad_info": {
            "adcode": 370306,
            "province": "山东省",
            "city": "淄博市",
            "district": "周村区"
        }
    },
    {
        "id": "10124103230357683304",
        "title": "无障碍公共厕所",
        "address": "山东省淄博市周村区站北路39号正西方向110米",
        "tel": "",
        "category": "基础设施:公共设施:公共厕所",
        "type": 0,
        "location": {
            "lat": 36.794936,
            "lng": 117.852451
        },
        "ad_info": {
            "adcode": 370306,
            "province": "山东省",
            "city": "淄博市",
            "district": "周村区"
        }
    },
    {
        "id": "13873090302861976162",
        "title": "淄博饭店-洗手间",
        "address": "山东省淄博市张店区金晶大道中心路与共青团路口西北角(交通银行对面)",
        "tel": "",
        "category": "基础设施:公共设施:公共厕所",
        "type": 0,
        "location": {
            "lat": 36.806098,
            "lng": 118.06054
        },
        "ad_info": {
            "adcode": 370303,
            "province": "山东省",
            "city": "淄博市",
            "district": "张店区"
        }
    },
    {
        "id": "16869959625515140976",
        "title": "公共厕所",
        "address": "山东省淄博市张店区中润大道与南京路交叉口正南方向147米左右",
        "tel": "",
        "category": "基础设施:公共设施:公共厕所",
        "type": 0,
        "location": {
            "lat": 36.836468,
            "lng": 118.012331
        },
        "ad_info": {
            "adcode": 370303,
            "province": "山东省",
            "city": "淄博市",
            "district": "张店区"
        }
    },
    {
        "id": "16195966288739996974",
        "title": "公共厕所",
        "address": "山东省淄博市沂源县新城路沂源一中",
        "tel": "",
        "category": "基础设施:公共设施:公共厕所",
        "type": 0,
        "location": {
            "lat": 36.20115,
            "lng": 118.200669
        },
        "ad_info": {
            "adcode": 370323,
            "province": "山东省",
            "city": "淄博市",
            "district": "沂源县"
        }
    },
    {
        "id": "5300653957910630626",
        "title": "公共厕所",
        "address": "山东省淄博市淄川区淄川经济开发区西山联校东侧120米",
        "tel": "",
        "category": "基础设施:公共设施:公共厕所",
        "type": 0,
        "location": {
            "lat": 36.649699,
            "lng": 117.928139
        },
        "ad_info": {
            "adcode": 370302,
            "province": "山东省",
            "city": "淄博市",
            "district": "淄川区"
        }
    },
    {
        "id": "15468342148408845035",
        "title": "世纪大酒店-洗手间",
        "address": "山东省淄博市张店区钻石楼南侧60米",
        "tel": "",
        "category": "基础设施:公共设施:公共厕所",
        "type": 0,
        "location": {
            "lat": 36.830669,
            "lng": 118.05526
        },
        "ad_info": {
            "adcode": 370303,
            "province": "山东省",
            "city": "淄博市",
            "district": "张店区"
        }
    },
    {
        "id": "16854755267273787829",
        "title": "公共厕所",
        "address": "山东省淄博市临淄区沥青南路与炼厂中路交叉口正东方向112米左右",
        "tel": "",
        "category": "基础设施:公共设施:公共厕所",
        "type": 0,
        "location": {
            "lat": 36.766677,
            "lng": 118.260416
        },
        "ad_info": {
            "adcode": 370305,
            "province": "山东省",
            "city": "淄博市",
            "district": "临淄区"
        }
    },
    {
        "id": "13038846933087815926",
        "title": "无障碍公共厕所",
        "address": "山东省淄博市高青县希望路与芦湖路交叉口正东方向74米左右",
        "tel": "",
        "category": "基础设施:公共设施:公共厕所",
        "type": 0,
        "location": {
            "lat": 37.163593,
            "lng": 117.842272
        },
        "ad_info": {
            "adcode": 370322,
            "province": "山东省",
            "city": "淄博市",
            "district": "高青县"
        }
    },
    {
        "id": "14669881420536201202",
        "title": "公共厕所",
        "address": "山东省淄博市张店区南京路辅路与名仕街交叉口西南方向127米左右",
        "tel": "",
        "category": "基础设施:公共设施:公共厕所",
        "type": 0,
        "location": {
            "lat": 36.79994,
            "lng": 118.00975
        },
        "ad_info": {
            "adcode": 370303,
            "province": "山东省",
            "city": "淄博市",
            "district": "张店区"
        }
    },
    {
        "id": "8730700324465518500",
        "title": "公共厕所",
        "address": "山东省淄博市张店区商场西街153号东南方向70米",
        "tel": "",
        "category": "基础设施:公共设施:公共厕所",
        "type": 0,
        "location": {
            "lat": 36.803944,
            "lng": 118.038807
        },
        "ad_info": {
            "adcode": 370303,
            "province": "山东省",
            "city": "淄博市",
            "district": "张店区"
        }
    },
    {
        "id": "17708062887945660990",
        "title": "公共厕所",
        "address": "山东省淄博市桓台县槐荫路与镇府街交叉口正东方向155米左右",
        "tel": "",
        "category": "基础设施:公共设施:公共厕所",
        "type": 0,
        "location": {
            "lat": 36.960559,
            "lng": 118.10471
        },
        "ad_info": {
            "adcode": 370321,
            "province": "山东省",
            "city": "淄博市",
            "district": "桓台县"
        }
    },
    {
        "id": "8954934746400862785",
        "title": "公共厕所",
        "address": "山东省淄博市张店区S238与齐新大道交叉口正北方向249米左右",
        "tel": "",
        "category": "基础设施:公共设施:公共厕所",
        "type": 0,
        "location": {
            "lat": 36.878926,
            "lng": 118.00905
        },
        "ad_info": {
            "adcode": 370303,
            "province": "山东省",
            "city": "淄博市",
            "district": "张店区"
        }
    },
    {
        "id": "399926287160818293",
        "title": "男洗手间(银座购物广场五里桥店)",
        "address": "山东省淄博市张店区人民西路51号银座商城(五里桥店)B1",
        "tel": "",
        "category": "基础设施:公共设施:男洗手间",
        "type": 0,
        "location": {
            "lat": 36.813795,
            "lng": 118.032356
        },
        "ad_info": {
            "adcode": 370303,
            "province": "山东省",
            "city": "淄博市",
            "district": "张店区"
        }
    },
    {
        "id": "18050521120558723589",
        "title": "公共厕所",
        "address": "山东省淄博市淄川区文化路辅路与鲁泰文化路辅路交叉口正南方向251米左右",
        "tel": "",
        "category": "基础设施:公共设施:公共厕所",
        "type": 0,
        "location": {
            "lat": 36.632199,
            "lng": 117.978438
        },
        "ad_info": {
            "adcode": 370302,
            "province": "山东省",
            "city": "淄博市",
            "district": "淄川区"
        }
    },
    {
        "id": "10556362357701592072",
        "title": "公共厕所",
        "address": "山东省淄博市周村区Y007与周隆路交叉口东南方向53米左右",
        "tel": "",
        "category": "基础设施:公共设施:公共厕所",
        "type": 0,
        "location": {
            "lat": 36.785865,
            "lng": 117.947849
        },
        "ad_info": {
            "adcode": 370306,
            "province": "山东省",
            "city": "淄博市",
            "district": "周村区"
        }
    },
    {
        "id": "2243381402724083494",
        "title": "公共厕所",
        "address": "山东省淄博市桓台县原山大道与齐新大道交叉口正北方向448米左右",
        "tel": "",
        "category": "基础设施:公共设施:公共厕所",
        "type": 0,
        "location": {
            "lat": 36.882398,
            "lng": 117.971035
        },
        "ad_info": {
            "adcode": 370321,
            "province": "山东省",
            "city": "淄博市",
            "district": "桓台县"
        }
    },
    {
        "id": "18036735677572993824",
        "title": "公共厕所",
        "address": "山东省淄博市张店区中润大道与丰泰路交叉口正东方向64米左右",
        "tel": "",
        "category": "基础设施:公共设施:公共厕所",
        "type": 0,
        "location": {
            "lat": 36.838165,
            "lng": 118.001377
        },
        "ad_info": {
            "adcode": 370303,
            "province": "山东省",
            "city": "淄博市",
            "district": "张店区"
        }
    },
    {
        "id": "3609666640873645017",
        "title": "男洗手间(乐都汇购物中心)",
        "address": "山东省淄博市张店区华光路128号乐都汇购物中心F3层",
        "tel": "",
        "category": "基础设施:公共设施:公共厕所",
        "type": 0,
        "location": {
            "lat": 36.823031,
            "lng": 118.026369
        },
        "ad_info": {
            "adcode": 370303,
            "province": "山东省",
            "city": "淄博市",
            "district": "张店区"
        }
    },
    {
        "id": "14954768047377365399",
        "title": "公共厕所",
        "address": "山东省淄博市周村区新建中路与中长行街交叉路口西侧(周村古商城东北侧约50米)",
        "tel": "",
        "category": "基础设施:公共设施:公共厕所",
        "type": 0,
        "location": {
            "lat": 36.800451,
            "lng": 117.845063
        },
        "ad_info": {
            "adcode": 370306,
            "province": "山东省",
            "city": "淄博市",
            "district": "周村区"
        }
    },
    {
        "id": "4356373735101960755",
        "title": "公共厕所",
        "address": "山东省淄博市博山区簸箕掌路与颜北路交叉口东北方向102米左右",
        "tel": "",
        "category": "基础设施:公共设施:公共厕所",
        "type": 0,
        "location": {
            "lat": 36.537795,
            "lng": 117.879165
        },
        "ad_info": {
            "adcode": 370304,
            "province": "山东省",
            "city": "淄博市",
            "district": "博山区"
        }
    },
    {
        "id": "1198168424963943730",
        "title": "公共厕所",
        "address": "山东省淄博市张店区南京路与海岱大道交叉口东南方向157米左右",
        "tel": "",
        "category": "基础设施:公共设施:公共厕所",
        "type": 0,
        "location": {
            "lat": 36.770711,
            "lng": 118.009093
        },
        "ad_info": {
            "adcode": 370303,
            "province": "山东省",
            "city": "淄博市",
            "district": "张店区"
        }
    },
    {
        "id": "14534816671636692353",
        "title": "公共厕所",
        "address": "山东省淄博市淄川区东过境路与聊斋路交叉口正西方向461米左右",
        "tel": "",
        "category": "基础设施:公共设施:公共厕所",
        "type": 0,
        "location": {
            "lat": 36.657099,
            "lng": 118.011929
        },
        "ad_info": {
            "adcode": 370302,
            "province": "山东省",
            "city": "淄博市",
            "district": "淄川区"
        }
    },
    {
        "id": "11423946501294577520",
        "title": "公共厕所",
        "address": "山东省淄博市张店区柳泉路与裕民路交叉口正北方向299米左右",
        "tel": "",
        "category": "基础设施:公共设施:公共厕所",
        "type": 0,
        "location": {
            "lat": 36.867889,
            "lng": 118.06568
        },
        "ad_info": {
            "adcode": 370303,
            "province": "山东省",
            "city": "淄博市",
            "district": "张店区"
        }
    },
    {
        "id": "10292597564097161852",
        "title": "公共厕所",
        "address": "山东省淄博市周村区中长行街与南长行街交叉口正南方向223米左右",
        "tel": "",
        "category": "基础设施:公共设施:公共厕所",
        "type": 0,
        "location": {
            "lat": 36.792892,
            "lng": 117.844819
        },
        "ad_info": {
            "adcode": 370306,
            "province": "山东省",
            "city": "淄博市",
            "district": "周村区"
        }
    },
    {
        "id": "12304306795234806325",
        "title": "公共厕所",
        "address": "山东省淄博市博山区县前街与新建一路交叉口正东方向24米左右",
        "tel": "",
        "category": "基础设施:公共设施:公共厕所",
        "type": 0,
        "location": {
            "lat": 36.494839,
            "lng": 117.860727
        },
        "ad_info": {
            "adcode": 370304,
            "province": "山东省",
            "city": "淄博市",
            "district": "博山区"
        }
    },
    {
        "id": "14213075469110843423",
        "title": "女洗手间(银座·奥特莱斯柳泉路店)",
        "address": "山东省淄博市张店区柳泉路105号银座·奥特莱斯(柳泉路店)F4层",
        "tel": "",
        "category": "基础设施:公共设施:公共厕所",
        "type": 0,
        "location": {
            "lat": 36.834165,
            "lng": 118.055596
        },
        "ad_info": {
            "adcode": 370303,
            "province": "山东省",
            "city": "淄博市",
            "district": "张店区"
        }
    },
    {
        "id": "11910083483079040199",
        "title": "公共厕所",
        "address": "山东省淄博市桓台县沿河路与顺河路交叉口正北方向44米左右",
        "tel": "",
        "category": "基础设施:公共设施:公共厕所",
        "type": 0,
        "location": {
            "lat": 36.962683,
            "lng": 118.121746
        },
        "ad_info": {
            "adcode": 370321,
            "province": "山东省",
            "city": "淄博市",
            "district": "桓台县"
        }
    },
    {
        "id": "12301356894441769718",
        "title": "公共厕所",
        "address": "山东省淄博市沂源县S234与双星大道交叉口东北方向1046米左右",
        "tel": "",
        "category": "基础设施:公共设施:公共厕所",
        "type": 0,
        "location": {
            "lat": 35.994277,
            "lng": 118.220936
        },
        "ad_info": {
            "adcode": 370323,
            "province": "山东省",
            "city": "淄博市",
            "district": "沂源县"
        }
    },
    {
        "id": "11514745809088007691",
        "title": "公共厕所",
        "address": "山东省淄博市淄川区中心路与利民路交叉口东北方向31米左右",
        "tel": "",
        "category": "基础设施:公共设施:公共厕所",
        "type": 0,
        "location": {
            "lat": 36.684136,
            "lng": 117.977468
        },
        "ad_info": {
            "adcode": 370302,
            "province": "山东省",
            "city": "淄博市",
            "district": "淄川区"
        }
    },
    {
        "id": "7001372998801031731",
        "title": "公共厕所",
        "address": "山东省淄博市周村区仁和巷与和阳街交叉口正北方向89米左右",
        "tel": "",
        "category": "基础设施:公共设施:公共厕所",
        "type": 0,
        "location": {
            "lat": 36.80343,
            "lng": 117.863935
        },
        "ad_info": {
            "adcode": 370306,
            "province": "山东省",
            "city": "淄博市",
            "district": "周村区"
        }
    },
    {
        "id": "1669442529362408772",
        "title": "公共厕所",
        "address": "山东省淄博市张店区湖光路与湖明路交叉口西北方向36米左右",
        "tel": "",
        "category": "基础设施:公共设施:公共厕所",
        "type": 0,
        "location": {
            "lat": 36.78996,
            "lng": 118.120813
        },
        "ad_info": {
            "adcode": 370303,
            "province": "山东省",
            "city": "淄博市",
            "district": "张店区"
        }
    },
    {
        "id": "5084482360668887423",
        "title": "公共厕所",
        "address": "山东省淄博市桓台县春蕾巷云涛小区",
        "tel": "",
        "category": "基础设施:公共设施:公共厕所",
        "type": 0,
        "location": {
            "lat": 36.956252,
            "lng": 118.098386
        },
        "ad_info": {
            "adcode": 370321,
            "province": "山东省",
            "city": "淄博市",
            "district": "桓台县"
        }
    },
    {
        "id": "4668512158833411526",
        "title": "公共厕所",
        "address": "山东省淄博市张店区世纪路与海岱大道交叉口正西方向463米左右",
        "tel": "",
        "category": "基础设施:公共设施:公共厕所",
        "type": 0,
        "location": {
            "lat": 36.770665,
            "lng": 118.017185
        },
        "ad_info": {
            "adcode": 370303,
            "province": "山东省",
            "city": "淄博市",
            "district": "张店区"
        }
    },
    {
        "id": "16586828663990529229",
        "title": "公共厕所",
        "address": "山东省淄博市临淄区齐文化博物馆南",
        "tel": "",
        "category": "基础设施:公共设施:公共厕所",
        "type": 0,
        "location": {
            "lat": 36.814091,
            "lng": 118.36427
        },
        "ad_info": {
            "adcode": 370305,
            "province": "山东省",
            "city": "淄博市",
            "district": "临淄区"
        }
    },
    {
        "id": "9358381256900281020",
        "title": "公共厕所",
        "address": "山东省淄博市沂源县G341与专利园路交叉口东北方向318米左右",
        "tel": "",
        "category": "基础设施:公共设施:公共厕所",
        "type": 0,
        "location": {
            "lat": 36.174175,
            "lng": 118.200213
        },
        "ad_info": {
            "adcode": 370323,
            "province": "山东省",
            "city": "淄博市",
            "district": "沂源县"
        }
    },
    {
        "id": "6914496286654417963",
        "title": "公共厕所",
        "address": "山东省淄博市张店区南京路与鲁泰大道交叉口西南方向107米左右",
        "tel": "",
        "category": "基础设施:公共设施:公共厕所",
        "type": 0,
        "location": {
            "lat": 36.847692,
            "lng": 118.013075
        },
        "ad_info": {
            "adcode": 370303,
            "province": "山东省",
            "city": "淄博市",
            "district": "张店区"
        }
    },
    {
        "id": "13527926107729712637",
        "title": "公共厕所",
        "address": "山东省淄博市高青县利居路与田横路交叉口正南方向329米左右",
        "tel": "",
        "category": "基础设施:公共设施:公共厕所",
        "type": 0,
        "location": {
            "lat": 37.179797,
            "lng": 117.807704
        },
        "ad_info": {
            "adcode": 370322,
            "province": "山东省",
            "city": "淄博市",
            "district": "高青县"
        }
    },
    {
        "id": "15491208839613141926",
        "title": "公共厕所",
        "address": "山东省淄博市周村区东门路与电厂路交叉口正北方向89米左右",
        "tel": "",
        "category": "基础设施:公共设施:公共厕所",
        "type": 0,
        "location": {
            "lat": 36.816671,
            "lng": 117.84995
        },
        "ad_info": {
            "adcode": 370306,
            "province": "山东省",
            "city": "淄博市",
            "district": "周村区"
        }
    },
    {
        "id": "1532307569334080771",
        "title": "无障碍公共厕所",
        "address": "山东省淄博市张店区宝沣路与新村东路交叉口正南方向173米左右",
        "tel": "",
        "category": "基础设施:公共设施:公共厕所",
        "type": 0,
        "location": {
            "lat": 36.794027,
            "lng": 118.083356
        },
        "ad_info": {
            "adcode": 370303,
            "province": "山东省",
            "city": "淄博市",
            "district": "张店区"
        }
    },
    {
        "id": "2739834997237316230",
        "title": "公共厕所",
        "address": "山东省淄博市淄川区三里沟大街与建设路交叉口正北方向859米左右",
        "tel": "",
        "category": "基础设施:公共设施:公共厕所",
        "type": 0,
        "location": {
            "lat": 36.675854,
            "lng": 117.976208
        },
        "ad_info": {
            "adcode": 370302,
            "province": "山东省",
            "city": "淄博市",
            "district": "淄川区"
        }
    },
    {
        "id": "17657645079434014802",
        "title": "公共厕所",
        "address": "山东省淄博市张店区北西五路与十七中北街交叉口东北方向45米左右",
        "tel": "",
        "category": "基础设施:公共设施:公共厕所",
        "type": 0,
        "location": {
            "lat": 36.81171,
            "lng": 118.0374
        },
        "ad_info": {
            "adcode": 370303,
            "province": "山东省",
            "city": "淄博市",
            "district": "张店区"
        }
    },
    {
        "id": "15001535770382476710",
        "title": "公共厕所",
        "address": "山东省淄博市高青县文化路与清河路交叉口正北方向107米左右",
        "tel": "",
        "category": "基础设施:公共设施:公共厕所",
        "type": 0,
        "location": {
            "lat": 37.161282,
            "lng": 117.828471
        },
        "ad_info": {
            "adcode": 370322,
            "province": "山东省",
            "city": "淄博市",
            "district": "高青县"
        }
    },
    {
        "id": "1410138620623465057",
        "title": "公共厕所",
        "address": "山东省淄博市博山区X005与蕉石路交叉口正西方向994米左右",
        "tel": "",
        "category": "基础设施:公共设施:公共厕所",
        "type": 0,
        "location": {
            "lat": 36.537856,
            "lng": 117.814731
        },
        "ad_info": {
            "adcode": 370304,
            "province": "山东省",
            "city": "淄博市",
            "district": "博山区"
        }
    },
    {
        "id": "9506504215518006783",
        "title": "公共厕所",
        "address": "山东省淄博市沂源县埠下路与荆山路交叉口正西方向125米左右",
        "tel": "",
        "category": "基础设施:公共设施:公共厕所",
        "type": 0,
        "location": {
            "lat": 36.181497,
            "lng": 118.165172
        },
        "ad_info": {
            "adcode": 370323,
            "province": "山东省",
            "city": "淄博市",
            "district": "沂源县"
        }
    },
    {
        "id": "9811589974772987988",
        "title": "公共厕所",
        "address": "山东省淄博市博山区G205与南环路交叉口东北方向68米左右",
        "tel": "",
        "category": "基础设施:公共设施:公共厕所",
        "type": 0,
        "location": {
            "lat": 36.470923,
            "lng": 117.844129
        },
        "ad_info": {
            "adcode": 370304,
            "province": "山东省",
            "city": "淄博市",
            "district": "博山区"
        }
    },
    {
        "id": "3244550654872296619",
        "title": "公共厕所",
        "address": "山东省淄博市临淄区Y067与辛化路交叉口东北方向29米左右",
        "tel": "",
        "category": "基础设施:公共设施:公共厕所",
        "type": 0,
        "location": {
            "lat": 36.916017,
            "lng": 118.264765
        },
        "ad_info": {
            "adcode": 370305,
            "province": "山东省",
            "city": "淄博市",
            "district": "临淄区"
        }
    },
    {
        "id": "4307774723261494241",
        "title": "无障碍公共厕所",
        "address": "山东省淄博市高青县唐北路与高苑路交叉口正西方向52米左右",
        "tel": "",
        "category": "基础设施:公共设施:公共厕所",
        "type": 0,
        "location": {
            "lat": 37.16394,
            "lng": 117.814547
        },
        "ad_info": {
            "adcode": 370322,
            "province": "山东省",
            "city": "淄博市",
            "district": "高青县"
        }
    },
    {
        "id": "6075013431842769682",
        "title": "公共厕所",
        "address": "山东省淄博市临淄区Y051与辛化路交叉口正南方向285米左右",
        "tel": "",
        "category": "基础设施:公共设施:公共厕所",
        "type": 0,
        "location": {
            "lat": 36.958488,
            "lng": 118.25387
        },
        "ad_info": {
            "adcode": 370305,
            "province": "山东省",
            "city": "淄博市",
            "district": "临淄区"
        }
    },
    {
        "id": "17523118301680189253",
        "title": "公共厕所",
        "address": "山东省淄博市周村区中大慧科不锈钢产业园东北侧70米",
        "tel": "",
        "category": "基础设施:公共设施:公共厕所",
        "type": 0,
        "location": {
            "lat": 36.786708,
            "lng": 117.872382
        },
        "ad_info": {
            "adcode": 370306,
            "province": "山东省",
            "city": "淄博市",
            "district": "周村区"
        }
    },
    {
        "id": "6476111970942848849",
        "title": "公共厕所",
        "address": "山东省淄博市周村区德阳路与机场路辅路交叉口西南方向41米左右",
        "tel": "",
        "category": "基础设施:公共设施:公共厕所",
        "type": 0,
        "location": {
            "lat": 36.810489,
            "lng": 117.874588
        },
        "ad_info": {
            "adcode": 370306,
            "province": "山东省",
            "city": "淄博市",
            "district": "周村区"
        }
    },
    {
        "id": "5213574732554073417",
        "title": "公共厕所",
        "address": "山东省淄博市张店区联通路与金晶大道交叉口西北方向63米左右",
        "tel": "",
        "category": "基础设施:公共设施:公共厕所",
        "type": 0,
        "location": {
            "lat": 36.825627,
            "lng": 118.066616
        },
        "ad_info": {
            "adcode": 370303,
            "province": "山东省",
            "city": "淄博市",
            "district": "张店区"
        }
    },
    {
        "id": "16654374208027490154",
        "title": "周村古商城公共厕所",
        "address": "山东省淄博市周村区平等街周村古商城(南侧)",
        "tel": "",
        "category": "基础设施:公共设施:公共厕所",
        "type": 0,
        "location": {
            "lat": 36.795904,
            "lng": 117.841364
        },
        "ad_info": {
            "adcode": 370306,
            "province": "山东省",
            "city": "淄博市",
            "district": "周村区"
        }
    },
    {
        "id": "17245188753001430595",
        "title": "公共厕所",
        "address": "山东省淄博市博山区南环路与福家缘路交叉口正西方向761米左右",
        "tel": "",
        "category": "基础设施:公共设施:公共厕所",
        "type": 0,
        "location": {
            "lat": 36.444689,
            "lng": 117.916843
        },
        "ad_info": {
            "adcode": 370304,
            "province": "山东省",
            "city": "淄博市",
            "district": "博山区"
        }
    },
    {
        "id": "8533313314190463327",
        "title": "公共厕所",
        "address": "山东省淄博市淄川区颐泽将军大道东城华府",
        "tel": "",
        "category": "基础设施:公共设施:公共厕所",
        "type": 0,
        "location": {
            "lat": 36.625588,
            "lng": 117.988767
        },
        "ad_info": {
            "adcode": 370302,
            "province": "山东省",
            "city": "淄博市",
            "district": "淄川区"
        }
    },
    {
        "id": "2688290103423255404",
        "title": "公共厕所",
        "address": "山东省淄博市周村区丝市街与张家胡同交叉口东北方向77米左右",
        "tel": "",
        "category": "基础设施:公共设施:公共厕所",
        "type": 0,
        "location": {
            "lat": 36.798174,
            "lng": 117.84791
        },
        "ad_info": {
            "adcode": 370306,
            "province": "山东省",
            "city": "淄博市",
            "district": "周村区"
        }
    },
    {
        "id": "7167466369188135551",
        "title": "公共厕所",
        "address": "山东省淄博市张店区金晶大道辅路与魏家路交叉口正西方向37米",
        "tel": "",
        "category": "基础设施:公共设施:公共厕所",
        "type": 0,
        "location": {
            "lat": 36.831599,
            "lng": 118.068629
        },
        "ad_info": {
            "adcode": 370303,
            "province": "山东省",
            "city": "淄博市",
            "district": "张店区"
        }
    },
    {
        "id": "5925777777109756901",
        "title": "公共厕所",
        "address": "山东省淄博市张店区鲁泰大道淄博第48加油站",
        "tel": "",
        "category": "基础设施:公共设施:公共厕所",
        "type": 0,
        "location": {
            "lat": 36.849606,
            "lng": 117.99966
        },
        "ad_info": {
            "adcode": 370303,
            "province": "山东省",
            "city": "淄博市",
            "district": "张店区"
        }
    },
    {
        "id": "6992340735730382368",
        "title": "公共厕所",
        "address": "山东省淄博市周村区滨湖西路与长周路交叉口正东方向1377米左右",
        "tel": "",
        "category": "基础设施:公共设施:公共厕所",
        "type": 0,
        "location": {
            "lat": 36.692589,
            "lng": 117.879287
        },
        "ad_info": {
            "adcode": 370306,
            "province": "山东省",
            "city": "淄博市",
            "district": "周村区"
        }
    },
    {
        "id": "17015188933057835039",
        "title": "公共厕所",
        "address": "山东省淄博市沂源县S229与X009交叉口正西方向177米左右",
        "tel": "",
        "category": "基础设施:公共设施:公共厕所",
        "type": 0,
        "location": {
            "lat": 36.191601,
            "lng": 118.281797
        },
        "ad_info": {
            "adcode": 370323,
            "province": "山东省",
            "city": "淄博市",
            "district": "沂源县"
        }
    },
    {
        "id": "17919632526070597626",
        "title": "公共厕所",
        "address": "山东省淄博市周村区新建西路63号",
        "tel": "",
        "category": "基础设施:公共设施:公共厕所",
        "type": 0,
        "location": {
            "lat": 36.80126,
            "lng": 117.828938
        },
        "ad_info": {
            "adcode": 370306,
            "province": "山东省",
            "city": "淄博市",
            "district": "周村区"
        }
    },
    {
        "id": "7658725866826891042",
        "title": "公共厕所",
        "address": "山东省淄博市桓台县大成路与金马中路交叉口东南方向135米左右",
        "tel": "",
        "category": "基础设施:公共设施:公共厕所",
        "type": 0,
        "location": {
            "lat": 37.046989,
            "lng": 117.912022
        },
        "ad_info": {
            "adcode": 370321,
            "province": "山东省",
            "city": "淄博市",
            "district": "桓台县"
        }
    },
    {
        "id": "10394945057256468148",
        "title": "公共厕所",
        "address": "山东省淄博市张店区宝沣路与杏园东路交叉口西北方向28米左右",
        "tel": "",
        "category": "基础设施:公共设施:公共厕所",
        "type": 0,
        "location": {
            "lat": 36.786145,
            "lng": 118.080344
        },
        "ad_info": {
            "adcode": 370303,
            "province": "山东省",
            "city": "淄博市",
            "district": "张店区"
        }
    },
    {
        "id": "11275500609730496428",
        "title": "公共厕所",
        "address": "山东省淄博市博山区峨嵋山路8号",
        "tel": "",
        "category": "基础设施:公共设施:公共厕所",
        "type": 0,
        "location": {
            "lat": 36.494169,
            "lng": 117.863131
        },
        "ad_info": {
            "adcode": 370304,
            "province": "山东省",
            "city": "淄博市",
            "district": "博山区"
        }
    },
    {
        "id": "10152573589562782459",
        "title": "公共厕所",
        "address": "山东省淄博市张店区柳泉路326号东北方向140米",
        "tel": "",
        "category": "基础设施:公共设施:公共厕所",
        "type": 0,
        "location": {
            "lat": 36.849112,
            "lng": 118.06401
        },
        "ad_info": {
            "adcode": 370303,
            "province": "山东省",
            "city": "淄博市",
            "district": "张店区"
        }
    },
    {
        "id": "12625334011663964981",
        "title": "公共厕所",
        "address": "山东省淄博市周村区恒星路80号",
        "tel": "",
        "category": "基础设施:公共设施:公共厕所",
        "type": 0,
        "location": {
            "lat": 36.821209,
            "lng": 117.853239
        },
        "ad_info": {
            "adcode": 370306,
            "province": "山东省",
            "city": "淄博市",
            "district": "周村区"
        }
    },
    {
        "id": "4943892964741900153",
        "title": "无障碍公共厕所",
        "address": "山东省淄博市张店区南西五路与考工路交叉口正北方向233米左右",
        "tel": "",
        "category": "基础设施:公共设施:公共厕所",
        "type": 0,
        "location": {
            "lat": 36.777139,
            "lng": 118.03199
        },
        "ad_info": {
            "adcode": 370303,
            "province": "山东省",
            "city": "淄博市",
            "district": "张店区"
        }
    },
    {
        "id": "15150396193814345639",
        "title": "无障碍公共厕所",
        "address": "山东省淄博市周村区青年西路与青年路交叉口正东方向88米左右",
        "tel": "",
        "category": "基础设施:公共设施:公共厕所",
        "type": 0,
        "location": {
            "lat": 36.807165,
            "lng": 117.831982
        },
        "ad_info": {
            "adcode": 370306,
            "province": "山东省",
            "city": "淄博市",
            "district": "周村区"
        }
    },
    {
        "id": "6282409485493741568",
        "title": "公共厕所",
        "address": "山东省淄博市沂源县G341与阳光路交叉口正西方向154米左右",
        "tel": "",
        "category": "基础设施:公共设施:公共厕所",
        "type": 0,
        "location": {
            "lat": 36.193048,
            "lng": 118.05763
        },
        "ad_info": {
            "adcode": 370323,
            "province": "山东省",
            "city": "淄博市",
            "district": "沂源县"
        }
    },
    {
        "id": "5172262321118999604",
        "title": "公共厕所",
        "address": "山东省淄博市淄川区济潍高速与龙泉立交交叉口东北方向224米左右",
        "tel": "",
        "category": "基础设施:公共设施:公共厕所",
        "type": 0,
        "location": {
            "lat": 36.597846,
            "lng": 117.983556
        },
        "ad_info": {
            "adcode": 370302,
            "province": "山东省",
            "city": "淄博市",
            "district": "淄川区"
        }
    },
    {
        "id": "17567083312414767588",
        "title": "公共厕所",
        "address": "山东省淄博市张店区和平路北二巷与新村西路交叉口正北方向38米左右",
        "tel": "",
        "category": "基础设施:公共设施:公共厕所",
        "type": 0,
        "location": {
            "lat": 36.802547,
            "lng": 118.033544
        },
        "ad_info": {
            "adcode": 370303,
            "province": "山东省",
            "city": "淄博市",
            "district": "张店区"
        }
    },
    {
        "id": "12433522972538026010",
        "title": "公共厕所",
        "address": "山东省淄博市高青县芦湖路与黄河路交叉口正北方向201米左右",
        "tel": "",
        "category": "基础设施:公共设施:公共厕所",
        "type": 0,
        "location": {
            "lat": 37.173563,
            "lng": 117.840054
        },
        "ad_info": {
            "adcode": 370322,
            "province": "山东省",
            "city": "淄博市",
            "district": "高青县"
        }
    },
    {
        "id": "12622091022818434332",
        "title": "公共厕所",
        "address": "山东省淄博市沂源县沂河西路与螳螂河西路交叉口东北方向204米左右",
        "tel": "",
        "category": "基础设施:公共设施:公共厕所",
        "type": 0,
        "location": {
            "lat": 36.194448,
            "lng": 118.151664
        },
        "ad_info": {
            "adcode": 370323,
            "province": "山东省",
            "city": "淄博市",
            "district": "沂源县"
        }
    },
    {
        "id": "17492904010325940716",
        "title": "公共厕所",
        "address": "山东省淄博市周村区周隆路与阳光大道交叉口正西方向354米左右",
        "tel": "",
        "category": "基础设施:公共设施:公共厕所",
        "type": 0,
        "location": {
            "lat": 36.786582,
            "lng": 117.885675
        },
        "ad_info": {
            "adcode": 370306,
            "province": "山东省",
            "city": "淄博市",
            "district": "周村区"
        }
    },
    {
        "id": "17808028653144356012",
        "title": "公共厕所",
        "address": "山东省淄博市博山区S317与陈疃桥交叉口东南方向137米左右",
        "tel": "",
        "category": "基础设施:公共设施:公共厕所",
        "type": 0,
        "location": {
            "lat": 36.357062,
            "lng": 118.096225
        },
        "ad_info": {
            "adcode": 370304,
            "province": "山东省",
            "city": "淄博市",
            "district": "博山区"
        }
    },
    {
        "id": "10552464056192554771",
        "title": "公共厕所",
        "address": "山东省淄博市临淄区稷下路与齐兴路交叉口南180米",
        "tel": "",
        "category": "基础设施:公共设施:公共厕所",
        "type": 0,
        "location": {
            "lat": 36.828146,
            "lng": 118.317349
        },
        "ad_info": {
            "adcode": 370305,
            "province": "山东省",
            "city": "淄博市",
            "district": "临淄区"
        }
    },
    {
        "id": "16049463561155589917",
        "title": "公共厕所",
        "address": "山东省淄博市博山区北关街与镇东南街交叉口东南方向17米左右",
        "tel": "",
        "category": "基础设施:公共设施:公共厕所",
        "type": 0,
        "location": {
            "lat": 36.497879,
            "lng": 117.864373
        },
        "ad_info": {
            "adcode": 370304,
            "province": "山东省",
            "city": "淄博市",
            "district": "博山区"
        }
    },
    {
        "id": "5815223912921717834",
        "title": "公共厕所",
        "address": "山东省淄博市淄川区圣水泉路与松龄东路交叉口正东方向192米左右",
        "tel": "",
        "category": "基础设施:公共设施:公共厕所",
        "type": 0,
        "location": {
            "lat": 36.643517,
            "lng": 118.006213
        },
        "ad_info": {
            "adcode": 370302,
            "province": "山东省",
            "city": "淄博市",
            "district": "淄川区"
        }
    },
    {
        "id": "1600405487113257763",
        "title": "公共厕所",
        "address": "山东省淄博市淄川区S232与泰山瓷业路交叉口正北方向333米左右",
        "tel": "",
        "category": "基础设施:公共设施:公共厕所",
        "type": 0,
        "location": {
            "lat": 36.591967,
            "lng": 117.921991
        },
        "ad_info": {
            "adcode": 370302,
            "province": "山东省",
            "city": "淄博市",
            "district": "淄川区"
        }
    },
    {
        "id": "3261448003632562025",
        "title": "公共厕所",
        "address": "山东省淄博市沂源县振兴西路与松山路交叉口西北方向39米左右",
        "tel": "",
        "category": "基础设施:公共设施:公共厕所",
        "type": 0,
        "location": {
            "lat": 36.186504,
            "lng": 118.1495
        },
        "ad_info": {
            "adcode": 370323,
            "province": "山东省",
            "city": "淄博市",
            "district": "沂源县"
        }
    },
    {
        "id": "11716781803569603466",
        "title": "公共厕所",
        "address": "山东省淄博市周村区文昌街与新建西路交叉口正北方向149米左右",
        "tel": "",
        "category": "基础设施:公共设施:公共厕所",
        "type": 0,
        "location": {
            "lat": 36.802066,
            "lng": 117.838638
        },
        "ad_info": {
            "adcode": 370306,
            "province": "山东省",
            "city": "淄博市",
            "district": "周村区"
        }
    },
    {
        "id": "2585349701534538525",
        "title": "公共厕所",
        "address": "山东省淄博市沂源县G341与南麻大街交叉口正东方向172米左右",
        "tel": "",
        "category": "基础设施:公共设施:公共厕所",
        "type": 0,
        "location": {
            "lat": 36.191058,
            "lng": 118.141886
        },
        "ad_info": {
            "adcode": 370323,
            "province": "山东省",
            "city": "淄博市",
            "district": "沂源县"
        }
    },
    {
        "id": "10219035784863960090",
        "title": "公共厕所",
        "address": "山东省淄博市桓台县兴桓路与卫生街交叉口东北方向85米左右",
        "tel": "",
        "category": "基础设施:公共设施:公共厕所",
        "type": 0,
        "location": {
            "lat": 36.956256,
            "lng": 118.100363
        },
        "ad_info": {
            "adcode": 370321,
            "province": "山东省",
            "city": "淄博市",
            "district": "桓台县"
        }
    },
    {
        "id": "4858228940756209941",
        "title": "公共厕所",
        "address": "山东省淄博市张店区春风路与规划一号线交叉口正西方向475米左右",
        "tel": "",
        "category": "基础设施:公共设施:公共厕所",
        "type": 0,
        "location": {
            "lat": 36.837939,
            "lng": 118.099016
        },
        "ad_info": {
            "adcode": 370303,
            "province": "山东省",
            "city": "淄博市",
            "district": "张店区"
        }
    },
    {
        "id": "3850814466210246518",
        "title": "公共厕所",
        "address": "山东省淄博市淄川区S232与张博公路交叉口正北方向369米左右",
        "tel": "",
        "category": "基础设施:公共设施:公共厕所",
        "type": 0,
        "location": {
            "lat": 36.702432,
            "lng": 118.001035
        },
        "ad_info": {
            "adcode": 370302,
            "province": "山东省",
            "city": "淄博市",
            "district": "淄川区"
        }
    },
    {
        "id": "15614340784674927669",
        "title": "公共厕所",
        "address": "山东省淄博市桓台县周荆路与庞胡路交叉口正南方向419米左右",
        "tel": "",
        "category": "基础设施:公共设施:公共厕所",
        "type": 0,
        "location": {
            "lat": 36.975077,
            "lng": 117.997022
        },
        "ad_info": {
            "adcode": 370321,
            "province": "山东省",
            "city": "淄博市",
            "district": "桓台县"
        }
    },
    {
        "id": "13998843336376015296",
        "title": "公共厕所",
        "address": "山东省淄博市淄川区双圣路与天津路交叉口正南方向447米左右",
        "tel": "",
        "category": "基础设施:公共设施:公共厕所",
        "type": 0,
        "location": {
            "lat": 36.730297,
            "lng": 117.974893
        },
        "ad_info": {
            "adcode": 370302,
            "province": "山东省",
            "city": "淄博市",
            "district": "淄川区"
        }
    },
    {
        "id": "7051806456928710769",
        "title": "公共厕所",
        "address": "山东省淄博市淄川区建国街与车站北路交叉口西北方向499米左右",
        "tel": "",
        "category": "基础设施:公共设施:公共厕所",
        "type": 0,
        "location": {
            "lat": 36.629229,
            "lng": 117.992251
        },
        "ad_info": {
            "adcode": 370302,
            "province": "山东省",
            "city": "淄博市",
            "district": "淄川区"
        }
    },
    {
        "id": "7334504116455437077",
        "title": "公共厕所",
        "address": "山东省淄博市淄川区淄矿路129号",
        "tel": "",
        "category": "基础设施:公共设施:公共厕所",
        "type": 0,
        "location": {
            "lat": 36.631958,
            "lng": 117.987891
        },
        "ad_info": {
            "adcode": 370302,
            "province": "山东省",
            "city": "淄博市",
            "district": "淄川区"
        }
    },
    {
        "id": "5172262321118999604",
        "title": "公共厕所",
        "address": "山东省淄博市淄川区济潍高速与龙泉立交交叉口东北方向224米左右",
        "tel": "",
        "category": "基础设施:公共设施:公共厕所",
        "type": 0,
        "location": {
            "lat": 36.597846,
            "lng": 117.983556
        },
        "ad_info": {
            "adcode": 370302,
            "province": "山东省",
            "city": "淄博市",
            "district": "淄川区"
        }
    },
    {
        "id": "17567083312414767588",
        "title": "公共厕所",
        "address": "山东省淄博市张店区和平路北二巷与新村西路交叉口正北方向38米左右",
        "tel": "",
        "category": "基础设施:公共设施:公共厕所",
        "type": 0,
        "location": {
            "lat": 36.802547,
            "lng": 118.033544
        },
        "ad_info": {
            "adcode": 370303,
            "province": "山东省",
            "city": "淄博市",
            "district": "张店区"
        }
    },
    {
        "id": "12433522972538026010",
        "title": "公共厕所",
        "address": "山东省淄博市高青县芦湖路与黄河路交叉口正北方向201米左右",
        "tel": "",
        "category": "基础设施:公共设施:公共厕所",
        "type": 0,
        "location": {
            "lat": 37.173563,
            "lng": 117.840054
        },
        "ad_info": {
            "adcode": 370322,
            "province": "山东省",
            "city": "淄博市",
            "district": "高青县"
        }
    },
    {
        "id": "12622091022818434332",
        "title": "公共厕所",
        "address": "山东省淄博市沂源县沂河西路与螳螂河西路交叉口东北方向204米左右",
        "tel": "",
        "category": "基础设施:公共设施:公共厕所",
        "type": 0,
        "location": {
            "lat": 36.194448,
            "lng": 118.151664
        },
        "ad_info": {
            "adcode": 370323,
            "province": "山东省",
            "city": "淄博市",
            "district": "沂源县"
        }
    },
    {
        "id": "17492904010325940716",
        "title": "公共厕所",
        "address": "山东省淄博市周村区周隆路与阳光大道交叉口正西方向354米左右",
        "tel": "",
        "category": "基础设施:公共设施:公共厕所",
        "type": 0,
        "location": {
            "lat": 36.786582,
            "lng": 117.885675
        },
        "ad_info": {
            "adcode": 370306,
            "province": "山东省",
            "city": "淄博市",
            "district": "周村区"
        }
    },
    {
        "id": "17808028653144356012",
        "title": "公共厕所",
        "address": "山东省淄博市博山区S317与陈疃桥交叉口东南方向137米左右",
        "tel": "",
        "category": "基础设施:公共设施:公共厕所",
        "type": 0,
        "location": {
            "lat": 36.357062,
            "lng": 118.096225
        },
        "ad_info": {
            "adcode": 370304,
            "province": "山东省",
            "city": "淄博市",
            "district": "博山区"
        }
    },
    {
        "id": "10552464056192554771",
        "title": "公共厕所",
        "address": "山东省淄博市临淄区稷下路与齐兴路交叉口南180米",
        "tel": "",
        "category": "基础设施:公共设施:公共厕所",
        "type": 0,
        "location": {
            "lat": 36.828146,
            "lng": 118.317349
        },
        "ad_info": {
            "adcode": 370305,
            "province": "山东省",
            "city": "淄博市",
            "district": "临淄区"
        }
    },
    {
        "id": "16049463561155589917",
        "title": "公共厕所",
        "address": "山东省淄博市博山区北关街与镇东南街交叉口东南方向17米左右",
        "tel": "",
        "category": "基础设施:公共设施:公共厕所",
        "type": 0,
        "location": {
            "lat": 36.497879,
            "lng": 117.864373
        },
        "ad_info": {
            "adcode": 370304,
            "province": "山东省",
            "city": "淄博市",
            "district": "博山区"
        }
    },
    {
        "id": "5815223912921717834",
        "title": "公共厕所",
        "address": "山东省淄博市淄川区圣水泉路与松龄东路交叉口正东方向192米左右",
        "tel": "",
        "category": "基础设施:公共设施:公共厕所",
        "type": 0,
        "location": {
            "lat": 36.643517,
            "lng": 118.006213
        },
        "ad_info": {
            "adcode": 370302,
            "province": "山东省",
            "city": "淄博市",
            "district": "淄川区"
        }
    },
    {
        "id": "1600405487113257763",
        "title": "公共厕所",
        "address": "山东省淄博市淄川区S232与泰山瓷业路交叉口正北方向333米左右",
        "tel": "",
        "category": "基础设施:公共设施:公共厕所",
        "type": 0,
        "location": {
            "lat": 36.591967,
            "lng": 117.921991
        },
        "ad_info": {
            "adcode": 370302,
            "province": "山东省",
            "city": "淄博市",
            "district": "淄川区"
        }
    },
    {
        "id": "3261448003632562025",
        "title": "公共厕所",
        "address": "山东省淄博市沂源县振兴西路与松山路交叉口西北方向39米左右",
        "tel": "",
        "category": "基础设施:公共设施:公共厕所",
        "type": 0,
        "location": {
            "lat": 36.186504,
            "lng": 118.1495
        },
        "ad_info": {
            "adcode": 370323,
            "province": "山东省",
            "city": "淄博市",
            "district": "沂源县"
        }
    },
    {
        "id": "11716781803569603466",
        "title": "公共厕所",
        "address": "山东省淄博市周村区文昌街与新建西路交叉口正北方向149米左右",
        "tel": "",
        "category": "基础设施:公共设施:公共厕所",
        "type": 0,
        "location": {
            "lat": 36.802066,
            "lng": 117.838638
        },
        "ad_info": {
            "adcode": 370306,
            "province": "山东省",
            "city": "淄博市",
            "district": "周村区"
        }
    },
    {
        "id": "2585349701534538525",
        "title": "公共厕所",
        "address": "山东省淄博市沂源县G341与南麻大街交叉口正东方向172米左右",
        "tel": "",
        "category": "基础设施:公共设施:公共厕所",
        "type": 0,
        "location": {
            "lat": 36.191058,
            "lng": 118.141886
        },
        "ad_info": {
            "adcode": 370323,
            "province": "山东省",
            "city": "淄博市",
            "district": "沂源县"
        }
    },
    {
        "id": "10219035784863960090",
        "title": "公共厕所",
        "address": "山东省淄博市桓台县兴桓路与卫生街交叉口东北方向85米左右",
        "tel": "",
        "category": "基础设施:公共设施:公共厕所",
        "type": 0,
        "location": {
            "lat": 36.956256,
            "lng": 118.100363
        },
        "ad_info": {
            "adcode": 370321,
            "province": "山东省",
            "city": "淄博市",
            "district": "桓台县"
        }
    },
    {
        "id": "4858228940756209941",
        "title": "公共厕所",
        "address": "山东省淄博市张店区春风路与规划一号线交叉口正西方向475米左右",
        "tel": "",
        "category": "基础设施:公共设施:公共厕所",
        "type": 0,
        "location": {
            "lat": 36.837939,
            "lng": 118.099016
        },
        "ad_info": {
            "adcode": 370303,
            "province": "山东省",
            "city": "淄博市",
            "district": "张店区"
        }
    },
    {
        "id": "3850814466210246518",
        "title": "公共厕所",
        "address": "山东省淄博市淄川区S232与张博公路交叉口正北方向369米左右",
        "tel": "",
        "category": "基础设施:公共设施:公共厕所",
        "type": 0,
        "location": {
            "lat": 36.702432,
            "lng": 118.001035
        },
        "ad_info": {
            "adcode": 370302,
            "province": "山东省",
            "city": "淄博市",
            "district": "淄川区"
        }
    },
    {
        "id": "15614340784674927669",
        "title": "公共厕所",
        "address": "山东省淄博市桓台县周荆路与庞胡路交叉口正南方向419米左右",
        "tel": "",
        "category": "基础设施:公共设施:公共厕所",
        "type": 0,
        "location": {
            "lat": 36.975077,
            "lng": 117.997022
        },
        "ad_info": {
            "adcode": 370321,
            "province": "山东省",
            "city": "淄博市",
            "district": "桓台县"
        }
    },
    {
        "id": "13998843336376015296",
        "title": "公共厕所",
        "address": "山东省淄博市淄川区双圣路与天津路交叉口正南方向447米左右",
        "tel": "",
        "category": "基础设施:公共设施:公共厕所",
        "type": 0,
        "location": {
            "lat": 36.730297,
            "lng": 117.974893
        },
        "ad_info": {
            "adcode": 370302,
            "province": "山东省",
            "city": "淄博市",
            "district": "淄川区"
        }
    },
    {
        "id": "7051806456928710769",
        "title": "公共厕所",
        "address": "山东省淄博市淄川区建国街与车站北路交叉口西北方向499米左右",
        "tel": "",
        "category": "基础设施:公共设施:公共厕所",
        "type": 0,
        "location": {
            "lat": 36.629229,
            "lng": 117.992251
        },
        "ad_info": {
            "adcode": 370302,
            "province": "山东省",
            "city": "淄博市",
            "district": "淄川区"
        }
    },
    {
        "id": "7334504116455437077",
        "title": "公共厕所",
        "address": "山东省淄博市淄川区淄矿路129号",
        "tel": "",
        "category": "基础设施:公共设施:公共厕所",
        "type": 0,
        "location": {
            "lat": 36.631958,
            "lng": 117.987891
        },
        "ad_info": {
            "adcode": 370302,
            "province": "山东省",
            "city": "淄博市",
            "district": "淄川区"
        }
    },
    {
        "id": "5172262321118999604",
        "title": "公共厕所",
        "address": "山东省淄博市淄川区济潍高速与龙泉立交交叉口东北方向224米左右",
        "tel": "",
        "category": "基础设施:公共设施:公共厕所",
        "type": 0,
        "location": {
            "lat": 36.597846,
            "lng": 117.983556
        },
        "ad_info": {
            "adcode": 370302,
            "province": "山东省",
            "city": "淄博市",
            "district": "淄川区"
        }
    },
    {
        "id": "17567083312414767588",
        "title": "公共厕所",
        "address": "山东省淄博市张店区和平路北二巷与新村西路交叉口正北方向38米左右",
        "tel": "",
        "category": "基础设施:公共设施:公共厕所",
        "type": 0,
        "location": {
            "lat": 36.802547,
            "lng": 118.033544
        },
        "ad_info": {
            "adcode": 370303,
            "province": "山东省",
            "city": "淄博市",
            "district": "张店区"
        }
    },
    {
        "id": "12433522972538026010",
        "title": "公共厕所",
        "address": "山东省淄博市高青县芦湖路与黄河路交叉口正北方向201米左右",
        "tel": "",
        "category": "基础设施:公共设施:公共厕所",
        "type": 0,
        "location": {
            "lat": 37.173563,
            "lng": 117.840054
        },
        "ad_info": {
            "adcode": 370322,
            "province": "山东省",
            "city": "淄博市",
            "district": "高青县"
        }
    },
    {
        "id": "12622091022818434332",
        "title": "公共厕所",
        "address": "山东省淄博市沂源县沂河西路与螳螂河西路交叉口东北方向204米左右",
        "tel": "",
        "category": "基础设施:公共设施:公共厕所",
        "type": 0,
        "location": {
            "lat": 36.194448,
            "lng": 118.151664
        },
        "ad_info": {
            "adcode": 370323,
            "province": "山东省",
            "city": "淄博市",
            "district": "沂源县"
        }
    },
    {
        "id": "17492904010325940716",
        "title": "公共厕所",
        "address": "山东省淄博市周村区周隆路与阳光大道交叉口正西方向354米左右",
        "tel": "",
        "category": "基础设施:公共设施:公共厕所",
        "type": 0,
        "location": {
            "lat": 36.786582,
            "lng": 117.885675
        },
        "ad_info": {
            "adcode": 370306,
            "province": "山东省",
            "city": "淄博市",
            "district": "周村区"
        }
    },