[
    {
        "id": "11320823406104834323",
        "title": "公共厕所",
        "address": "安徽省淮北市相山区桂苑路与泉山路交叉口正南方向239米左右",
        "tel": "",
        "category": "基础设施:公共设施:公共厕所",
        "type": 0,
        "location": {
            "lat": 33.942427,
            "lng": 116.811507
        },
        "ad_info": {
            "adcode": 340603,
            "province": "安徽省",
            "city": "淮北市",
            "district": "相山区"
        }
    },
    {
        "id": "8114226381433737353",
        "title": "公共厕所",
        "address": "安徽省淮北市相山区相山北路黎苑新村北门(黎苑新村一期北)",
        "tel": "",
        "category": "基础设施:公共设施:公共厕所",
        "type": 0,
        "location": {
            "lat": 33.957932,
            "lng": 116.801507
        },
        "ad_info": {
            "adcode": 340603,
            "province": "安徽省",
            "city": "淮北市",
            "district": "相山区"
        }
    },
    {
        "id": "16119208039771182384",
        "title": "公共厕所",
        "address": "安徽省淮北市濉溪县榕树路与沱河路交叉口正北方向142米左右",
        "tel": "",
        "category": "基础设施:公共设施:公共厕所",
        "type": 0,
        "location": {
            "lat": 33.91599,
            "lng": 116.788798
        },
        "ad_info": {
            "adcode": 340621,
            "province": "安徽省",
            "city": "淮北市",
            "district": "濉溪县"
        }
    },
    {
        "id": "2837933955290036653",
        "title": "公共厕所",
        "address": "安徽省淮北市濉溪县银杏路114号",
        "tel": "",
        "category": "基础设施:公共设施:公共厕所",
        "type": 0,
        "location": {
            "lat": 33.904769,
            "lng": 116.746677
        },
        "ad_info": {
            "adcode": 340621,
            "province": "安徽省",
            "city": "淮北市",
            "district": "濉溪县"
        }
    },
    {
        "id": "18125708367951918477",
        "title": "公共厕所",
        "address": "安徽省淮北市相山区凤凰山路与桂苑路交叉口正西方向42米左右",
        "tel": "",
        "category": "基础设施:公共设施:公共厕所",
        "type": 0,
        "location": {
            "lat": 33.946941,
            "lng": 116.77043
        },
        "ad_info": {
            "adcode": 340603,
            "province": "安徽省",
            "city": "淮北市",
            "district": "相山区"
        }
    },
    {
        "id": "10798880375048482316",
        "title": "公共厕所",
        "address": "安徽省淮北市相山区古城路与育才巷交叉口正北方向56米左右",
        "tel": "",
        "category": "基础设施:公共设施:公共厕所",
        "type": 0,
        "location": {
            "lat": 33.971007,
            "lng": 116.796255
        },
        "ad_info": {
            "adcode": 340603,
            "province": "安徽省",
            "city": "淮北市",
            "district": "相山区"
        }
    },
    {
        "id": "16136749049626678873",
        "title": "公共厕所",
        "address": "安徽省淮北市相山区古城路与建安路交叉口西南方向40米左右",
        "tel": "",
        "category": "基础设施:公共设施:公共厕所",
        "type": 0,
        "location": {
            "lat": 33.969745,
            "lng": 116.7897
        },
        "ad_info": {
            "adcode": 340603,
            "province": "安徽省",
            "city": "淮北市",
            "district": "相山区"
        }
    },
    {
        "id": "6923810704351702658",
        "title": "公共厕所",
        "address": "安徽省淮北市相山区桓谭路与泉山路交叉口东北方向90米左右",
        "tel": "",
        "category": "基础设施:公共设施:公共厕所",
        "type": 0,
        "location": {
            "lat": 33.966396,
            "lng": 116.81283
        },
        "ad_info": {
            "adcode": 340603,
            "province": "安徽省",
            "city": "淮北市",
            "district": "相山区"
        }
    },
    {
        "id": "6054018265338479973",
        "title": "公共厕所",
        "address": "安徽省淮北市濉溪县地税巷与岱河路交叉口西北方向21米左右",
        "tel": "",
        "category": "基础设施:公共设施:公共厕所",
        "type": 0,
        "location": {
            "lat": 33.918261,
            "lng": 116.762459
        },
        "ad_info": {
            "adcode": 340621,
            "province": "安徽省",
            "city": "淮北市",
            "district": "濉溪县"
        }
    },
    {
        "id": "498844210303139996",
        "title": "公共厕所",
        "address": "安徽省淮北市相山区利民巷与永平巷交叉口西北方向122米左右",
        "tel": "",
        "category": "基础设施:公共设施:公共厕所",
        "type": 0,
        "location": {
            "lat": 33.976721,
            "lng": 116.787345
        },
        "ad_info": {
            "adcode": 340603,
            "province": "安徽省",
            "city": "淮北市",
            "district": "相山区"
        }
    },
    {
        "id": "11867279338548779744",
        "title": "公共厕所",
        "address": "安徽省淮北市濉溪县X009中瑞农副产品物流园",
        "tel": "",
        "category": "基础设施:公共设施:公共厕所",
        "type": 0,
        "location": {
            "lat": 33.905482,
            "lng": 116.777393
        },
        "ad_info": {
            "adcode": 340621,
            "province": "安徽省",
            "city": "淮北市",
            "district": "濉溪县"
        }
    },
    {
        "id": "12378243375735849767",
        "title": "公共厕所",
        "address": "安徽省淮北市相山区安康路与惠黎路交叉口东北方向158米左右",
        "tel": "",
        "category": "基础设施:公共设施:公共厕所",
        "type": 0,
        "location": {
            "lat": 33.968883,
            "lng": 116.79739
        },
        "ad_info": {
            "adcode": 340603,
            "province": "安徽省",
            "city": "淮北市",
            "district": "相山区"
        }
    },
    {
        "id": "5937798293690209858",
        "title": "公共厕所",
        "address": "安徽省淮北市濉溪县溪河路与虎山路交叉口正东方向198米左右",
        "tel": "",
        "category": "基础设施:公共设施:公共厕所",
        "type": 0,
        "location": {
            "lat": 33.91091,
            "lng": 116.767097
        },
        "ad_info": {
            "adcode": 340621,
            "province": "安徽省",
            "city": "淮北市",
            "district": "濉溪县"
        }
    },
    {
        "id": "7278044538710011587",
        "title": "公共厕所",
        "address": "安徽省淮北市相山区相山北路与黎苑路交叉口正西方向271米左右",
        "tel": "",
        "category": "基础设施:公共设施:公共厕所",
        "type": 0,
        "location": {
            "lat": 33.958168,
            "lng": 116.797023
        },
        "ad_info": {
            "adcode": 340603,
            "province": "安徽省",
            "city": "淮北市",
            "district": "相山区"
        }
    },
    {
        "id": "10174695443683898296",
        "title": "公共厕所",
        "address": "安徽省淮北市相山区南黎路与相山中路交叉口正东方向169米左右",
        "tel": "",
        "category": "基础设施:公共设施:公共厕所",
        "type": 0,
        "location": {
            "lat": 33.938976,
            "lng": 116.801747
        },
        "ad_info": {
            "adcode": 340603,
            "province": "安徽省",
            "city": "淮北市",
            "district": "相山区"
        }
    },
    {
        "id": "15865505042018541727",
        "title": "公共厕所",
        "address": "安徽省淮北市濉溪县孙町镇孙疃中学",
        "tel": "",
        "category": "基础设施:公共设施:公共厕所",
        "type": 0,
        "location": {
            "lat": 33.563672,
            "lng": 116.764529
        },
        "ad_info": {
            "adcode": 340621,
            "province": "安徽省",
            "city": "淮北市",
            "district": "濉溪县"
        }
    },
    {
        "id": "11869561568569792663",
        "title": "公共厕所",
        "address": "安徽省淮北市相山区惠苑路与相山北路交叉口正东方向80米左右",
        "tel": "",
        "category": "基础设施:公共设施:公共厕所",
        "type": 0,
        "location": {
            "lat": 33.962364,
            "lng": 116.800264
        },
        "ad_info": {
            "adcode": 340603,
            "province": "安徽省",
            "city": "淮北市",
            "district": "相山区"
        }
    },
    {
        "id": "1951217987922978925",
        "title": "公共厕所",
        "address": "安徽省淮北市相山区闸河路43号东北方向80米",
        "tel": "",
        "category": "基础设施:公共设施:公共厕所",
        "type": 0,
        "location": {
            "lat": 33.966478,
            "lng": 116.80362
        },
        "ad_info": {
            "adcode": 340603,
            "province": "安徽省",
            "city": "淮北市",
            "district": "相山区"
        }
    },
    {
        "id": "9207692610503241323",
        "title": "公共厕所",
        "address": "安徽省淮北市濉溪县淮海路与闸河路交叉口西南200米",
        "tel": "",
        "category": "基础设施:公共设施:公共厕所",
        "type": 0,
        "location": {
            "lat": 33.919807,
            "lng": 116.76817
        },
        "ad_info": {
            "adcode": 340621,
            "province": "安徽省",
            "city": "淮北市",
            "district": "濉溪县"
        }
    },
    {
        "id": "3546369594151503886",
        "title": "公共卫生间",
        "address": "安徽省淮北市相山区东山路与东岗楼立交桥交叉口正南方向76米左右",
        "tel": "",
        "category": "基础设施:公共设施:公共厕所",
        "type": 0,
        "location": {
            "lat": 33.974261,
            "lng": 116.811709
        },
        "ad_info": {
            "adcode": 340603,
            "province": "安徽省",
            "city": "淮北市",
            "district": "相山区"
        }
    },
    {
        "id": "14874629049873811552",
        "title": "公共厕所",
        "address": "安徽省淮北市濉溪县玉兰大道与紫薇路交叉口正东方向72米左右",
        "tel": "",
        "category": "基础设施:公共设施:公共厕所",
        "type": 0,
        "location": {
            "lat": 33.900435,
            "lng": 116.751095
        },
        "ad_info": {
            "adcode": 340621,
            "province": "安徽省",
            "city": "淮北市",
            "district": "濉溪县"
        }
    },
    {
        "id": "2973048258272929388",
        "title": "公共厕所",
        "address": "安徽省淮北市相山区古城路与房星巷交叉口正北方向123米左右",
        "tel": "",
        "category": "基础设施:公共设施:公共厕所",
        "type": 0,
        "location": {
            "lat": 33.972722,
            "lng": 116.806225
        },
        "ad_info": {
            "adcode": 340603,
            "province": "安徽省",
            "city": "淮北市",
            "district": "相山区"
        }
    },
    {
        "id": "7042305300565113215",
        "title": "公共厕所",
        "address": "安徽省淮北市相山区人民中路与濉溪中路交叉口正南方向216米左右",
        "tel": "",
        "category": "基础设施:公共设施:公共厕所",
        "type": 0,
        "location": {
            "lat": 33.952443,
            "lng": 116.77714
        },
        "ad_info": {
            "adcode": 340603,
            "province": "安徽省",
            "city": "淮北市",
            "district": "相山区"
        }
    },
    {
        "id": "12806286340228966065",
        "title": "公共厕所",
        "address": "安徽省淮北市相山区淮海中路99-1号",
        "tel": "",
        "category": "基础设施:公共设施:公共厕所",
        "type": 0,
        "location": {
            "lat": 33.972894,
            "lng": 116.799006
        },
        "ad_info": {
            "adcode": 340603,
            "province": "安徽省",
            "city": "淮北市",
            "district": "相山区"
        }
    },
    {
        "id": "6794538104789440088",
        "title": "公共厕所",
        "address": "安徽省淮北市相山区桂苑路与长身路交叉口东北方向36米左右",
        "tel": "",
        "category": "基础设施:公共设施:公共厕所",
        "type": 0,
        "location": {
            "lat": 33.944792,
            "lng": 116.785887
        },
        "ad_info": {
            "adcode": 340603,
            "province": "安徽省",
            "city": "淮北市",
            "district": "相山区"
        }
    },
    {
        "id": "1752807702624442878",
        "title": "公共厕所",
        "address": "安徽省淮北市相山区人民中路319号",
        "tel": "",
        "category": "基础设施:公共设施:公共厕所",
        "type": 0,
        "location": {
            "lat": 33.954411,
            "lng": 116.834717
        },
        "ad_info": {
            "adcode": 340603,
            "province": "安徽省",
            "city": "淮北市",
            "district": "相山区"
        }
    },
    {
        "id": "3409091541237875575",
        "title": "公共厕所",
        "address": "安徽省淮北市相山区站前路与花城西巷交叉口正北方向61米左右",
        "tel": "",
        "category": "基础设施:公共设施:公共厕所",
        "type": 0,
        "location": {
            "lat": 33.963567,
            "lng": 116.803382
        },
        "ad_info": {
            "adcode": 340603,
            "province": "安徽省",
            "city": "淮北市",
            "district": "相山区"
        }
    },
    {
        "id": "642244355706817226",
        "title": "公共厕所",
        "address": "安徽省淮北市相山区开运大街与长山中路交叉口正东方向231米左右",
        "tel": "",
        "category": "基础设施:公共设施:公共厕所",
        "type": 0,
        "location": {
            "lat": 33.937317,
            "lng": 116.809125
        },
        "ad_info": {
            "adcode": 340603,
            "province": "安徽省",
            "city": "淮北市",
            "district": "相山区"
        }
    },
    {
        "id": "13417696855405151293",
        "title": "公共厕所",
        "address": "安徽省淮北市相山区春晖巷与鹰山中路交叉口正东方向272米左右",
        "tel": "",
        "category": "基础设施:公共设施:公共厕所",
        "type": 0,
        "location": {
            "lat": 33.946732,
            "lng": 116.792181
        },
        "ad_info": {
            "adcode": 340603,
            "province": "安徽省",
            "city": "淮北市",
            "district": "相山区"
        }
    },
    {
        "id": "12962146852762467826",
        "title": "公共厕所",
        "address": "安徽省淮北市相山区海宫路与鹰山北路交叉口正南方向130米左右",
        "tel": "",
        "category": "基础设施:公共设施:公共厕所",
        "type": 0,
        "location": {
            "lat": 33.963031,
            "lng": 116.788448
        },
        "ad_info": {
            "adcode": 340603,
            "province": "安徽省",
            "city": "淮北市",
            "district": "相山区"
        }
    },
    {
        "id": "13431469098064251988",
        "title": "公共卫生间",
        "address": "安徽省淮北市相山区人民中路与濉溪北路交叉口东北方向83米左右",
        "tel": "",
        "category": "基础设施:公共设施:公共厕所",
        "type": 0,
        "location": {
            "lat": 33.95608,
            "lng": 116.778899
        },
        "ad_info": {
            "adcode": 340603,
            "province": "安徽省",
            "city": "淮北市",
            "district": "相山区"
        }
    },
    {
        "id": "4066715815892210265",
        "title": "公共厕所",
        "address": "安徽省淮北市濉溪县榕树路与浍河路交叉口正北方向166米左右",
        "tel": "",
        "category": "基础设施:公共设施:公共厕所",
        "type": 0,
        "location": {
            "lat": 33.910136,
            "lng": 116.789561
        },
        "ad_info": {
            "adcode": 340621,
            "province": "安徽省",
            "city": "淮北市",
            "district": "濉溪县"
        }
    },
    {
        "id": "16207198079233341548",
        "title": "公共厕所",
        "address": "安徽省淮北市濉溪县浍河路与淮海路交叉口东北方向41米左右",
        "tel": "",
        "category": "基础设施:公共设施:公共厕所",
        "type": 0,
        "location": {
            "lat": 33.908416,
            "lng": 116.769777
        },
        "ad_info": {
            "adcode": 340621,
            "province": "安徽省",
            "city": "淮北市",
            "district": "濉溪县"
        }
    },
    {
        "id": "15360009427172857200",
        "title": "公共厕所",
        "address": "安徽省淮北市濉溪县G343与S411交叉口西北方向461米左右",
        "tel": "",
        "category": "基础设施:公共设施:公共厕所",
        "type": 0,
        "location": {
            "lat": 33.850782,
            "lng": 116.548984
        },
        "ad_info": {
            "adcode": 340621,
            "province": "安徽省",
            "city": "淮北市",
            "district": "濉溪县"
        }
    },
    {
        "id": "18013727947444229694",
        "title": "公共厕所",
        "address": "安徽省淮北市濉溪县关帝庙巷与沱河路交叉口正北方向95米左右",
        "tel": "",
        "category": "基础设施:公共设施:公共厕所",
        "type": 0,
        "location": {
            "lat": 33.91602,
            "lng": 116.78228
        },
        "ad_info": {
            "adcode": 340621,
            "province": "安徽省",
            "city": "淮北市",
            "district": "濉溪县"
        }
    },
    {
        "id": "8754690741127521328",
        "title": "公共厕所",
        "address": "安徽省淮北市相山区朱寨南巷与桂苑路交叉口正北方向189米左右",
        "tel": "",
        "category": "基础设施:公共设施:公共厕所",
        "type": 0,
        "location": {
            "lat": 33.946175,
            "lng": 116.815284
        },
        "ad_info": {
            "adcode": 340603,
            "province": "安徽省",
            "city": "淮北市",
            "district": "相山区"
        }
    },
    {
        "id": "11847729623695925487",
        "title": "公共卫生间",
        "address": "安徽省淮北市相山区东街道淮海中路淮北广播电视大楼",
        "tel": "",
        "category": "基础设施:公共设施:公共厕所",
        "type": 0,
        "location": {
            "lat": 33.974375,
            "lng": 116.805103
        },
        "ad_info": {
            "adcode": 340603,
            "province": "安徽省",
            "city": "淮北市",
            "district": "相山区"
        }
    },
    {
        "id": "5800794466821330150",
        "title": "公共厕所",
        "address": "安徽省淮北市相山区泉山路高尔夫家园",
        "tel": "",
        "category": "基础设施:公共设施:公共厕所",
        "type": 0,
        "location": {
            "lat": 33.951545,
            "lng": 116.81237
        },
        "ad_info": {
            "adcode": 340603,
            "province": "安徽省",
            "city": "淮北市",
            "district": "相山区"
        }
    },
    {
        "id": "17963937446216207890",
        "title": "公共厕所",
        "address": "安徽省淮北市杜集区北外环路与湖西路交叉口正东方向169米左右",
        "tel": "",
        "category": "基础设施:公共设施:公共厕所",
        "type": 0,
        "location": {
            "lat": 34.036071,
            "lng": 116.854921
        },
        "ad_info": {
            "adcode": 340602,
            "province": "安徽省",
            "city": "淮北市",
            "district": "杜集区"
        }
    },
    {
        "id": "9112597628555940562",
        "title": "公共厕所",
        "address": "安徽省淮北市濉溪县仲家巷与濉河路交叉口正北方向149米左右",
        "tel": "",
        "category": "基础设施:公共设施:公共厕所",
        "type": 0,
        "location": {
            "lat": 33.926154,
            "lng": 116.766571
        },
        "ad_info": {
            "adcode": 340621,
            "province": "安徽省",
            "city": "淮北市",
            "district": "濉溪县"
        }
    },
    {
        "id": "815273025256633473",
        "title": "公共厕所",
        "address": "安徽省淮北市濉溪县国槐路与银杏路交叉口正西方向302米左右",
        "tel": "",
        "category": "基础设施:公共设施:公共厕所",
        "type": 0,
        "location": {
            "lat": 33.905108,
            "lng": 116.752378
        },
        "ad_info": {
            "adcode": 340621,
            "province": "安徽省",
            "city": "淮北市",
            "district": "濉溪县"
        }
    },
    {
        "id": "3963630542240548552",
        "title": "公共厕所",
        "address": "安徽省淮北市濉溪县武店子巷与淮海路交叉口正东方向231米左右",
        "tel": "",
        "category": "基础设施:公共设施:公共厕所",
        "type": 0,
        "location": {
            "lat": 33.928716,
            "lng": 116.77161
        },
        "ad_info": {
            "adcode": 340621,
            "province": "安徽省",
            "city": "淮北市",
            "district": "濉溪县"
        }
    },
    {
        "id": "8590236420602663701",
        "title": "公共厕所",
        "address": "安徽省淮北市相山区海宫路25号",
        "tel": "",
        "category": "基础设施:公共设施:公共厕所",
        "type": 0,
        "location": {
            "lat": 33.962729,
            "lng": 116.786262
        },
        "ad_info": {
            "adcode": 340603,
            "province": "安徽省",
            "city": "淮北市",
            "district": "相山区"
        }
    },
    {
        "id": "17840368595082445041",
        "title": "无障碍公共厕所",
        "address": "安徽省淮北市相山区农商巷与相山中路交叉口正南方向115米左右",
        "tel": "",
        "category": "基础设施:公共设施:公共厕所",
        "type": 0,
        "location": {
            "lat": 33.937206,
            "lng": 116.800393
        },
        "ad_info": {
            "adcode": 340603,
            "province": "安徽省",
            "city": "淮北市",
            "district": "相山区"
        }
    },
    {
        "id": "5101616684918586551",
        "title": "公共厕所",
        "address": "安徽省淮北市相山区惠黎路与闸河路交叉口东南方向209米左右",
        "tel": "",
        "category": "基础设施:公共设施:公共厕所",
        "type": 0,
        "location": {
            "lat": 33.967094,
            "lng": 116.80343
        },
        "ad_info": {
            "adcode": 340603,
            "province": "安徽省",
            "city": "淮北市",
            "district": "相山区"
        }
    },
    {
        "id": "13422490262455238952",
        "title": "公共厕所",
        "address": "安徽省淮北市濉溪县公安巷与土地巷交叉口西南方向10米左右",
        "tel": "",
        "category": "基础设施:公共设施:公共厕所",
        "type": 0,
        "location": {
            "lat": 33.920221,
            "lng": 116.763615
        },
        "ad_info": {
            "adcode": 340621,
            "province": "安徽省",
            "city": "淮北市",
            "district": "濉溪县"
        }
    },
    {
        "id": "447458357508337974",
        "title": "公共厕所",
        "address": "安徽省淮北市濉溪县",
        "tel": "",
        "category": "基础设施:公共设施:公共厕所",
        "type": 0,
        "location": {
            "lat": 33.661153,
            "lng": 116.51552
        },
        "ad_info": {
            "adcode": 340621,
            "province": "安徽省",
            "city": "淮北市",
            "district": "濉溪县"
        }
    },
    {
        "id": "2295052891246592162",
        "title": "公共厕所",
        "address": "安徽省淮北市濉溪县X015与北邵桥交叉口东北方向146米左右",
        "tel": "",
        "category": "基础设施:公共设施:公共厕所",
        "type": 0,
        "location": {
            "lat": 33.592052,
            "lng": 116.727093
        },
        "ad_info": {
            "adcode": 340621,
            "province": "安徽省",
            "city": "淮北市",
            "district": "濉溪县"
        }
    },
    {
        "id": "7749614460838120232",
        "title": "公共厕所",
        "address": "安徽省淮北市濉溪县浍河路与虎山路交叉口正东方向117米左右",
        "tel": "",
        "category": "基础设施:公共设施:公共厕所",
        "type": 0,
        "location": {
            "lat": 33.908303,
            "lng": 116.76709
        },
        "ad_info": {
            "adcode": 340621,
            "province": "安徽省",
            "city": "淮北市",
            "district": "濉溪县"
        }
    },
    {
        "id": "2426523138512260499",
        "title": "公共厕所",
        "address": "安徽省淮北市相山区绿城巷蓝湖绿城",
        "tel": "",
        "category": "基础设施:公共设施:公共厕所",
        "type": 0,
        "location": {
            "lat": 33.962606,
            "lng": 116.808297
        },
        "ad_info": {
            "adcode": 340603,
            "province": "安徽省",
            "city": "淮北市",
            "district": "相山区"
        }
    },
    {
        "id": "13251849381007593070",
        "title": "公共厕所",
        "address": "安徽省淮北市杜集区富民路与高岳路交叉口正东方向74米左右",
        "tel": "",
        "category": "基础设施:公共设施:公共厕所",
        "type": 0,
        "location": {
            "lat": 33.992033,
            "lng": 116.833878
        },
        "ad_info": {
            "adcode": 340602,
            "province": "安徽省",
            "city": "淮北市",
            "district": "杜集区"
        }
    },
    {
        "id": "10731701750174897237",
        "title": "公共卫生间",
        "address": "安徽省淮北市相山区友谊巷12-3号",
        "tel": "",
        "category": "基础设施:公共设施:公共厕所",
        "type": 0,
        "location": {
            "lat": 33.975163,
            "lng": 116.799962
        },
        "ad_info": {
            "adcode": 340603,
            "province": "安徽省",
            "city": "淮北市",
            "district": "相山区"
        }
    },
    {
        "id": "4155818948298097787",
        "title": "公共厕所",
        "address": "安徽省淮北市杜集区Y022与青年路交叉口正南方向1031米左右",
        "tel": "",
        "category": "基础设施:公共设施:公共厕所",
        "type": 0,
        "location": {
            "lat": 34.012742,
            "lng": 116.843961
        },
        "ad_info": {
            "adcode": 340602,
            "province": "安徽省",
            "city": "淮北市",
            "district": "杜集区"
        }
    },
    {
        "id": "9693563413240825760",
        "title": "公共厕所",
        "address": "安徽省淮北市相山区闸河路10-1正东方向30米",
        "tel": "",
        "category": "基础设施:公共设施:公共厕所",
        "type": 0,
        "location": {
            "lat": 33.97153,
            "lng": 116.802358
        },
        "ad_info": {
            "adcode": 340603,
            "province": "安徽省",
            "city": "淮北市",
            "district": "相山区"
        }
    },
    {
        "id": "8810506994665619377",
        "title": "公共厕所",
        "address": "安徽省淮北市相山区桓谭路与长山北路交叉口正东方向106米左右",
        "tel": "",
        "category": "基础设施:公共设施:公共厕所",
        "type": 0,
        "location": {
            "lat": 33.965113,
            "lng": 116.806363
        },
        "ad_info": {
            "adcode": 340603,
            "province": "安徽省",
            "city": "淮北市",
            "district": "相山区"
        }
    },
    {
        "id": "7053703312275217161",
        "title": "公共厕所",
        "address": "安徽省淮北市相山区G237与张庄桥交叉口东南方向935米左右",
        "tel": "",
        "category": "基础设施:公共设施:公共厕所",
        "type": 0,
        "location": {
            "lat": 34.013706,
            "lng": 116.655137
        },
        "ad_info": {
            "adcode": 340603,
            "province": "安徽省",
            "city": "淮北市",
            "district": "相山区"
        }
    },
    {
        "id": "15544468993147914306",
        "title": "公共卫生间",
        "address": "安徽省淮北市杜集区安民路与杭淮路交叉口正东方向349米左右",
        "tel": "",
        "category": "基础设施:公共设施:公共厕所",
        "type": 0,
        "location": {
            "lat": 33.97976,
            "lng": 116.88554
        },
        "ad_info": {
            "adcode": 340602,
            "province": "安徽省",
            "city": "淮北市",
            "district": "杜集区"
        }
    },
    {
        "id": "7049017914611528149",
        "title": "公共厕所",
        "address": "安徽省淮北市相山区朱寨南巷与桂苑路交叉口西北方向152米左右",
        "tel": "",
        "category": "基础设施:公共设施:公共厕所",
        "type": 0,
        "location": {
            "lat": 33.94579,
            "lng": 116.815198
        },
        "ad_info": {
            "adcode": 340603,
            "province": "安徽省",
            "city": "淮北市",
            "district": "相山区"
        }
    },
    {
        "id": "3627416253174991816",
        "title": "公共厕所",
        "address": "安徽省淮北市相山区桂苑路与泉山路交叉口正东方向147米左右",
        "tel": "",
        "category": "基础设施:公共设施:公共厕所",
        "type": 0,
        "location": {
            "lat": 33.944809,
            "lng": 116.813393
        },
        "ad_info": {
            "adcode": 340603,
            "province": "安徽省",
            "city": "淮北市",
            "district": "相山区"
        }
    },
    {
        "id": "3164769534263131852",
        "title": "公共厕所",
        "address": "安徽省淮北市相山区人民中路十二中对面",
        "tel": "",
        "category": "基础设施:公共设施:公共厕所",
        "type": 0,
        "location": {
            "lat": 33.954524,
            "lng": 116.80452
        },
        "ad_info": {
            "adcode": 340603,
            "province": "安徽省",
            "city": "淮北市",
            "district": "相山区"
        }
    },
    {
        "id": "18073673763641715335",
        "title": "公共厕所",
        "address": "安徽省淮北市相山区孟山中路与桂苑路交叉口正东方向281米左右",
        "tel": "",
        "category": "基础设施:公共设施:公共厕所",
        "type": 0,
        "location": {
            "lat": 33.94488,
            "lng": 116.796809
        },
        "ad_info": {
            "adcode": 340603,
            "province": "安徽省",
            "city": "淮北市",
            "district": "相山区"
        }
    },
    {
        "id": "17021174562665403319",
        "title": "公共厕所",
        "address": "安徽省淮北市相山区凤冠路与相凤路交叉口正西方向391米左右",
        "tel": "",
        "category": "基础设施:公共设施:公共厕所",
        "type": 0,
        "location": {
            "lat": 33.996663,
            "lng": 116.739567
        },
        "ad_info": {
            "adcode": 340603,
            "province": "安徽省",
            "city": "淮北市",
            "district": "相山区"
        }
    },
    {
        "id": "8614782157293835450",
        "title": "公共厕所",
        "address": "安徽省淮北市杜集区东环路与顺河路交叉口东南方向790米左右",
        "tel": "",
        "category": "基础设施:公共设施:公共厕所",
        "type": 0,
        "location": {
            "lat": 34.195259,
            "lng": 116.984328
        },
        "ad_info": {
            "adcode": 340602,
            "province": "安徽省",
            "city": "淮北市",
            "district": "杜集区"
        }
    },
    {
        "id": "5036118429063418235",
        "title": "公共厕所",
        "address": "安徽省淮北市杜集区安民路与淮海东路交叉口正东方向151米左右",
        "tel": "",
        "category": "基础设施:公共设施:公共厕所",
        "type": 0,
        "location": {
            "lat": 33.973181,
            "lng": 116.88209
        },
        "ad_info": {
            "adcode": 340602,
            "province": "安徽省",
            "city": "淮北市",
            "district": "杜集区"
        }
    },
    {
        "id": "185139956227542243",
        "title": "公共厕所",
        "address": "安徽省淮北市杜集区团结巷与淮海东路交叉口西北方向228米左右",
        "tel": "",
        "category": "基础设施:公共设施:公共厕所",
        "type": 0,
        "location": {
            "lat": 33.974171,
            "lng": 116.876785
        },
        "ad_info": {
            "adcode": 340602,
            "province": "安徽省",
            "city": "淮北市",
            "district": "杜集区"
        }
    },
    {
        "id": "7727511531603587027",
        "title": "公共厕所",
        "address": "安徽省淮北市相山区人民中路辅路与毓秀路交叉口西南方向140米左右",
        "tel": "",
        "category": "基础设施:公共设施:公共厕所",
        "type": 0,
        "location": {
            "lat": 33.95521,
            "lng": 116.828592
        },
        "ad_info": {
            "adcode": 340603,
            "province": "安徽省",
            "city": "淮北市",
            "district": "相山区"
        }
    },
    {
        "id": "4842927773650586082",
        "title": "公共厕所",
        "address": "安徽省淮北市濉溪县淮海路与烈山路交叉口正东方向120米左右",
        "tel": "",
        "category": "基础设施:公共设施:公共厕所",
        "type": 0,
        "location": {
            "lat": 33.900657,
            "lng": 116.770907
        },
        "ad_info": {
            "adcode": 340621,
            "province": "安徽省",
            "city": "淮北市",
            "district": "濉溪县"
        }
    },
    {
        "id": "274142155572794664",
        "title": "公共厕所",
        "address": "安徽省淮北市相山区淮海路273号正南方向90米",
        "tel": "",
        "category": "基础设施:公共设施:公共厕所",
        "type": 0,
        "location": {
            "lat": 33.972525,
            "lng": 116.802159
        },
        "ad_info": {
            "adcode": 340603,
            "province": "安徽省",
            "city": "淮北市",
            "district": "相山区"
        }
    },
    {
        "id": "12043052270029305493",
        "title": "公共厕所",
        "address": "安徽省淮北市杜集区光明路与开渠中路交叉口东南方向458米左右",
        "tel": "",
        "category": "基础设施:公共设施:公共厕所",
        "type": 0,
        "location": {
            "lat": 33.988288,
            "lng": 116.844103
        },
        "ad_info": {
            "adcode": 340602,
            "province": "安徽省",
            "city": "淮北市",
            "district": "杜集区"
        }
    },
    {
        "id": "12461266150955664737",
        "title": "公共厕所",
        "address": "安徽省淮北市相山区鹰山北路53号",
        "tel": "",
        "category": "基础设施:公共设施:公共厕所",
        "type": 0,
        "location": {
            "lat": 33.967986,
            "lng": 116.788416
        },
        "ad_info": {
            "adcode": 340603,
            "province": "安徽省",
            "city": "淮北市",
            "district": "相山区"
        }
    },
    {
        "id": "16731189288437765594",
        "title": "公共厕所",
        "address": "安徽省淮北市杜集区淮海东路与龙山路交叉口正南方向329米左右",
        "tel": "",
        "category": "基础设施:公共设施:公共厕所",
        "type": 0,
        "location": {
            "lat": 33.974624,
            "lng": 116.837101
        },
        "ad_info": {
            "adcode": 340602,
            "province": "安徽省",
            "city": "淮北市",
            "district": "杜集区"
        }
    },
    {
        "id": "11226750141851620752",
        "title": "孟山路免费公共厕所",
        "address": "安徽省淮北市相山区孟山北路与惠苑路商业街交叉口北320米",
        "tel": "",
        "category": "基础设施:公共设施:公共厕所",
        "type": 0,
        "location": {
            "lat": 33.965262,
            "lng": 116.79398
        },
        "ad_info": {
            "adcode": 340603,
            "province": "安徽省",
            "city": "淮北市",
            "district": "相山区"
        }
    },
    {
        "id": "17724972687285395351",
        "title": "三堤口免费公共厕所",
        "address": "安徽省淮北市濉溪县口子社区卫生服务站南(三堤口街东)",
        "tel": "",
        "category": "基础设施:公共设施:公共厕所",
        "type": 0,
        "location": {
            "lat": 33.929233,
            "lng": 116.775038
        },
        "ad_info": {
            "adcode": 340621,
            "province": "安徽省",
            "city": "淮北市",
            "district": "濉溪县"
        }
    },
    {
        "id": "14710521598761008821",
        "title": "公共厕所",
        "address": "安徽省淮北市相山区濉溪中路与金汇巷交叉口西南方向155米左右",
        "tel": "",
        "category": "基础设施:公共设施:公共厕所",
        "type": 0,
        "location": {
            "lat": 33.948363,
            "lng": 116.771991
        },
        "ad_info": {
            "adcode": 340603,
            "province": "安徽省",
            "city": "淮北市",
            "district": "相山区"
        }
    },
    {
        "id": "18106223116299037906",
        "title": "公共厕所",
        "address": "安徽省淮北市濉溪县沱河路与淮海路交叉口正东方向92米左右",
        "tel": "",
        "category": "基础设施:公共设施:公共厕所",
        "type": 0,
        "location": {
            "lat": 33.915468,
            "lng": 116.770262
        },
        "ad_info": {
            "adcode": 340621,
            "province": "安徽省",
            "city": "淮北市",
            "district": "濉溪县"
        }
    },
    {
        "id": "6955185408523971100",
        "title": "公共厕所",
        "address": "安徽省淮北市烈山区宋马路与北京路交叉口西140米",
        "tel": "",
        "category": "基础设施:公共设施:公共厕所",
        "type": 0,
        "location": {
            "lat": 33.83591,
            "lng": 116.875231
        },
        "ad_info": {
            "adcode": 340604,
            "province": "安徽省",
            "city": "淮北市",
            "district": "烈山区"
        }
    },
    {
        "id": "15874458871952822273",
        "title": "公共厕所",
        "address": "安徽省淮北市杜集区Y025与黄后窑路交叉口正东方向235米左右",
        "tel": "",
        "category": "基础设施:公共设施:公共厕所",
        "type": 0,
        "location": {
            "lat": 33.996471,
            "lng": 116.830841
        },
        "ad_info": {
            "adcode": 340602,
            "province": "安徽省",
            "city": "淮北市",
            "district": "杜集区"
        }
    },
    {
        "id": "17105534319384316081",
        "title": "公共厕所",
        "address": "安徽省淮北市相山区康源体育馆(西南门店)",
        "tel": "",
        "category": "基础设施:公共设施:公共厕所",
        "type": 0,
        "location": {
            "lat": 33.972926,
            "lng": 116.781154
        },
        "ad_info": {
            "adcode": 340603,
            "province": "安徽省",
            "city": "淮北市",
            "district": "相山区"
        }
    },
    {
        "id": "16098629894172637147",
        "title": "公共厕所",
        "address": "安徽省淮北市杜集区学院路与法检路交叉口正西方向111米左右",
        "tel": "",
        "category": "基础设施:公共设施:公共厕所",
        "type": 0,
        "location": {
            "lat": 33.983511,
            "lng": 116.82816
        },
        "ad_info": {
            "adcode": 340602,
            "province": "安徽省",
            "city": "淮北市",
            "district": "杜集区"
        }
    },
    {
        "id": "9132281101200770808",
        "title": "公共厕所",
        "address": "安徽省淮北市相山区惠黎路与相山北路交叉口正南方向170米左右",
        "tel": "",
        "category": "基础设施:公共设施:公共厕所",
        "type": 0,
        "location": {
            "lat": 33.966581,
            "lng": 116.79906
        },
        "ad_info": {
            "adcode": 340603,
            "province": "安徽省",
            "city": "淮北市",
            "district": "相山区"
        }
    },
    {
        "id": "4854774175966694318",
        "title": "公共厕所",
        "address": "安徽省淮北市杜集区东外环路与淮海东路交叉口正东方向1134米左右",
        "tel": "",
        "category": "基础设施:公共设施:公共厕所",
        "type": 0,
        "location": {
            "lat": 33.960544,
            "lng": 116.93087
        },
        "ad_info": {
            "adcode": 340602,
            "province": "安徽省",
            "city": "淮北市",
            "district": "杜集区"
        }
    },
    {
        "id": "387899415118133158",
        "title": "公共厕所",
        "address": "安徽省淮北市烈山区浍河路与相山南路交叉口东南方向122米左右",
        "tel": "",
        "category": "基础设施:公共设施:公共厕所",
        "type": 0,
        "location": {
            "lat": 33.908239,
            "lng": 116.801967
        },
        "ad_info": {
            "adcode": 340604,
            "province": "安徽省",
            "city": "淮北市",
            "district": "烈山区"
        }
    },
    {
        "id": "9901231495636373984",
        "title": "公共厕所",
        "address": "安徽省淮北市濉溪县榕树路与碱河路交叉口正南方向78米左右",
        "tel": "",
        "category": "基础设施:公共设施:公共厕所",
        "type": 0,
        "location": {
            "lat": 33.928141,
            "lng": 116.78953
        },
        "ad_info": {
            "adcode": 340621,
            "province": "安徽省",
            "city": "淮北市",
            "district": "濉溪县"
        }
    },
    {
        "id": "3231299545047742270",
        "title": "公共厕所",
        "address": "安徽省淮北市烈山区X018与古岭路交叉口正西方向296米左右",
        "tel": "",
        "category": "基础设施:公共设施:公共厕所",
        "type": 0,
        "location": {
            "lat": 33.771772,
            "lng": 116.909574
        },
        "ad_info": {
            "adcode": 340604,
            "province": "安徽省",
            "city": "淮北市",
            "district": "烈山区"
        }
    },
    {
        "id": "12343564301493721969",
        "title": "公共厕所",
        "address": "安徽省淮北市相山区新华巷与民生路交叉口东南方向72米左右",
        "tel": "",
        "category": "基础设施:公共设施:公共厕所",
        "type": 0,
        "location": {
            "lat": 33.9756,
            "lng": 116.79737
        },
        "ad_info": {
            "adcode": 340603,
            "province": "安徽省",
            "city": "淮北市",
            "district": "相山区"
        }
    },
    {
        "id": "12831483841862661990",
        "title": "公共厕所",
        "address": "安徽省淮北市烈山区五宋路与烈青路交叉口正西方向67米左右",
        "tel": "",
        "category": "基础设施:公共设施:公共厕所",
        "type": 0,
        "location": {
            "lat": 33.863396,
            "lng": 116.8067
        },
        "ad_info": {
            "adcode": 340604,
            "province": "安徽省",
            "city": "淮北市",
            "district": "烈山区"
        }
    },
    {
        "id": "930797830954334448",
        "title": "公共厕所",
        "address": "安徽省淮北市烈山区青谷路与梧桐南路辅路交叉口西北60米",
        "tel": "",
        "category": "基础设施:公共设施:公共厕所",
        "type": 0,
        "location": {
            "lat": 33.891054,
            "lng": 116.854402
        },
        "ad_info": {
            "adcode": 340604,
            "province": "安徽省",
            "city": "淮北市",
            "district": "烈山区"
        }
    },
    {
        "id": "839214663461011617",
        "title": "公共厕所",
        "address": "安徽省淮北市烈山区海孜医院西侧80米",
        "tel": "",
        "category": "基础设施:公共设施:公共厕所",
        "type": 0,
        "location": {
            "lat": 33.689673,
            "lng": 116.631277
        },
        "ad_info": {
            "adcode": 340604,
            "province": "安徽省",
            "city": "淮北市",
            "district": "烈山区"
        }
    },
    {
        "id": "7284910478310876132",
        "title": "公共厕所",
        "address": "安徽省淮北市相山区渠沟东路与渠沟路交叉口正北方向292米左右",
        "tel": "",
        "category": "基础设施:公共设施:公共厕所",
        "type": 0,
        "location": {
            "lat": 33.959702,
            "lng": 116.780511
        },
        "ad_info": {
            "adcode": 340603,
            "province": "安徽省",
            "city": "淮北市",
            "district": "相山区"
        }
    },
    {
        "id": "13359442059831781253",
        "title": "公共厕所",
        "address": "安徽省淮北市濉溪县公园路与迎宾大道交叉口正东方向146米左右",
        "tel": "",
        "category": "基础设施:公共设施:公共厕所",
        "type": 0,
        "location": {
            "lat": 33.518396,
            "lng": 116.607467
        },
        "ad_info": {
            "adcode": 340621,
            "province": "安徽省",
            "city": "淮北市",
            "district": "濉溪县"
        }
    },
    {
        "id": "8106165153407481297",
        "title": "公共厕所",
        "address": "安徽省淮北市烈山区洪吴路与烈青路交叉口正南方向152米左右",
        "tel": "",
        "category": "基础设施:公共设施:公共厕所",
        "type": 0,
        "location": {
            "lat": 33.880684,
            "lng": 116.818348
        },
        "ad_info": {
            "adcode": 340604,
            "province": "安徽省",
            "city": "淮北市",
            "district": "烈山区"
        }
    },
    {
        "id": "4227358901641436926",
        "title": "无障碍公共厕所",
        "address": "安徽省淮北市相山区幸福路与环山东路交叉口正南方向19米左右",
        "tel": "",
        "category": "基础设施:公共设施:公共厕所",
        "type": 0,
        "location": {
            "lat": 33.978527,
            "lng": 116.80149
        },
        "ad_info": {
            "adcode": 340603,
            "province": "安徽省",
            "city": "淮北市",
            "district": "相山区"
        }
    },
    {
        "id": "7288544144531017798",
        "title": "公共厕所",
        "address": "安徽省淮北市杜集区开渠路淮北市开渠中学",
        "tel": "",
        "category": "基础设施:公共设施:公共厕所",
        "type": 0,
        "location": {
            "lat": 33.994049,
            "lng": 116.825297
        },
        "ad_info": {
            "adcode": 340602,
            "province": "安徽省",
            "city": "淮北市",
            "district": "杜集区"
        }
    },
    {
        "id": "2514160112673794554",
        "title": "一小公共厕所",
        "address": "安徽省淮北市相山区永平巷与洪山路交叉口西南方向35米左右",
        "tel": "",
        "category": "基础设施:公共设施:公共厕所",
        "type": 0,
        "location": {
            "lat": 33.976137,
            "lng": 116.790531
        },
        "ad_info": {
            "adcode": 340603,
            "province": "安徽省",
            "city": "淮北市",
            "district": "相山区"
        }
    },
    {
        "id": "17889619536201206088",
        "title": "公共厕所",
        "address": "安徽省淮北市烈山区梧桐南路与青谷路交叉口西北方向209米左右",
        "tel": "",
        "category": "基础设施:公共设施:公共厕所",
        "type": 0,
        "location": {
            "lat": 33.892534,
            "lng": 116.853963
        },
        "ad_info": {
            "adcode": 340604,
            "province": "安徽省",
            "city": "淮北市",
            "district": "烈山区"
        }
    },
    {
        "id": "11298492724632522543",
        "title": "公共厕所",
        "address": "安徽省淮北市烈山区X009与滨河路交叉口东南方向328米左右",
        "tel": "",
        "category": "基础设施:公共设施:公共厕所",
        "type": 0,
        "location": {
            "lat": 33.838115,
            "lng": 116.806287
        },
        "ad_info": {
            "adcode": 340604,
            "province": "安徽省",
            "city": "淮北市",
            "district": "烈山区"
        }
    },
    {
        "id": "5840874969134255297",
        "title": "公共卫生间",
        "address": "安徽省淮北市濉溪县岱河路与烈山路交叉口西南方向156米左右",
        "tel": "",
        "category": "基础设施:公共设施:公共厕所",
        "type": 0,
        "location": {
            "lat": 33.916653,
            "lng": 116.772303
        },
        "ad_info": {
            "adcode": 340621,
            "province": "安徽省",
            "city": "淮北市",
            "district": "濉溪县"
        }
    },
    {
        "id": "4766968409516656312",
        "title": "公共厕所",
        "address": "安徽省淮北市濉溪县S411与闫铁路交叉口东南方向413米左右",
        "tel": "",
        "category": "基础设施:公共设施:公共厕所",
        "type": 0,
        "location": {
            "lat": 33.843881,
            "lng": 116.56143
        },
        "ad_info": {
            "adcode": 340621,
            "province": "安徽省",
            "city": "淮北市",
            "district": "濉溪县"
        }
    },
    {
        "id": "15984963259381010148",
        "title": "公共厕所",
        "address": "安徽省淮北市濉溪县烈山北路38号",
        "tel": "",
        "category": "基础设施:公共设施:公共厕所",
        "type": 0,
        "location": {
            "lat": 33.92518,
            "lng": 116.776766
        },
        "ad_info": {
            "adcode": 340621,
            "province": "安徽省",
            "city": "淮北市",
            "district": "濉溪县"
        }
    },
    {
        "id": "11961380113089793851",
        "title": "公共厕所",
        "address": "安徽省淮北市濉溪县乾隆湖路与北环路交叉口正北方向95米左右",
        "tel": "",
        "category": "基础设施:公共设施:公共厕所",
        "type": 0,
        "location": {
            "lat": 33.920003,
            "lng": 116.779446
        },
        "ad_info": {
            "adcode": 340621,
            "province": "安徽省",
            "city": "淮北市",
            "district": "濉溪县"
        }
    },
    {
        "id": "14216148237730827833",
        "title": "公共厕所",
        "address": "安徽省淮北市杜集区晨光巷与东山路交叉口东100米",
        "tel": "",
        "category": "基础设施:公共设施:公共厕所",
        "type": 0,
        "location": {
            "lat": 33.985994,
            "lng": 116.817724
        },
        "ad_info": {
            "adcode": 340602,
            "province": "安徽省",
            "city": "淮北市",
            "district": "杜集区"
        }
    },
    {
        "id": "17050487032700883808",
        "title": "公共厕所",
        "address": "安徽省淮北市杜集区东山路与北外环路交叉口正东方向154米左右",
        "tel": "",
        "category": "基础设施:公共设施:公共厕所",
        "type": 0,
        "location": {
            "lat": 34.038246,
            "lng": 116.823618
        },
        "ad_info": {
            "adcode": 340602,
            "province": "安徽省",
            "city": "淮北市",
            "district": "杜集区"
        }
    },
    {
        "id": "909319215902744279",
        "title": "公共厕所",
        "address": "安徽省淮北市杜集区袁马路与迎宾大道交叉口西北方向439米左右",
        "tel": "",
        "category": "基础设施:公共设施:公共厕所",
        "type": 0,
        "location": {
            "lat": 34.198343,
            "lng": 117.003626
        },
        "ad_info": {
            "adcode": 340602,
            "province": "安徽省",
            "city": "淮北市",
            "district": "杜集区"
        }
    },
    {
        "id": "14571614124759986600",
        "title": "肯德基(金鹰广场餐厅)-洗手间",
        "address": "安徽省淮北市相山区淮海路北与孟山路西交叉口金鹰购物中心1层",
        "tel": "",
        "category": "基础设施:公共设施:公共厕所",
        "type": 0,
        "location": {
            "lat": 33.973116,
            "lng": 116.792596
        },
        "ad_info": {
            "adcode": 340603,
            "province": "安徽省",
            "city": "淮北市",
            "district": "相山区"
        }
    },
    {
        "id": "14472814232913465394",
        "title": "公共厕所",
        "address": "安徽省淮北市杜集区团结巷与淮海东路交叉口西北方向183米左右",
        "tel": "",
        "category": "基础设施:公共设施:公共厕所",
        "type": 0,
        "location": {
            "lat": 33.973587,
            "lng": 116.876846
        },
        "ad_info": {
            "adcode": 340602,
            "province": "安徽省",
            "city": "淮北市",
            "district": "杜集区"
        }
    },
    {
        "id": "8227163669868367008",
        "title": "无障碍公共厕所",
        "address": "安徽省淮北市相山区安康路与惠黎路交叉口正北方向113米左右",
        "tel": "",
        "category": "基础设施:公共设施:公共厕所",
        "type": 0,
        "location": {
            "lat": 33.969032,
            "lng": 116.795761
        },
        "ad_info": {
            "adcode": 340603,
            "province": "安徽省",
            "city": "淮北市",
            "district": "相山区"
        }
    },
    {
        "id": "11331464424890280172",
        "title": "濉溪服务区公共厕所",
        "address": "安徽省淮北市濉溪县G343与Y048交叉口东南方向1507米左右",
        "tel": "",
        "category": "基础设施:公共设施:公共厕所",
        "type": 0,
        "location": {
            "lat": 33.750997,
            "lng": 116.714589
        },
        "ad_info": {
            "adcode": 340621,
            "province": "安徽省",
            "city": "淮北市",
            "district": "濉溪县"
        }
    },
    {
        "id": "17552840630854365429",
        "title": "望阳公共厕所",
        "address": "安徽省淮北市烈山区望阳路与百福巷交叉口西南方向37米左右",
        "tel": "",
        "category": "基础设施:公共设施:公共厕所",
        "type": 0,
        "location": {
            "lat": 33.888898,
            "lng": 116.812726
        },
        "ad_info": {
            "adcode": 340604,
            "province": "安徽省",
            "city": "淮北市",
            "district": "烈山区"
        }
    },
    {
        "id": "17163782570500026696",
        "title": "无障碍公共厕所",
        "address": "安徽省淮北市杜集区安民路与富兴路交叉口西北方向459米左右",
        "tel": "",
        "category": "基础设施:公共设施:公共厕所",
        "type": 0,
        "location": {
            "lat": 33.97806,
            "lng": 116.877145
        },
        "ad_info": {
            "adcode": 340602,
            "province": "安徽省",
            "city": "淮北市",
            "district": "杜集区"
        }
    },
    {
        "id": "6106054567666735015",
        "title": "公共厕所(AH-HB-0164)",
        "address": "安徽省淮北市杜集区东外环路与淮海东路交叉口东南方向1888米左右",
        "tel": "",
        "category": "基础设施:公共设施:公共厕所",
        "type": 0,
        "location": {
            "lat": 33.951975,
            "lng": 116.935424
        },
        "ad_info": {
            "adcode": 340602,
            "province": "安徽省",
            "city": "淮北市",
            "district": "杜集区"
        }
    },
    {
        "id": "15566732055676253237",
        "title": "高岳街道办公共厕所",
        "address": "安徽省淮北市杜集区光明路5号",
        "tel": "",
        "category": "基础设施:公共设施:公共厕所",
        "type": 0,
        "location": {
            "lat": 33.993267,
            "lng": 116.839365
        },
        "ad_info": {
            "adcode": 340602,
            "province": "安徽省",
            "city": "淮北市",
            "district": "杜集区"
        }
    },
    {
        "id": "5557250950173657481",
        "title": "濉溪服务区公共厕所",
        "address": "安徽省淮北市濉溪县百善镇宿登高速公路濉溪服务区",
        "tel": "",
        "category": "基础设施:公共设施:公共厕所",
        "type": 0,
        "location": {
            "lat": 33.74903,
            "lng": 116.711513
        },
        "ad_info": {
            "adcode": 340621,
            "province": "安徽省",
            "city": "淮北市",
            "district": "濉溪县"
        }
    },
    {
        "id": "12384296442159651639",
        "title": "男卫生间",
        "address": "安徽省淮北市相山区淮海中路62号金鹰国际购物中心F4",
        "tel": "",
        "category": "基础设施:公共设施:男洗手间",
        "type": 0,
        "location": {
            "lat": 33.97395,
            "lng": 116.792328
        },
        "ad_info": {
            "adcode": 340603,
            "province": "安徽省",
            "city": "淮北市",
            "district": "相山区"
        }
    },
    {
        "id": "12445695912790264554",
        "title": "女卫生间",
        "address": "安徽省淮北市相山区淮海中路62号金鹰国际购物中心F4",
        "tel": "",
        "category": "基础设施:公共设施:女洗手间",
        "type": 0,
        "location": {
            "lat": 33.973956,
            "lng": 116.792397
        },
        "ad_info": {
            "adcode": 340603,
            "province": "安徽省",
            "city": "淮北市",
            "district": "相山区"
        }
    },
    {
        "id": "8402111439358099039",
        "title": "女卫生间",
        "address": "安徽省淮北市相山区淮海中路62号金鹰国际购物中心B1",
        "tel": "",
        "category": "基础设施:公共设施:女洗手间",
        "type": 0,
        "location": {
            "lat": 33.973886,
            "lng": 116.792492
        },
        "ad_info": {
            "adcode": 340603,
            "province": "安徽省",
            "city": "淮北市",
            "district": "相山区"
        }
    },
    {
        "id": "399984877228811764",
        "title": "公共厕所",
        "address": "安徽省淮北市烈山区X013与塔山路交叉口东北方向369米左右",
        "tel": "",
        "category": "基础设施:公共设施:公共厕所",
        "type": 0,
        "location": {
            "lat": 33.927499,
            "lng": 116.951108
        },
        "ad_info": {
            "adcode": 340604,
            "province": "安徽省",
            "city": "淮北市",
            "district": "烈山区"
        }
    },
    {
        "id": "8057546118250624332",
        "title": "公共厕所",
        "address": "安徽省淮北市烈山区S303与古赵路交叉口正东方向228米左右",
        "tel": "",
        "category": "基础设施:公共设施:公共厕所",
        "type": 0,
        "location": {
            "lat": 33.776224,
            "lng": 116.914909
        },
        "ad_info": {
            "adcode": 340604,
            "province": "安徽省",
            "city": "淮北市",
            "district": "烈山区"
        }
    },
    {
        "id": "12995118082181792017",
        "title": "公共厕所",
        "address": "安徽省淮北市濉溪县S235与中心路交叉口东南方向74米",
        "tel": "",
        "category": "基础设施:公共设施:公共厕所",
        "type": 0,
        "location": {
            "lat": 33.523447,
            "lng": 116.790089
        },
        "ad_info": {
            "adcode": 340621,
            "province": "安徽省",
            "city": "淮北市",
            "district": "濉溪县"
        }
    },
    {
        "id": "17929198340361821824",
        "title": "公共厕所",
        "address": "安徽省淮北市相山区惠黎路与濉溪北路交叉口正东方向69米",
        "tel": "",
        "category": "基础设施:公共设施:公共厕所",
        "type": 0,
        "location": {
            "lat": 33.967074,
            "lng": 116.785101
        },
        "ad_info": {
            "adcode": 340603,
            "province": "安徽省",
            "city": "淮北市",
            "district": "相山区"
        }
    },
    {
        "id": "2681247234188024927",
        "title": "公共厕所",
        "address": "安徽省淮北市相山区相山北路17-2号",
        "tel": "",
        "category": "基础设施:公共设施:公共厕所",
        "type": 0,
        "location": {
            "lat": 33.977071,
            "lng": 116.79875
        },
        "ad_info": {
            "adcode": 340603,
            "province": "安徽省",
            "city": "淮北市",
            "district": "相山区"
        }
    },
    {
        "id": "15878300081033376146",
        "title": "公共厕所",
        "address": "安徽省淮北市杜集区安民路与龙发路交叉口西北方向451米左右",
        "tel": "",
        "category": "基础设施:公共设施:公共厕所",
        "type": 0,
        "location": {
            "lat": 33.968051,
            "lng": 116.876117
        },
        "ad_info": {
            "adcode": 340602,
            "province": "安徽省",
            "city": "淮北市",
            "district": "杜集区"
        }
    },
    {
        "id": "10519324148004556742",
        "title": "公共厕所",
        "address": "安徽省淮北市濉溪县S202临涣古城遗址内",
        "tel": "",
        "category": "基础设施:公共设施:公共厕所",
        "type": 0,
        "location": {
            "lat": 33.691904,
            "lng": 116.552693
        },
        "ad_info": {
            "adcode": 340621,
            "province": "安徽省",
            "city": "淮北市",
            "district": "濉溪县"
        }
    },
    {
        "id": "18293919700408988946",
        "title": "公共厕所",
        "address": "安徽省淮北市濉溪县基地北路与淮滨路交叉口正西方向605米左右",
        "tel": "",
        "category": "基础设施:公共设施:公共厕所",
        "type": 0,
        "location": {
            "lat": 33.62093,
            "lng": 116.54176
        },
        "ad_info": {
            "adcode": 340621,
            "province": "安徽省",
            "city": "淮北市",
            "district": "濉溪县"
        }
    },
    {
        "id": "8055989749345019507",
        "title": "公共厕所",
        "address": "安徽省淮北市濉溪县富裕路与苏园路交叉口正西方向879米左右",
        "tel": "",
        "category": "基础设施:公共设施:公共厕所",
        "type": 0,
        "location": {
            "lat": 33.562154,
            "lng": 116.751744
        },
        "ad_info": {
            "adcode": 340621,
            "province": "安徽省",
            "city": "淮北市",
            "district": "濉溪县"
        }
    },
    {
        "id": "8142159097622062081",
        "title": "公共厕所",
        "address": "安徽省淮北市濉溪县武北路与虎山路交叉口正东方向111米左右",
        "tel": "",
        "category": "基础设施:公共设施:公共厕所",
        "type": 0,
        "location": {
            "lat": 33.929473,
            "lng": 116.765618
        },
        "ad_info": {
            "adcode": 340621,
            "province": "安徽省",
            "city": "淮北市",
            "district": "濉溪县"
        }
    },
    {
        "id": "15740793565909993182",
        "title": "公共厕所",
        "address": "安徽省淮北市濉溪县S235与花园街交叉口正北方向64米左右",
        "tel": "",
        "category": "基础设施:公共设施:公共厕所",
        "type": 0,
        "location": {
            "lat": 33.493545,
            "lng": 116.870017
        },
        "ad_info": {
            "adcode": 340621,
            "province": "安徽省",
            "city": "淮北市",
            "district": "濉溪县"
        }
    },
    {
        "id": "8021957089083577778",
        "title": "公共厕所",
        "address": "安徽省淮北市濉溪县X010与Y013交叉口正西方向221米左右",
        "tel": "",
        "category": "基础设施:公共设施:公共厕所",
        "type": 0,
        "location": {
            "lat": 33.759845,
            "lng": 116.75892
        },
        "ad_info": {
            "adcode": 340621,
            "province": "安徽省",
            "city": "淮北市",
            "district": "濉溪县"
        }
    },
    {
        "id": "1826056281963915264",
        "title": "公共厕所",
        "address": "安徽省淮北市杜集区东外环路与淮海东路交叉口正东方向1303米左右",
        "tel": "",
        "category": "基础设施:公共设施:公共厕所",
        "type": 0,
        "location": {
            "lat": 33.963659,
            "lng": 116.932598
        },
        "ad_info": {
            "adcode": 340602,
            "province": "安徽省",
            "city": "淮北市",
            "district": "杜集区"
        }
    },
    {
        "id": "13182119865282153539",
        "title": "公共厕所",
        "address": "安徽省淮北市烈山区X018与沱河东路交叉口东南方向15米左右",
        "tel": "",
        "category": "基础设施:公共设施:公共厕所",
        "type": 0,
        "location": {
            "lat": 33.906051,
            "lng": 116.91544
        },
        "ad_info": {
            "adcode": 340604,
            "province": "安徽省",
            "city": "淮北市",
            "district": "烈山区"
        }
    },
    {
        "id": "8440713947894257830",
        "title": "公共厕所",
        "address": "安徽省淮北市烈山区S101与宋马路交叉口西南方向21米左右",
        "tel": "",
        "category": "基础设施:公共设施:公共厕所",
        "type": 0,
        "location": {
            "lat": 33.836682,
            "lng": 116.870278
        },
        "ad_info": {
            "adcode": 340604,
            "province": "安徽省",
            "city": "淮北市",
            "district": "烈山区"
        }
    },
    {
        "id": "16996252280345512053",
        "title": "公共厕所",
        "address": "安徽省淮北市烈山区卧牛山路与梧桐南路交叉口正南方向245米左右",
        "tel": "",
        "category": "基础设施:公共设施:公共厕所",
        "type": 0,
        "location": {
            "lat": 33.893619,
            "lng": 116.85468
        },
        "ad_info": {
            "adcode": 340604,
            "province": "安徽省",
            "city": "淮北市",
            "district": "烈山区"
        }
    },
    {
        "id": "12238974669849798502",
        "title": "公共厕所",
        "address": "安徽省淮北市杜集区X004与孙梧路交叉口东北方向1230米左右",
        "tel": "",
        "category": "基础设施:公共设施:公共厕所",
        "type": 0,
        "location": {
            "lat": 34.034202,
            "lng": 116.940001
        },
        "ad_info": {
            "adcode": 340602,
            "province": "安徽省",
            "city": "淮北市",
            "district": "杜集区"
        }
    },
    {
        "id": "15771994996969512718",
        "title": "公共厕所",
        "address": "安徽省淮北市相山区古城路与长山北路交叉口西北方向99米左右",
        "tel": "",
        "category": "基础设施:公共设施:公共厕所",
        "type": 0,
        "location": {
            "lat": 33.972011,
            "lng": 116.804381
        },
        "ad_info": {
            "adcode": 340603,
            "province": "安徽省",
            "city": "淮北市",
            "district": "相山区"
        }
    },
    {
        "id": "11853108282594221415",
        "title": "公共厕所",
        "address": "安徽省淮北市濉溪县虎山路1号",
        "tel": "",
        "category": "基础设施:公共设施:公共厕所",
        "type": 0,
        "location": {
            "lat": 33.916172,
            "lng": 116.764625
        },
        "ad_info": {
            "adcode": 340621,
            "province": "安徽省",
            "city": "淮北市",
            "district": "濉溪县"
        }
    },
    {
        "id": "1482600991189496829",
        "title": "公共厕所",
        "address": "安徽省淮北市濉溪县S202中国石化加油站(马乡)",
        "tel": "",
        "category": "基础设施:公共设施:公共厕所",
        "type": 0,
        "location": {
            "lat": 33.793397,
            "lng": 116.676021
        },
        "ad_info": {
            "adcode": 340621,
            "province": "安徽省",
            "city": "淮北市",
            "district": "濉溪县"
        }
    },
    {
        "id": "3089363710657284947",
        "title": "公共厕所",
        "address": "安徽省淮北市濉溪县仲家巷与仲家西巷交叉口东南方向32米左右",
        "tel": "",
        "category": "基础设施:公共设施:公共厕所",
        "type": 0,
        "location": {
            "lat": 33.917033,
            "lng": 116.766769
        },
        "ad_info": {
            "adcode": 340621,
            "province": "安徽省",
            "city": "淮北市",
            "district": "濉溪县"
        }
    },
    {
        "id": "4077142347534605258",
        "title": "公共厕所",
        "address": "安徽省淮北市杜集区南山汉文化博物馆西南侧120米",
        "tel": "",
        "category": "基础设施:公共设施:公共厕所",
        "type": 0,
        "location": {
            "lat": 33.956833,
            "lng": 116.939758
        },
        "ad_info": {
            "adcode": 340602,
            "province": "安徽省",
            "city": "淮北市",
            "district": "杜集区"
        }
    },
    {
        "id": "17164753569478940008",
        "title": "公共厕所",
        "address": "安徽省淮北市相山区明星巷与环孟西路交叉口西北方向47米左右",
        "tel": "",
        "category": "基础设施:公共设施:公共厕所",
        "type": 0,
        "location": {
            "lat": 33.978471,
            "lng": 116.791672
        },
        "ad_info": {
            "adcode": 340603,
            "province": "安徽省",
            "city": "淮北市",
            "district": "相山区"
        }
    },
    {
        "id": "11818881243111595532",
        "title": "旅游厕所",
        "address": "安徽省淮北市相山区G237与淮海西路交叉口正东方向336米左右",
        "tel": "",
        "category": "基础设施:公共设施:公共厕所",
        "type": 0,
        "location": {
            "lat": 33.978418,
            "lng": 116.746077
        },
        "ad_info": {
            "adcode": 340603,
            "province": "安徽省",
            "city": "淮北市",
            "district": "相山区"
        }
    },
    {
        "id": "1063074150095098722",
        "title": "公共厕所",
        "address": "安徽省淮北市烈山区第一实验小学(望阳路南)",
        "tel": "",
        "category": "基础设施:公共设施:公共厕所",
        "type": 0,
        "location": {
            "lat": 33.88874,
            "lng": 116.8114
        },
        "ad_info": {
            "adcode": 340604,
            "province": "安徽省",
            "city": "淮北市",
            "district": "烈山区"
        }
    },
    {
        "id": "8435535289099586651",
        "title": "公共厕所",
        "address": "安徽省淮北市相山区朱寨南巷与桂苑路交叉口东北方向212米左右",
        "tel": "",
        "category": "基础设施:公共设施:公共厕所",
        "type": 0,
        "location": {
            "lat": 33.945949,
            "lng": 116.817547
        },
        "ad_info": {
            "adcode": 340603,
            "province": "安徽省",
            "city": "淮北市",
            "district": "相山区"
        }
    },
    {
        "id": "1404617368517419850",
        "title": "公共厕所",
        "address": "安徽省淮北市相山区海宫路与鹰山北路交叉口正南方向69米左右",
        "tel": "",
        "category": "基础设施:公共设施:公共厕所",
        "type": 0,
        "location": {
            "lat": 33.963593,
            "lng": 116.788457
        },
        "ad_info": {
            "adcode": 340603,
            "province": "安徽省",
            "city": "淮北市",
            "district": "相山区"
        }
    },
    {
        "id": "10048773194970718961",
        "title": "男卫生间",
        "address": "安徽省淮北市相山区淮海中路62号金鹰国际购物中心F5",
        "tel": "",
        "category": "基础设施:公共设施:男洗手间",
        "type": 0,
        "location": {
            "lat": 33.973939,
            "lng": 116.792342
        },
        "ad_info": {
            "adcode": 340603,
            "province": "安徽省",
            "city": "淮北市",
            "district": "相山区"
        }
    },
    {
        "id": "12132034720043616733",
        "title": "公共厕所",
        "address": "安徽省淮北市烈山区梧桐南路与电厂二路交叉口正北方向340米左右",
        "tel": "",
        "category": "基础设施:公共设施:公共厕所",
        "type": 0,
        "location": {
            "lat": 33.862855,
            "lng": 116.850487
        },
        "ad_info": {
            "adcode": 340604,
            "province": "安徽省",
            "city": "淮北市",
            "district": "烈山区"
        }
    },
    {
        "id": "15455338252457198612",
        "title": "公共厕所",
        "address": "安徽省淮北市杜集区东山路与北外环路交叉口东南方向223米左右",
        "tel": "",
        "category": "基础设施:公共设施:公共厕所",
        "type": 0,
        "location": {
            "lat": 34.037287,
            "lng": 116.824168
        },
        "ad_info": {
            "adcode": 340602,
            "province": "安徽省",
            "city": "淮北市",
            "district": "杜集区"
        }
    },
    {
        "id": "11282957151842156984",
        "title": "公共厕所",
        "address": "安徽省淮北市濉溪县G237",
        "tel": "",
        "category": "基础设施:公共设施:公共厕所",
        "type": 0,
        "location": {
            "lat": 33.488585,
            "lng": 116.641877
        },
        "ad_info": {
            "adcode": 340621,
            "province": "安徽省",
            "city": "淮北市",
            "district": "濉溪县"
        }
    },
    {
        "id": "1101342866585566404",
        "title": "公共厕所",
        "address": "安徽省淮北市杜集区东外环路与淮海东路交叉口东北方向776米左右",
        "tel": "",
        "category": "基础设施:公共设施:公共厕所",
        "type": 0,
        "location": {
            "lat": 33.965092,
            "lng": 116.926051
        },
        "ad_info": {
            "adcode": 340602,
            "province": "安徽省",
            "city": "淮北市",
            "district": "杜集区"
        }
    },
    {
        "id": "14188761028860045626",
        "title": "公共厕所",
        "address": "安徽省淮北市烈山区X018与古岭路交叉口正南方向371米左右",
        "tel": "",
        "category": "基础设施:公共设施:公共厕所",
        "type": 0,
        "location": {
            "lat": 33.769488,
            "lng": 116.912528
        },
        "ad_info": {
            "adcode": 340604,
            "province": "安徽省",
            "city": "淮北市",
            "district": "烈山区"
        }
    },
    {
        "id": "6576117131485983289",
        "title": "公共厕所",
        "address": "安徽省淮北市相山区惠黎路与闸河路交叉口东北方向51米左右",
        "tel": "",
        "category": "基础设施:公共设施:公共厕所",
        "type": 0,
        "location": {
            "lat": 33.968947,
            "lng": 116.802332
        },
        "ad_info": {
            "adcode": 340603,
            "province": "安徽省",
            "city": "淮北市",
            "district": "相山区"
        }
    },
    {
        "id": "10435831106765978691",
        "title": "公共厕所",
        "address": "安徽省淮北市濉溪县乾隆湖路与十北街交叉口西北方向37米左右",
        "tel": "",
        "category": "基础设施:公共设施:公共厕所",
        "type": 0,
        "location": {
            "lat": 33.921755,
            "lng": 116.779652
        },
        "ad_info": {
            "adcode": 340621,
            "province": "安徽省",
            "city": "淮北市",
            "district": "濉溪县"
        }
    },
    {
        "id": "4959287854594824629",
        "title": "公共厕所",
        "address": "安徽省淮北市杜集区矿山集中心校东南侧220米",
        "tel": "",
        "category": "基础设施:公共设施:公共厕所",
        "type": 0,
        "location": {
            "lat": 33.968189,
            "lng": 116.876803
        },
        "ad_info": {
            "adcode": 340602,
            "province": "安徽省",
            "city": "淮北市",
            "district": "杜集区"
        }
    },
    {
        "id": "17691015554003280212",
        "title": "公共厕所",
        "address": "安徽省淮北市濉溪县烟草专卖局百善稽查大队",
        "tel": "",
        "category": "基础设施:公共设施:公共厕所",
        "type": 0,
        "location": {
            "lat": 33.786042,
            "lng": 116.672764
        },
        "ad_info": {
            "adcode": 340621,
            "province": "安徽省",
            "city": "淮北市",
            "district": "濉溪县"
        }
    },
    {
        "id": "748117866668623058",
        "title": "公共厕所",
        "address": "安徽省淮北市濉溪县S235与X014交叉口正东方向322米左右",
        "tel": "",
        "category": "基础设施:公共设施:公共厕所",
        "type": 0,
        "location": {
            "lat": 33.622969,
            "lng": 116.773944
        },
        "ad_info": {
            "adcode": 340621,
            "province": "安徽省",
            "city": "淮北市",
            "district": "濉溪县"
        }
    },
    {
        "id": "6931123461865414892",
        "title": "无障碍卫生间",
        "address": "安徽省淮北市相山区淮海中路62号金鹰国际购物中心F3",
        "tel": "",
        "category": "基础设施:公共设施:无障碍洗手间",
        "type": 0,
        "location": {
            "lat": 33.973917,
            "lng": 116.792462
        },
        "ad_info": {
            "adcode": 340603,
            "province": "安徽省",
            "city": "淮北市",
            "district": "相山区"
        }
    },
    {
        "id": "12394306937940951589",
        "title": "公共厕所(AH-HB-0301)",
        "address": "安徽省淮北市相山区两岸田园北侧",
        "tel": "",
        "category": "基础设施:公共设施:公共厕所",
        "type": 0,
        "location": {
            "lat": 34.001001,
            "lng": 116.677894
        },
        "ad_info": {
            "adcode": 340603,
            "province": "安徽省",
            "city": "淮北市",
            "district": "相山区"
        }
    },
    {
        "id": "1159546947505341145",
        "title": "公共厕所",
        "address": "安徽省淮北市相山区桂苑路李楼新村小区",
        "tel": "",
        "category": "基础设施:公共设施:公共厕所",
        "type": 0,
        "location": {
            "lat": 33.94359,
            "lng": 116.809342
        },
        "ad_info": {
            "adcode": 340603,
            "province": "安徽省",
            "city": "淮北市",
            "district": "相山区"
        }
    },
    {
        "id": "7637055907033628077",
        "title": "公共厕所",
        "address": "安徽省淮北市杜集区S238与X006交叉口正北方向264米左右",
        "tel": "",
        "category": "基础设施:公共设施:公共厕所",
        "type": 0,
        "location": {
            "lat": 34.072043,
            "lng": 116.853174
        },
        "ad_info": {
            "adcode": 340602,
            "province": "安徽省",
            "city": "淮北市",
            "district": "杜集区"
        }
    },
    {
        "id": "10375276049900884734",
        "title": "公共厕所",
        "address": "安徽省淮北市相山区古城路与育才巷交叉口正北方向96米左右",
        "tel": "",
        "category": "基础设施:公共设施:公共厕所",
        "type": 0,
        "location": {
            "lat": 33.971387,
            "lng": 116.796243
        },
        "ad_info": {
            "adcode": 340603,
            "province": "安徽省",
            "city": "淮北市",
            "district": "相山区"
        }
    },
    {
        "id": "15656785508128273008",
        "title": "公共厕所",
        "address": "安徽省淮北市烈山区X018与沱河东路交叉口西北方向396米左右",
        "tel": "",
        "category": "基础设施:公共设施:公共厕所",
        "type": 0,
        "location": {
            "lat": 33.908816,
            "lng": 116.912471
        },
        "ad_info": {
            "adcode": 340604,
            "province": "安徽省",
            "city": "淮北市",
            "district": "烈山区"
        }
    },
    {
        "id": "11097068079550468000",
        "title": "公共厕所",
        "address": "安徽省淮北市烈山区X009",
        "tel": "",
        "category": "基础设施:公共设施:公共厕所",
        "type": 0,
        "location": {
            "lat": 33.774939,
            "lng": 116.834217
        },
        "ad_info": {
            "adcode": 340604,
            "province": "安徽省",
            "city": "淮北市",
            "district": "烈山区"
        }
    },
    {
        "id": "15171891197418386539",
        "title": "公共厕所",
        "address": "安徽省淮北市相山区桓谭路与长山北路交叉口正北方向317米左右",
        "tel": "",
        "category": "基础设施:公共设施:公共厕所",
        "type": 0,
        "location": {
            "lat": 33.968146,
            "lng": 116.805428
        },
        "ad_info": {
            "adcode": 340603,
            "province": "安徽省",
            "city": "淮北市",
            "district": "相山区"
        }
    },
    {
        "id": "17529578283346397357",
        "title": "无障碍公共厕所",
        "address": "安徽省淮北市相山区利民巷五号公馆",
        "tel": "",
        "category": "基础设施:公共设施:公共厕所",
        "type": 0,
        "location": {
            "lat": 33.97809,
            "lng": 116.788307
        },
        "ad_info": {
            "adcode": 340603,
            "province": "安徽省",
            "city": "淮北市",
            "district": "相山区"
        }
    },
    {
        "id": "1225807505997499002",
        "title": "公共厕所",
        "address": "安徽省淮北市杜集区同仁路东段与朔永路交叉口正西方向306米左右",
        "tel": "",
        "category": "基础设施:公共设施:公共厕所",
        "type": 0,
        "location": {
            "lat": 34.047066,
            "lng": 116.913826
        },
        "ad_info": {
            "adcode": 340602,
            "province": "安徽省",
            "city": "淮北市",
            "district": "杜集区"
        }
    },
    {
        "id": "9836281025469540571",
        "title": "东风村村部公厕",
        "address": "安徽省淮北市烈山区宋疃镇东风村村部",
        "tel": "",
        "category": "基础设施:公共设施:公共厕所",
        "type": 0,
        "location": {
            "lat": 33.797773,
            "lng": 116.912343
        },
        "ad_info": {
            "adcode": 340604,
            "province": "安徽省",
            "city": "淮北市",
            "district": "烈山区"
        }
    },
    {
        "id": "3718687967574223768",
        "title": "公共厕所",
        "address": "安徽省淮北市相山区法治街与淮纺二巷交叉口正东方向82米左右",
        "tel": "",
        "category": "基础设施:公共设施:公共厕所",
        "type": 0,
        "location": {
            "lat": 33.943172,
            "lng": 116.77159
        },
        "ad_info": {
            "adcode": 340603,
            "province": "安徽省",
            "city": "淮北市",
            "district": "相山区"
        }
    },
    {
        "id": "1652242162774988291",
        "title": "公共厕所",
        "address": "安徽省淮北市杜集区团结路与淮海东路交叉口西南方向332米左右",
        "tel": "",
        "category": "基础设施:公共设施:公共厕所",
        "type": 0,
        "location": {
            "lat": 33.969865,
            "lng": 116.884608
        },
        "ad_info": {
            "adcode": 340602,
            "province": "安徽省",
            "city": "淮北市",
            "district": "杜集区"
        }
    },
    {
        "id": "5343115407826496133",
        "title": "公共厕所",
        "address": "安徽省淮北市濉溪县南关街与浍河路交叉口西北方向136米左右",
        "tel": "",
        "category": "基础设施:公共设施:公共厕所",
        "type": 0,
        "location": {
            "lat": 33.909141,
            "lng": 116.785582
        },
        "ad_info": {
            "adcode": 340621,
            "province": "安徽省",
            "city": "淮北市",
            "district": "濉溪县"
        }
    },
    {
        "id": "2169853624068114386",
        "title": "公共厕所",
        "address": "安徽省淮北市濉溪县更生路与沱河路交叉口正西方向245米左右",
        "tel": "",
        "category": "基础设施:公共设施:公共厕所",
        "type": 0,
        "location": {
            "lat": 33.915462,
            "lng": 116.775722
        },
        "ad_info": {
            "adcode": 340621,
            "province": "安徽省",
            "city": "淮北市",
            "district": "濉溪县"
        }
    },
    {
        "id": "3656233470763215725",
        "title": "公共厕所",
        "address": "安徽省淮北市杜集区法检路与淮海东路交叉口西北方向47米左右",
        "tel": "",
        "category": "基础设施:公共设施:公共厕所",
        "type": 0,
        "location": {
            "lat": 33.977457,
            "lng": 116.829366
        },
        "ad_info": {
            "adcode": 340602,
            "province": "安徽省",
            "city": "淮北市",
            "district": "杜集区"
        }
    },
    {
        "id": "2246429488961365492",
        "title": "公共厕所",
        "address": "安徽省淮北市烈山区沱河东路与花山东路交叉口正南方向224米左右",
        "tel": "",
        "category": "基础设施:公共设施:公共厕所",
        "type": 0,
        "location": {
            "lat": 33.904116,
            "lng": 116.891546
        },
        "ad_info": {
            "adcode": 340604,
            "province": "安徽省",
            "city": "淮北市",
            "district": "烈山区"
        }
    },
    {
        "id": "10211036262544377136",
        "title": "公共厕所",
        "address": "安徽省淮北市相山区万和巷与方安路交叉口正西方向177米左右",
        "tel": "",
        "category": "基础设施:公共设施:公共厕所",
        "type": 0,
        "location": {
            "lat": 33.962315,
            "lng": 116.823801
        },
        "ad_info": {
            "adcode": 340603,
            "province": "安徽省",
            "city": "淮北市",
            "district": "相山区"
        }
    },
    {
        "id": "9789531523935189963",
        "title": "公共厕所(AH-HB-0316)",
        "address": "安徽省淮北市相山区博物馆路博物馆一楼展厅",
        "tel": "",
        "category": "基础设施:公共设施:公共厕所",
        "type": 0,
        "location": {
            "lat": 33.951578,
            "lng": 116.798262
        },
        "ad_info": {
            "adcode": 340603,
            "province": "安徽省",
            "city": "淮北市",
            "district": "相山区"
        }
    },
    {
        "id": "3294016847231270189",
        "title": "公共厕所",
        "address": "安徽省淮北市烈山区",
        "tel": "",
        "category": "基础设施:公共设施:公共厕所",
        "type": 0,
        "location": {
            "lat": 33.742334,
            "lng": 116.911827
        },
        "ad_info": {
            "adcode": 340604,
            "province": "安徽省",
            "city": "淮北市",
            "district": "烈山区"
        }
    },
    {
        "id": "12942831611608472622",
        "title": "公共厕所",
        "address": "安徽省淮北市濉溪县",
        "tel": "",
        "category": "基础设施:公共设施:公共厕所",
        "type": 0,
        "location": {
            "lat": 33.311115,
            "lng": 116.896226
        },
        "ad_info": {
            "adcode": 340621,
            "province": "安徽省",
            "city": "淮北市",
            "district": "濉溪县"
        }
    },
    {
        "id": "4455090257427578736",
        "title": "和谐村后陈圩庄公共厕所",
        "address": "安徽省淮北市濉溪县",
        "tel": "",
        "category": "基础设施:公共设施:公共厕所",
        "type": 0,
        "location": {
            "lat": 33.692341,
            "lng": 116.630257
        },
        "ad_info": {
            "adcode": 340621,
            "province": "安徽省",
            "city": "淮北市",
            "district": "濉溪县"
        }
    },
    {
        "id": "16795288674386048633",
        "title": "孙窑西头公厕",
        "address": "安徽省淮北市烈山区X009",
        "tel": "",
        "category": "基础设施:公共设施:公共厕所",
        "type": 0,
        "location": {
            "lat": 33.799878,
            "lng": 116.823328
        },
        "ad_info": {
            "adcode": 340604,
            "province": "安徽省",
            "city": "淮北市",
            "district": "烈山区"
        }
    },
    {
        "id": "411228102690718310",
        "title": "和谐村后陈圩庄公共厕所",
        "address": "安徽省淮北市濉溪县X023",
        "tel": "",
        "category": "基础设施:公共设施:公共厕所",
        "type": 0,
        "location": {
            "lat": 33.69091,
            "lng": 116.628204
        },
        "ad_info": {
            "adcode": 340621,
            "province": "安徽省",
            "city": "淮北市",
            "district": "濉溪县"
        }
    },
    {
        "id": "3819334533241535472",
        "title": "公共厕所(AH-HB-0302)",
        "address": "安徽省淮北市相山区凤谐路与栖凤路交叉口东南方向275米左右",
        "tel": "",
        "category": "基础设施:公共设施:公共厕所",
        "type": 0,
        "location": {
            "lat": 33.987281,
            "lng": 116.753244
        },
        "ad_info": {
            "adcode": 340603,
            "province": "安徽省",
            "city": "淮北市",
            "district": "相山区"
        }
    },
    {
        "id": "14418485400699810793",
        "title": "半峭公共厕所",
        "address": "安徽省淮北市烈山区X018",
        "tel": "",
        "category": "基础设施:公共设施:公共厕所",
        "type": 0,
        "location": {
            "lat": 33.762484,
            "lng": 116.916113
        },
        "ad_info": {
            "adcode": 340604,
            "province": "安徽省",
            "city": "淮北市",
            "district": "烈山区"
        }
    },
    {
        "id": "2000928728249281143",
        "title": "和谐村公共厕所",
        "address": "安徽省淮北市濉溪县X014",
        "tel": "",
        "category": "基础设施:公共设施:公共厕所",
        "type": 0,
        "location": {
            "lat": 33.63885,
            "lng": 116.661709
        },
        "ad_info": {
            "adcode": 340621,
            "province": "安徽省",
            "city": "淮北市",
            "district": "濉溪县"
        }
    },
    {
        "id": "737011620800863902",
        "title": "公共厕所",
        "address": "安徽省淮北市濉溪县闸河路与龙脊山路交叉口西北方向215米左右",
        "tel": "",
        "category": "基础设施:公共设施:公共厕所",
        "type": 0,
        "location": {
            "lat": 33.922966,
            "lng": 116.78271
        },
        "ad_info": {
            "adcode": 340621,
            "province": "安徽省",
            "city": "淮北市",
            "district": "濉溪县"
        }
    },
    {
        "id": "9313084672477561948",
        "title": "公共厕所",
        "address": "安徽省淮北市杜集区光明路与学院路交叉口正南方向216米左右",
        "tel": "",
        "category": "基础设施:公共设施:公共厕所",
        "type": 0,
        "location": {
            "lat": 33.981841,
            "lng": 116.8407
        },
        "ad_info": {
            "adcode": 340602,
            "province": "安徽省",
            "city": "淮北市",
            "district": "杜集区"
        }
    },
    {
        "id": "11246006004165874485",
        "title": "公共厕所",
        "address": "安徽省淮北市烈山区Y049与矿东路交叉口正北方向79米左右",
        "tel": "",
        "category": "基础设施:公共设施:公共厕所",
        "type": 0,
        "location": {
            "lat": 33.63224,
            "lng": 116.641792
        },
        "ad_info": {
            "adcode": 340604,
            "province": "安徽省",
            "city": "淮北市",
            "district": "烈山区"
        }
    },
    {
        "id": "3719916376133120958",
        "title": "公共厕所",
        "address": "安徽省淮北市杜集区描龙路与淮海东路交叉口正西方向156米左右",
        "tel": "",
        "category": "基础设施:公共设施:公共厕所",
        "type": 0,
        "location": {
            "lat": 33.973107,
            "lng": 116.870572
        },
        "ad_info": {
            "adcode": 340602,
            "province": "安徽省",
            "city": "淮北市",
            "district": "杜集区"
        }
    },
    {
        "id": "15009541358892135593",
        "title": "公共厕所",
        "address": "安徽省淮北市杜集区Y022与岱河街交叉口正北方向1243米左右",
        "tel": "",
        "category": "基础设施:公共设施:公共厕所",
        "type": 0,
        "location": {
            "lat": 34.007607,
            "lng": 116.843751
        },
        "ad_info": {
            "adcode": 340602,
            "province": "安徽省",
            "city": "淮北市",
            "district": "杜集区"
        }
    },
    {
        "id": "14224020695718306296",
        "title": "公共厕所",
        "address": "安徽省淮北市濉溪县五宋路与淮海路交叉口正东方向579米左右",
        "tel": "",
        "category": "基础设施:公共设施:公共厕所",
        "type": 0,
        "location": {
            "lat": 33.894973,
            "lng": 116.776419
        },
        "ad_info": {
            "adcode": 340621,
            "province": "安徽省",
            "city": "淮北市",
            "district": "濉溪县"
        }
    },
    {
        "id": "3617556376527871419",
        "title": "公共厕所",
        "address": "安徽省淮北市濉溪县党校路与沱河路交叉口正西方向181米左右",
        "tel": "",
        "category": "基础设施:公共设施:公共厕所",
        "type": 0,
        "location": {
            "lat": 33.914954,
            "lng": 116.760353
        },
        "ad_info": {
            "adcode": 340621,
            "province": "安徽省",
            "city": "淮北市",
            "district": "濉溪县"
        }
    },
    {
        "id": "1716331443361138216",
        "title": "公共厕所",
        "address": "安徽省淮北市杜集区东山路与紫昱路交叉口正南方向54米左右",
        "tel": "",
        "category": "基础设施:公共设施:公共厕所",
        "type": 0,
        "location": {
            "lat": 34.04709,
            "lng": 116.826442
        },
        "ad_info": {
            "adcode": 340602,
            "province": "安徽省",
            "city": "淮北市",
            "district": "杜集区"
        }
    },
    {
        "id": "337348034268888822",
        "title": "公共厕所",
        "address": "安徽省淮北市相山区惠黎路与洪山路交叉口东北方向100米左右",
        "tel": "",
        "category": "基础设施:公共设施:公共厕所",
        "type": 0,
        "location": {
            "lat": 33.968215,
            "lng": 116.79238
        },
        "ad_info": {
            "adcode": 340603,
            "province": "安徽省",
            "city": "淮北市",
            "district": "相山区"
        }
    },
    {
        "id": "2654367284707634779",
        "title": "公共厕所",
        "address": "安徽省淮北市相山区凤苑路11号",
        "tel": "",
        "category": "基础设施:公共设施:公共厕所",
        "type": 0,
        "location": {
            "lat": 33.962878,
            "lng": 116.752336
        },
        "ad_info": {
            "adcode": 340603,
            "province": "安徽省",
            "city": "淮北市",
            "district": "相山区"
        }
    },
    {
        "id": "10311264405786432008",
        "title": "公共厕所",
        "address": "安徽省淮北市杜集区X004与孙梧路交叉口正南方向650米左右",
        "tel": "",
        "category": "基础设施:公共设施:公共厕所",
        "type": 0,
        "location": {
            "lat": 34.02355,
            "lng": 116.926782
        },
        "ad_info": {
            "adcode": 340602,
            "province": "安徽省",
            "city": "淮北市",
            "district": "杜集区"
        }
    },
    {
        "id": "351252578304059455",
        "title": "公共厕所",
        "address": "安徽省淮北市濉溪县X019",
        "tel": "",
        "category": "基础设施:公共设施:公共厕所",
        "type": 0,
        "location": {
            "lat": 33.303956,
            "lng": 116.838013
        },
        "ad_info": {
            "adcode": 340621,
            "province": "安徽省",
            "city": "淮北市",
            "district": "濉溪县"
        }
    },
    {
        "id": "14342872827880526612",
        "title": "后油坊篮球场公厕",
        "address": "安徽省淮北市濉溪县",
        "tel": "",
        "category": "基础设施:公共设施:公共厕所",
        "type": 0,
        "location": {
            "lat": 33.577664,
            "lng": 116.612506
        },
        "ad_info": {
            "adcode": 340621,
            "province": "安徽省",
            "city": "淮北市",
            "district": "濉溪县"
        }
    },
    {
        "id": "10375288052088573615",
        "title": "公共厕所",
        "address": "安徽省淮北市杜集区朔里镇卫生院西南侧270米",
        "tel": "",
        "category": "基础设施:公共设施:公共厕所",
        "type": 0,
        "location": {
            "lat": 34.044859,
            "lng": 116.9038
        },
        "ad_info": {
            "adcode": 340602,
            "province": "安徽省",
            "city": "淮北市",
            "district": "杜集区"
        }
    },
    {
        "id": "5367330358791672713",
        "title": "法制公园公共厕所",
        "address": "安徽省淮北市濉溪县G237与溪河路交叉口正东方向172米左右",
        "tel": "",
        "category": "基础设施:公共设施:公共厕所",
        "type": 0,
        "location": {
            "lat": 33.910278,
            "lng": 116.760774
        },
        "ad_info": {
            "adcode": 340621,
            "province": "安徽省",
            "city": "淮北市",
            "district": "濉溪县"
        }
    },
    {
        "id": "5829516310214187363",
        "title": "公共厕所",
        "address": "安徽省淮北市烈山区",
        "tel": "",
        "category": "基础设施:公共设施:公共厕所",
        "type": 0,
        "location": {
            "lat": 33.845915,
            "lng": 116.93597
        },
        "ad_info": {
            "adcode": 340604,
            "province": "安徽省",
            "city": "淮北市",
            "district": "烈山区"
        }
    },
    {
        "id": "5749801721419002689",
        "title": "公共厕所",
        "address": "安徽省淮北市相山区南黎路与泉山路交叉口正南方向313米左右",
        "tel": "",
        "category": "基础设施:公共设施:公共厕所",
        "type": 0,
        "location": {
            "lat": 33.936679,
            "lng": 116.810595
        },
        "ad_info": {
            "adcode": 340603,
            "province": "安徽省",
            "city": "淮北市",
            "district": "相山区"
        }
    },
    {
        "id": "2041390178420796632",
        "title": "公共厕所",
        "address": "安徽省淮北市相山区南黎路水岸花园",
        "tel": "",
        "category": "基础设施:公共设施:公共厕所",
        "type": 0,
        "location": {
            "lat": 33.938551,
            "lng": 116.802948
        },
        "ad_info": {
            "adcode": 340603,
            "province": "安徽省",
            "city": "淮北市",
            "district": "相山区"
        }
    },
    {
        "id": "16767337155089160081",
        "title": "公共厕所",
        "address": "安徽省淮北市相山区孟山北路与惠苑路南街交叉口西南方向160米左右",
        "tel": "",
        "category": "基础设施:公共设施:公共厕所",
        "type": 0,
        "location": {
            "lat": 33.96015,
            "lng": 116.79324
        },
        "ad_info": {
            "adcode": 340603,
            "province": "安徽省",
            "city": "淮北市",
            "district": "相山区"
        }
    },
    {
        "id": "6431339687002502896",
        "title": "公共厕所",
        "address": "安徽省淮北市烈山区Y049与矿东路交叉口正南方向136米左右",
        "tel": "",
        "category": "基础设施:公共设施:公共厕所",
        "type": 0,
        "location": {
            "lat": 33.630314,
            "lng": 116.641803
        },
        "ad_info": {
            "adcode": 340604,
            "province": "安徽省",
            "city": "淮北市",
            "district": "烈山区"
        }
    },
    {
        "id": "737011620800863902",
        "title": "公共厕所",
        "address": "安徽省淮北市濉溪县闸河路与龙脊山路交叉口西北方向215米左右",
        "tel": "",
        "category": "基础设施:公共设施:公共厕所",
        "type": 0,
        "location": {
            "lat": 33.922966,
            "lng": 116.78271
        },
        "ad_info": {
            "adcode": 340621,
            "province": "安徽省",
            "city": "淮北市",
            "district": "濉溪县"
        }
    },
    {
        "id": "9313084672477561948",
        "title": "公共厕所",
        "address": "安徽省淮北市杜集区光明路与学院路交叉口正南方向216米左右",
        "tel": "",
        "category": "基础设施:公共设施:公共厕所",
        "type": 0,
        "location": {
            "lat": 33.981841,
            "lng": 116.8407
        },
        "ad_info": {
            "adcode": 340602,
            "province": "安徽省",
            "city": "淮北市",
            "district": "杜集区"
        }
    },
    {
        "id": "11246006004165874485",
        "title": "公共厕所",
        "address": "安徽省淮北市烈山区Y049与矿东路交叉口正北方向79米左右",
        "tel": "",
        "category": "基础设施:公共设施:公共厕所",
        "type": 0,
        "location": {
            "lat": 33.63224,
            "lng": 116.641792
        },
        "ad_info": {
            "adcode": 340604,
            "province": "安徽省",
            "city": "淮北市",
            "district": "烈山区"
        }
    },
    {
        "id": "3719916376133120958",
        "title": "公共厕所",
        "address": "安徽省淮北市杜集区描龙路与淮海东路交叉口正西方向156米左右",
        "tel": "",
        "category": "基础设施:公共设施:公共厕所",
        "type": 0,
        "location": {
            "lat": 33.973107,
            "lng": 116.870572
        },
        "ad_info": {
            "adcode": 340602,
            "province": "安徽省",
            "city": "淮北市",
            "district": "杜集区"
        }
    },
    {
        "id": "15009541358892135593",
        "title": "公共厕所",
        "address": "安徽省淮北市杜集区Y022与岱河街交叉口正北方向1243米左右",
        "tel": "",
        "category": "基础设施:公共设施:公共厕所",
        "type": 0,
        "location": {
            "lat": 34.007607,
            "lng": 116.843751
        },
        "ad_info": {
            "adcode": 340602,
            "province": "安徽省",
            "city": "淮北市",
            "district": "杜集区"
        }
    },
    {
        "id": "14224020695718306296",
        "title": "公共厕所",
        "address": "安徽省淮北市濉溪县五宋路与淮海路交叉口正东方向579米左右",
        "tel": "",
        "category": "基础设施:公共设施:公共厕所",
        "type": 0,
        "location": {
            "lat": 33.894973,
            "lng": 116.776419
        },
        "ad_info": {
            "adcode": 340621,
            "province": "安徽省",
            "city": "淮北市",
            "district": "濉溪县"
        }
    },
    {
        "id": "3617556376527871419",
        "title": "公共厕所",
        "address": "安徽省淮北市濉溪县党校路与沱河路交叉口正西方向181米左右",
        "tel": "",
        "category": "基础设施:公共设施:公共厕所",
        "type": 0,
        "location": {
            "lat": 33.914954,
            "lng": 116.760353
        },
        "ad_info": {
            "adcode": 340621,
            "province": "安徽省",
            "city": "淮北市",
            "district": "濉溪县"
        }
    },
    {
        "id": "1716331443361138216",
        "title": "公共厕所",
        "address": "安徽省淮北市杜集区东山路与紫昱路交叉口正南方向54米左右",
        "tel": "",
        "category": "基础设施:公共设施:公共厕所",
        "type": 0,
        "location": {
            "lat": 34.04709,
            "lng": 116.826442
        },
        "ad_info": {
            "adcode": 340602,
            "province": "安徽省",
            "city": "淮北市",
            "district": "杜集区"
        }
    },
    {
        "id": "337348034268888822",
        "title": "公共厕所",
        "address": "安徽省淮北市相山区惠黎路与洪山路交叉口东北方向100米左右",
        "tel": "",
        "category": "基础设施:公共设施:公共厕所",
        "type": 0,
        "location": {
            "lat": 33.968215,
            "lng": 116.79238
        },
        "ad_info": {
            "adcode": 340603,
            "province": "安徽省",
            "city": "淮北市",
            "district": "相山区"
        }
    },
    {
        "id": "2654367284707634779",
        "title": "公共厕所",
        "address": "安徽省淮北市相山区凤苑路11号",
        "tel": "",
        "category": "基础设施:公共设施:公共厕所",
        "type": 0,
        "location": {
            "lat": 33.962878,
            "lng": 116.752336
        },
        "ad_info": {
            "adcode": 340603,
            "province": "安徽省",
            "city": "淮北市",
            "district": "相山区"
        }
    },
    {
        "id": "10311264405786432008",
        "title": "公共厕所",
        "address": "安徽省淮北市杜集区X004与孙梧路交叉口正南方向650米左右",
        "tel": "",
        "category": "基础设施:公共设施:公共厕所",
        "type": 0,
        "location": {
            "lat": 34.02355,
            "lng": 116.926782
        },
        "ad_info": {
            "adcode": 340602,
            "province": "安徽省",
            "city": "淮北市",
            "district": "杜集区"
        }
    },
    {
        "id": "351252578304059455",
        "title": "公共厕所",
        "address": "安徽省淮北市濉溪县X019",
        "tel": "",
        "category": "基础设施:公共设施:公共厕所",
        "type": 0,
        "location": {
            "lat": 33.303956,
            "lng": 116.838013
        },
        "ad_info": {
            "adcode": 340621,
            "province": "安徽省",
            "city": "淮北市",
            "district": "濉溪县"
        }
    },
    {
        "id": "14342872827880526612",
        "title": "后油坊篮球场公厕",
        "address": "安徽省淮北市濉溪县",
        "tel": "",
        "category": "基础设施:公共设施:公共厕所",
        "type": 0,
        "location": {
            "lat": 33.577664,
            "lng": 116.612506
        },
        "ad_info": {
            "adcode": 340621,
            "province": "安徽省",
            "city": "淮北市",
            "district": "濉溪县"
        }
    },
    {
        "id": "10375288052088573615",
        "title": "公共厕所",
        "address": "安徽省淮北市杜集区朔里镇卫生院西南侧270米",
        "tel": "",
        "category": "基础设施:公共设施:公共厕所",
        "type": 0,
        "location": {
            "lat": 34.044859,
            "lng": 116.9038
        },
        "ad_info": {
            "adcode": 340602,
            "province": "安徽省",
            "city": "淮北市",
            "district": "杜集区"
        }
    },
    {
        "id": "5367330358791672713",
        "title": "法制公园公共厕所",
        "address": "安徽省淮北市濉溪县G237与溪河路交叉口正东方向172米左右",
        "tel": "",
        "category": "基础设施:公共设施:公共厕所",
        "type": 0,
        "location": {
            "lat": 33.910278,
            "lng": 116.760774
        },
        "ad_info": {
            "adcode": 340621,
            "province": "安徽省",
            "city": "淮北市",
            "district": "濉溪县"
        }
    },
    {
        "id": "5829516310214187363",
        "title": "公共厕所",
        "address": "安徽省淮北市烈山区",
        "tel": "",
        "category": "基础设施:公共设施:公共厕所",
        "type": 0,
        "location": {
            "lat": 33.845915,
            "lng": 116.93597
        },
        "ad_info": {
            "adcode": 340604,
            "province": "安徽省",
            "city": "淮北市",
            "district": "烈山区"
        }
    },
    {
        "id": "5749801721419002689",
        "title": "公共厕所",
        "address": "安徽省淮北市相山区南黎路与泉山路交叉口正南方向313米左右",
        "tel": "",
        "category": "基础设施:公共设施:公共厕所",
        "type": 0,
        "location": {
            "lat": 33.936679,
            "lng": 116.810595
        },
        "ad_info": {
            "adcode": 340603,
            "province": "安徽省",
            "city": "淮北市",
            "district": "相山区"
        }
    },
    {
        "id": "2041390178420796632",
        "title": "公共厕所",
        "address": "安徽省淮北市相山区南黎路水岸花园",
        "tel": "",
        "category": "基础设施:公共设施:公共厕所",
        "type": 0,
        "location": {
            "lat": 33.938551,
            "lng": 116.802948
        },
        "ad_info": {
            "adcode": 340603,
            "province": "安徽省",
            "city": "淮北市",
            "district": "相山区"
        }
    },
    {
        "id": "16767337155089160081",
        "title": "公共厕所",
        "address": "安徽省淮北市相山区孟山北路与惠苑路南街交叉口西南方向160米左右",
        "tel": "",
        "category": "基础设施:公共设施:公共厕所",
        "type": 0,
        "location": {
            "lat": 33.96015,
            "lng": 116.79324
        },
        "ad_info": {
            "adcode": 340603,
            "province": "安徽省",
            "city": "淮北市",
            "district": "相山区"
        }
    },
    {
        "id": "6431339687002502896",
        "title": "公共厕所",
        "address": "安徽省淮北市烈山区Y049与矿东路交叉口正南方向136米左右",
        "tel": "",
        "category": "基础设施:公共设施:公共厕所",
        "type": 0,
        "location": {
            "lat": 33.630314,
            "lng": 116.641803
        },
        "ad_info": {
            "adcode": 340604,
            "province": "安徽省",
            "city": "淮北市",
            "district": "烈山区"
        }
    },
    {
        "id": "737011620800863902",
        "title": "公共厕所",
        "address": "安徽省淮北市濉溪县闸河路与龙脊山路交叉口西北方向215米左右",
        "tel": "",
        "category": "基础设施:公共设施:公共厕所",
        "type": 0,
        "location": {
            "lat": 33.922966,
            "lng": 116.78271
        },
        "ad_info": {
            "adcode": 340621,
            "province": "安徽省",
            "city": "淮北市",
            "district": "濉溪县"
        }
    },
    {
        "id": "9313084672477561948",
        "title": "公共厕所",
        "address": "安徽省淮北市杜集区光明路与学院路交叉口正南方向216米左右",
        "tel": "",
        "category": "基础设施:公共设施:公共厕所",
        "type": 0,
        "location": {
            "lat": 33.981841,
            "lng": 116.8407
        },
        "ad_info": {
            "adcode": 340602,
            "province": "安徽省",
            "city": "淮北市",
            "district": "杜集区"
        }
    },
    {
        "id": "11246006004165874485",
        "title": "公共厕所",
        "address": "安徽省淮北市烈山区Y049与矿东路交叉口正北方向79米左右",
        "tel": "",
        "category": "基础设施:公共设施:公共厕所",
        "type": 0,
        "location": {
            "lat": 33.63224,
            "lng": 116.641792
        },
        "ad_info": {
            "adcode": 340604,
            "province": "安徽省",
            "city": "淮北市",
            "district": "烈山区"
        }
    },
    {
        "id": "3719916376133120958",
        "title": "公共厕所",
        "address": "安徽省淮北市杜集区描龙路与淮海东路交叉口正西方向156米左右",
        "tel": "",
        "category": "基础设施:公共设施:公共厕所",
        "type": 0,
        "location": {
            "lat": 33.973107,
            "lng": 116.870572
        },
        "ad_info": {
            "adcode": 340602,
            "province": "安徽省",
            "city": "淮北市",
            "district": "杜集区"
        }
    },
    {
        "id": "15009541358892135593",
        "title": "公共厕所",
        "address": "安徽省淮北市杜集区Y022与岱河街交叉口正北方向1243米左右",
        "tel": "",
        "category": "基础设施:公共设施:公共厕所",
        "type": 0,
        "location": {
            "lat": 34.007607,
            "lng": 116.843751
        },
        "ad_info": {
            "adcode": 340602,
            "province": "安徽省",
            "city": "淮北市",
            "district": "杜集区"
        }
    },
    {
        "id": "14224020695718306296",
        "title": "公共厕所",
        "address": "安徽省淮北市濉溪县五宋路与淮海路交叉口正东方向579米左右",
        "tel": "",
        "category": "基础设施:公共设施:公共厕所",
        "type": 0,
        "location": {
            "lat": 33.894973,
            "lng": 116.776419
        },
        "ad_info": {
            "adcode": 340621,
            "province": "安徽省",
            "city": "淮北市",
            "district": "濉溪县"
        }
    },
    {
        "id": "3617556376527871419",
        "title": "公共厕所",
        "address": "安徽省淮北市濉溪县党校路与沱河路交叉口正西方向181米左右",
        "tel": "",
        "category": "基础设施:公共设施:公共厕所",
        "type": 0,
        "location": {
            "lat": 33.914954,
            "lng": 116.760353
        },
        "ad_info": {
            "adcode": 340621,
            "province": "安徽省",
            "city": "淮北市",
            "district": "濉溪县"
        }
    },
    {
        "id": "1716331443361138216",
        "title": "公共厕所",
        "address": "安徽省淮北市杜集区东山路与紫昱路交叉口正南方向54米左右",
        "tel": "",
        "category": "基础设施:公共设施:公共厕所",
        "type": 0,
        "location": {
            "lat": 34.04709,
            "lng": 116.826442
        },
        "ad_info": {
            "adcode": 340602,
            "province": "安徽省",
            "city": "淮北市",
            "district": "杜集区"
        }
    },
    {
        "id": "337348034268888822",
        "title": "公共厕所",
        "address": "安徽省淮北市相山区惠黎路与洪山路交叉口东北方向100米左右",
        "tel": "",
        "category": "基础设施:公共设施:公共厕所",
        "type": 0,
        "location": {
            "lat": 33.968215,
            "lng": 116.79238
        },
        "ad_info": {
            "adcode": 340603,
            "province": "安徽省",
            "city": "淮北市",
            "district": "相山区"
        }
    },
    {
        "id": "2654367284707634779",
        "title": "公共厕所",
        "address": "安徽省淮北市相山区凤苑路11号",
        "tel": "",
        "category": "基础设施:公共设施:公共厕所",
        "type": 0,
        "location": {
            "lat": 33.962878,
            "lng": 116.752336
        },
        "ad_info": {
            "adcode": 340603,
            "province": "安徽省",
            "city": "淮北市",
            "district": "相山区"
        }
    },
    {
        "id": "10311264405786432008",
        "title": "公共厕所",
        "address": "安徽省淮北市杜集区X004与孙梧路交叉口正南方向650米左右",
        "tel": "",
        "category": "基础设施:公共设施:公共厕所",
        "type": 0,
        "location": {
            "lat": 34.02355,
            "lng": 116.926782
        },
        "ad_info": {
            "adcode": 340602,
            "province": "安徽省",
            "city": "淮北市",
            "district": "杜集区"
        }
    },
    {
        "id": "351252578304059455",
        "title": "公共厕所",
        "address": "安徽省淮北市濉溪县X019",
        "tel": "",
        "category": "基础设施:公共设施:公共厕所",
        "type": 0,
        "location": {
            "lat": 33.303956,
            "lng": 116.838013
        },
        "ad_info": {
            "adcode": 340621,
            "province": "安徽省",
            "city": "淮北市",
            "district": "濉溪县"
        }
    },
    {
        "id": "14342872827880526612",
        "title": "后油坊篮球场公厕",
        "address": "安徽省淮北市濉溪县",
        "tel": "",
        "category": "基础设施:公共设施:公共厕所",
        "type": 0,
        "location": {
            "lat": 33.577664,
            "lng": 116.612506
        },
        "ad_info": {
            "adcode": 340621,
            "province": "安徽省",
            "city": "淮北市",
            "district": "濉溪县"
        }
    },
    {
        "id": "10375288052088573615",
        "title": "公共厕所",
        "address": "安徽省淮北市杜集区朔里镇卫生院西南侧270米",
        "tel": "",
        "category": "基础设施:公共设施:公共厕所",
        "type": 0,
        "location": {
            "lat": 34.044859,
            "lng": 116.9038
        },
        "ad_info": {
            "adcode": 340602,
            "province": "安徽省",
            "city": "淮北市",
            "district": "杜集区"
        }
    },
    {
        "id": "5367330358791672713",
        "title": "法制公园公共厕所",
        "address": "安徽省淮北市濉溪县G237与溪河路交叉口正东方向172米左右",
        "tel": "",
        "category": "基础设施:公共设施:公共厕所",
        "type": 0,
        "location": {
            "lat": 33.910278,
            "lng": 116.760774
        },
        "ad_info": {
            "adcode": 340621,
            "province": "安徽省",
            "city": "淮北市",
            "district": "濉溪县"
        }
    },
    {
        "id": "5829516310214187363",
        "title": "公共厕所",
        "address": "安徽省淮北市烈山区",
        "tel": "",
        "category": "基础设施:公共设施:公共厕所",
        "type": 0,
        "location": {
            "lat": 33.845915,
            "lng": 116.93597
        },
        "ad_info": {
            "adcode": 340604,
            "province": "安徽省",
            "city": "淮北市",
            "district": "烈山区"
        }
    },
    {
        "id": "5749801721419002689",
        "title": "公共厕所",
        "address": "安徽省淮北市相山区南黎路与泉山路交叉口正南方向313米左右",
        "tel": "",
        "category": "基础设施:公共设施:公共厕所",
        "type": 0,
        "location": {
            "lat": 33.936679,
            "lng": 116.810595
        },
        "ad_info": {
            "adcode": 340603,
            "province": "安徽省",
            "city": "淮北市",
            "district": "相山区"
        }
    },
    {
        "id": "2041390178420796632",
        "title": "公共厕所",
        "address": "安徽省淮北市相山区南黎路水岸花园",
        "tel": "",
        "category": "基础设施:公共设施:公共厕所",
        "type": 0,
        "location": {
            "lat": 33.938551,
            "lng": 116.802948
        },
        "ad_info": {
            "adcode": 340603,
            "province": "安徽省",
            "city": "淮北市",
            "district": "相山区"
        }
    },
    {
        "id": "16767337155089160081",
        "title": "公共厕所",
        "address": "安徽省淮北市相山区孟山北路与惠苑路南街交叉口西南方向160米左右",
        "tel": "",
        "category": "基础设施:公共设施:公共厕所",
        "type": 0,
        "location": {
            "lat": 33.96015,
            "lng": 116.79324
        },
        "ad_info": {
            "adcode": 340603,
            "province": "安徽省",
            "city": "淮北市",
            "district": "相山区"
        }
    },
    {
        "id": "6431339687002502896",
        "title": "公共厕所",
        "address": "安徽省淮北市烈山区Y049与矿东路交叉口正南方向136米左右",
        "tel": "",
        "category": "基础设施:公共设施:公共厕所",
        "type": 0,
        "location": {
            "lat": 33.630314,
            "lng": 116.641803
        },
        "ad_info": {
            "adcode": 340604,
            "province": "安徽省",
            "city": "淮北市",
            "district": "烈山区"
        }
    },
    {
        "id": "737011620800863902",
        "title": "公共厕所",
        "address": "安徽省淮北市濉溪县闸河路与龙脊山路交叉口西北方向215米左右",
        "tel": "",
        "category": "基础设施:公共设施:公共厕所",
        "type": 0,
        "location": {
            "lat": 33.922966,
            "lng": 116.78271
        },
        "ad_info": {
            "adcode": 340621,
            "province": "安徽省",
            "city": "淮北市",
            "district": "濉溪县"
        }
    },
    {
        "id": "9313084672477561948",
        "title": "公共厕所",
        "address": "安徽省淮北市杜集区光明路与学院路交叉口正南方向216米左右",
        "tel": "",
        "category": "基础设施:公共设施:公共厕所",
        "type": 0,
        "location": {
            "lat": 33.981841,
            "lng": 116.8407
        },
        "ad_info": {
            "adcode": 340602,
            "province": "安徽省",
            "city": "淮北市",
            "district": "杜集区"
        }
    },
    {
        "id": "11246006004165874485",
        "title": "公共厕所",
        "address": "安徽省淮北市烈山区Y049与矿东路交叉口正北方向79米左右",
        "tel": "",
        "category": "基础设施:公共设施:公共厕所",
        "type": 0,
        "location": {
            "lat": 33.63224,
            "lng": 116.641792
        },
        "ad_info": {
            "adcode": 340604,
            "province": "安徽省",
            "city": "淮北市",
            "district": "烈山区"
        }
    },
    {
        "id": "3719916376133120958",
        "title": "公共厕所",
        "address": "安徽省淮北市杜集区描龙路与淮海东路交叉口正西方向156米左右",
        "tel": "",
        "category": "基础设施:公共设施:公共厕所",
        "type": 0,
        "location": {
            "lat": 33.973107,
            "lng": 116.870572
        },
        "ad_info": {
            "adcode": 340602,
            "province": "安徽省",
            "city": "淮北市",
            "district": "杜集区"
        }
    },
    {
        "id": "15009541358892135593",
        "title": "公共厕所",
        "address": "安徽省淮北市杜集区Y022与岱河街交叉口正北方向1243米左右",
        "tel": "",
        "category": "基础设施:公共设施:公共厕所",
        "type": 0,
        "location": {
            "lat": 34.007607,
            "lng": 116.843751
        },
        "ad_info": {
            "adcode": 340602,
            "province": "安徽省",
            "city": "淮北市",
            "district": "杜集区"
        }
    },
    {
        "id": "14224020695718306296",
        "title": "公共厕所",
        "address": "安徽省淮北市濉溪县五宋路与淮海路交叉口正东方向579米左右",
        "tel": "",
        "category": "基础设施:公共设施:公共厕所",
        "type": 0,
        "location": {
            "lat": 33.894973,
            "lng": 116.776419
        },
        "ad_info": {
            "adcode": 340621,
            "province": "安徽省",
            "city": "淮北市",
            "district": "濉溪县"
        }
    },
    {
        "id": "3617556376527871419",
        "title": "公共厕所",
        "address": "安徽省淮北市濉溪县党校路与沱河路交叉口正西方向181米左右",
        "tel": "",
        "category": "基础设施:公共设施:公共厕所",
        "type": 0,
        "location": {
            "lat": 33.914954,
            "lng": 116.760353
        },
        "ad_info": {
            "adcode": 340621,
            "province": "安徽省",
            "city": "淮北市",
            "district": "濉溪县"
        }
    },
    {
        "id": "1716331443361138216",
        "title": "公共厕所",
        "address": "安徽省淮北市杜集区东山路与紫昱路交叉口正南方向54米左右",
        "tel": "",
        "category": "基础设施:公共设施:公共厕所",
        "type": 0,
        "location": {
            "lat": 34.04709,
            "lng": 116.826442
        },
        "ad_info": {
            "adcode": 340602,
            "province": "安徽省",
            "city": "淮北市",
            "district": "杜集区"
        }
    },
    {
        "id": "337348034268888822",
        "title": "公共厕所",
        "address": "安徽省淮北市相山区惠黎路与洪山路交叉口东北方向100米左右",
        "tel": "",
        "category": "基础设施:公共设施:公共厕所",
        "type": 0,
        "location": {
            "lat": 33.968215,
            "lng": 116.79238
        },
        "ad_info": {
            "adcode": 340603,
            "province": "安徽省",
            "city": "淮北市",
            "district": "相山区"
        }
    },
    {
        "id": "2654367284707634779",
        "title": "公共厕所",
        "address": "安徽省淮北市相山区凤苑路11号",
        "tel": "",
        "category": "基础设施:公共设施:公共厕所",
        "type": 0,
        "location": {
            "lat": 33.962878,
            "lng": 116.752336
        },
        "ad_info": {
            "adcode": 340603,
            "province": "安徽省",
            "city": "淮北市",
            "district": "相山区"
        }
    },
    {
        "id": "10311264405786432008",
        "title": "公共厕所",
        "address": "安徽省淮北市杜集区X004与孙梧路交叉口正南方向650米左右",
        "tel": "",
        "category": "基础设施:公共设施:公共厕所",
        "type": 0,
        "location": {
            "lat": 34.02355,
            "lng": 116.926782
        },
        "ad_info": {
            "adcode": 340602,
            "province": "安徽省",
            "city": "淮北市",
            "district": "杜集区"
        }
    },
    {
        "id": "351252578304059455",
        "title": "公共厕所",
        "address": "安徽省淮北市濉溪县X019",
        "tel": "",
        "category": "基础设施:公共设施:公共厕所",
        "type": 0,
        "location": {
            "lat": 33.303956,
            "lng": 116.838013
        },
        "ad_info": {
            "adcode": 340621,
            "province": "安徽省",
            "city": "淮北市",
            "district": "濉溪县"
        }
    },
    {
        "id": "14342872827880526612",
        "title": "后油坊篮球场公厕",
        "address": "安徽省淮北市濉溪县",
        "tel": "",
        "category": "基础设施:公共设施:公共厕所",
        "type": 0,
        "location": {
            "lat": 33.577664,
            "lng": 116.612506
        },
        "ad_info": {
            "adcode": 340621,
            "province": "安徽省",
            "city": "淮北市",
            "district": "濉溪县"
        }
    },
    {
        "id": "10375288052088573615",
        "title": "公共厕所",
        "address": "安徽省淮北市杜集区朔里镇卫生院西南侧270米",
        "tel": "",
        "category": "基础设施:公共设施:公共厕所",
        "type": 0,
        "location": {
            "lat": 34.044859,
            "lng": 116.9038
        },
        "ad_info": {
            "adcode": 340602,
            "province": "安徽省",
            "city": "淮北市",
            "district": "杜集区"
        }
    },
    {
        "id": "5367330358791672713",
        "title": "法制公园公共厕所",
        "address": "安徽省淮北市濉溪县G237与溪河路交叉口正东方向172米左右",
        "tel": "",
        "category": "基础设施:公共设施:公共厕所",
        "type": 0,
        "location": {
            "lat": 33.910278,
            "lng": 116.760774
        },
        "ad_info": {
            "adcode": 340621,
            "province": "安徽省",
            "city": "淮北市",
            "district": "濉溪县"
        }
    },
    {
        "id": "5829516310214187363",
        "title": "公共厕所",
        "address": "安徽省淮北市烈山区",
        "tel": "",
        "category": "基础设施:公共设施:公共厕所",
        "type": 0,
        "location": {
            "lat": 33.845915,
            "lng": 116.93597
        },
        "ad_info": {
            "adcode": 340604,
            "province": "安徽省",
            "city": "淮北市",
            "district": "烈山区"
        }
    },
    {
        "id": "5749801721419002689",
        "title": "公共厕所",
        "address": "安徽省淮北市相山区南黎路与泉山路交叉口正南方向313米左右",
        "tel": "",
        "category": "基础设施:公共设施:公共厕所",
        "type": 0,
        "location": {
            "lat": 33.936679,
            "lng": 116.810595
        },
        "ad_info": {
            "adcode": 340603,
            "province": "安徽省",
            "city": "淮北市",
            "district": "相山区"
        }
    },
    {
        "id": "2041390178420796632",
        "title": "公共厕所",
        "address": "安徽省淮北市相山区南黎路水岸花园",
        "tel": "",
        "category": "基础设施:公共设施:公共厕所",
        "type": 0,
        "location": {
            "lat": 33.938551,
            "lng": 116.802948
        },
        "ad_info": {
            "adcode": 340603,
            "province": "安徽省",
            "city": "淮北市",
            "district": "相山区"
        }
    },
    {
        "id": "16767337155089160081",
        "title": "公共厕所",
        "address": "安徽省淮北市相山区孟山北路与惠苑路南街交叉口西南方向160米左右",
        "tel": "",
        "category": "基础设施:公共设施:公共厕所",
        "type": 0,
        "location": {
            "lat": 33.96015,
            "lng": 116.79324
        },
        "ad_info": {
            "adcode": 340603,
            "province": "安徽省",
            "city": "淮北市",
            "district": "相山区"
        }
    },
    {
        "id": "6431339687002502896",
        "title": "公共厕所",
        "address": "安徽省淮北市烈山区Y049与矿东路交叉口正南方向136米左右",
        "tel": "",
        "category": "基础设施:公共设施:公共厕所",
        "type": 0,
        "location": {
            "lat": 33.630314,
            "lng": 116.641803
        },
        "ad_info": {
            "adcode": 340604,
            "province": "安徽省",
            "city": "淮北市",
            "district": "烈山区"
        }
    },
    {
        "id": "737011620800863902",
        "title": "公共厕所",
        "address": "安徽省淮北市濉溪县闸河路与龙脊山路交叉口西北方向215米左右",
        "tel": "",
        "category": "基础设施:公共设施:公共厕所",
        "type": 0,
        "location": {
            "lat": 33.922966,
            "lng": 116.78271
        },
        "ad_info": {
            "adcode": 340621,
            "province": "安徽省",
            "city": "淮北市",
            "district": "濉溪县"
        }
    },
    {
        "id": "9313084672477561948",
        "title": "公共厕所",
        "address": "安徽省淮北市杜集区光明路与学院路交叉口正南方向216米左右",
        "tel": "",
        "category": "基础设施:公共设施:公共厕所",
        "type": 0,
        "location": {
            "lat": 33.981841,
            "lng": 116.8407
        },
        "ad_info": {
            "adcode": 340602,
            "province": "安徽省",
            "city": "淮北市",
            "district": "杜集区"
        }
    },
    {
        "id": "11246006004165874485",
        "title": "公共厕所",
        "address": "安徽省淮北市烈山区Y049与矿东路交叉口正北方向79米左右",
        "tel": "",
        "category": "基础设施:公共设施:公共厕所",
        "type": 0,
        "location": {
            "lat": 33.63224,
            "lng": 116.641792
        },
        "ad_info": {
            "adcode": 340604,
            "province": "安徽省",
            "city": "淮北市",
            "district": "烈山区"
        }
    },
    {
        "id": "3719916376133120958",
        "title": "公共厕所",
        "address": "安徽省淮北市杜集区描龙路与淮海东路交叉口正西方向156米左右",
        "tel": "",
        "category": "基础设施:公共设施:公共厕所",
        "type": 0,
        "location": {
            "lat": 33.973107,
            "lng": 116.870572
        },
        "ad_info": {
            "adcode": 340602,
            "province": "安徽省",
            "city": "淮北市",
            "district": "杜集区"
        }
    },
    {
        "id": "15009541358892135593",
        "title": "公共厕所",
        "address": "安徽省淮北市杜集区Y022与岱河街交叉口正北方向1243米左右",
        "tel": "",
        "category": "基础设施:公共设施:公共厕所",
        "type": 0,
        "location": {
            "lat": 34.007607,
            "lng": 116.843751
        },
        "ad_info": {
            "adcode": 340602,
            "province": "安徽省",
            "city": "淮北市",
            "district": "杜集区"
        }
    },
    {
        "id": "14224020695718306296",
        "title": "公共厕所",
        "address": "安徽省淮北市濉溪县五宋路与淮海路交叉口正东方向579米左右",
        "tel": "",
        "category": "基础设施:公共设施:公共厕所",
        "type": 0,
        "location": {
            "lat": 33.894973,
            "lng": 116.776419
        },
        "ad_info": {
            "adcode": 340621,
            "province": "安徽省",
            "city": "淮北市",
            "district": "濉溪县"
        }
    },
    {
        "id": "3617556376527871419",
        "title": "公共厕所",
        "address": "安徽省淮北市濉溪县党校路与沱河路交叉口正西方向181米左右",
        "tel": "",
        "category": "基础设施:公共设施:公共厕所",
        "type": 0,
        "location": {
            "lat": 33.914954,
            "lng": 116.760353
        },
        "ad_info": {
            "adcode": 340621,
            "province": "安徽省",
            "city": "淮北市",
            "district": "濉溪县"
        }
    },
    {
        "id": "1716331443361138216",
        "title": "公共厕所",
        "address": "安徽省淮北市杜集区东山路与紫昱路交叉口正南方向54米左右",
        "tel": "",
        "category": "基础设施:公共设施:公共厕所",
        "type": 0,
        "location": {
            "lat": 34.04709,
            "lng": 116.826442
        },
        "ad_info": {
            "adcode": 340602,
            "province": "安徽省",
            "city": "淮北市",
            "district": "杜集区"
        }
    },
    {
        "id": "337348034268888822",
        "title": "公共厕所",
        "address": "安徽省淮北市相山区惠黎路与洪山路交叉口东北方向100米左右",
        "tel": "",
        "category": "基础设施:公共设施:公共厕所",
        "type": 0,
        "location": {
            "lat": 33.968215,
            "lng": 116.79238
        },
        "ad_info": {
            "adcode": 340603,
            "province": "安徽省",
            "city": "淮北市",
            "district": "相山区"
        }
    },
    {
        "id": "2654367284707634779",
        "title": "公共厕所",
        "address": "安徽省淮北市相山区凤苑路11号",
        "tel": "",
        "category": "基础设施:公共设施:公共厕所",
        "type": 0,
        "location": {
            "lat": 33.962878,
            "lng": 116.752336
        },
        "ad_info": {
            "adcode": 340603,
            "province": "安徽省",
            "city": "淮北市",
            "district": "相山区"
        }
    },
    {
        "id": "10311264405786432008",
        "title": "公共厕所",
        "address": "安徽省淮北市杜集区X004与孙梧路交叉口正南方向650米左右",
        "tel": "",
        "category": "基础设施:公共设施:公共厕所",
        "type": 0,
        "location": {
            "lat": 34.02355,
            "lng": 116.926782
        },
        "ad_info": {
            "adcode": 340602,
            "province": "安徽省",
            "city": "淮北市",
            "district": "杜集区"
        }
    },
    {
        "id": "351252578304059455",
        "title": "公共厕所",
        "address": "安徽省淮北市濉溪县X019",
        "tel": "",
        "category": "基础设施:公共设施:公共厕所",
        "type": 0,
        "location": {
            "lat": 33.303956,
            "lng": 116.838013
        },
        "ad_info": {
            "adcode": 340621,
            "province": "安徽省",
            "city": "淮北市",
            "district": "濉溪县"
        }
    },
    {
        "id": "14342872827880526612",
        "title": "后油坊篮球场公厕",
        "address": "安徽省淮北市濉溪县",
        "tel": "",
        "category": "基础设施:公共设施:公共厕所",
        "type": 0,
        "location": {
            "lat": 33.577664,
            "lng": 116.612506
        },
        "ad_info": {
            "adcode": 340621,
            "province": "安徽省",
            "city": "淮北市",
            "district": "濉溪县"
        }
    },
    {
        "id": "10375288052088573615",
        "title": "公共厕所",
        "address": "安徽省淮北市杜集区朔里镇卫生院西南侧270米",
        "tel": "",
        "category": "基础设施:公共设施:公共厕所",
        "type": 0,
        "location": {
            "lat": 34.044859,
            "lng": 116.9038
        },
        "ad_info": {
            "adcode": 340602,
            "province": "安徽省",
            "city": "淮北市",
            "district": "杜集区"
        }
    },
    {
        "id": "5367330358791672713",
        "title": "法制公园公共厕所",
        "address": "安徽省淮北市濉溪县G237与溪河路交叉口正东方向172米左右",
        "tel": "",
        "category": "基础设施:公共设施:公共厕所",
        "type": 0,
        "location": {
            "lat": 33.910278,
            "lng": 116.760774
        },
        "ad_info": {
            "adcode": 340621,
            "province": "安徽省",
            "city": "淮北市",
            "district": "濉溪县"
        }
    },
    {
        "id": "5829516310214187363",
        "title": "公共厕所",
        "address": "安徽省淮北市烈山区",
        "tel": "",
        "category": "基础设施:公共设施:公共厕所",
        "type": 0,
        "location": {
            "lat": 33.845915,
            "lng": 116.93597
        },
        "ad_info": {
            "adcode": 340604,
            "province": "安徽省",
            "city": "淮北市",
            "district": "烈山区"
        }
    },
    {
        "id": "5749801721419002689",
        "title": "公共厕所",
        "address": "安徽省淮北市相山区南黎路与泉山路交叉口正南方向313米左右",
        "tel": "",
        "category": "基础设施:公共设施:公共厕所",
        "type": 0,
        "location": {
            "lat": 33.936679,
            "lng": 116.810595
        },
        "ad_info": {
            "adcode": 340603,
            "province": "安徽省",
            "city": "淮北市",
            "district": "相山区"
        }
    },
    {
        "id": "2041390178420796632",
        "title": "公共厕所",
        "address": "安徽省淮北市相山区南黎路水岸花园",
        "tel": "",
        "category": "基础设施:公共设施:公共厕所",
        "type": 0,
        "location": {
            "lat": 33.938551,
            "lng": 116.802948
        },
        "ad_info": {
            "adcode": 340603,
            "province": "安徽省",
            "city": "淮北市",
            "district": "相山区"
        }
    },
    {
        "id": "16767337155089160081",
        "title": "公共厕所",
        "address": "安徽省淮北市相山区孟山北路与惠苑路南街交叉口西南方向160米左右",
        "tel": "",
        "category": "基础设施:公共设施:公共厕所",
        "type": 0,
        "location": {
            "lat": 33.96015,
            "lng": 116.79324
        },
        "ad_info": {
            "adcode": 340603,
            "province": "安徽省",
            "city": "淮北市",
            "district": "相山区"
        }
    },
    {
        "id": "6431339687002502896",
        "title": "公共厕所",
        "address": "安徽省淮北市烈山区Y049与矿东路交叉口正南方向136米左右",
        "tel": "",
        "category": "基础设施:公共设施:公共厕所",
        "type": 0,
        "location": {
            "lat": 33.630314,
            "lng": 116.641803
        },
        "ad_info": {
            "adcode": 340604,
            "province": "安徽省",
            "city": "淮北市",
            "district": "烈山区"
        }
    },
    {
        "id": "737011620800863902",
        "title": "公共厕所",
        "address": "安徽省淮北市濉溪县闸河路与龙脊山路交叉口西北方向215米左右",
        "tel": "",
        "category": "基础设施:公共设施:公共厕所",
        "type": 0,
        "location": {
            "lat": 33.922966,
            "lng": 116.78271
        },
        "ad_info": {
            "adcode": 340621,
            "province": "安徽省",
            "city": "淮北市",
            "district": "濉溪县"
        }
    },
    {
        "id": "9313084672477561948",
        "title": "公共厕所",
        "address": "安徽省淮北市杜集区光明路与学院路交叉口正南方向216米左右",
        "tel": "",
        "category": "基础设施:公共设施:公共厕所",
        "type": 0,
        "location": {
            "lat": 33.981841,
            "lng": 116.8407
        },
        "ad_info": {
            "adcode": 340602,
            "province": "安徽省",
            "city": "淮北市",
            "district": "杜集区"
        }
    },
    {
        "id": "11246006004165874485",
        "title": "公共厕所",
        "address": "安徽省淮北市烈山区Y049与矿东路交叉口正北方向79米左右",
        "tel": "",
        "category": "基础设施:公共设施:公共厕所",
        "type": 0,
        "location": {
            "lat": 33.63224,
            "lng": 116.641792
        },
        "ad_info": {
            "adcode": 340604,
            "province": "安徽省",
            "city": "淮北市",
            "district": "烈山区"
        }
    },
    {
        "id": "3719916376133120958",
        "title": "公共厕所",
        "address": "安徽省淮北市杜集区描龙路与淮海东路交叉口正西方向156米左右",
        "tel": "",
        "category": "基础设施:公共设施:公共厕所",
        "type": 0,
        "location": {
            "lat": 33.973107,
            "lng": 116.870572
        },
        "ad_info": {
            "adcode": 340602,
            "province": "安徽省",
            "city": "淮北市",
            "district": "杜集区"
        }
    },
    {
        "id": "15009541358892135593",
        "title": "公共厕所",
        "address": "安徽省淮北市杜集区Y022与岱河街交叉口正北方向1243米左右",
        "tel": "",
        "category": "基础设施:公共设施:公共厕所",
        "type": 0,
        "location": {
            "lat": 34.007607,
            "lng": 116.843751
        },
        "ad_info": {
            "adcode": 340602,
            "province": "安徽省",
            "city": "淮北市",
            "district": "杜集区"
        }
    },
    {
        "id": "14224020695718306296",
        "title": "公共厕所",
        "address": "安徽省淮北市濉溪县五宋路与淮海路交叉口正东方向579米左右",
        "tel": "",
        "category": "基础设施:公共设施:公共厕所",
        "type": 0,
        "location": {
            "lat": 33.894973,
            "lng": 116.776419
        },
        "ad_info": {
            "adcode": 340621,
            "province": "安徽省",
            "city": "淮北市",
            "district": "濉溪县"
        }
    },
    {
        "id": "3617556376527871419",
        "title": "公共厕所",
        "address": "安徽省淮北市濉溪县党校路与沱河路交叉口正西方向181米左右",
        "tel": "",
        "category": "基础设施:公共设施:公共厕所",
        "type": 0,
        "location": {
            "lat": 33.914954,
            "lng": 116.760353
        },
        "ad_info": {
            "adcode": 340621,
            "province": "安徽省",
            "city": "淮北市",
            "district": "濉溪县"
        }
    },
    {
        "id": "1716331443361138216",
        "title": "公共厕所",
        "address": "安徽省淮北市杜集区东山路与紫昱路交叉口正南方向54米左右",
        "tel": "",
        "category": "基础设施:公共设施:公共厕所",
        "type": 0,
        "location": {
            "lat": 34.04709,
            "lng": 116.826442
        },
        "ad_info": {
            "adcode": 340602,
            "province": "安徽省",
            "city": "淮北市",
            "district": "杜集区"
        }
    },
    {
        "id": "337348034268888822",
        "title": "公共厕所",
        "address": "安徽省淮北市相山区惠黎路与洪山路交叉口东北方向100米左右",
        "tel": "",
        "category": "基础设施:公共设施:公共厕所",
        "type": 0,
        "location": {
            "lat": 33.968215,
            "lng": 116.79238
        },
        "ad_info": {
            "adcode": 340603,
            "province": "安徽省",
            "city": "淮北市",
            "district": "相山区"
        }
    },
    {
        "id": "2654367284707634779",
        "title": "公共厕所",
        "address": "安徽省淮北市相山区凤苑路11号",
        "tel": "",
        "category": "基础设施:公共设施:公共厕所",
        "type": 0,
        "location": {
            "lat": 33.962878,
            "lng": 116.752336
        },
        "ad_info": {
            "adcode": 340603,
            "province": "安徽省",
            "city": "淮北市",
            "district": "相山区"
        }
    },
    {
        "id": "10311264405786432008",
        "title": "公共厕所",
        "address": "安徽省淮北市杜集区X004与孙梧路交叉口正南方向650米左右",
        "tel": "",
        "category": "基础设施:公共设施:公共厕所",
        "type": 0,
        "location": {
            "lat": 34.02355,
            "lng": 116.926782
        },
        "ad_info": {
            "adcode": 340602,
            "province": "安徽省",
            "city": "淮北市",
            "district": "杜集区"
        }
    },
    {
        "id": "351252578304059455",
        "title": "公共厕所",
        "address": "安徽省淮北市濉溪县X019",
        "tel": "",
        "category": "基础设施:公共设施:公共厕所",
        "type": 0,
        "location": {
            "lat": 33.303956,
            "lng": 116.838013
        },
        "ad_info": {
            "adcode": 340621,
            "province": "安徽省",
            "city": "淮北市",
            "district": "濉溪县"
        }
    },
    {
        "id": "14342872827880526612",
        "title": "后油坊篮球场公厕",
        "address": "安徽省淮北市濉溪县",
        "tel": "",
        "category": "基础设施:公共设施:公共厕所",
        "type": 0,
        "location": {
            "lat": 33.577664,
            "lng": 116.612506
        },
        "ad_info": {
            "adcode": 340621,
            "province": "安徽省",
            "city": "淮北市",
            "district": "濉溪县"
        }
    },
    {
        "id": "10375288052088573615",
        "title": "公共厕所",
        "address": "安徽省淮北市杜集区朔里镇卫生院西南侧270米",
        "tel": "",
        "category": "基础设施:公共设施:公共厕所",
        "type": 0,
        "location": {
            "lat": 34.044859,
            "lng": 116.9038
        },
        "ad_info": {
            "adcode": 340602,
            "province": "安徽省",
            "city": "淮北市",
            "district": "杜集区"
        }
    },
    {
        "id": "5367330358791672713",
        "title": "法制公园公共厕所",
        "address": "安徽省淮北市濉溪县G237与溪河路交叉口正东方向172米左右",
        "tel": "",
        "category": "基础设施:公共设施:公共厕所",
        "type": 0,
        "location": {
            "lat": 33.910278,
            "lng": 116.760774
        },
        "ad_info": {
            "adcode": 340621,
            "province": "安徽省",
            "city": "淮北市",
            "district": "濉溪县"
        }
    },
    {
        "id": "5829516310214187363",
        "title": "公共厕所",
        "address": "安徽省淮北市烈山区",
        "tel": "",
        "category": "基础设施:公共设施:公共厕所",
        "type": 0,
        "location": {
            "lat": 33.845915,
            "lng": 116.93597
        },
        "ad_info": {
            "adcode": 340604,
            "province": "安徽省",
            "city": "淮北市",
            "district": "烈山区"
        }
    },
    {
        "id": "5749801721419002689",
        "title": "公共厕所",
        "address": "安徽省淮北市相山区南黎路与泉山路交叉口正南方向313米左右",
        "tel": "",
        "category": "基础设施:公共设施:公共厕所",
        "type": 0,
        "location": {
            "lat": 33.936679,
            "lng": 116.810595
        },
        "ad_info": {
            "adcode": 340603,
            "province": "安徽省",
            "city": "淮北市",
            "district": "相山区"
        }
    },
    {
        "id": "2041390178420796632",
        "title": "公共厕所",
        "address": "安徽省淮北市相山区南黎路水岸花园",
        "tel": "",
        "category": "基础设施:公共设施:公共厕所",
        "type": 0,
        "location": {
            "lat": 33.938551,
            "lng": 116.802948
        },
        "ad_info": {
            "adcode": 340603,
            "province": "安徽省",
            "city": "淮北市",
            "district": "相山区"
        }
    },
    {
        "id": "16767337155089160081",
        "title": "公共厕所",
        "address": "安徽省淮北市相山区孟山北路与惠苑路南街交叉口西南方向160米左右",
        "tel": "",
        "category": "基础设施:公共设施:公共厕所",
        "type": 0,
        "location": {
            "lat": 33.96015,
            "lng": 116.79324
        },
        "ad_info": {
            "adcode": 340603,
            "province": "安徽省",
            "city": "淮北市",
            "district": "相山区"
        }
    },
    {
        "id": "6431339687002502896",
        "title": "公共厕所",
        "address": "安徽省淮北市烈山区Y049与矿东路交叉口正南方向136米左右",
        "tel": "",
        "category": "基础设施:公共设施:公共厕所",
        "type": 0,
        "location": {
            "lat": 33.630314,
            "lng": 116.641803
        },
        "ad_info": {
            "adcode": 340604,
            "province": "安徽省",
            "city": "淮北市",
            "district": "烈山区"
        }
    },
    {
        "id": "737011620800863902",
        "title": "公共厕所",
        "address": "安徽省淮北市濉溪县闸河路与龙脊山路交叉口西北方向215米左右",
        "tel": "",
        "category": "基础设施:公共设施:公共厕所",
        "type": 0,
        "location": {
            "lat": 33.922966,
            "lng": 116.78271
        },
        "ad_info": {
            "adcode": 340621,
            "province": "安徽省",
            "city": "淮北市",
            "district": "濉溪县"
        }
    },
    {
        "id": "9313084672477561948",
        "title": "公共厕所",
        "address": "安徽省淮北市杜集区光明路与学院路交叉口正南方向216米左右",
        "tel": "",
        "category": "基础设施:公共设施:公共厕所",
        "type": 0,
        "location": {
            "lat": 33.981841,
            "lng": 116.8407
        },
        "ad_info": {
            "adcode": 340602,
            "province": "安徽省",
            "city": "淮北市",
            "district": "杜集区"
        }
    },
    {
        "id": "11246006004165874485",
        "title": "公共厕所",
        "address": "安徽省淮北市烈山区Y049与矿东路交叉口正北方向79米左右",
        "tel": "",
        "category": "基础设施:公共设施:公共厕所",
        "type": 0,
        "location": {
            "lat": 33.63224,
            "lng": 116.641792
        },
        "ad_info": {
            "adcode": 340604,
            "province": "安徽省",
            "city": "淮北市",
            "district": "烈山区"
        }
    },
    {
        "id": "3719916376133120958",
        "title": "公共厕所",
        "address": "安徽省淮北市杜集区描龙路与淮海东路交叉口正西方向156米左右",
        "tel": "",
        "category": "基础设施:公共设施:公共厕所",
        "type": 0,
        "location": {
            "lat": 33.973107,
            "lng": 116.870572
        },
        "ad_info": {
            "adcode": 340602,
            "province": "安徽省",
            "city": "淮北市",
            "district": "杜集区"
        }
    },
    {
        "id": "15009541358892135593",
        "title": "公共厕所",
        "address": "安徽省淮北市杜集区Y022与岱河街交叉口正北方向1243米左右",
        "tel": "",
        "category": "基础设施:公共设施:公共厕所",
        "type": 0,
        "location": {
            "lat": 34.007607,
            "lng": 116.843751
        },
        "ad_info": {
            "adcode": 340602,
            "province": "安徽省",
            "city": "淮北市",
            "district": "杜集区"
        }
    },
    {
        "id": "14224020695718306296",
        "title": "公共厕所",
        "address": "安徽省淮北市濉溪县五宋路与淮海路交叉口正东方向579米左右",
        "tel": "",
        "category": "基础设施:公共设施:公共厕所",
        "type": 0,
        "location": {
            "lat": 33.894973,
            "lng": 116.776419
        },
        "ad_info": {
            "adcode": 340621,
            "province": "安徽省",
            "city": "淮北市",
            "district": "濉溪县"
        }
    },
    {
        "id": "3617556376527871419",
        "title": "公共厕所",
        "address": "安徽省淮北市濉溪县党校路与沱河路交叉口正西方向181米左右",
        "tel": "",
        "category": "基础设施:公共设施:公共厕所",
        "type": 0,
        "location": {
            "lat": 33.914954,
            "lng": 116.760353
        },
        "ad_info": {
            "adcode": 340621,
            "province": "安徽省",
            "city": "淮北市",
            "district": "濉溪县"
        }
    },
    {
        "id": "1716331443361138216",
        "title": "公共厕所",
        "address": "安徽省淮北市杜集区东山路与紫昱路交叉口正南方向54米左右",
        "tel": "",
        "category": "基础设施:公共设施:公共厕所",
        "type": 0,
        "location": {
            "lat": 34.04709,
            "lng": 116.826442
        },
        "ad_info": {
            "adcode": 340602,
            "province": "安徽省",
            "city": "淮北市",
            "district": "杜集区"
        }
    },
    {
        "id": "337348034268888822",
        "title": "公共厕所",
        "address": "安徽省淮北市相山区惠黎路与洪山路交叉口东北方向100米左右",
        "tel": "",
        "category": "基础设施:公共设施:公共厕所",
        "type": 0,
        "location": {
            "lat": 33.968215,
            "lng": 116.79238
        },
        "ad_info": {
            "adcode": 340603,
            "province": "安徽省",
            "city": "淮北市",
            "district": "相山区"
        }
    },
    {
        "id": "2654367284707634779",
        "title": "公共厕所",
        "address": "安徽省淮北市相山区凤苑路11号",
        "tel": "",
        "category": "基础设施:公共设施:公共厕所",
        "type": 0,
        "location": {
            "lat": 33.962878,
            "lng": 116.752336
        },
        "ad_info": {
            "adcode": 340603,
            "province": "安徽省",
            "city": "淮北市",
            "district": "相山区"
        }
    },
    {
        "id": "10311264405786432008",
        "title": "公共厕所",
        "address": "安徽省淮北市杜集区X004与孙梧路交叉口正南方向650米左右",
        "tel": "",
        "category": "基础设施:公共设施:公共厕所",
        "type": 0,
        "location": {
            "lat": 34.02355,
            "lng": 116.926782
        },
        "ad_info": {
            "adcode": 340602,
            "province": "安徽省",
            "city": "淮北市",
            "district": "杜集区"
        }
    },
    {
        "id": "351252578304059455",
        "title": "公共厕所",
        "address": "安徽省淮北市濉溪县X019",
        "tel": "",
        "category": "基础设施:公共设施:公共厕所",
        "type": 0,
        "location": {
            "lat": 33.303956,
            "lng": 116.838013
        },
        "ad_info": {
            "adcode": 340621,
            "province": "安徽省",
            "city": "淮北市",
            "district": "濉溪县"
        }
    },
    {
        "id": "14342872827880526612",
        "title": "后油坊篮球场公厕",
        "address": "安徽省淮北市濉溪县",
        "tel": "",
        "category": "基础设施:公共设施:公共厕所",
        "type": 0,
        "location": {
            "lat": 33.577664,
            "lng": 116.612506
        },
        "ad_info": {
            "adcode": 340621,
            "province": "安徽省",
            "city": "淮北市",
            "district": "濉溪县"
        }
    },
    {
        "id": "10375288052088573615",
        "title": "公共厕所",
        "address": "安徽省淮北市杜集区朔里镇卫生院西南侧270米",
        "tel": "",
        "category": "基础设施:公共设施:公共厕所",
        "type": 0,
        "location": {
            "lat": 34.044859,
            "lng": 116.9038
        },
        "ad_info": {
            "adcode": 340602,
            "province": "安徽省",
            "city": "淮北市",
            "district": "杜集区"
        }
    },
    {
        "id": "5367330358791672713",
        "title": "法制公园公共厕所",
        "address": "安徽省淮北市濉溪县G237与溪河路交叉口正东方向172米左右",
        "tel": "",
        "category": "基础设施:公共设施:公共厕所",
        "type": 0,
        "location": {
            "lat": 33.910278,
            "lng": 116.760774
        },
        "ad_info": {
            "adcode": 340621,
            "province": "安徽省",
            "city": "淮北市",
            "district": "濉溪县"
        }
    },
    {
        "id": "5829516310214187363",
        "title": "公共厕所",
        "address": "安徽省淮北市烈山区",
        "tel": "",
        "category": "基础设施:公共设施:公共厕所",
        "type": 0,
        "location": {
            "lat": 33.845915,
            "lng": 116.93597
        },
        "ad_info": {
            "adcode": 340604,
            "province": "安徽省",
            "city": "淮北市",
            "district": "烈山区"
        }
    },
    {
        "id": "5749801721419002689",
        "title": "公共厕所",
        "address": "安徽省淮北市相山区南黎路与泉山路交叉口正南方向313米左右",
        "tel": "",
        "category": "基础设施:公共设施:公共厕所",
        "type": 0,
        "location": {
            "lat": 33.936679,
            "lng": 116.810595
        },
        "ad_info": {
            "adcode": 340603,
            "province": "安徽省",
            "city": "淮北市",
            "district": "相山区"
        }
    },
    {
        "id": "2041390178420796632",
        "title": "公共厕所",
        "address": "安徽省淮北市相山区南黎路水岸花园",
        "tel": "",
        "category": "基础设施:公共设施:公共厕所",
        "type": 0,
        "location": {
            "lat": 33.938551,
            "lng": 116.802948
        },
        "ad_info": {
            "adcode": 340603,
            "province": "安徽省",
            "city": "淮北市",
            "district": "相山区"
        }
    },
    {
        "id": "16767337155089160081",
        "title": "公共厕所",
        "address": "安徽省淮北市相山区孟山北路与惠苑路南街交叉口西南方向160米左右",
        "tel": "",
        "category": "基础设施:公共设施:公共厕所",
        "type": 0,
        "location": {
            "lat": 33.96015,
            "lng": 116.79324
        },
        "ad_info": {
            "adcode": 340603,
            "province": "安徽省",
            "city": "淮北市",
            "district": "相山区"
        }
    },
    {
        "id": "6431339687002502896",
        "title": "公共厕所",
        "address": "安徽省淮北市烈山区Y049与矿东路交叉口正南方向136米左右",
        "tel": "",
        "category": "基础设施:公共设施:公共厕所",
        "type": 0,
        "location": {
            "lat": 33.630314,
            "lng": 116.641803
        },
        "ad_info": {
            "adcode": 340604,
            "province": "安徽省",
            "city": "淮北市",
            "district": "烈山区"
        }
    },
    {
        "id": "737011620800863902",
        "title": "公共厕所",
        "address": "安徽省淮北市濉溪县闸河路与龙脊山路交叉口西北方向215米左右",
        "tel": "",
        "category": "基础设施:公共设施:公共厕所",
        "type": 0,
        "location": {
            "lat": 33.922966,
            "lng": 116.78271
        },
        "ad_info": {
            "adcode": 340621,
            "province": "安徽省",
            "city": "淮北市",
            "district": "濉溪县"
        }
    },
    {
        "id": "9313084672477561948",
        "title": "公共厕所",
        "address": "安徽省淮北市杜集区光明路与学院路交叉口正南方向216米左右",
        "tel": "",
        "category": "基础设施:公共设施:公共厕所",
        "type": 0,
        "location": {
            "lat": 33.981841,
            "lng": 116.8407
        },
        "ad_info": {
            "adcode": 340602,
            "province": "安徽省",
            "city": "淮北市",
            "district": "杜集区"
        }
    },
    {
        "id": "11246006004165874485",
        "title": "公共厕所",
        "address": "安徽省淮北市烈山区Y049与矿东路交叉口正北方向79米左右",
        "tel": "",
        "category": "基础设施:公共设施:公共厕所",
        "type": 0,
        "location": {
            "lat": 33.63224,
            "lng": 116.641792
        },
        "ad_info": {
            "adcode": 340604,
            "province": "安徽省",
            "city": "淮北市",
            "district": "烈山区"
        }
    },
    {
        "id": "3719916376133120958",
        "title": "公共厕所",
        "address": "安徽省淮北市杜集区描龙路与淮海东路交叉口正西方向156米左右",
        "tel": "",
        "category": "基础设施:公共设施:公共厕所",
        "type": 0,
        "location": {
            "lat": 33.973107,
            "lng": 116.870572
        },
        "ad_info": {
            "adcode": 340602,
            "province": "安徽省",
            "city": "淮北市",
            "district": "杜集区"
        }
    },
    {
        "id": "15009541358892135593",
        "title": "公共厕所",
        "address": "安徽省淮北市杜集区Y022与岱河街交叉口正北方向1243米左右",
        "tel": "",
        "category": "基础设施:公共设施:公共厕所",
        "type": 0,
        "location": {
            "lat": 34.007607,
            "lng": 116.843751
        },
        "ad_info": {
            "adcode": 340602,
            "province": "安徽省",
            "city": "淮北市",
            "district": "杜集区"
        }
    },
    {
        "id": "14224020695718306296",
        "title": "公共厕所",
        "address": "安徽省淮北市濉溪县五宋路与淮海路交叉口正东方向579米左右",
        "tel": "",
        "category": "基础设施:公共设施:公共厕所",
        "type": 0,
        "location": {
            "lat": 33.894973,
            "lng": 116.776419
        },
        "ad_info": {
            "adcode": 340621,
            "province": "安徽省",
            "city": "淮北市",
            "district": "濉溪县"
        }
    },
    {
        "id": "3617556376527871419",
        "title": "公共厕所",
        "address": "安徽省淮北市濉溪县党校路与沱河路交叉口正西方向181米左右",
        "tel": "",
        "category": "基础设施:公共设施:公共厕所",
        "type": 0,
        "location": {
            "lat": 33.914954,
            "lng": 116.760353
        },
        "ad_info": {
            "adcode": 340621,
            "province": "安徽省",
            "city": "淮北市",
            "district": "濉溪县"
        }
    },
    {
        "id": "1716331443361138216",
        "title": "公共厕所",
        "address": "安徽省淮北市杜集区东山路与紫昱路交叉口正南方向54米左右",
        "tel": "",
        "category": "基础设施:公共设施:公共厕所",
        "type": 0,
        "location": {
            "lat": 34.04709,
            "lng": 116.826442
        },
        "ad_info": {
            "adcode": 340602,
            "province": "安徽省",
            "city": "淮北市",
            "district": "杜集区"
        }
    },
    {
        "id": "337348034268888822",
        "title": "公共厕所",
        "address": "安徽省淮北市相山区惠黎路与洪山路交叉口东北方向100米左右",
        "tel": "",
        "category": "基础设施:公共设施:公共厕所",
        "type": 0,
        "location": {
            "lat": 33.968215,
            "lng": 116.79238
        },
        "ad_info": {
            "adcode": 340603,
            "province": "安徽省",
            "city": "淮北市",
            "district": "相山区"
        }
    },
    {
        "id": "2654367284707634779",
        "title": "公共厕所",
        "address": "安徽省淮北市相山区凤苑路11号",
        "tel": "",
        "category": "基础设施:公共设施:公共厕所",
        "type": 0,
        "location": {
            "lat": 33.962878,
            "lng": 116.752336
        },
        "ad_info": {
            "adcode": 340603,
            "province": "安徽省",
            "city": "淮北市",
            "district": "相山区"
        }
    },
    {
        "id": "10311264405786432008",
        "title": "公共厕所",
        "address": "安徽省淮北市杜集区X004与孙梧路交叉口正南方向650米左右",
        "tel": "",
        "category": "基础设施:公共设施:公共厕所",
        "type": 0,
        "location": {
            "lat": 34.02355,
            "lng": 116.926782
        },
        "ad_info": {
            "adcode": 340602,
            "province": "安徽省",
            "city": "淮北市",
            "district": "杜集区"
        }
    },
    {
        "id": "351252578304059455",
        "title": "公共厕所",
        "address": "安徽省淮北市濉溪县X019",
        "tel": "",
        "category": "基础设施:公共设施:公共厕所",
        "type": 0,
        "location": {
            "lat": 33.303956,
            "lng": 116.838013
        },
        "ad_info": {
            "adcode": 340621,
            "province": "安徽省",
            "city": "淮北市",
            "district": "濉溪县"
        }
    },
    {
        "id": "14342872827880526612",
        "title": "后油坊篮球场公厕",
        "address": "安徽省淮北市濉溪县",
        "tel": "",
        "category": "基础设施:公共设施:公共厕所",
        "type": 0,
        "location": {
            "lat": 33.577664,
            "lng": 116.612506
        },
        "ad_info": {
            "adcode": 340621,
            "province": "安徽省",
            "city": "淮北市",
            "district": "濉溪县"
        }
    },
    {
        "id": "10375288052088573615",
        "title": "公共厕所",
        "address": "安徽省淮北市杜集区朔里镇卫生院西南侧270米",
        "tel": "",
        "category": "基础设施:公共设施:公共厕所",
        "type": 0,
        "location": {
            "lat": 34.044859,
            "lng": 116.9038
        },
        "ad_info": {
            "adcode": 340602,
            "province": "安徽省",
            "city": "淮北市",
            "district": "杜集区"
        }
    },
    {
        "id": "5367330358791672713",
        "title": "法制公园公共厕所",
        "address": "安徽省淮北市濉溪县G237与溪河路交叉口正东方向172米左右",
        "tel": "",
        "category": "基础设施:公共设施:公共厕所",
        "type": 0,
        "location": {
            "lat": 33.910278,
            "lng": 116.760774
        },
        "ad_info": {
            "adcode": 340621,
            "province": "安徽省",
            "city": "淮北市",
            "district": "濉溪县"
        }
    },
    {
        "id": "5829516310214187363",
        "title": "公共厕所",
        "address": "安徽省淮北市烈山区",
        "tel": "",
        "category": "基础设施:公共设施:公共厕所",
        "type": 0,
        "location": {
            "lat": 33.845915,
            "lng": 116.93597
        },
        "ad_info": {
            "adcode": 340604,
            "province": "安徽省",
            "city": "淮北市",
            "district": "烈山区"
        }
    },
    {
        "id": "5749801721419002689",
        "title": "公共厕所",
        "address": "安徽省淮北市相山区南黎路与泉山路交叉口正南方向313米左右",
        "tel": "",
        "category": "基础设施:公共设施:公共厕所",
        "type": 0,
        "location": {
            "lat": 33.936679,
            "lng": 116.810595
        },
        "ad_info": {
            "adcode": 340603,
            "province": "安徽省",
            "city": "淮北市",
            "district": "相山区"
        }
    },
    {
        "id": "2041390178420796632",
        "title": "公共厕所",
        "address": "安徽省淮北市相山区南黎路水岸花园",
        "tel": "",
        "category": "基础设施:公共设施:公共厕所",
        "type": 0,
        "location": {
            "lat": 33.938551,
            "lng": 116.802948
        },
        "ad_info": {
            "adcode": 340603,
            "province": "安徽省",
            "city": "淮北市",
            "district": "相山区"
        }
    },
    {
        "id": "16767337155089160081",
        "title": "公共厕所",
        "address": "安徽省淮北市相山区孟山北路与惠苑路南街交叉口西南方向160米左右",
        "tel": "",
        "category": "基础设施:公共设施:公共厕所",
        "type": 0,
        "location": {
            "lat": 33.96015,
            "lng": 116.79324
        },
        "ad_info": {
            "adcode": 340603,
            "province": "安徽省",
            "city": "淮北市",
            "district": "相山区"
        }
    },
    {
        "id": "6431339687002502896",
        "title": "公共厕所",
        "address": "安徽省淮北市烈山区Y049与矿东路交叉口正南方向136米左右",
        "tel": "",
        "category": "基础设施:公共设施:公共厕所",
        "type": 0,
        "location": {
            "lat": 33.630314,
            "lng": 116.641803
        },
        "ad_info": {
            "adcode": 340604,
            "province": "安徽省",
            "city": "淮北市",
            "district": "烈山区"
        }
    }
]