[
    {
        "id": "6671884249338642676",
        "title": "公共厕所",
        "address": "安徽省淮南市田家庵区洞山中路中化国际城-A区",
        "tel": "",
        "category": "基础设施:公共设施:公共厕所",
        "type": 0,
        "location": {
            "lat": 32.622102,
            "lng": 116.975657
        },
        "ad_info": {
            "adcode": 340403,
            "province": "安徽省",
            "city": "淮南市",
            "district": "田家庵区"
        }
    },
    {
        "id": "7680056834245220443",
        "title": "公共厕所",
        "address": "安徽省淮南市田家庵区沿山路与淮河大道中段交叉口东150米",
        "tel": "",
        "category": "基础设施:公共设施:公共厕所",
        "type": 0,
        "location": {
            "lat": 32.603965,
            "lng": 117.011789
        },
        "ad_info": {
            "adcode": 340403,
            "province": "安徽省",
            "city": "淮南市",
            "district": "田家庵区"
        }
    },
    {
        "id": "14629780695669769325",
        "title": "公共卫生间",
        "address": "安徽省淮南市田家庵区学院北路与湖滨路交叉口正北方向82米左右",
        "tel": "",
        "category": "基础设施:公共设施:公共厕所",
        "type": 0,
        "location": {
            "lat": 32.651532,
            "lng": 117.010724
        },
        "ad_info": {
            "adcode": 340403,
            "province": "安徽省",
            "city": "淮南市",
            "district": "田家庵区"
        }
    },
    {
        "id": "9975097292619086477",
        "title": "公共厕所",
        "address": "安徽省淮南市田家庵区林场路与淮河大道交叉口东南方向79米左右",
        "tel": "",
        "category": "基础设施:公共设施:公共厕所",
        "type": 0,
        "location": {
            "lat": 32.62306,
            "lng": 117.008502
        },
        "ad_info": {
            "adcode": 340403,
            "province": "安徽省",
            "city": "淮南市",
            "district": "田家庵区"
        }
    },
    {
        "id": "5504137193370678878",
        "title": "公共厕所",
        "address": "安徽省淮南市大通区朝阳东路与水厂路交叉口正北方向83米左右",
        "tel": "",
        "category": "基础设施:公共设施:公共厕所",
        "type": 0,
        "location": {
            "lat": 32.645089,
            "lng": 117.046795
        },
        "ad_info": {
            "adcode": 340402,
            "province": "安徽省",
            "city": "淮南市",
            "district": "大通区"
        }
    },
    {
        "id": "6183927866181493094",
        "title": "公共厕所",
        "address": "安徽省淮南市八公山区化工路与蔡新北路交叉口东南方向222米左右",
        "tel": "",
        "category": "基础设施:公共设施:公共厕所",
        "type": 0,
        "location": {
            "lat": 32.620298,
            "lng": 116.84699
        },
        "ad_info": {
            "adcode": 340405,
            "province": "安徽省",
            "city": "淮南市",
            "district": "八公山区"
        }
    },
    {
        "id": "15927934892684478592",
        "title": "公共厕所",
        "address": "安徽省淮南市田家庵区国庆西路与广场北路交叉口东北方向131米左右",
        "tel": "",
        "category": "基础设施:公共设施:公共厕所",
        "type": 0,
        "location": {
            "lat": 32.641967,
            "lng": 116.996491
        },
        "ad_info": {
            "adcode": 340403,
            "province": "安徽省",
            "city": "淮南市",
            "district": "田家庵区"
        }
    },
    {
        "id": "2481098313809178032",
        "title": "公共厕所",
        "address": "安徽省淮南市田家庵区和风大街与瓦埠湖路交叉口东北方向268米左右",
        "tel": "",
        "category": "基础设施:公共设施:公共厕所",
        "type": 0,
        "location": {
            "lat": 32.583489,
            "lng": 117.016039
        },
        "ad_info": {
            "adcode": 340403,
            "province": "安徽省",
            "city": "淮南市",
            "district": "田家庵区"
        }
    },
    {
        "id": "17680079083418809357",
        "title": "公共厕所",
        "address": "安徽省淮南市凤台县濉溪路与胶州路交叉口西北方向157米左右",
        "tel": "",
        "category": "基础设施:公共设施:公共厕所",
        "type": 0,
        "location": {
            "lat": 32.708032,
            "lng": 116.711984
        },
        "ad_info": {
            "adcode": 340421,
            "province": "安徽省",
            "city": "淮南市",
            "district": "凤台县"
        }
    },
    {
        "id": "1012268094890861750",
        "title": "公共厕所",
        "address": "安徽省淮南市田家庵区学校路与舜耕西路交叉口西南方向108米左右",
        "tel": "",
        "category": "基础设施:公共设施:公共厕所",
        "type": 0,
        "location": {
            "lat": 32.628306,
            "lng": 116.981544
        },
        "ad_info": {
            "adcode": 340403,
            "province": "安徽省",
            "city": "淮南市",
            "district": "田家庵区"
        }
    },
    {
        "id": "2100120597996252820",
        "title": "公共厕所",
        "address": "安徽省淮南市田家庵区瓦埠湖路人民公园(西南角)",
        "tel": "",
        "category": "基础设施:公共设施:公共厕所",
        "type": 0,
        "location": {
            "lat": 32.570612,
            "lng": 117.015719
        },
        "ad_info": {
            "adcode": 340403,
            "province": "安徽省",
            "city": "淮南市",
            "district": "田家庵区"
        }
    },
    {
        "id": "4560891863486874332",
        "title": "公共厕所",
        "address": "安徽省淮南市田家庵区刘家山路与迎宾路交叉口正南方向83米左右",
        "tel": "",
        "category": "基础设施:公共设施:公共厕所",
        "type": 0,
        "location": {
            "lat": 32.622344,
            "lng": 117.000737
        },
        "ad_info": {
            "adcode": 340403,
            "province": "安徽省",
            "city": "淮南市",
            "district": "田家庵区"
        }
    },
    {
        "id": "238226031649630421",
        "title": "公共厕所",
        "address": "安徽省淮南市田家庵区舜耕镇陈家岗基督教会向南100米",
        "tel": "",
        "category": "基础设施:公共设施:公共厕所",
        "type": 0,
        "location": {
            "lat": 32.640549,
            "lng": 117.001944
        },
        "ad_info": {
            "adcode": 340403,
            "province": "安徽省",
            "city": "淮南市",
            "district": "田家庵区"
        }
    },
    {
        "id": "11856485681374914290",
        "title": "公共厕所",
        "address": "安徽省淮南市凤台县中梁大街与祥和路交叉口东北方向62米左右",
        "tel": "",
        "category": "基础设施:公共设施:公共厕所",
        "type": 0,
        "location": {
            "lat": 32.649647,
            "lng": 116.627391
        },
        "ad_info": {
            "adcode": 340421,
            "province": "安徽省",
            "city": "淮南市",
            "district": "凤台县"
        }
    },
    {
        "id": "8356262169483601185",
        "title": "公共厕所",
        "address": "安徽省淮南市寿县内环路与南大街交叉口东北方向98米左右",
        "tel": "",
        "category": "基础设施:公共设施:公共厕所",
        "type": 0,
        "location": {
            "lat": 32.571469,
            "lng": 116.784302
        },
        "ad_info": {
            "adcode": 340422,
            "province": "安徽省",
            "city": "淮南市",
            "district": "寿县"
        }
    },
    {
        "id": "5627834205369668316",
        "title": "公共厕所",
        "address": "安徽省淮南市田家庵区学院北路与学院南路交叉口正南方向137米左右",
        "tel": "",
        "category": "基础设施:公共设施:公共厕所",
        "type": 0,
        "location": {
            "lat": 32.638663,
            "lng": 117.012902
        },
        "ad_info": {
            "adcode": 340403,
            "province": "安徽省",
            "city": "淮南市",
            "district": "田家庵区"
        }
    },
    {
        "id": "6770054063461942554",
        "title": "公共厕所",
        "address": "安徽省淮南市谢家集区G328与十涧湖西路辅路交叉口正西方向94米",
        "tel": "",
        "category": "基础设施:公共设施:公共厕所",
        "type": 0,
        "location": {
            "lat": 32.604128,
            "lng": 116.888793
        },
        "ad_info": {
            "adcode": 340404,
            "province": "安徽省",
            "city": "淮南市",
            "district": "谢家集区"
        }
    },
    {
        "id": "16549253796254805298",
        "title": "公共厕所",
        "address": "安徽省淮南市田家庵区老体育场人民南路淮南市体育中心",
        "tel": "",
        "category": "基础设施:公共设施:公共厕所",
        "type": 0,
        "location": {
            "lat": 32.636728,
            "lng": 117.025537
        },
        "ad_info": {
            "adcode": 340403,
            "province": "安徽省",
            "city": "淮南市",
            "district": "田家庵区"
        }
    },
    {
        "id": "5995463016862784788",
        "title": "公共厕所",
        "address": "安徽省淮南市田家庵区学院北路与学院南路交叉口东南方向31米左右",
        "tel": "",
        "category": "基础设施:公共设施:公共厕所",
        "type": 0,
        "location": {
            "lat": 32.639703,
            "lng": 117.012667
        },
        "ad_info": {
            "adcode": 340403,
            "province": "安徽省",
            "city": "淮南市",
            "district": "田家庵区"
        }
    },
    {
        "id": "11398739376805493349",
        "title": "公共厕所",
        "address": "安徽省淮南市田家庵区老龙眼湿地公园西南侧90米",
        "tel": "",
        "category": "基础设施:公共设施:公共厕所",
        "type": 0,
        "location": {
            "lat": 32.61298,
            "lng": 116.986085
        },
        "ad_info": {
            "adcode": 340403,
            "province": "安徽省",
            "city": "淮南市",
            "district": "田家庵区"
        }
    },
    {
        "id": "13377423098602040174",
        "title": "公共厕所",
        "address": "安徽省淮南市大通区啤酒厂路与建设南路交叉口东南方向41米左右",
        "tel": "",
        "category": "基础设施:公共设施:公共厕所",
        "type": 0,
        "location": {
            "lat": 32.648151,
            "lng": 117.05818
        },
        "ad_info": {
            "adcode": 340402,
            "province": "安徽省",
            "city": "淮南市",
            "district": "大通区"
        }
    },
    {
        "id": "1995954220042206369",
        "title": "公共厕所",
        "address": "安徽省淮南市田家庵区东升街与田大北路交叉口正南方向99米左右",
        "tel": "",
        "category": "基础设施:公共设施:公共厕所",
        "type": 0,
        "location": {
            "lat": 32.664678,
            "lng": 117.025223
        },
        "ad_info": {
            "adcode": 340403,
            "province": "安徽省",
            "city": "淮南市",
            "district": "田家庵区"
        }
    },
    {
        "id": "3785687712003756070",
        "title": "公共厕所",
        "address": "安徽省淮南市田家庵区合淮路与国庆西路交叉口正西方向133米左右",
        "tel": "",
        "category": "基础设施:公共设施:公共厕所",
        "type": 0,
        "location": {
            "lat": 32.635223,
            "lng": 116.970127
        },
        "ad_info": {
            "adcode": 340403,
            "province": "安徽省",
            "city": "淮南市",
            "district": "田家庵区"
        }
    },
    {
        "id": "7223087160972730505",
        "title": "公共厕所",
        "address": "安徽省淮南市田家庵区广场北路与广场小街巷交叉口东北方向333米左右",
        "tel": "",
        "category": "基础设施:公共设施:公共厕所",
        "type": 0,
        "location": {
            "lat": 32.635358,
            "lng": 116.99952
        },
        "ad_info": {
            "adcode": 340403,
            "province": "安徽省",
            "city": "淮南市",
            "district": "田家庵区"
        }
    },
    {
        "id": "68402036616203645",
        "title": "公共厕所",
        "address": "安徽省淮南市凤台县创业路与颍凤路交叉口正南方向72米左右",
        "tel": "",
        "category": "基础设施:公共设施:公共厕所",
        "type": 0,
        "location": {
            "lat": 32.651565,
            "lng": 116.631411
        },
        "ad_info": {
            "adcode": 340421,
            "province": "安徽省",
            "city": "淮南市",
            "district": "凤台县"
        }
    },
    {
        "id": "16720612313177065752",
        "title": "公共厕所",
        "address": "安徽省淮南市田家庵区民生体育馆",
        "tel": "",
        "category": "基础设施:公共设施:公共厕所",
        "type": 0,
        "location": {
            "lat": 32.635448,
            "lng": 116.997258
        },
        "ad_info": {
            "adcode": 340403,
            "province": "安徽省",
            "city": "淮南市",
            "district": "田家庵区"
        }
    },
    {
        "id": "9694670387341319591",
        "title": "公共厕所",
        "address": "安徽省淮南市田家庵区学院路与朝阳路交口向北200米金大地龙湖中心F2",
        "tel": "",
        "category": "基础设施:公共设施:公共厕所",
        "type": 0,
        "location": {
            "lat": 32.644542,
            "lng": 117.01229
        },
        "ad_info": {
            "adcode": 340403,
            "province": "安徽省",
            "city": "淮南市",
            "district": "田家庵区"
        }
    },
    {
        "id": "8252605892839495232",
        "title": "公共厕所",
        "address": "安徽省淮南市凤台县S102与凤城大道交叉口正北方向80米左右",
        "tel": "",
        "category": "基础设施:公共设施:公共厕所",
        "type": 0,
        "location": {
            "lat": 32.706285,
            "lng": 116.727649
        },
        "ad_info": {
            "adcode": 340421,
            "province": "安徽省",
            "city": "淮南市",
            "district": "凤台县"
        }
    },
    {
        "id": "4686486209535294767",
        "title": "公共厕所",
        "address": "安徽省淮南市寿县正阳关路与紫金路交叉口正南方向165米左右",
        "tel": "",
        "category": "基础设施:公共设施:公共厕所",
        "type": 0,
        "location": {
            "lat": 32.556667,
            "lng": 116.787966
        },
        "ad_info": {
            "adcode": 340422,
            "province": "安徽省",
            "city": "淮南市",
            "district": "寿县"
        }
    },
    {
        "id": "9631198653085567551",
        "title": "公共厕所",
        "address": "安徽省淮南市田家庵区人民南路与舜耕小街交叉口东北方向110米左右",
        "tel": "",
        "category": "基础设施:公共设施:公共厕所",
        "type": 0,
        "location": {
            "lat": 32.637606,
            "lng": 117.024036
        },
        "ad_info": {
            "adcode": 340403,
            "province": "安徽省",
            "city": "淮南市",
            "district": "田家庵区"
        }
    },
    {
        "id": "862222538917294294",
        "title": "公共厕所",
        "address": "安徽省淮南市凤台县凤城大道与西九路交叉口正南方向134米左右",
        "tel": "",
        "category": "基础设施:公共设施:公共厕所",
        "type": 0,
        "location": {
            "lat": 32.708087,
            "lng": 116.696799
        },
        "ad_info": {
            "adcode": 340421,
            "province": "安徽省",
            "city": "淮南市",
            "district": "凤台县"
        }
    },
    {
        "id": "15313764494524689645",
        "title": "公共厕所",
        "address": "安徽省淮南市寿县S230与金色童年路交叉口东南方向192米左右",
        "tel": "",
        "category": "基础设施:公共设施:公共厕所",
        "type": 0,
        "location": {
            "lat": 32.070346,
            "lng": 116.879985
        },
        "ad_info": {
            "adcode": 340422,
            "province": "安徽省",
            "city": "淮南市",
            "district": "寿县"
        }
    },
    {
        "id": "15788033845261315410",
        "title": "公共厕所",
        "address": "安徽省淮南市寿县新桥大道辅路与科学路交叉口北100米",
        "tel": "",
        "category": "基础设施:公共设施:公共厕所",
        "type": 0,
        "location": {
            "lat": 32.029149,
            "lng": 116.894879
        },
        "ad_info": {
            "adcode": 340422,
            "province": "安徽省",
            "city": "淮南市",
            "district": "寿县"
        }
    },
    {
        "id": "7252174204169796327",
        "title": "公共厕所",
        "address": "安徽省淮南市大通区建兴路68号",
        "tel": "",
        "category": "基础设施:公共设施:公共厕所",
        "type": 0,
        "location": {
            "lat": 32.651645,
            "lng": 117.052411
        },
        "ad_info": {
            "adcode": 340402,
            "province": "安徽省",
            "city": "淮南市",
            "district": "大通区"
        }
    },
    {
        "id": "11337100275186261409",
        "title": "公共厕所",
        "address": "安徽省淮南市寿县寿春路(春申广场)",
        "tel": "",
        "category": "基础设施:公共设施:公共厕所",
        "type": 0,
        "location": {
            "lat": 32.568438,
            "lng": 116.784677
        },
        "ad_info": {
            "adcode": 340422,
            "province": "安徽省",
            "city": "淮南市",
            "district": "寿县"
        }
    },
    {
        "id": "1331955353305008349",
        "title": "公共厕所",
        "address": "安徽省淮南市凤台县滨河大道与置二路交叉口西南方向260米左右",
        "tel": "",
        "category": "基础设施:公共设施:公共厕所",
        "type": 0,
        "location": {
            "lat": 32.733959,
            "lng": 116.665378
        },
        "ad_info": {
            "adcode": 340421,
            "province": "安徽省",
            "city": "淮南市",
            "district": "凤台县"
        }
    },
    {
        "id": "17636037610163696455",
        "title": "公共厕所",
        "address": "安徽省淮南市凤台县城关镇凤台第一中学一中南门小吃街",
        "tel": "",
        "category": "基础设施:公共设施:公共厕所",
        "type": 0,
        "location": {
            "lat": 32.708231,
            "lng": 116.727409
        },
        "ad_info": {
            "adcode": 340421,
            "province": "安徽省",
            "city": "淮南市",
            "district": "凤台县"
        }
    },
    {
        "id": "3499336768864013939",
        "title": "公共厕所",
        "address": "安徽省淮南市田家庵区淮舜北路与青年路交叉口东南方向35米左右",
        "tel": "",
        "category": "基础设施:公共设施:公共厕所",
        "type": 0,
        "location": {
            "lat": 32.657863,
            "lng": 117.026404
        },
        "ad_info": {
            "adcode": 340403,
            "province": "安徽省",
            "city": "淮南市",
            "district": "田家庵区"
        }
    },
    {
        "id": "15771889155612106319",
        "title": "公共厕所",
        "address": "安徽省淮南市寿县大顺路177号",
        "tel": "",
        "category": "基础设施:公共设施:公共厕所",
        "type": 0,
        "location": {
            "lat": 32.55128,
            "lng": 116.808111
        },
        "ad_info": {
            "adcode": 340422,
            "province": "安徽省",
            "city": "淮南市",
            "district": "寿县"
        }
    },
    {
        "id": "2393508331360301506",
        "title": "公共厕所",
        "address": "安徽省淮南市田家庵区惠利大道与舜耕西路交叉口正东方向92米左右",
        "tel": "",
        "category": "基础设施:公共设施:公共厕所",
        "type": 0,
        "location": {
            "lat": 32.630102,
            "lng": 116.988571
        },
        "ad_info": {
            "adcode": 340403,
            "province": "安徽省",
            "city": "淮南市",
            "district": "田家庵区"
        }
    },
    {
        "id": "3090806576563430599",
        "title": "公共厕所",
        "address": "安徽省淮南市谢家集区卧龙山路与蔡新南路交叉口正南方向197米左右",
        "tel": "",
        "category": "基础设施:公共设施:公共厕所",
        "type": 0,
        "location": {
            "lat": 32.596278,
            "lng": 116.867853
        },
        "ad_info": {
            "adcode": 340404,
            "province": "安徽省",
            "city": "淮南市",
            "district": "谢家集区"
        }
    },
    {
        "id": "2892425301157897011",
        "title": "公共厕所",
        "address": "安徽省淮南市田家庵区洞山中路辅路与广电巷交叉口西南方向66米",
        "tel": "",
        "category": "基础设施:公共设施:公共厕所",
        "type": 0,
        "location": {
            "lat": 32.625046,
            "lng": 116.997141
        },
        "ad_info": {
            "adcode": 340403,
            "province": "安徽省",
            "city": "淮南市",
            "district": "田家庵区"
        }
    },
    {
        "id": "4744332469996425994",
        "title": "公共厕所",
        "address": "安徽省淮南市大通区民主东路与田大南路交叉口正西方向86米左右",
        "tel": "",
        "category": "基础设施:公共设施:公共厕所",
        "type": 0,
        "location": {
            "lat": 32.631748,
            "lng": 117.053846
        },
        "ad_info": {
            "adcode": 340402,
            "province": "安徽省",
            "city": "淮南市",
            "district": "大通区"
        }
    },
    {
        "id": "2237760824936134137",
        "title": "公共厕所",
        "address": "安徽省淮南市田家庵区洞山中路18-2号",
        "tel": "",
        "category": "基础设施:公共设施:公共厕所",
        "type": 0,
        "location": {
            "lat": 32.626021,
            "lng": 116.999634
        },
        "ad_info": {
            "adcode": 340403,
            "province": "安徽省",
            "city": "淮南市",
            "district": "田家庵区"
        }
    },
    {
        "id": "2075010638368504623",
        "title": "公共厕所",
        "address": "安徽省淮南市田家庵区国庆中路8号",
        "tel": "",
        "category": "基础设施:公共设施:公共厕所",
        "type": 0,
        "location": {
            "lat": 32.652409,
            "lng": 117.038849
        },
        "ad_info": {
            "adcode": 340403,
            "province": "安徽省",
            "city": "淮南市",
            "district": "田家庵区"
        }
    },
    {
        "id": "1160708198455881146",
        "title": "公共厕所",
        "address": "安徽省淮南市大通区朝阳东路与水厂路交叉口东南方向113米左右",
        "tel": "",
        "category": "基础设施:公共设施:公共厕所",
        "type": 0,
        "location": {
            "lat": 32.643725,
            "lng": 117.04758
        },
        "ad_info": {
            "adcode": 340402,
            "province": "安徽省",
            "city": "淮南市",
            "district": "大通区"
        }
    },
    {
        "id": "16952568060415494110",
        "title": "公共厕所",
        "address": "安徽省淮南市凤台县岳张集路与顾桥路交叉口西北方向45米左右",
        "tel": "",
        "category": "基础设施:公共设施:公共厕所",
        "type": 0,
        "location": {
            "lat": 32.736497,
            "lng": 116.674657
        },
        "ad_info": {
            "adcode": 340421,
            "province": "安徽省",
            "city": "淮南市",
            "district": "凤台县"
        }
    },
    {
        "id": "15024031391819082009",
        "title": "公共厕所",
        "address": "安徽省淮南市田家庵区国庆中路102-8",
        "tel": "",
        "category": "基础设施:公共设施:公共厕所",
        "type": 0,
        "location": {
            "lat": 32.648739,
            "lng": 117.024763
        },
        "ad_info": {
            "adcode": 340403,
            "province": "安徽省",
            "city": "淮南市",
            "district": "田家庵区"
        }
    },
    {
        "id": "16326907481715811970",
        "title": "公共厕所",
        "address": "安徽省淮南市潘集区长江路与黄山路交叉口正东方向93米左右",
        "tel": "",
        "category": "基础设施:公共设施:公共厕所",
        "type": 0,
        "location": {
            "lat": 32.783763,
            "lng": 116.818513
        },
        "ad_info": {
            "adcode": 340406,
            "province": "安徽省",
            "city": "淮南市",
            "district": "潘集区"
        }
    },
    {
        "id": "11555767673462203895",
        "title": "公共厕所",
        "address": "安徽省淮南市田家庵区吉诺尔体育南侧220米",
        "tel": "",
        "category": "基础设施:公共设施:公共厕所",
        "type": 0,
        "location": {
            "lat": 32.421975,
            "lng": 117.029455
        },
        "ad_info": {
            "adcode": 340403,
            "province": "安徽省",
            "city": "淮南市",
            "district": "田家庵区"
        }
    },
    {
        "id": "9403768415709983937",
        "title": "公共厕所",
        "address": "安徽省淮南市田家庵区舜耕中路与舜耕西路交叉口正东方向140米左右",
        "tel": "",
        "category": "基础设施:公共设施:公共厕所",
        "type": 0,
        "location": {
            "lat": 32.630572,
            "lng": 117.008066
        },
        "ad_info": {
            "adcode": 340403,
            "province": "安徽省",
            "city": "淮南市",
            "district": "田家庵区"
        }
    },
    {
        "id": "13155313789721013120",
        "title": "公共厕所",
        "address": "安徽省淮南市谢家集区山余巷与洞山西路交叉口正南方向139米左右",
        "tel": "",
        "category": "基础设施:公共设施:公共厕所",
        "type": 0,
        "location": {
            "lat": 32.604217,
            "lng": 116.917338
        },
        "ad_info": {
            "adcode": 340404,
            "province": "安徽省",
            "city": "淮南市",
            "district": "谢家集区"
        }
    },
    {
        "id": "2893184136009834811",
        "title": "公共厕所",
        "address": "安徽省淮南市寿县G237与Y167交叉口正南方向1211米左右",
        "tel": "",
        "category": "基础设施:公共设施:公共厕所",
        "type": 0,
        "location": {
            "lat": 32.229474,
            "lng": 116.733048
        },
        "ad_info": {
            "adcode": 340422,
            "province": "安徽省",
            "city": "淮南市",
            "district": "寿县"
        }
    },
    {
        "id": "16342445048531577475",
        "title": "公共厕所(AH一HN一0028)",
        "address": "安徽省淮南市寿县众兴路与时苗路交叉口东北方向109米左右",
        "tel": "",
        "category": "基础设施:公共设施:公共厕所",
        "type": 0,
        "location": {
            "lat": 32.548783,
            "lng": 116.796885
        },
        "ad_info": {
            "adcode": 340422,
            "province": "安徽省",
            "city": "淮南市",
            "district": "寿县"
        }
    },
    {
        "id": "2165972224531306312",
        "title": "公共厕所",
        "address": "安徽省淮南市凤台县兴湖路与环湖路交叉口正南方向534米左右",
        "tel": "",
        "category": "基础设施:公共设施:公共厕所",
        "type": 0,
        "location": {
            "lat": 32.613636,
            "lng": 116.628654
        },
        "ad_info": {
            "adcode": 340421,
            "province": "安徽省",
            "city": "淮南市",
            "district": "凤台县"
        }
    },
    {
        "id": "17294077817498086243",
        "title": "公共厕所",
        "address": "安徽省淮南市大通区淮南东方集团肿瘤医院彩超室对面",
        "tel": "",
        "category": "基础设施:公共设施:公共厕所",
        "type": 0,
        "location": {
            "lat": 32.613466,
            "lng": 117.097519
        },
        "ad_info": {
            "adcode": 340402,
            "province": "安徽省",
            "city": "淮南市",
            "district": "大通区"
        }
    },
    {
        "id": "17035614346867571644",
        "title": "公共厕所",
        "address": "安徽省淮南市寿县东大街与北大街交叉口正西方向136米左右",
        "tel": "",
        "category": "基础设施:公共设施:公共厕所",
        "type": 0,
        "location": {
            "lat": 32.5765,
            "lng": 116.78274
        },
        "ad_info": {
            "adcode": 340422,
            "province": "安徽省",
            "city": "淮南市",
            "district": "寿县"
        }
    },
    {
        "id": "4031679179351838899",
        "title": "公共厕所",
        "address": "安徽省淮南市凤台县中山北路与望淮路交叉口东北方向179米左右",
        "tel": "",
        "category": "基础设施:公共设施:公共厕所",
        "type": 0,
        "location": {
            "lat": 32.702181,
            "lng": 116.729978
        },
        "ad_info": {
            "adcode": 340421,
            "province": "安徽省",
            "city": "淮南市",
            "district": "凤台县"
        }
    },
    {
        "id": "5849420580892456673",
        "title": "公共厕所",
        "address": "安徽省淮南市田家庵区Y029与Y232交叉口西北方向1564米左右",
        "tel": "",
        "category": "基础设施:公共设施:公共厕所",
        "type": 0,
        "location": {
            "lat": 32.423046,
            "lng": 117.033409
        },
        "ad_info": {
            "adcode": 340403,
            "province": "安徽省",
            "city": "淮南市",
            "district": "田家庵区"
        }
    },
    {
        "id": "3642202262724602848",
        "title": "公共厕所",
        "address": "安徽省淮南市凤台县创业北路与创业路交叉口正北方向409米左右",
        "tel": "",
        "category": "基础设施:公共设施:公共厕所",
        "type": 0,
        "location": {
            "lat": 32.656224,
            "lng": 116.630239
        },
        "ad_info": {
            "adcode": 340421,
            "province": "安徽省",
            "city": "淮南市",
            "district": "凤台县"
        }
    },
    {
        "id": "1157296817108093238",
        "title": "公共厕所",
        "address": "安徽省淮南市寿县大顺路与芍陂路交叉口东南方向217米左右",
        "tel": "",
        "category": "基础设施:公共设施:公共厕所",
        "type": 0,
        "location": {
            "lat": 32.554405,
            "lng": 116.806763
        },
        "ad_info": {
            "adcode": 340422,
            "province": "安徽省",
            "city": "淮南市",
            "district": "寿县"
        }
    },
    {
        "id": "9066288401727630018",
        "title": "公共厕所",
        "address": "安徽省淮南市大通区国庆东路与洛九路交叉口正南方向117米左右",
        "tel": "",
        "category": "基础设施:公共设施:公共厕所",
        "type": 0,
        "location": {
            "lat": 32.675535,
            "lng": 117.09304
        },
        "ad_info": {
            "adcode": 340402,
            "province": "安徽省",
            "city": "淮南市",
            "district": "大通区"
        }
    },
    {
        "id": "15366370757030199622",
        "title": "公共厕所",
        "address": "安徽省淮南市大通区洛河镇文体活动中心南侧",
        "tel": "",
        "category": "基础设施:公共设施:公共厕所",
        "type": 0,
        "location": {
            "lat": 32.683602,
            "lng": 117.086218
        },
        "ad_info": {
            "adcode": 340402,
            "province": "安徽省",
            "city": "淮南市",
            "district": "大通区"
        }
    },
    {
        "id": "7945562696103382179",
        "title": "公共厕所",
        "address": "安徽省淮南市寿县237国道与G0321德上高速入口交叉口东南500米",
        "tel": "",
        "category": "基础设施:公共设施:公共厕所",
        "type": 0,
        "location": {
            "lat": 32.177078,
            "lng": 116.738204
        },
        "ad_info": {
            "adcode": 340422,
            "province": "安徽省",
            "city": "淮南市",
            "district": "寿县"
        }
    },
    {
        "id": "12221440491449075078",
        "title": "公共厕所",
        "address": "安徽省淮南市田家庵区广电巷与洞山中路交叉口西南方向51米左右",
        "tel": "",
        "category": "基础设施:公共设施:公共厕所",
        "type": 0,
        "location": {
            "lat": 32.624902,
            "lng": 116.996324
        },
        "ad_info": {
            "adcode": 340403,
            "province": "安徽省",
            "city": "淮南市",
            "district": "田家庵区"
        }
    },
    {
        "id": "8501234328831601939",
        "title": "公共厕所",
        "address": "安徽省淮南市凤台县G237与Y078交叉口正南方向259米左右",
        "tel": "",
        "category": "基础设施:公共设施:公共厕所",
        "type": 0,
        "location": {
            "lat": 32.777458,
            "lng": 116.656995
        },
        "ad_info": {
            "adcode": 340421,
            "province": "安徽省",
            "city": "淮南市",
            "district": "凤台县"
        }
    },
    {
        "id": "6856190672920567267",
        "title": "公共厕所",
        "address": "安徽省淮南市田家庵区周集坝路与民裕大街交叉口正西方向128米左右",
        "tel": "",
        "category": "基础设施:公共设施:公共厕所",
        "type": 0,
        "location": {
            "lat": 32.592261,
            "lng": 116.995082
        },
        "ad_info": {
            "adcode": 340403,
            "province": "安徽省",
            "city": "淮南市",
            "district": "田家庵区"
        }
    },
    {
        "id": "2896624126750883806",
        "title": "公共厕所",
        "address": "安徽省淮南市寿县大顺路与芍陂路交叉口西南方向239米左右",
        "tel": "",
        "category": "基础设施:公共设施:公共厕所",
        "type": 0,
        "location": {
            "lat": 32.554396,
            "lng": 116.803116
        },
        "ad_info": {
            "adcode": 340422,
            "province": "安徽省",
            "city": "淮南市",
            "district": "寿县"
        }
    },
    {
        "id": "1094725379509885834",
        "title": "公共厕所",
        "address": "安徽省淮南市寿县G237与X020交叉口西北方向163米左右",
        "tel": "",
        "category": "基础设施:公共设施:公共厕所",
        "type": 0,
        "location": {
            "lat": 32.383706,
            "lng": 116.794584
        },
        "ad_info": {
            "adcode": 340422,
            "province": "安徽省",
            "city": "淮南市",
            "district": "寿县"
        }
    },
    {
        "id": "13260629634326935132",
        "title": "公共厕所",
        "address": "安徽省淮南市凤台县望淮路与环城路交叉口西南方向188米左右",
        "tel": "",
        "category": "基础设施:公共设施:公共厕所",
        "type": 0,
        "location": {
            "lat": 32.701496,
            "lng": 116.731181
        },
        "ad_info": {
            "adcode": 340421,
            "province": "安徽省",
            "city": "淮南市",
            "district": "凤台县"
        }
    },
    {
        "id": "465575534091598735",
        "title": "公共厕所",
        "address": "安徽省淮南市大通区建兴路与月伴湾南巷交叉口西南方向222米左右",
        "tel": "",
        "category": "基础设施:公共设施:公共厕所",
        "type": 0,
        "location": {
            "lat": 32.638985,
            "lng": 117.049896
        },
        "ad_info": {
            "adcode": 340402,
            "province": "安徽省",
            "city": "淮南市",
            "district": "大通区"
        }
    },
    {
        "id": "3044166036965518291",
        "title": "公共厕所",
        "address": "安徽省淮南市潘集区长江路与黄山路交叉口西南方向161米左右",
        "tel": "",
        "category": "基础设施:公共设施:公共厕所",
        "type": 0,
        "location": {
            "lat": 32.782969,
            "lng": 116.816045
        },
        "ad_info": {
            "adcode": 340406,
            "province": "安徽省",
            "city": "淮南市",
            "district": "潘集区"
        }
    },
    {
        "id": "928763978215247460",
        "title": "公共厕所",
        "address": "安徽省淮南市潘集区王圩小学西侧240米",
        "tel": "",
        "category": "基础设施:公共设施:公共厕所",
        "type": 0,
        "location": {
            "lat": 32.674869,
            "lng": 116.888561
        },
        "ad_info": {
            "adcode": 340406,
            "province": "安徽省",
            "city": "淮南市",
            "district": "潘集区"
        }
    },
    {
        "id": "6164528957761093736",
        "title": "公共厕所",
        "address": "安徽省淮南市凤台县凤城大道与州来路交叉口西北方向123米左右",
        "tel": "",
        "category": "基础设施:公共设施:公共厕所",
        "type": 0,
        "location": {
            "lat": 32.71015,
            "lng": 116.71931
        },
        "ad_info": {
            "adcode": 340421,
            "province": "安徽省",
            "city": "淮南市",
            "district": "凤台县"
        }
    },
    {
        "id": "7416828072417140001",
        "title": "公共厕所",
        "address": "安徽省淮南市田家庵区人民北路与人民南路交叉口正南方向269米左右",
        "tel": "",
        "category": "基础设施:公共设施:公共厕所",
        "type": 0,
        "location": {
            "lat": 32.645042,
            "lng": 117.020257
        },
        "ad_info": {
            "adcode": 340403,
            "province": "安徽省",
            "city": "淮南市",
            "district": "田家庵区"
        }
    },
    {
        "id": "16817533830330292086",
        "title": "公共厕所",
        "address": "安徽省淮南市潘集区煤化工大道与经八路交叉口正南方向119米左右",
        "tel": "",
        "category": "基础设施:公共设施:公共厕所",
        "type": 0,
        "location": {
            "lat": 32.698,
            "lng": 116.86212
        },
        "ad_info": {
            "adcode": 340406,
            "province": "安徽省",
            "city": "淮南市",
            "district": "潘集区"
        }
    },
    {
        "id": "118903398919958120",
        "title": "公共厕所",
        "address": "安徽省淮南市凤台县钱庙路凤凰湖新区-L区",
        "tel": "",
        "category": "基础设施:公共设施:公共厕所",
        "type": 0,
        "location": {
            "lat": 32.740025,
            "lng": 116.68078
        },
        "ad_info": {
            "adcode": 340421,
            "province": "安徽省",
            "city": "淮南市",
            "district": "凤台县"
        }
    },
    {
        "id": "7975108568382302236",
        "title": "公共厕所",
        "address": "安徽省淮南市潘集区新村四巷与珠江路交叉口正南方向381米左右",
        "tel": "",
        "category": "基础设施:公共设施:公共厕所",
        "type": 0,
        "location": {
            "lat": 32.770231,
            "lng": 116.820954
        },
        "ad_info": {
            "adcode": 340406,
            "province": "安徽省",
            "city": "淮南市",
            "district": "潘集区"
        }
    },
    {
        "id": "15509518079707350548",
        "title": "公共厕所",
        "address": "安徽省淮南市潘集区天津路与长江路交叉口东南方向94米左右",
        "tel": "",
        "category": "基础设施:公共设施:公共厕所",
        "type": 0,
        "location": {
            "lat": 32.773753,
            "lng": 116.835283
        },
        "ad_info": {
            "adcode": 340406,
            "province": "安徽省",
            "city": "淮南市",
            "district": "潘集区"
        }
    },
    {
        "id": "11874805620565079546",
        "title": "无障碍公共厕所",
        "address": "安徽省淮南市八公山区四马路与沿矿路交叉口正北方向85米左右",
        "tel": "",
        "category": "基础设施:公共设施:公共厕所",
        "type": 0,
        "location": {
            "lat": 32.6228,
            "lng": 116.852404
        },
        "ad_info": {
            "adcode": 340405,
            "province": "安徽省",
            "city": "淮南市",
            "district": "八公山区"
        }
    },
    {
        "id": "8850189668492474828",
        "title": "无障碍公共厕所",
        "address": "安徽省淮南市谢家集区汇康巷与洞山西路交叉口正东方向369米左右",
        "tel": "",
        "category": "基础设施:公共设施:公共厕所",
        "type": 0,
        "location": {
            "lat": 32.606698,
            "lng": 116.923409
        },
        "ad_info": {
            "adcode": 340404,
            "province": "安徽省",
            "city": "淮南市",
            "district": "谢家集区"
        }
    },
    {
        "id": "10795618813870455770",
        "title": "公共厕所",
        "address": "安徽省淮南市田家庵区淮舜北路与青年路交叉口东北方向242米左右",
        "tel": "",
        "category": "基础设施:公共设施:公共厕所",
        "type": 0,
        "location": {
            "lat": 32.659609,
            "lng": 117.027948
        },
        "ad_info": {
            "adcode": 340403,
            "province": "安徽省",
            "city": "淮南市",
            "district": "田家庵区"
        }
    },
    {
        "id": "14846205797852866746",
        "title": "公共厕所",
        "address": "安徽省淮南市田家庵区国庆中路与龙湖北路交叉口西南方向182米左右",
        "tel": "",
        "category": "基础设施:公共设施:公共厕所",
        "type": 0,
        "location": {
            "lat": 32.645807,
            "lng": 117.014447
        },
        "ad_info": {
            "adcode": 340403,
            "province": "安徽省",
            "city": "淮南市",
            "district": "田家庵区"
        }
    },
    {
        "id": "13697100215094337293",
        "title": "公共厕所",
        "address": "安徽省淮南市田家庵区洞山东路与洞山小街交叉口正北方向142米左右",
        "tel": "",
        "category": "基础设施:公共设施:公共厕所",
        "type": 0,
        "location": {
            "lat": 32.628524,
            "lng": 117.010834
        },
        "ad_info": {
            "adcode": 340403,
            "province": "安徽省",
            "city": "淮南市",
            "district": "田家庵区"
        }
    },
    {
        "id": "17273102446856596658",
        "title": "公共厕所",
        "address": "安徽省淮南市八公山区星级旅游公厕18",
        "tel": "",
        "category": "基础设施:公共设施:公共厕所",
        "type": 0,
        "location": {
            "lat": 32.622388,
            "lng": 116.844732
        },
        "ad_info": {
            "adcode": 340405,
            "province": "安徽省",
            "city": "淮南市",
            "district": "八公山区"
        }
    },
    {
        "id": "3392477603415516985",
        "title": "公共厕所",
        "address": "安徽省淮南市田家庵区淮河大道与立春大街交叉口正南方向796米左右",
        "tel": "",
        "category": "基础设施:公共设施:公共厕所",
        "type": 0,
        "location": {
            "lat": 32.529547,
            "lng": 117.010467
        },
        "ad_info": {
            "adcode": 340403,
            "province": "安徽省",
            "city": "淮南市",
            "district": "田家庵区"
        }
    },
    {
        "id": "13264974243815859838",
        "title": "公共厕所",
        "address": "安徽省淮南市田家庵区学院北路与田寿路交叉口正西方向38米左右",
        "tel": "",
        "category": "基础设施:公共设施:公共厕所",
        "type": 0,
        "location": {
            "lat": 32.646748,
            "lng": 117.011067
        },
        "ad_info": {
            "adcode": 340403,
            "province": "安徽省",
            "city": "淮南市",
            "district": "田家庵区"
        }
    },
    {
        "id": "4018579034039903118",
        "title": "公共厕所",
        "address": "安徽省淮南市潘集区凯特汽车销售田集分公司东侧",
        "tel": "",
        "category": "基础设施:公共设施:公共厕所",
        "type": 0,
        "location": {
            "lat": 32.768311,
            "lng": 116.816457
        },
        "ad_info": {
            "adcode": 340406,
            "province": "安徽省",
            "city": "淮南市",
            "district": "潘集区"
        }
    },
    {
        "id": "673191419301626705",
        "title": "公共厕所",
        "address": "安徽省淮南市田家庵区学校路与朝阳西路交叉口西南方向43米左右",
        "tel": "",
        "category": "基础设施:公共设施:公共厕所",
        "type": 0,
        "location": {
            "lat": 32.632842,
            "lng": 116.981515
        },
        "ad_info": {
            "adcode": 340403,
            "province": "安徽省",
            "city": "淮南市",
            "district": "田家庵区"
        }
    },
    {
        "id": "10646215124942703361",
        "title": "男洗手间(中央国际广场)",
        "address": "安徽省淮南市田家庵区龙湖北路国庆中路交叉口南京新百购物中心F5",
        "tel": "",
        "category": "基础设施:公共设施:公共厕所",
        "type": 0,
        "location": {
            "lat": 32.647085,
            "lng": 117.01439
        },
        "ad_info": {
            "adcode": 340403,
            "province": "安徽省",
            "city": "淮南市",
            "district": "田家庵区"
        }
    },
    {
        "id": "2336792149115684997",
        "title": "公共厕所",
        "address": "安徽省淮南市潘集区X011与X014交叉口东北方向124米左右",
        "tel": "",
        "category": "基础设施:公共设施:公共厕所",
        "type": 0,
        "location": {
            "lat": 32.687019,
            "lng": 116.864523
        },
        "ad_info": {
            "adcode": 340406,
            "province": "安徽省",
            "city": "淮南市",
            "district": "潘集区"
        }
    },
    {
        "id": "2674459021799643605",
        "title": "公共厕所",
        "address": "安徽省淮南市田家庵区淮舜北路459号",
        "tel": "",
        "category": "基础设施:公共设施:公共厕所",
        "type": 0,
        "location": {
            "lat": 32.666729,
            "lng": 117.023163
        },
        "ad_info": {
            "adcode": 340403,
            "province": "安徽省",
            "city": "淮南市",
            "district": "田家庵区"
        }
    },
    {
        "id": "15409839795648143431",
        "title": "公共厕所",
        "address": "安徽省淮南市大通区铂蓝美地小区东南侧160米",
        "tel": "",
        "category": "基础设施:公共设施:公共厕所",
        "type": 0,
        "location": {
            "lat": 32.651697,
            "lng": 117.046532
        },
        "ad_info": {
            "adcode": 340402,
            "province": "安徽省",
            "city": "淮南市",
            "district": "大通区"
        }
    },
    {
        "id": "4491725754054213411",
        "title": "公共厕所",
        "address": "安徽省淮南市谢家集区卧龙山路与春申大街交叉口正东方向39米左右",
        "tel": "",
        "category": "基础设施:公共设施:公共厕所",
        "type": 0,
        "location": {
            "lat": 32.592575,
            "lng": 116.854086
        },
        "ad_info": {
            "adcode": 340404,
            "province": "安徽省",
            "city": "淮南市",
            "district": "谢家集区"
        }
    },
    {
        "id": "10181349218102060110",
        "title": "公共厕所",
        "address": "安徽省淮南市潘集区琅琊山路与长江路交叉口东北方向37米左右",
        "tel": "",
        "category": "基础设施:公共设施:公共厕所",
        "type": 0,
        "location": {
            "lat": 32.784921,
            "lng": 116.814571
        },
        "ad_info": {
            "adcode": 340406,
            "province": "安徽省",
            "city": "淮南市",
            "district": "潘集区"
        }
    },
    {
        "id": "8224561064106924013",
        "title": "公共厕所",
        "address": "安徽省淮南市大通区国庆东路与建设北路交叉口正北方向367米左右",
        "tel": "",
        "category": "基础设施:公共设施:公共厕所",
        "type": 0,
        "location": {
            "lat": 32.660566,
            "lng": 117.057962
        },
        "ad_info": {
            "adcode": 340402,
            "province": "安徽省",
            "city": "淮南市",
            "district": "大通区"
        }
    },
    {
        "id": "15108948681082325587",
        "title": "淮南龙湖中高考全日制学校公共厕所",
        "address": "安徽省淮南市田家庵区人民北路与青年路交叉口正北方向173米左右",
        "tel": "",
        "category": "基础设施:公共设施:公共厕所",
        "type": 0,
        "location": {
            "lat": 32.657993,
            "lng": 117.019055
        },
        "ad_info": {
            "adcode": 340403,
            "province": "安徽省",
            "city": "淮南市",
            "district": "田家庵区"
        }
    },
    {
        "id": "17914484795978902928",
        "title": "凤台国际饭店-洗手间",
        "address": "安徽省淮南市凤台县临淮路与明珠大道交叉口正北方向84米左右",
        "tel": "",
        "category": "基础设施:公共设施:公共厕所",
        "type": 0,
        "location": {
            "lat": 32.706742,
            "lng": 116.708572
        },
        "ad_info": {
            "adcode": 340421,
            "province": "安徽省",
            "city": "淮南市",
            "district": "凤台县"
        }
    },
    {
        "id": "696700747188500806",
        "title": "公共厕所",
        "address": "安徽省淮南市凤台县焦岗湖景区(兴湖路西500米)",
        "tel": "",
        "category": "基础设施:公共设施:公共厕所",
        "type": 0,
        "location": {
            "lat": 32.612544,
            "lng": 116.625063
        },
        "ad_info": {
            "adcode": 340421,
            "province": "安徽省",
            "city": "淮南市",
            "district": "凤台县"
        }
    },
    {
        "id": "12145425027300143124",
        "title": "公共卫生间",
        "address": "安徽省淮南市谢家集区健康路与卧龙山路交叉口正东方向87米左右",
        "tel": "",
        "category": "基础设施:公共设施:公共厕所",
        "type": 0,
        "location": {
            "lat": 32.594964,
            "lng": 116.86048
        },
        "ad_info": {
            "adcode": 340404,
            "province": "安徽省",
            "city": "淮南市",
            "district": "谢家集区"
        }
    },
    {
        "id": "5068982621276437809",
        "title": "女洗手间(中央国际广场)",
        "address": "安徽省淮南市田家庵区龙湖北路2号中央国际广场F2层",
        "tel": "",
        "category": "基础设施:公共设施:公共厕所",
        "type": 0,
        "location": {
            "lat": 32.647096,
            "lng": 117.014488
        },
        "ad_info": {
            "adcode": 340403,
            "province": "安徽省",
            "city": "淮南市",
            "district": "田家庵区"
        }
    },
    {
        "id": "12617137248448873468",
        "title": "八公山服务区公共厕所",
        "address": "安徽省淮南市谢家集区泰宁大街与香樟大道交叉口正南方向1425米左右",
        "tel": "",
        "category": "基础设施:公共设施:公共厕所",
        "type": 0,
        "location": {
            "lat": 32.545202,
            "lng": 116.965384
        },
        "ad_info": {
            "adcode": 340404,
            "province": "安徽省",
            "city": "淮南市",
            "district": "谢家集区"
        }
    },
    {
        "id": "9435287073138999818",
        "title": "公共公共厕所",
        "address": "安徽省淮南市谢家集区西经十八路与谢李路交叉口东南方向165米左右",
        "tel": "",
        "category": "基础设施:公共设施:公共厕所",
        "type": 0,
        "location": {
            "lat": 32.583224,
            "lng": 116.888049
        },
        "ad_info": {
            "adcode": 340404,
            "province": "安徽省",
            "city": "淮南市",
            "district": "谢家集区"
        }
    },
    {
        "id": "17941182445972749874",
        "title": "焦岗湖服务区公共厕所",
        "address": "安徽省淮南市凤台县滁新高速公路焦岗湖服务区",
        "tel": "",
        "category": "基础设施:公共设施:公共厕所",
        "type": 0,
        "location": {
            "lat": 32.620641,
            "lng": 116.660134
        },
        "ad_info": {
            "adcode": 340421,
            "province": "安徽省",
            "city": "淮南市",
            "district": "凤台县"
        }
    },
    {
        "id": "18281147964711365393",
        "title": "茶庵服务区公共厕所",
        "address": "安徽省淮南市寿县茶庵服务区与G0321德上高速交叉口南500米",
        "tel": "",
        "category": "基础设施:公共设施:公共厕所",
        "type": 0,
        "location": {
            "lat": 32.053252,
            "lng": 116.782267
        },
        "ad_info": {
            "adcode": 340422,
            "province": "安徽省",
            "city": "淮南市",
            "district": "寿县"
        }
    },
    {
        "id": "14657264695269376267",
        "title": "焦岗湖服务区公共厕所",
        "address": "安徽省淮南市凤台县毛集枢纽与滁新高速交叉口西北方向931米左右",
        "tel": "",
        "category": "基础设施:公共设施:公共厕所",
        "type": 0,
        "location": {
            "lat": 32.623308,
            "lng": 116.662262
        },
        "ad_info": {
            "adcode": 340421,
            "province": "安徽省",
            "city": "淮南市",
            "district": "凤台县"
        }
    },
    {
        "id": "7502033527400874894",
        "title": "无障碍公共厕所",
        "address": "安徽省淮南市田家庵区宾馆路与洞山中路辅路交叉口东南120米",
        "tel": "",
        "category": "基础设施:公共设施:公共厕所",
        "type": 0,
        "location": {
            "lat": 32.625166,
            "lng": 117.00427
        },
        "ad_info": {
            "adcode": 340403,
            "province": "安徽省",
            "city": "淮南市",
            "district": "田家庵区"
        }
    },
    {
        "id": "4393750879668201866",
        "title": "八公山服务区公共厕所",
        "address": "安徽省淮南市谢家集区大别山路与泰宁大街交叉口正南方向1717米左右",
        "tel": "",
        "category": "基础设施:公共设施:公共厕所",
        "type": 0,
        "location": {
            "lat": 32.542537,
            "lng": 116.964427
        },
        "ad_info": {
            "adcode": 340404,
            "province": "安徽省",
            "city": "淮南市",
            "district": "谢家集区"
        }
    },
    {
        "id": "360589235683729140",
        "title": "公共厕所",
        "address": "安徽省淮南市潘集区天柱山路与黄河路交叉口西北方向199米左右",
        "tel": "",
        "category": "基础设施:公共设施:公共厕所",
        "type": 0,
        "location": {
            "lat": 32.778632,
            "lng": 116.818981
        },
        "ad_info": {
            "adcode": 340406,
            "province": "安徽省",
            "city": "淮南市",
            "district": "潘集区"
        }
    },
    {
        "id": "13705534010766855289",
        "title": "八公山服务区公共厕所",
        "address": "安徽省淮南市谢家集区八公山服务区(滁新高速公路北)",
        "tel": "",
        "category": "基础设施:公共设施:公共厕所",
        "type": 0,
        "location": {
            "lat": 32.545354,
            "lng": 116.965862
        },
        "ad_info": {
            "adcode": 340404,
            "province": "安徽省",
            "city": "淮南市",
            "district": "谢家集区"
        }
    },
    {
        "id": "7747856771762498487",
        "title": "公共厕所",
        "address": "安徽省淮南市田家庵区学院路与朝阳路交口向北200米金大地龙湖中心F1",
        "tel": "",
        "category": "基础设施:公共设施:男洗手间",
        "type": 0,
        "location": {
            "lat": 32.64442,
            "lng": 117.013028
        },
        "ad_info": {
            "adcode": 340403,
            "province": "安徽省",
            "city": "淮南市",
            "district": "田家庵区"
        }
    },
    {
        "id": "14892719318215139290",
        "title": "残障-洗手间",
        "address": "安徽省淮南市田家庵区学院路与朝阳路交口向北200米金大地龙湖中心F1",
        "tel": "",
        "category": "基础设施:公共设施:无障碍洗手间",
        "type": 0,
        "location": {
            "lat": 32.644463,
            "lng": 117.013057
        },
        "ad_info": {
            "adcode": 340403,
            "province": "安徽省",
            "city": "淮南市",
            "district": "田家庵区"
        }
    },
    {
        "id": "5464511003095082525",
        "title": "女洗手间",
        "address": "安徽省淮南市田家庵区学院路与朝阳路交口向北200米金大地龙湖中心F1",
        "tel": "",
        "category": "基础设施:公共设施:女洗手间",
        "type": 0,
        "location": {
            "lat": 32.644548,
            "lng": 117.01229
        },
        "ad_info": {
            "adcode": 340403,
            "province": "安徽省",
            "city": "淮南市",
            "district": "田家庵区"
        }
    },
    {
        "id": "2427122566788792928",
        "title": "男洗手间",
        "address": "安徽省淮南市田家庵区学院路与朝阳路交口向北200米金大地龙湖中心F1",
        "tel": "",
        "category": "基础设施:公共设施:男洗手间",
        "type": 0,
        "location": {
            "lat": 32.643269,
            "lng": 117.012408
        },
        "ad_info": {
            "adcode": 340403,
            "province": "安徽省",
            "city": "淮南市",
            "district": "田家庵区"
        }
    },
    {
        "id": "376589574021392840",
        "title": "男洗手间",
        "address": "安徽省淮南市田家庵区学院路与朝阳路交口向北200米金大地龙湖中心F1",
        "tel": "",
        "category": "基础设施:公共设施:男洗手间",
        "type": 0,
        "location": {
            "lat": 32.644556,
            "lng": 117.012335
        },
        "ad_info": {
            "adcode": 340403,
            "province": "安徽省",
            "city": "淮南市",
            "district": "田家庵区"
        }
    },
    {
        "id": "12505573028125275124",
        "title": "女洗手间",
        "address": "安徽省淮南市田家庵区龙湖北路国庆中路交叉口南京新百购物中心F4",
        "tel": "",
        "category": "基础设施:公共设施:女洗手间",
        "type": 0,
        "location": {
            "lat": 32.647093,
            "lng": 117.014434
        },
        "ad_info": {
            "adcode": 340403,
            "province": "安徽省",
            "city": "淮南市",
            "district": "田家庵区"
        }
    },
    {
        "id": "9088797263275943667",
        "title": "男洗手间",
        "address": "安徽省淮南市田家庵区学院路与朝阳路交口向北200米金大地龙湖中心F2",
        "tel": "",
        "category": "基础设施:公共设施:男洗手间",
        "type": 0,
        "location": {
            "lat": 32.644555,
            "lng": 117.012331
        },
        "ad_info": {
            "adcode": 340403,
            "province": "安徽省",
            "city": "淮南市",
            "district": "田家庵区"
        }
    },
    {
        "id": "825245693206623600",
        "title": "男洗手间",
        "address": "安徽省淮南市田家庵区龙湖北路国庆中路交叉口南京新百购物中心F4",
        "tel": "",
        "category": "基础设施:公共设施:男洗手间",
        "type": 0,
        "location": {
            "lat": 32.647083,
            "lng": 117.014394
        },
        "ad_info": {
            "adcode": 340403,
            "province": "安徽省",
            "city": "淮南市",
            "district": "田家庵区"
        }
    },
    {
        "id": "6057245347358253561",
        "title": "男洗手间",
        "address": "安徽省淮南市田家庵区龙湖北路国庆中路交叉口南京新百购物中心F3",
        "tel": "",
        "category": "基础设施:公共设施:男洗手间",
        "type": 0,
        "location": {
            "lat": 32.647089,
            "lng": 117.014394
        },
        "ad_info": {
            "adcode": 340403,
            "province": "安徽省",
            "city": "淮南市",
            "district": "田家庵区"
        }
    },
    {
        "id": "4694233670214607026",
        "title": "公共厕所",
        "address": "安徽省淮南市寿县寿春路与寿霍路交叉口正南方向165米左右",
        "tel": "",
        "category": "基础设施:公共设施:公共厕所",
        "type": 0,
        "location": {
            "lat": 32.556127,
            "lng": 116.78231
        },
        "ad_info": {
            "adcode": 340422,
            "province": "安徽省",
            "city": "淮南市",
            "district": "寿县"
        }
    },
    {
        "id": "16873290460618592841",
        "title": "女洗手间",
        "address": "安徽省淮南市田家庵区龙湖北路国庆中路交叉口南京新百购物中心F5",
        "tel": "",
        "category": "基础设施:公共设施:女洗手间",
        "type": 0,
        "location": {
            "lat": 32.647095,
            "lng": 117.014433
        },
        "ad_info": {
            "adcode": 340403,
            "province": "安徽省",
            "city": "淮南市",
            "district": "田家庵区"
        }
    },
    {
        "id": "16333488559793783181",
        "title": "公共厕所",
        "address": "安徽省淮南市潘集区谢圩村卫生室北侧200米",
        "tel": "",
        "category": "基础设施:公共设施:公共厕所",
        "type": 0,
        "location": {
            "lat": 32.679967,
            "lng": 116.8937
        },
        "ad_info": {
            "adcode": 340406,
            "province": "安徽省",
            "city": "淮南市",
            "district": "潘集区"
        }
    },
    {
        "id": "17460031877917116238",
        "title": "公共厕所",
        "address": "安徽省淮南市谢家集区十涧湖西路与铁厂巷交叉口西北方向520米左右",
        "tel": "",
        "category": "基础设施:公共设施:公共厕所",
        "type": 0,
        "location": {
            "lat": 32.615291,
            "lng": 116.906951
        },
        "ad_info": {
            "adcode": 340404,
            "province": "安徽省",
            "city": "淮南市",
            "district": "谢家集区"
        }
    },
    {
        "id": "10898073847635483369",
        "title": "公共厕所",
        "address": "安徽省淮南市大通区支二路与支四路交叉口东南方向159米左右",
        "tel": "",
        "category": "基础设施:公共设施:公共厕所",
        "type": 0,
        "location": {
            "lat": 32.63336,
            "lng": 117.057394
        },
        "ad_info": {
            "adcode": 340402,
            "province": "安徽省",
            "city": "淮南市",
            "district": "大通区"
        }
    },
    {
        "id": "15094119400254406840",
        "title": "公共厕所",
        "address": "安徽省淮南市大通区居庆路与电力巷交叉口西北方向21米左右",
        "tel": "",
        "category": "基础设施:公共设施:公共厕所",
        "type": 0,
        "location": {
            "lat": 32.632785,
            "lng": 117.046185
        },
        "ad_info": {
            "adcode": 340402,
            "province": "安徽省",
            "city": "淮南市",
            "district": "大通区"
        }
    },
    {
        "id": "8044908720258367395",
        "title": "公共厕所",
        "address": "安徽省淮南市田家庵区龙泉街道洞山中路淮南市中级法院",
        "tel": "",
        "category": "基础设施:公共设施:公共厕所",
        "type": 0,
        "location": {
            "lat": 32.625239,
            "lng": 116.994257
        },
        "ad_info": {
            "adcode": 340403,
            "province": "安徽省",
            "city": "淮南市",
            "district": "田家庵区"
        }
    },
    {
        "id": "4251730736114937300",
        "title": "公共厕所",
        "address": "安徽省淮南市田家庵区人民北路与人民南路交叉口东北方向494米左右",
        "tel": "",
        "category": "基础设施:公共设施:公共厕所",
        "type": 0,
        "location": {
            "lat": 32.650114,
            "lng": 117.02392
        },
        "ad_info": {
            "adcode": 340403,
            "province": "安徽省",
            "city": "淮南市",
            "district": "田家庵区"
        }
    },
    {
        "id": "3646585652348110448",
        "title": "免费公共厕所",
        "address": "安徽省淮南市大通区民主北路与田大南路交叉口正东方向32米左右",
        "tel": "",
        "category": "基础设施:公共设施:公共厕所",
        "type": 0,
        "location": {
            "lat": 32.635718,
            "lng": 117.052286
        },
        "ad_info": {
            "adcode": 340402,
            "province": "安徽省",
            "city": "淮南市",
            "district": "大通区"
        }
    },
    {
        "id": "3536642321732577190",
        "title": "公共厕所",
        "address": "安徽省淮南市凤台县Y012与财富大道交叉口西北方向415米左右",
        "tel": "",
        "category": "基础设施:公共设施:公共厕所",
        "type": 0,
        "location": {
            "lat": 32.675395,
            "lng": 116.59721
        },
        "ad_info": {
            "adcode": 340421,
            "province": "安徽省",
            "city": "淮南市",
            "district": "凤台县"
        }
    },
    {
        "id": "5492183446386257612",
        "title": "公共厕所",
        "address": "安徽省淮南市田家庵区淮建路与淮舜北路交叉口东南方向69米左右",
        "tel": "",
        "category": "基础设施:公共设施:公共厕所",
        "type": 0,
        "location": {
            "lat": 32.661823,
            "lng": 117.024958
        },
        "ad_info": {
            "adcode": 340403,
            "province": "安徽省",
            "city": "淮南市",
            "district": "田家庵区"
        }
    },
    {
        "id": "5388981914820419326",
        "title": "女洗手间(中央国际广场)",
        "address": "安徽省淮南市田家庵区龙湖北路国庆中路交叉口南京新百购物中心F3",
        "tel": "",
        "category": "基础设施:公共设施:女洗手间",
        "type": 0,
        "location": {
            "lat": 32.647101,
            "lng": 117.014438
        },
        "ad_info": {
            "adcode": 340403,
            "province": "安徽省",
            "city": "淮南市",
            "district": "田家庵区"
        }
    },
    {
        "id": "6172817477561666643",
        "title": "公共厕所",
        "address": "安徽省淮南市八公山区南塘路与春申大街交叉口西南方向975米左右",
        "tel": "",
        "category": "基础设施:公共设施:公共厕所",
        "type": 0,
        "location": {
            "lat": 32.652938,
            "lng": 116.811883
        },
        "ad_info": {
            "adcode": 340405,
            "province": "安徽省",
            "city": "淮南市",
            "district": "八公山区"
        }
    },
    {
        "id": "1997958593187199243",
        "title": "公共厕所",
        "address": "安徽省淮南市大通区民主东路与田大南路交叉口正东方向248米左右",
        "tel": "",
        "category": "基础设施:公共设施:公共厕所",
        "type": 0,
        "location": {
            "lat": 32.63162,
            "lng": 117.057395
        },
        "ad_info": {
            "adcode": 340402,
            "province": "安徽省",
            "city": "淮南市",
            "district": "大通区"
        }
    },
    {
        "id": "241272044585884311",
        "title": "公共厕所",
        "address": "安徽省淮南市八公山区四马路与沿矿路交叉口东北方向119米左右",
        "tel": "",
        "category": "基础设施:公共设施:公共厕所",
        "type": 0,
        "location": {
            "lat": 32.622947,
            "lng": 116.853462
        },
        "ad_info": {
            "adcode": 340405,
            "province": "安徽省",
            "city": "淮南市",
            "district": "八公山区"
        }
    },
    {
        "id": "5486763511735978826",
        "title": "公共厕所",
        "address": "安徽省淮南市谢家集区十涧湖西路与蔡新南路交叉口东北方向329米左右",
        "tel": "",
        "category": "基础设施:公共设施:公共厕所",
        "type": 0,
        "location": {
            "lat": 32.597344,
            "lng": 116.872676
        },
        "ad_info": {
            "adcode": 340404,
            "province": "安徽省",
            "city": "淮南市",
            "district": "谢家集区"
        }
    },
    {
        "id": "6330606132382712117",
        "title": "公共厕所",
        "address": "安徽省淮南市凤台县S102与X022交叉口东南方向375米左右",
        "tel": "",
        "category": "基础设施:公共设施:公共厕所",
        "type": 0,
        "location": {
            "lat": 32.825472,
            "lng": 116.554633
        },
        "ad_info": {
            "adcode": 340421,
            "province": "安徽省",
            "city": "淮南市",
            "district": "凤台县"
        }
    },
    {
        "id": "3707935760691537556",
        "title": "公共厕所",
        "address": "安徽省淮南市寿县宾阳大道与明珠大道交叉口正北方向286米左右",
        "tel": "",
        "category": "基础设施:公共设施:公共厕所",
        "type": 0,
        "location": {
            "lat": 32.564697,
            "lng": 116.799126
        },
        "ad_info": {
            "adcode": 340422,
            "province": "安徽省",
            "city": "淮南市",
            "district": "寿县"
        }
    },
    {
        "id": "8846411110638903515",
        "title": "公共厕所",
        "address": "安徽省淮南市田家庵区淮舜北路与青年路交叉口西北方向145米左右",
        "tel": "",
        "category": "基础设施:公共设施:公共厕所",
        "type": 0,
        "location": {
            "lat": 32.65923,
            "lng": 117.02541
        },
        "ad_info": {
            "adcode": 340403,
            "province": "安徽省",
            "city": "淮南市",
            "district": "田家庵区"
        }
    },
    {
        "id": "26687843129808453",
        "title": "无障碍公共厕所",
        "address": "安徽省淮南市大通区吉兴路与锦绣路交叉口东北方向47米左右",
        "tel": "",
        "category": "基础设施:公共设施:公共厕所",
        "type": 0,
        "location": {
            "lat": 32.637373,
            "lng": 117.089459
        },
        "ad_info": {
            "adcode": 340402,
            "province": "安徽省",
            "city": "淮南市",
            "district": "大通区"
        }
    },
    {
        "id": "18311930544679732626",
        "title": "公共厕所",
        "address": "安徽省淮南市田家庵区田大北路与长青路交叉口正西方向86米左右",
        "tel": "",
        "category": "基础设施:公共设施:公共厕所",
        "type": 0,
        "location": {
            "lat": 32.658713,
            "lng": 117.032025
        },
        "ad_info": {
            "adcode": 340403,
            "province": "安徽省",
            "city": "淮南市",
            "district": "田家庵区"
        }
    },
    {
        "id": "10672686820176390241",
        "title": "女洗手间",
        "address": "安徽省淮南市田家庵区学院路与朝阳路交口向北200米金大地龙湖中心F1",
        "tel": "",
        "category": "基础设施:公共设施:女洗手间",
        "type": 0,
        "location": {
            "lat": 32.643862,
            "lng": 117.012478
        },
        "ad_info": {
            "adcode": 340403,
            "province": "安徽省",
            "city": "淮南市",
            "district": "田家庵区"
        }
    },
    {
        "id": "11884160235456838518",
        "title": "公共厕所",
        "address": "安徽省淮南市寿县东津大道与宾阳大道交叉口西北方向115米左右",
        "tel": "",
        "category": "基础设施:公共设施:公共厕所",
        "type": 0,
        "location": {
            "lat": 32.553263,
            "lng": 116.799552
        },
        "ad_info": {
            "adcode": 340422,
            "province": "安徽省",
            "city": "淮南市",
            "district": "寿县"
        }
    },
    {
        "id": "9591239860745295940",
        "title": "公共厕所",
        "address": "安徽省淮南市八公山区X010与南塘路交叉口西南方向1043米左右",
        "tel": "",
        "category": "基础设施:公共设施:公共厕所",
        "type": 0,
        "location": {
            "lat": 32.654031,
            "lng": 116.791651
        },
        "ad_info": {
            "adcode": 340405,
            "province": "安徽省",
            "city": "淮南市",
            "district": "八公山区"
        }
    },
    {
        "id": "297408613281104048",
        "title": "公共厕所",
        "address": "安徽省淮南市田家庵区学院路与洞山东路交叉口东北方向84米左右",
        "tel": "",
        "category": "基础设施:公共设施:公共厕所",
        "type": 0,
        "location": {
            "lat": 32.628334,
            "lng": 117.013811
        },
        "ad_info": {
            "adcode": 340403,
            "province": "安徽省",
            "city": "淮南市",
            "district": "田家庵区"
        }
    },
    {
        "id": "1901841381872890620",
        "title": "公共厕所",
        "address": "安徽省淮南市潘集区泥河路与长江路交叉口东南方向226米左右",
        "tel": "",
        "category": "基础设施:公共设施:公共厕所",
        "type": 0,
        "location": {
            "lat": 32.765338,
            "lng": 116.849414
        },
        "ad_info": {
            "adcode": 340406,
            "province": "安徽省",
            "city": "淮南市",
            "district": "潘集区"
        }
    },
    {
        "id": "6574805551968386685",
        "title": "免费公共厕所",
        "address": "安徽省淮南市大通区九大路与南门路交叉口正西方向286米左右",
        "tel": "",
        "category": "基础设施:公共设施:公共厕所",
        "type": 0,
        "location": {
            "lat": 32.609926,
            "lng": 117.103953
        },
        "ad_info": {
            "adcode": 340402,
            "province": "安徽省",
            "city": "淮南市",
            "district": "大通区"
        }
    },
    {
        "id": "1838412515465301467",
        "title": "免费公共厕所",
        "address": "安徽省淮南市田家庵区淮河路与田大北路交叉口东南方向100米左右",
        "tel": "",
        "category": "基础设施:公共设施:公共厕所",
        "type": 0,
        "location": {
            "lat": 32.663542,
            "lng": 117.027491
        },
        "ad_info": {
            "adcode": 340403,
            "province": "安徽省",
            "city": "淮南市",
            "district": "田家庵区"
        }
    },
    {
        "id": "4288594131556006244",
        "title": "公共厕所",
        "address": "安徽省淮南市谢家集区常山路与蔡新北路交叉口东南方向434米左右",
        "tel": "",
        "category": "基础设施:公共设施:公共厕所",
        "type": 0,
        "location": {
            "lat": 32.61115,
            "lng": 116.85404
        },
        "ad_info": {
            "adcode": 340404,
            "province": "安徽省",
            "city": "淮南市",
            "district": "谢家集区"
        }
    },
    {
        "id": "1319780631087061429",
        "title": "公共厕所",
        "address": "安徽省淮南市潘集区田集新一村小区东北(珠江路南)",
        "tel": "",
        "category": "基础设施:公共设施:公共厕所",
        "type": 0,
        "location": {
            "lat": 32.774802,
            "lng": 116.819711
        },
        "ad_info": {
            "adcode": 340406,
            "province": "安徽省",
            "city": "淮南市",
            "district": "潘集区"
        }
    },
    {
        "id": "12170244470545677677",
        "title": "女洗手间",
        "address": "安徽省淮南市田家庵区学院路与朝阳路交口向北200米金大地龙湖中心F1",
        "tel": "",
        "category": "基础设施:公共设施:女洗手间",
        "type": 0,
        "location": {
            "lat": 32.643284,
            "lng": 117.012477
        },
        "ad_info": {
            "adcode": 340403,
            "province": "安徽省",
            "city": "淮南市",
            "district": "田家庵区"
        }
    },
    {
        "id": "12105703256452528314",
        "title": "公共厕所",
        "address": "安徽省淮南市田家庵区湖滨西路家园浴池对面",
        "tel": "",
        "category": "基础设施:公共设施:公共厕所",
        "type": 0,
        "location": {
            "lat": 32.650758,
            "lng": 117.003501
        },
        "ad_info": {
            "adcode": 340403,
            "province": "安徽省",
            "city": "淮南市",
            "district": "田家庵区"
        }
    },
    {
        "id": "4206415070228009560",
        "title": "女洗手间",
        "address": "安徽省淮南市田家庵区学院路与朝阳路交口向北200米金大地龙湖中心F1",
        "tel": "",
        "category": "基础设施:公共设施:女洗手间",
        "type": 0,
        "location": {
            "lat": 32.644457,
            "lng": 117.013028
        },
        "ad_info": {
            "adcode": 340403,
            "province": "安徽省",
            "city": "淮南市",
            "district": "田家庵区"
        }
    },
    {
        "id": "11120107661818140786",
        "title": "公共厕所",
        "address": "安徽省淮南市田家庵区宾馆东路与淮河大道交叉口东南方向405米左右",
        "tel": "",
        "category": "基础设施:公共设施:公共厕所",
        "type": 0,
        "location": {
            "lat": 32.618122,
            "lng": 117.010798
        },
        "ad_info": {
            "adcode": 340403,
            "province": "安徽省",
            "city": "淮南市",
            "district": "田家庵区"
        }
    },
    {
        "id": "4157252963124220727",
        "title": "公共厕所",
        "address": "安徽省淮南市大通区南门路与育才路交叉口正西方向160米左右",
        "tel": "",
        "category": "基础设施:公共设施:公共厕所",
        "type": 0,
        "location": {
            "lat": 32.608398,
            "lng": 117.104672
        },
        "ad_info": {
            "adcode": 340402,
            "province": "安徽省",
            "city": "淮南市",
            "district": "大通区"
        }
    },
    {
        "id": "15255821248854263358",
        "title": "公共厕所",
        "address": "安徽省淮南市大通区朝阳路与站前路交叉口正东方向208米左右",
        "tel": "",
        "category": "基础设施:公共设施:公共厕所",
        "type": 0,
        "location": {
            "lat": 32.646724,
            "lng": 117.15062
        },
        "ad_info": {
            "adcode": 340402,
            "province": "安徽省",
            "city": "淮南市",
            "district": "大通区"
        }
    },
    {
        "id": "6882821267783455013",
        "title": "公共厕所",
        "address": "安徽省淮南市田家庵区水厂路淮南二十三中",
        "tel": "",
        "category": "基础设施:公共设施:公共厕所",
        "type": 0,
        "location": {
            "lat": 32.662141,
            "lng": 117.04323
        },
        "ad_info": {
            "adcode": 340403,
            "province": "安徽省",
            "city": "淮南市",
            "district": "田家庵区"
        }
    },
    {
        "id": "16451835277211779162",
        "title": "公共厕所",
        "address": "安徽省淮南市田家庵区金湾名街与青年路交叉口正东方向66米左右",
        "tel": "",
        "category": "基础设施:公共设施:公共厕所",
        "type": 0,
        "location": {
            "lat": 32.65772,
            "lng": 117.025445
        },
        "ad_info": {
            "adcode": 340403,
            "province": "安徽省",
            "city": "淮南市",
            "district": "田家庵区"
        }
    },
    {
        "id": "3990794018021181259",
        "title": "公共厕所",
        "address": "安徽省淮南市谢家集区侯传喜中医诊所东侧",
        "tel": "",
        "category": "基础设施:公共设施:公共厕所",
        "type": 0,
        "location": {
            "lat": 32.604523,
            "lng": 116.91007
        },
        "ad_info": {
            "adcode": 340404,
            "province": "安徽省",
            "city": "淮南市",
            "district": "谢家集区"
        }
    },
    {
        "id": "8000574669842199819",
        "title": "公共厕所",
        "address": "安徽省淮南市凤台县G237与和谐路交叉口东南方向343米左右",
        "tel": "",
        "category": "基础设施:公共设施:公共厕所",
        "type": 0,
        "location": {
            "lat": 32.699766,
            "lng": 116.696503
        },
        "ad_info": {
            "adcode": 340421,
            "province": "安徽省",
            "city": "淮南市",
            "district": "凤台县"
        }
    },
    {
        "id": "9791783807849718087",
        "title": "女洗手间(商之都)",
        "address": "安徽省淮南市田家庵区龙湖中路33号商之都F4层",
        "tel": "",
        "category": "基础设施:公共设施:公共厕所",
        "type": 0,
        "location": {
            "lat": 32.644673,
            "lng": 117.017646
        },
        "ad_info": {
            "adcode": 340403,
            "province": "安徽省",
            "city": "淮南市",
            "district": "田家庵区"
        }
    },
    {
        "id": "11359381271095677859",
        "title": "公共厕所",
        "address": "安徽省淮南市田家庵区人民南路与朝阳东路交叉口正北方向96米左右",
        "tel": "",
        "category": "基础设施:公共设施:公共厕所",
        "type": 0,
        "location": {
            "lat": 32.642007,
            "lng": 117.021367
        },
        "ad_info": {
            "adcode": 340403,
            "province": "安徽省",
            "city": "淮南市",
            "district": "田家庵区"
        }
    },
    {
        "id": "9999711682701076506",
        "title": "男洗手间(金地·环球港)",
        "address": "安徽省淮南市田家庵区淮河大道与益民巷交叉口东南方向210米左右",
        "tel": "",
        "category": "基础设施:公共设施:公共厕所",
        "type": 0,
        "location": {
            "lat": 32.640015,
            "lng": 117.009045
        },
        "ad_info": {
            "adcode": 340403,
            "province": "安徽省",
            "city": "淮南市",
            "district": "田家庵区"
        }
    },
    {
        "id": "11142642724011751432",
        "title": "公共厕所",
        "address": "安徽省淮南市大通区Y002与国庆东路交叉口西南方向242米左右",
        "tel": "",
        "category": "基础设施:公共设施:公共厕所",
        "type": 0,
        "location": {
            "lat": 32.683615,
            "lng": 117.104436
        },
        "ad_info": {
            "adcode": 340402,
            "province": "安徽省",
            "city": "淮南市",
            "district": "大通区"
        }
    },
    {
        "id": "10489748664346752007",
        "title": "公共厕所",
        "address": "安徽省淮南市八公山区淮凤路与钱淮村路一交叉口正南方向190米左右",
        "tel": "",
        "category": "基础设施:公共设施:公共厕所",
        "type": 0,
        "location": {
            "lat": 32.635721,
            "lng": 116.839905
        },
        "ad_info": {
            "adcode": 340405,
            "province": "安徽省",
            "city": "淮南市",
            "district": "八公山区"
        }
    },
    {
        "id": "17650580987946537872",
        "title": "公共厕所",
        "address": "安徽省淮南市谢家集区S102与平安大道交叉口正东方向1004米左右",
        "tel": "",
        "category": "基础设施:公共设施:公共厕所",
        "type": 0,
        "location": {
            "lat": 32.595744,
            "lng": 116.820252
        },
        "ad_info": {
            "adcode": 340404,
            "province": "安徽省",
            "city": "淮南市",
            "district": "谢家集区"
        }
    },
    {
        "id": "10339112338032865740",
        "title": "公共厕所",
        "address": "安徽省淮南市潘集区纬一路与经六路交叉口正西方向168米左右",
        "tel": "",
        "category": "基础设施:公共设施:公共厕所",
        "type": 0,
        "location": {
            "lat": 32.690455,
            "lng": 116.868722
        },
        "ad_info": {
            "adcode": 340406,
            "province": "安徽省",
            "city": "淮南市",
            "district": "潘集区"
        }
    },
    {
        "id": "1275065653158280635",
        "title": "公共厕所",
        "address": "安徽省淮南市八公山区沿矿路与谢三路交叉口东北方向97米左右",
        "tel": "",
        "category": "基础设施:公共设施:公共厕所",
        "type": 0,
        "location": {
            "lat": 32.612322,
            "lng": 116.861341
        },
        "ad_info": {
            "adcode": 340405,
            "province": "安徽省",
            "city": "淮南市",
            "district": "八公山区"
        }
    },
    {
        "id": "7578257337765297922",
        "title": "公共厕所",
        "address": "安徽省淮南市田家庵区沿淮路与淮河路交叉口正东方向160米左右",
        "tel": "",
        "category": "基础设施:公共设施:公共厕所",
        "type": 0,
        "location": {
            "lat": 32.663093,
            "lng": 117.019326
        },
        "ad_info": {
            "adcode": 340403,
            "province": "安徽省",
            "city": "淮南市",
            "district": "田家庵区"
        }
    },
    {
        "id": "14909546276249362938",
        "title": "公共厕所",
        "address": "安徽省淮南市凤台县人民路与淮河路交叉口东北方向164米左右",
        "tel": "",
        "category": "基础设施:公共设施:公共厕所",
        "type": 0,
        "location": {
            "lat": 32.700324,
            "lng": 116.731232
        },
        "ad_info": {
            "adcode": 340421,
            "province": "安徽省",
            "city": "淮南市",
            "district": "凤台县"
        }
    },
    {
        "id": "18203722553729206486",
        "title": "龙湖公园公共厕所",
        "address": "安徽省淮南市田家庵区人民北路174号",
        "tel": "",
        "category": "基础设施:公共设施:公共厕所",
        "type": 0,
        "location": {
            "lat": 32.656699,
            "lng": 117.018833
        },
        "ad_info": {
            "adcode": 340403,
            "province": "安徽省",
            "city": "淮南市",
            "district": "田家庵区"
        }
    },
    {
        "id": "1081994470937787341",
        "title": "公共厕所",
        "address": "安徽省淮南市凤台县体育西路与西十路交叉口东南方向84米左右",
        "tel": "",
        "category": "基础设施:公共设施:公共厕所",
        "type": 0,
        "location": {
            "lat": 32.712096,
            "lng": 116.701643
        },
        "ad_info": {
            "adcode": 340421,
            "province": "安徽省",
            "city": "淮南市",
            "district": "凤台县"
        }
    },
    {
        "id": "11748498204764979694",
        "title": "公共厕所",
        "address": "安徽省淮南市大通区民主北路与田大南路交叉口西南方向208米左右",
        "tel": "",
        "category": "基础设施:公共设施:公共厕所",
        "type": 0,
        "location": {
            "lat": 32.634342,
            "lng": 117.050582
        },
        "ad_info": {
            "adcode": 340402,
            "province": "安徽省",
            "city": "淮南市",
            "district": "大通区"
        }
    },
    {
        "id": "11408447486034547300",
        "title": "公共厕所",
        "address": "安徽省淮南市田家庵区G328与十涧湖西路交叉口正东方向177米左右",
        "tel": "",
        "category": "基础设施:公共设施:公共厕所",
        "type": 0,
        "location": {
            "lat": 32.61646,
            "lng": 116.926591
        },
        "ad_info": {
            "adcode": 340403,
            "province": "安徽省",
            "city": "淮南市",
            "district": "田家庵区"
        }
    },
    {
        "id": "5215579464811402856",
        "title": "公共厕所",
        "address": "安徽省淮南市八公山区沿矿路与谢三路交叉口正西方向17米左右",
        "tel": "",
        "category": "基础设施:公共设施:公共厕所",
        "type": 0,
        "location": {
            "lat": 32.611475,
            "lng": 116.860728
        },
        "ad_info": {
            "adcode": 340405,
            "province": "安徽省",
            "city": "淮南市",
            "district": "八公山区"
        }
    },
    {
        "id": "505184406164794975",
        "title": "公共厕所",
        "address": "安徽省淮南市凤台县淮河路与滨河路交叉口正东方向109米左右",
        "tel": "",
        "category": "基础设施:公共设施:公共厕所",
        "type": 0,
        "location": {
            "lat": 32.698317,
            "lng": 116.723096
        },
        "ad_info": {
            "adcode": 340421,
            "province": "安徽省",
            "city": "淮南市",
            "district": "凤台县"
        }
    },
    {
        "id": "4189509323704285207",
        "title": "无障碍公共厕所",
        "address": "安徽省淮南市凤台县中山北路与望淮路交叉口正西方向46米左右",
        "tel": "",
        "category": "基础设施:公共设施:公共厕所",
        "type": 0,
        "location": {
            "lat": 32.701121,
            "lng": 116.728025
        },
        "ad_info": {
            "adcode": 340421,
            "province": "安徽省",
            "city": "淮南市",
            "district": "凤台县"
        }
    },
    {
        "id": "7086776254774728568",
        "title": "公共厕所",
        "address": "安徽省淮南市大通区站前路淮南东站F2",
        "tel": "",
        "category": "基础设施:公共设施:公共厕所",
        "type": 0,
        "location": {
            "lat": 32.645048,
            "lng": 117.149015
        },
        "ad_info": {
            "adcode": 340402,
            "province": "安徽省",
            "city": "淮南市",
            "district": "大通区"
        }
    },
    {
        "id": "16988703668396014722",
        "title": "公共厕所",
        "address": "安徽省淮南市田家庵区合淮路与西苑巷交叉口正西方向191米左右",
        "tel": "",
        "category": "基础设施:公共设施:公共厕所",
        "type": 0,
        "location": {
            "lat": 32.62991,
            "lng": 116.971631
        },
        "ad_info": {
            "adcode": 340403,
            "province": "安徽省",
            "city": "淮南市",
            "district": "田家庵区"
        }
    },
    {
        "id": "2244674771719298425",
        "title": "环保厕所",
        "address": "安徽省淮南市大通区民主北路与田大南路交叉口东北方向25米左右",
        "tel": "",
        "category": "基础设施:公共设施:公共厕所",
        "type": 0,
        "location": {
            "lat": 32.635974,
            "lng": 117.052168
        },
        "ad_info": {
            "adcode": 340402,
            "province": "安徽省",
            "city": "淮南市",
            "district": "大通区"
        }
    },
    {
        "id": "17684978177630237545",
        "title": "公共厕所",
        "address": "安徽省淮南市凤台县下蔡路1号",
        "tel": "",
        "category": "基础设施:公共设施:公共厕所",
        "type": 0,
        "location": {
            "lat": 32.700009,
            "lng": 116.727428
        },
        "ad_info": {
            "adcode": 340421,
            "province": "安徽省",
            "city": "淮南市",
            "district": "凤台县"
        }
    },
    {
        "id": "6592836641661361534",
        "title": "公共厕所",
        "address": "安徽省淮南市大通区支二路与支四路交叉口东南方向314米左右",
        "tel": "",
        "category": "基础设施:公共设施:公共厕所",
        "type": 0,
        "location": {
            "lat": 32.632122,
            "lng": 117.058101
        },
        "ad_info": {
            "adcode": 340402,
            "province": "安徽省",
            "city": "淮南市",
            "district": "大通区"
        }
    },
    {
        "id": "7322900138778999737",
        "title": "公共卫生间",
        "address": "安徽省淮南市凤台县焦岗湖景区(兴湖路西150米)",
        "tel": "",
        "category": "基础设施:公共设施:公共厕所",
        "type": 0,
        "location": {
            "lat": 32.613658,
            "lng": 116.628327
        },
        "ad_info": {
            "adcode": 340421,
            "province": "安徽省",
            "city": "淮南市",
            "district": "凤台县"
        }
    },
    {
        "id": "2695675531839919690",
        "title": "芍陂服务区公共厕所",
        "address": "安徽省淮南市寿县中国石化芍陂服务区西加油站西北侧160米",
        "tel": "",
        "category": "基础设施:公共设施:公共厕所",
        "type": 0,
        "location": {
            "lat": 32.376911,
            "lng": 116.759553
        },
        "ad_info": {
            "adcode": 340422,
            "province": "安徽省",
            "city": "淮南市",
            "district": "寿县"
        }
    },
    {
        "id": "10895838069334218802",
        "title": "公共厕所",
        "address": "安徽省淮南市寿县025县道与135乡道交叉口北150米",
        "tel": "",
        "category": "基础设施:公共设施:公共厕所",
        "type": 0,
        "location": {
            "lat": 31.995321,
            "lng": 116.769376
        },
        "ad_info": {
            "adcode": 340422,
            "province": "安徽省",
            "city": "淮南市",
            "district": "寿县"
        }
    },
    {
        "id": "1313735911874144841",
        "title": "公共厕所",
        "address": "安徽省淮南市八公山区八公山记忆广场",
        "tel": "",
        "category": "基础设施:公共设施:公共厕所",
        "type": 0,
        "location": {
            "lat": 32.631525,
            "lng": 116.841149
        },
        "ad_info": {
            "adcode": 340405,
            "province": "安徽省",
            "city": "淮南市",
            "district": "八公山区"
        }
    },
    {
        "id": "7792566160270891026",
        "title": "公共厕所",
        "address": "安徽省淮南市大通区民主东路与田大南路交叉口正西方向315米左右",
        "tel": "",
        "category": "基础设施:公共设施:公共厕所",
        "type": 0,
        "location": {
            "lat": 32.631249,
            "lng": 117.051467
        },
        "ad_info": {
            "adcode": 340402,
            "province": "安徽省",
            "city": "淮南市",
            "district": "大通区"
        }
    },
    {
        "id": "4903078348744337403",
        "title": "公共厕所",
        "address": "安徽省淮南市田家庵区四号路与电厂路交叉口正南方向32米左右",
        "tel": "",
        "category": "基础设施:公共设施:公共厕所",
        "type": 0,
        "location": {
            "lat": 32.662992,
            "lng": 117.038099
        },
        "ad_info": {
            "adcode": 340403,
            "province": "安徽省",
            "city": "淮南市",
            "district": "田家庵区"
        }
    },
    {
        "id": "16826097439335888225",
        "title": "公共厕所",
        "address": "安徽省淮南市凤台县淮河路金亿家私旁十米",
        "tel": "",
        "category": "基础设施:公共设施:公共厕所",
        "type": 0,
        "location": {
            "lat": 32.699082,
            "lng": 116.725483
        },
        "ad_info": {
            "adcode": 340421,
            "province": "安徽省",
            "city": "淮南市",
            "district": "凤台县"
        }
    },
    {
        "id": "13835100316066294728",
        "title": "男洗手间",
        "address": "安徽省淮南市田家庵区学院路与朝阳路交口向北200米金大地龙湖中心F1",
        "tel": "",
        "category": "基础设施:公共设施:男洗手间",
        "type": 0,
        "location": {
            "lat": 32.643861,
            "lng": 117.01243
        },
        "ad_info": {
            "adcode": 340403,
            "province": "安徽省",
            "city": "淮南市",
            "district": "田家庵区"
        }
    },
    {
        "id": "5862913370346193583",
        "title": "公共厕所",
        "address": "安徽省淮南市凤台县Y007与兴湖路交叉口正西方向819米左右",
        "tel": "",
        "category": "基础设施:公共设施:公共厕所",
        "type": 0,
        "location": {
            "lat": 32.628407,
            "lng": 116.621534
        },
        "ad_info": {
            "adcode": 340421,
            "province": "安徽省",
            "city": "淮南市",
            "district": "凤台县"
        }
    },
    {
        "id": "10769288104573260102",
        "title": "公共厕所",
        "address": "安徽省淮南市田家庵区田家庵区镇南路030号",
        "tel": "",
        "category": "基础设施:公共设施:公共厕所",
        "type": 0,
        "location": {
            "lat": 32.477429,
            "lng": 117.054399
        },
        "ad_info": {
            "adcode": 340403,
            "province": "安徽省",
            "city": "淮南市",
            "district": "田家庵区"
        }
    },
    {
        "id": "5315372936323733929",
        "title": "公共厕所",
        "address": "安徽省淮南市大通区居庆路与洞山东路交叉口东南方向140米左右",
        "tel": "",
        "category": "基础设施:公共设施:公共厕所",
        "type": 0,
        "location": {
            "lat": 32.62842,
            "lng": 117.047121
        },
        "ad_info": {
            "adcode": 340402,
            "province": "安徽省",
            "city": "淮南市",
            "district": "大通区"
        }
    },
    {
        "id": "7892512233174283753",
        "title": "公共厕所",
        "address": "安徽省淮南市田家庵区舜耕中路与龙湖南路交叉口正南方向303米左右",
        "tel": "",
        "category": "基础设施:公共设施:公共厕所",
        "type": 0,
        "location": {
            "lat": 32.629548,
            "lng": 117.019924
        },
        "ad_info": {
            "adcode": 340403,
            "province": "安徽省",
            "city": "淮南市",
            "district": "田家庵区"
        }
    },
    {
        "id": "13721816493475806994",
        "title": "公共厕所",
        "address": "安徽省淮南市凤台县岳张集镇张集大街十字路口往西50米",
        "tel": "",
        "category": "基础设施:公共设施:公共厕所",
        "type": 0,
        "location": {
            "lat": 32.754592,
            "lng": 116.522913
        },
        "ad_info": {
            "adcode": 340421,
            "province": "安徽省",
            "city": "淮南市",
            "district": "凤台县"
        }
    },
    {
        "id": "10351740329225110786",
        "title": "免费公共厕所",
        "address": "安徽省淮南市大通区民主北路与田大南路交叉口东北方向21米左右",
        "tel": "",
        "category": "基础设施:公共设施:公共厕所",
        "type": 0,
        "location": {
            "lat": 32.635924,
            "lng": 117.052162
        },
        "ad_info": {
            "adcode": 340402,
            "province": "安徽省",
            "city": "淮南市",
            "district": "大通区"
        }
    },
    {
        "id": "13972504375833417577",
        "title": "公共厕所",
        "address": "安徽省淮南市田家庵区泉山路35号九十七处公交站",
        "tel": "",
        "category": "基础设施:公共设施:公共厕所",
        "type": 0,
        "location": {
            "lat": 32.610633,
            "lng": 116.975138
        },
        "ad_info": {
            "adcode": 340403,
            "province": "安徽省",
            "city": "淮南市",
            "district": "田家庵区"
        }
    },
    {
        "id": "2339396890122124711",
        "title": "公共厕所",
        "address": "安徽省淮南市田家庵区泉山路与洞山中路交叉口正东方向185米左右",
        "tel": "",
        "category": "基础设施:公共设施:公共厕所",
        "type": 0,
        "location": {
            "lat": 32.622121,
            "lng": 116.975922
        },
        "ad_info": {
            "adcode": 340403,
            "province": "安徽省",
            "city": "淮南市",
            "district": "田家庵区"
        }
    },
    {
        "id": "13824071863118921122",
        "title": "公共厕所",
        "address": "安徽省淮南市凤台县新区路,凤凰湖n区西门北侧",
        "tel": "",
        "category": "基础设施:公共设施:公共厕所",
        "type": 0,
        "location": {
            "lat": 32.733169,
            "lng": 116.680863
        },
        "ad_info": {
            "adcode": 340421,
            "province": "安徽省",
            "city": "淮南市",
            "district": "凤台县"
        }
    },
    {
        "id": "4010042300819427616",
        "title": "无障碍公共厕所",
        "address": "安徽省淮南市谢家集区唐山路勘探村城建小区",
        "tel": "",
        "category": "基础设施:公共设施:公共厕所",
        "type": 0,
        "location": {
            "lat": 32.595441,
            "lng": 116.865081
        },
        "ad_info": {
            "adcode": 340404,
            "province": "安徽省",
            "city": "淮南市",
            "district": "谢家集区"
        }
    },
    {
        "id": "1342254039322112960",
        "title": "无障碍公共厕所",
        "address": "安徽省淮南市田家庵区淮舜北路与长青路交叉口正南方向47米左右",
        "tel": "",
        "category": "基础设施:公共设施:公共厕所",
        "type": 0,
        "location": {
            "lat": 32.655961,
            "lng": 117.026762
        },
        "ad_info": {
            "adcode": 340403,
            "province": "安徽省",
            "city": "淮南市",
            "district": "田家庵区"
        }
    },
    {
        "id": "6592836641661361534",
        "title": "公共厕所",
        "address": "安徽省淮南市大通区支二路与支四路交叉口东南方向314米左右",
        "tel": "",
        "category": "基础设施:公共设施:公共厕所",
        "type": 0,
        "location": {
            "lat": 32.632122,
            "lng": 117.058101
        },
        "ad_info": {
            "adcode": 340402,
            "province": "安徽省",
            "city": "淮南市",
            "district": "大通区"
        }
    },
    {
        "id": "7322900138778999737",
        "title": "公共卫生间",
        "address": "安徽省淮南市凤台县焦岗湖景区(兴湖路西150米)",
        "tel": "",
        "category": "基础设施:公共设施:公共厕所",
        "type": 0,
        "location": {
            "lat": 32.613658,
            "lng": 116.628327
        },
        "ad_info": {
            "adcode": 340421,
            "province": "安徽省",
            "city": "淮南市",
            "district": "凤台县"
        }
    },
    {
        "id": "2695675531839919690",
        "title": "芍陂服务区公共厕所",
        "address": "安徽省淮南市寿县中国石化芍陂服务区西加油站西北侧160米",
        "tel": "",
        "category": "基础设施:公共设施:公共厕所",
        "type": 0,
        "location": {
            "lat": 32.376911,
            "lng": 116.759553
        },
        "ad_info": {
            "adcode": 340422,
            "province": "安徽省",
            "city": "淮南市",
            "district": "寿县"
        }
    },
    {
        "id": "10895838069334218802",
        "title": "公共厕所",
        "address": "安徽省淮南市寿县025县道与135乡道交叉口北150米",
        "tel": "",
        "category": "基础设施:公共设施:公共厕所",
        "type": 0,
        "location": {
            "lat": 31.995321,
            "lng": 116.769376
        },
        "ad_info": {
            "adcode": 340422,
            "province": "安徽省",
            "city": "淮南市",
            "district": "寿县"
        }
    },
    {
        "id": "1313735911874144841",
        "title": "公共厕所",
        "address": "安徽省淮南市八公山区八公山记忆广场",
        "tel": "",
        "category": "基础设施:公共设施:公共厕所",
        "type": 0,
        "location": {
            "lat": 32.631525,
            "lng": 116.841149
        },
        "ad_info": {
            "adcode": 340405,
            "province": "安徽省",
            "city": "淮南市",
            "district": "八公山区"
        }
    },
    {
        "id": "7792566160270891026",
        "title": "公共厕所",
        "address": "安徽省淮南市大通区民主东路与田大南路交叉口正西方向315米左右",
        "tel": "",
        "category": "基础设施:公共设施:公共厕所",
        "type": 0,
        "location": {
            "lat": 32.631249,
            "lng": 117.051467
        },
        "ad_info": {
            "adcode": 340402,
            "province": "安徽省",
            "city": "淮南市",
            "district": "大通区"
        }
    },
    {
        "id": "4903078348744337403",
        "title": "公共厕所",
        "address": "安徽省淮南市田家庵区四号路与电厂路交叉口正南方向32米左右",
        "tel": "",
        "category": "基础设施:公共设施:公共厕所",
        "type": 0,
        "location": {
            "lat": 32.662992,
            "lng": 117.038099
        },
        "ad_info": {
            "adcode": 340403,
            "province": "安徽省",
            "city": "淮南市",
            "district": "田家庵区"
        }
    },
    {
        "id": "16826097439335888225",
        "title": "公共厕所",
        "address": "安徽省淮南市凤台县淮河路金亿家私旁十米",
        "tel": "",
        "category": "基础设施:公共设施:公共厕所",
        "type": 0,
        "location": {
            "lat": 32.699082,
            "lng": 116.725483
        },
        "ad_info": {
            "adcode": 340421,
            "province": "安徽省",
            "city": "淮南市",
            "district": "凤台县"
        }
    },
    {
        "id": "13835100316066294728",
        "title": "男洗手间",
        "address": "安徽省淮南市田家庵区学院路与朝阳路交口向北200米金大地龙湖中心F1",
        "tel": "",
        "category": "基础设施:公共设施:男洗手间",
        "type": 0,
        "location": {
            "lat": 32.643861,
            "lng": 117.01243
        },
        "ad_info": {
            "adcode": 340403,
            "province": "安徽省",
            "city": "淮南市",
            "district": "田家庵区"
        }
    },
    {
        "id": "5862913370346193583",
        "title": "公共厕所",
        "address": "安徽省淮南市凤台县Y007与兴湖路交叉口正西方向819米左右",
        "tel": "",
        "category": "基础设施:公共设施:公共厕所",
        "type": 0,
        "location": {
            "lat": 32.628407,
            "lng": 116.621534
        },
        "ad_info": {
            "adcode": 340421,
            "province": "安徽省",
            "city": "淮南市",
            "district": "凤台县"
        }
    },
    {
        "id": "10769288104573260102",
        "title": "公共厕所",
        "address": "安徽省淮南市田家庵区田家庵区镇南路030号",
        "tel": "",
        "category": "基础设施:公共设施:公共厕所",
        "type": 0,
        "location": {
            "lat": 32.477429,
            "lng": 117.054399
        },
        "ad_info": {
            "adcode": 340403,
            "province": "安徽省",
            "city": "淮南市",
            "district": "田家庵区"
        }
    },
    {
        "id": "5315372936323733929",
        "title": "公共厕所",
        "address": "安徽省淮南市大通区居庆路与洞山东路交叉口东南方向140米左右",
        "tel": "",
        "category": "基础设施:公共设施:公共厕所",
        "type": 0,
        "location": {
            "lat": 32.62842,
            "lng": 117.047121
        },
        "ad_info": {
            "adcode": 340402,
            "province": "安徽省",
            "city": "淮南市",
            "district": "大通区"
        }
    },
    {
        "id": "7892512233174283753",
        "title": "公共厕所",
        "address": "安徽省淮南市田家庵区舜耕中路与龙湖南路交叉口正南方向303米左右",
        "tel": "",
        "category": "基础设施:公共设施:公共厕所",
        "type": 0,
        "location": {
            "lat": 32.629548,
            "lng": 117.019924
        },
        "ad_info": {
            "adcode": 340403,
            "province": "安徽省",
            "city": "淮南市",
            "district": "田家庵区"
        }
    },
    {
        "id": "13721816493475806994",
        "title": "公共厕所",
        "address": "安徽省淮南市凤台县岳张集镇张集大街十字路口往西50米",
        "tel": "",
        "category": "基础设施:公共设施:公共厕所",
        "type": 0,
        "location": {
            "lat": 32.754592,
            "lng": 116.522913
        },
        "ad_info": {
            "adcode": 340421,
            "province": "安徽省",
            "city": "淮南市",
            "district": "凤台县"
        }
    },
    {
        "id": "10351740329225110786",
        "title": "免费公共厕所",
        "address": "安徽省淮南市大通区民主北路与田大南路交叉口东北方向21米左右",
        "tel": "",
        "category": "基础设施:公共设施:公共厕所",
        "type": 0,
        "location": {
            "lat": 32.635924,
            "lng": 117.052162
        },
        "ad_info": {
            "adcode": 340402,
            "province": "安徽省",
            "city": "淮南市",
            "district": "大通区"
        }
    },
    {
        "id": "13972504375833417577",
        "title": "公共厕所",
        "address": "安徽省淮南市田家庵区泉山路35号九十七处公交站",
        "tel": "",
        "category": "基础设施:公共设施:公共厕所",
        "type": 0,
        "location": {
            "lat": 32.610633,
            "lng": 116.975138
        },
        "ad_info": {
            "adcode": 340403,
            "province": "安徽省",
            "city": "淮南市",
            "district": "田家庵区"
        }
    },
    {
        "id": "2339396890122124711",
        "title": "公共厕所",
        "address": "安徽省淮南市田家庵区泉山路与洞山中路交叉口正东方向185米左右",
        "tel": "",
        "category": "基础设施:公共设施:公共厕所",
        "type": 0,
        "location": {
            "lat": 32.622121,
            "lng": 116.975922
        },
        "ad_info": {
            "adcode": 340403,
            "province": "安徽省",
            "city": "淮南市",
            "district": "田家庵区"
        }
    },
    {
        "id": "13824071863118921122",
        "title": "公共厕所",
        "address": "安徽省淮南市凤台县新区路,凤凰湖n区西门北侧",
        "tel": "",
        "category": "基础设施:公共设施:公共厕所",
        "type": 0,
        "location": {
            "lat": 32.733169,
            "lng": 116.680863
        },
        "ad_info": {
            "adcode": 340421,
            "province": "安徽省",
            "city": "淮南市",
            "district": "凤台县"
        }
    },
    {
        "id": "4010042300819427616",
        "title": "无障碍公共厕所",
        "address": "安徽省淮南市谢家集区唐山路勘探村城建小区",
        "tel": "",
        "category": "基础设施:公共设施:公共厕所",
        "type": 0,
        "location": {
            "lat": 32.595441,
            "lng": 116.865081
        },
        "ad_info": {
            "adcode": 340404,
            "province": "安徽省",
            "city": "淮南市",
            "district": "谢家集区"
        }
    },
    {
        "id": "1342254039322112960",
        "title": "无障碍公共厕所",
        "address": "安徽省淮南市田家庵区淮舜北路与长青路交叉口正南方向47米左右",
        "tel": "",
        "category": "基础设施:公共设施:公共厕所",
        "type": 0,
        "location": {
            "lat": 32.655961,
            "lng": 117.026762
        },
        "ad_info": {
            "adcode": 340403,
            "province": "安徽省",
            "city": "淮南市",
            "district": "田家庵区"
        }
    },
    {
        "id": "6592836641661361534",
        "title": "公共厕所",
        "address": "安徽省淮南市大通区支二路与支四路交叉口东南方向314米左右",
        "tel": "",
        "category": "基础设施:公共设施:公共厕所",
        "type": 0,
        "location": {
            "lat": 32.632122,
            "lng": 117.058101
        },
        "ad_info": {
            "adcode": 340402,
            "province": "安徽省",
            "city": "淮南市",
            "district": "大通区"
        }
    },
    {
        "id": "7322900138778999737",
        "title": "公共卫生间",
        "address": "安徽省淮南市凤台县焦岗湖景区(兴湖路西150米)",
        "tel": "",
        "category": "基础设施:公共设施:公共厕所",
        "type": 0,
        "location": {
            "lat": 32.613658,
            "lng": 116.628327
        },
        "ad_info": {
            "adcode": 340421,
            "province": "安徽省",
            "city": "淮南市",
            "district": "凤台县"
        }
    },
    {
        "id": "2695675531839919690",
        "title": "芍陂服务区公共厕所",
        "address": "安徽省淮南市寿县中国石化芍陂服务区西加油站西北侧160米",
        "tel": "",
        "category": "基础设施:公共设施:公共厕所",
        "type": 0,
        "location": {
            "lat": 32.376911,
            "lng": 116.759553
        },
        "ad_info": {
            "adcode": 340422,
            "province": "安徽省",
            "city": "淮南市",
            "district": "寿县"
        }
    },
    {
        "id": "10895838069334218802",
        "title": "公共厕所",
        "address": "安徽省淮南市寿县025县道与135乡道交叉口北150米",
        "tel": "",
        "category": "基础设施:公共设施:公共厕所",
        "type": 0,
        "location": {
            "lat": 31.995321,
            "lng": 116.769376
        },
        "ad_info": {
            "adcode": 340422,
            "province": "安徽省",
            "city": "淮南市",
            "district": "寿县"
        }
    },
    {
        "id": "1313735911874144841",
        "title": "公共厕所",
        "address": "安徽省淮南市八公山区八公山记忆广场",
        "tel": "",
        "category": "基础设施:公共设施:公共厕所",
        "type": 0,
        "location": {
            "lat": 32.631525,
            "lng": 116.841149
        },
        "ad_info": {
            "adcode": 340405,
            "province": "安徽省",
            "city": "淮南市",
            "district": "八公山区"
        }
    },
    {
        "id": "7792566160270891026",
        "title": "公共厕所",
        "address": "安徽省淮南市大通区民主东路与田大南路交叉口正西方向315米左右",
        "tel": "",
        "category": "基础设施:公共设施:公共厕所",
        "type": 0,
        "location": {
            "lat": 32.631249,
            "lng": 117.051467
        },
        "ad_info": {
            "adcode": 340402,
            "province": "安徽省",
            "city": "淮南市",
            "district": "大通区"
        }
    },
    {
        "id": "4903078348744337403",
        "title": "公共厕所",
        "address": "安徽省淮南市田家庵区四号路与电厂路交叉口正南方向32米左右",
        "tel": "",
        "category": "基础设施:公共设施:公共厕所",
        "type": 0,
        "location": {
            "lat": 32.662992,
            "lng": 117.038099
        },
        "ad_info": {
            "adcode": 340403,
            "province": "安徽省",
            "city": "淮南市",
            "district": "田家庵区"
        }
    },
    {
        "id": "16826097439335888225",
        "title": "公共厕所",
        "address": "安徽省淮南市凤台县淮河路金亿家私旁十米",
        "tel": "",
        "category": "基础设施:公共设施:公共厕所",
        "type": 0,
        "location": {
            "lat": 32.699082,
            "lng": 116.725483
        },
        "ad_info": {
            "adcode": 340421,
            "province": "安徽省",
            "city": "淮南市",
            "district": "凤台县"
        }
    },
    {
        "id": "13835100316066294728",
        "title": "男洗手间",
        "address": "安徽省淮南市田家庵区学院路与朝阳路交口向北200米金大地龙湖中心F1",
        "tel": "",
        "category": "基础设施:公共设施:男洗手间",
        "type": 0,
        "location": {
            "lat": 32.643861,
            "lng": 117.01243
        },
        "ad_info": {
            "adcode": 340403,
            "province": "安徽省",
            "city": "淮南市",
            "district": "田家庵区"
        }
    },
    {
        "id": "5862913370346193583",
        "title": "公共厕所",
        "address": "安徽省淮南市凤台县Y007与兴湖路交叉口正西方向819米左右",
        "tel": "",
        "category": "基础设施:公共设施:公共厕所",
        "type": 0,
        "location": {
            "lat": 32.628407,
            "lng": 116.621534
        },
        "ad_info": {
            "adcode": 340421,
            "province": "安徽省",
            "city": "淮南市",
            "district": "凤台县"
        }
    },
    {
        "id": "10769288104573260102",
        "title": "公共厕所",
        "address": "安徽省淮南市田家庵区田家庵区镇南路030号",
        "tel": "",
        "category": "基础设施:公共设施:公共厕所",
        "type": 0,
        "location": {
            "lat": 32.477429,
            "lng": 117.054399
        },
        "ad_info": {
            "adcode": 340403,
            "province": "安徽省",
            "city": "淮南市",
            "district": "田家庵区"
        }
    },
    {
        "id": "5315372936323733929",
        "title": "公共厕所",
        "address": "安徽省淮南市大通区居庆路与洞山东路交叉口东南方向140米左右",
        "tel": "",
        "category": "基础设施:公共设施:公共厕所",
        "type": 0,
        "location": {
            "lat": 32.62842,
            "lng": 117.047121
        },
        "ad_info": {
            "adcode": 340402,
            "province": "安徽省",
            "city": "淮南市",
            "district": "大通区"
        }
    },
    {
        "id": "7892512233174283753",
        "title": "公共厕所",
        "address": "安徽省淮南市田家庵区舜耕中路与龙湖南路交叉口正南方向303米左右",
        "tel": "",
        "category": "基础设施:公共设施:公共厕所",
        "type": 0,
        "location": {
            "lat": 32.629548,
            "lng": 117.019924
        },
        "ad_info": {
            "adcode": 340403,
            "province": "安徽省",
            "city": "淮南市",
            "district": "田家庵区"
        }
    },
    {
        "id": "13721816493475806994",
        "title": "公共厕所",
        "address": "安徽省淮南市凤台县岳张集镇张集大街十字路口往西50米",
        "tel": "",
        "category": "基础设施:公共设施:公共厕所",
        "type": 0,
        "location": {
            "lat": 32.754592,
            "lng": 116.522913
        },
        "ad_info": {
            "adcode": 340421,
            "province": "安徽省",
            "city": "淮南市",
            "district": "凤台县"
        }
    },
    {
        "id": "10351740329225110786",
        "title": "免费公共厕所",
        "address": "安徽省淮南市大通区民主北路与田大南路交叉口东北方向21米左右",
        "tel": "",
        "category": "基础设施:公共设施:公共厕所",
        "type": 0,
        "location": {
            "lat": 32.635924,
            "lng": 117.052162
        },
        "ad_info": {
            "adcode": 340402,
            "province": "安徽省",
            "city": "淮南市",
            "district": "大通区"
        }
    },
    {
        "id": "13972504375833417577",
        "title": "公共厕所",
        "address": "安徽省淮南市田家庵区泉山路35号九十七处公交站",
        "tel": "",
        "category": "基础设施:公共设施:公共厕所",
        "type": 0,
        "location": {
            "lat": 32.610633,
            "lng": 116.975138
        },
        "ad_info": {
            "adcode": 340403,
            "province": "安徽省",
            "city": "淮南市",
            "district": "田家庵区"
        }
    },
    {
        "id": "2339396890122124711",
        "title": "公共厕所",
        "address": "安徽省淮南市田家庵区泉山路与洞山中路交叉口正东方向185米左右",
        "tel": "",
        "category": "基础设施:公共设施:公共厕所",
        "type": 0,
        "location": {
            "lat": 32.622121,
            "lng": 116.975922
        },
        "ad_info": {
            "adcode": 340403,
            "province": "安徽省",
            "city": "淮南市",
            "district": "田家庵区"
        }
    },
    {
        "id": "13824071863118921122",
        "title": "公共厕所",
        "address": "安徽省淮南市凤台县新区路,凤凰湖n区西门北侧",
        "tel": "",
        "category": "基础设施:公共设施:公共厕所",
        "type": 0,
        "location": {
            "lat": 32.733169,
            "lng": 116.680863
        },
        "ad_info": {
            "adcode": 340421,
            "province": "安徽省",
            "city": "淮南市",
            "district": "凤台县"
        }
    },
    {
        "id": "4010042300819427616",
        "title": "无障碍公共厕所",
        "address": "安徽省淮南市谢家集区唐山路勘探村城建小区",
        "tel": "",
        "category": "基础设施:公共设施:公共厕所",
        "type": 0,
        "location": {
            "lat": 32.595441,
            "lng": 116.865081
        },
        "ad_info": {
            "adcode": 340404,
            "province": "安徽省",
            "city": "淮南市",
            "district": "谢家集区"
        }
    },
    {
        "id": "1342254039322112960",
        "title": "无障碍公共厕所",
        "address": "安徽省淮南市田家庵区淮舜北路与长青路交叉口正南方向47米左右",
        "tel": "",
        "category": "基础设施:公共设施:公共厕所",
        "type": 0,
        "location": {
            "lat": 32.655961,
            "lng": 117.026762
        },
        "ad_info": {
            "adcode": 340403,
            "province": "安徽省",
            "city": "淮南市",
            "district": "田家庵区"
        }
    },
    {
        "id": "6592836641661361534",
        "title": "公共厕所",
        "address": "安徽省淮南市大通区支二路与支四路交叉口东南方向314米左右",
        "tel": "",
        "category": "基础设施:公共设施:公共厕所",
        "type": 0,
        "location": {
            "lat": 32.632122,
            "lng": 117.058101
        },
        "ad_info": {
            "adcode": 340402,
            "province": "安徽省",
            "city": "淮南市",
            "district": "大通区"
        }
    },
    {
        "id": "7322900138778999737",
        "title": "公共卫生间",
        "address": "安徽省淮南市凤台县焦岗湖景区(兴湖路西150米)",
        "tel": "",
        "category": "基础设施:公共设施:公共厕所",
        "type": 0,
        "location": {
            "lat": 32.613658,
            "lng": 116.628327
        },
        "ad_info": {
            "adcode": 340421,
            "province": "安徽省",
            "city": "淮南市",
            "district": "凤台县"
        }
    },
    {
        "id": "2695675531839919690",
        "title": "芍陂服务区公共厕所",
        "address": "安徽省淮南市寿县中国石化芍陂服务区西加油站西北侧160米",
        "tel": "",
        "category": "基础设施:公共设施:公共厕所",
        "type": 0,
        "location": {
            "lat": 32.376911,
            "lng": 116.759553
        },
        "ad_info": {
            "adcode": 340422,
            "province": "安徽省",
            "city": "淮南市",
            "district": "寿县"
        }
    },
    {
        "id": "10895838069334218802",
        "title": "公共厕所",
        "address": "安徽省淮南市寿县025县道与135乡道交叉口北150米",
        "tel": "",
        "category": "基础设施:公共设施:公共厕所",
        "type": 0,
        "location": {
            "lat": 31.995321,
            "lng": 116.769376
        },
        "ad_info": {
            "adcode": 340422,
            "province": "安徽省",
            "city": "淮南市",
            "district": "寿县"
        }
    },
    {
        "id": "1313735911874144841",
        "title": "公共厕所",
        "address": "安徽省淮南市八公山区八公山记忆广场",
        "tel": "",
        "category": "基础设施:公共设施:公共厕所",
        "type": 0,
        "location": {
            "lat": 32.631525,
            "lng": 116.841149
        },
        "ad_info": {
            "adcode": 340405,
            "province": "安徽省",
            "city": "淮南市",
            "district": "八公山区"
        }
    },
    {
        "id": "7792566160270891026",
        "title": "公共厕所",
        "address": "安徽省淮南市大通区民主东路与田大南路交叉口正西方向315米左右",
        "tel": "",
        "category": "基础设施:公共设施:公共厕所",
        "type": 0,
        "location": {
            "lat": 32.631249,
            "lng": 117.051467
        },
        "ad_info": {
            "adcode": 340402,
            "province": "安徽省",
            "city": "淮南市",
            "district": "大通区"
        }
    },
    {
        "id": "4903078348744337403",
        "title": "公共厕所",
        "address": "安徽省淮南市田家庵区四号路与电厂路交叉口正南方向32米左右",
        "tel": "",
        "category": "基础设施:公共设施:公共厕所",
        "type": 0,
        "location": {
            "lat": 32.662992,
            "lng": 117.038099
        },
        "ad_info": {
            "adcode": 340403,
            "province": "安徽省",
            "city": "淮南市",
            "district": "田家庵区"
        }
    },
    {
        "id": "16826097439335888225",
        "title": "公共厕所",
        "address": "安徽省淮南市凤台县淮河路金亿家私旁十米",
        "tel": "",
        "category": "基础设施:公共设施:公共厕所",
        "type": 0,
        "location": {
            "lat": 32.699082,
            "lng": 116.725483
        },
        "ad_info": {
            "adcode": 340421,
            "province": "安徽省",
            "city": "淮南市",
            "district": "凤台县"
        }
    },
    {
        "id": "13835100316066294728",
        "title": "男洗手间",
        "address": "安徽省淮南市田家庵区学院路与朝阳路交口向北200米金大地龙湖中心F1",
        "tel": "",
        "category": "基础设施:公共设施:男洗手间",
        "type": 0,
        "location": {
            "lat": 32.643861,
            "lng": 117.01243
        },
        "ad_info": {
            "adcode": 340403,
            "province": "安徽省",
            "city": "淮南市",
            "district": "田家庵区"
        }
    },
    {
        "id": "5862913370346193583",
        "title": "公共厕所",
        "address": "安徽省淮南市凤台县Y007与兴湖路交叉口正西方向819米左右",
        "tel": "",
        "category": "基础设施:公共设施:公共厕所",
        "type": 0,
        "location": {
            "lat": 32.628407,
            "lng": 116.621534
        },
        "ad_info": {
            "adcode": 340421,
            "province": "安徽省",
            "city": "淮南市",
            "district": "凤台县"
        }
    },
    {
        "id": "10769288104573260102",
        "title": "公共厕所",
        "address": "安徽省淮南市田家庵区田家庵区镇南路030号",
        "tel": "",
        "category": "基础设施:公共设施:公共厕所",
        "type": 0,
        "location": {
            "lat": 32.477429,
            "lng": 117.054399
        },
        "ad_info": {
            "adcode": 340403,
            "province": "安徽省",
            "city": "淮南市",
            "district": "田家庵区"
        }
    },
    {
        "id": "5315372936323733929",
        "title": "公共厕所",
        "address": "安徽省淮南市大通区居庆路与洞山东路交叉口东南方向140米左右",
        "tel": "",
        "category": "基础设施:公共设施:公共厕所",
        "type": 0,
        "location": {
            "lat": 32.62842,
            "lng": 117.047121
        },
        "ad_info": {
            "adcode": 340402,
            "province": "安徽省",
            "city": "淮南市",
            "district": "大通区"
        }
    },
    {
        "id": "7892512233174283753",
        "title": "公共厕所",
        "address": "安徽省淮南市田家庵区舜耕中路与龙湖南路交叉口正南方向303米左右",
        "tel": "",
        "category": "基础设施:公共设施:公共厕所",
        "type": 0,
        "location": {
            "lat": 32.629548,
            "lng": 117.019924
        },
        "ad_info": {
            "adcode": 340403,
            "province": "安徽省",
            "city": "淮南市",
            "district": "田家庵区"
        }
    },
    {
        "id": "13721816493475806994",
        "title": "公共厕所",
        "address": "安徽省淮南市凤台县岳张集镇张集大街十字路口往西50米",
        "tel": "",
        "category": "基础设施:公共设施:公共厕所",
        "type": 0,
        "location": {
            "lat": 32.754592,
            "lng": 116.522913
        },
        "ad_info": {
            "adcode": 340421,
            "province": "安徽省",
            "city": "淮南市",
            "district": "凤台县"
        }
    },
    {
        "id": "10351740329225110786",
        "title": "免费公共厕所",
        "address": "安徽省淮南市大通区民主北路与田大南路交叉口东北方向21米左右",
        "tel": "",
        "category": "基础设施:公共设施:公共厕所",
        "type": 0,
        "location": {
            "lat": 32.635924,
            "lng": 117.052162
        },
        "ad_info": {
            "adcode": 340402,
            "province": "安徽省",
            "city": "淮南市",
            "district": "大通区"
        }
    },
    {
        "id": "13972504375833417577",
        "title": "公共厕所",
        "address": "安徽省淮南市田家庵区泉山路35号九十七处公交站",
        "tel": "",
        "category": "基础设施:公共设施:公共厕所",
        "type": 0,
        "location": {
            "lat": 32.610633,
            "lng": 116.975138
        },
        "ad_info": {
            "adcode": 340403,
            "province": "安徽省",
            "city": "淮南市",
            "district": "田家庵区"
        }
    },
    {
        "id": "2339396890122124711",
        "title": "公共厕所",
        "address": "安徽省淮南市田家庵区泉山路与洞山中路交叉口正东方向185米左右",
        "tel": "",
        "category": "基础设施:公共设施:公共厕所",
        "type": 0,
        "location": {
            "lat": 32.622121,
            "lng": 116.975922
        },
        "ad_info": {
            "adcode": 340403,
            "province": "安徽省",
            "city": "淮南市",
            "district": "田家庵区"
        }
    },
    {
        "id": "13824071863118921122",
        "title": "公共厕所",
        "address": "安徽省淮南市凤台县新区路,凤凰湖n区西门北侧",
        "tel": "",
        "category": "基础设施:公共设施:公共厕所",
        "type": 0,
        "location": {
            "lat": 32.733169,
            "lng": 116.680863
        },
        "ad_info": {
            "adcode": 340421,
            "province": "安徽省",
            "city": "淮南市",
            "district": "凤台县"
        }
    },
    {
        "id": "4010042300819427616",
        "title": "无障碍公共厕所",
        "address": "安徽省淮南市谢家集区唐山路勘探村城建小区",
        "tel": "",
        "category": "基础设施:公共设施:公共厕所",
        "type": 0,
        "location": {
            "lat": 32.595441,
            "lng": 116.865081
        },
        "ad_info": {
            "adcode": 340404,
            "province": "安徽省",
            "city": "淮南市",
            "district": "谢家集区"
        }
    },
    {
        "id": "1342254039322112960",
        "title": "无障碍公共厕所",
        "address": "安徽省淮南市田家庵区淮舜北路与长青路交叉口正南方向47米左右",
        "tel": "",
        "category": "基础设施:公共设施:公共厕所",
        "type": 0,
        "location": {
            "lat": 32.655961,
            "lng": 117.026762
        },
        "ad_info": {
            "adcode": 340403,
            "province": "安徽省",
            "city": "淮南市",
            "district": "田家庵区"
        }
    },
    {
        "id": "6592836641661361534",
        "title": "公共厕所",
        "address": "安徽省淮南市大通区支二路与支四路交叉口东南方向314米左右",
        "tel": "",
        "category": "基础设施:公共设施:公共厕所",
        "type": 0,
        "location": {
            "lat": 32.632122,
            "lng": 117.058101
        },
        "ad_info": {
            "adcode": 340402,
            "province": "安徽省",
            "city": "淮南市",
            "district": "大通区"
        }
    },
    {
        "id": "7322900138778999737",
        "title": "公共卫生间",
        "address": "安徽省淮南市凤台县焦岗湖景区(兴湖路西150米)",
        "tel": "",
        "category": "基础设施:公共设施:公共厕所",
        "type": 0,
        "location": {
            "lat": 32.613658,
            "lng": 116.628327
        },
        "ad_info": {
            "adcode": 340421,
            "province": "安徽省",
            "city": "淮南市",
            "district": "凤台县"
        }
    },
    {
        "id": "2695675531839919690",
        "title": "芍陂服务区公共厕所",
        "address": "安徽省淮南市寿县中国石化芍陂服务区西加油站西北侧160米",
        "tel": "",
        "category": "基础设施:公共设施:公共厕所",
        "type": 0,
        "location": {
            "lat": 32.376911,
            "lng": 116.759553
        },
        "ad_info": {
            "adcode": 340422,
            "province": "安徽省",
            "city": "淮南市",
            "district": "寿县"
        }
    },
    {
        "id": "10895838069334218802",
        "title": "公共厕所",
        "address": "安徽省淮南市寿县025县道与135乡道交叉口北150米",
        "tel": "",
        "category": "基础设施:公共设施:公共厕所",
        "type": 0,
        "location": {
            "lat": 31.995321,
            "lng": 116.769376
        },
        "ad_info": {
            "adcode": 340422,
            "province": "安徽省",
            "city": "淮南市",
            "district": "寿县"
        }
    },
    {
        "id": "1313735911874144841",
        "title": "公共厕所",
        "address": "安徽省淮南市八公山区八公山记忆广场",
        "tel": "",
        "category": "基础设施:公共设施:公共厕所",
        "type": 0,
        "location": {
            "lat": 32.631525,
            "lng": 116.841149
        },
        "ad_info": {
            "adcode": 340405,
            "province": "安徽省",
            "city": "淮南市",
            "district": "八公山区"
        }
    },
    {
        "id": "7792566160270891026",
        "title": "公共厕所",
        "address": "安徽省淮南市大通区民主东路与田大南路交叉口正西方向315米左右",
        "tel": "",
        "category": "基础设施:公共设施:公共厕所",
        "type": 0,
        "location": {
            "lat": 32.631249,
            "lng": 117.051467
        },
        "ad_info": {
            "adcode": 340402,
            "province": "安徽省",
            "city": "淮南市",
            "district": "大通区"
        }
    },
    {
        "id": "4903078348744337403",
        "title": "公共厕所",
        "address": "安徽省淮南市田家庵区四号路与电厂路交叉口正南方向32米左右",
        "tel": "",
        "category": "基础设施:公共设施:公共厕所",
        "type": 0,
        "location": {
            "lat": 32.662992,
            "lng": 117.038099
        },
        "ad_info": {
            "adcode": 340403,
            "province": "安徽省",
            "city": "淮南市",
            "district": "田家庵区"
        }
    },
    {
        "id": "16826097439335888225",
        "title": "公共厕所",
        "address": "安徽省淮南市凤台县淮河路金亿家私旁十米",
        "tel": "",
        "category": "基础设施:公共设施:公共厕所",
        "type": 0,
        "location": {
            "lat": 32.699082,
            "lng": 116.725483
        },
        "ad_info": {
            "adcode": 340421,
            "province": "安徽省",
            "city": "淮南市",
            "district": "凤台县"
        }
    },
    {
        "id": "13835100316066294728",
        "title": "男洗手间",
        "address": "安徽省淮南市田家庵区学院路与朝阳路交口向北200米金大地龙湖中心F1",
        "tel": "",
        "category": "基础设施:公共设施:男洗手间",
        "type": 0,
        "location": {
            "lat": 32.643861,
            "lng": 117.01243
        },
        "ad_info": {
            "adcode": 340403,
            "province": "安徽省",
            "city": "淮南市",
            "district": "田家庵区"
        }
    },
    {
        "id": "5862913370346193583",
        "title": "公共厕所",
        "address": "安徽省淮南市凤台县Y007与兴湖路交叉口正西方向819米左右",
        "tel": "",
        "category": "基础设施:公共设施:公共厕所",
        "type": 0,
        "location": {
            "lat": 32.628407,
            "lng": 116.621534
        },
        "ad_info": {
            "adcode": 340421,
            "province": "安徽省",
            "city": "淮南市",
            "district": "凤台县"
        }
    },
    {
        "id": "10769288104573260102",
        "title": "公共厕所",
        "address": "安徽省淮南市田家庵区田家庵区镇南路030号",
        "tel": "",
        "category": "基础设施:公共设施:公共厕所",
        "type": 0,
        "location": {
            "lat": 32.477429,
            "lng": 117.054399
        },
        "ad_info": {
            "adcode": 340403,
            "province": "安徽省",
            "city": "淮南市",
            "district": "田家庵区"
        }
    },
    {
        "id": "5315372936323733929",
        "title": "公共厕所",
        "address": "安徽省淮南市大通区居庆路与洞山东路交叉口东南方向140米左右",
        "tel": "",
        "category": "基础设施:公共设施:公共厕所",
        "type": 0,
        "location": {
            "lat": 32.62842,
            "lng": 117.047121
        },
        "ad_info": {
            "adcode": 340402,
            "province": "安徽省",
            "city": "淮南市",
            "district": "大通区"
        }
    },
    {
        "id": "7892512233174283753",
        "title": "公共厕所",
        "address": "安徽省淮南市田家庵区舜耕中路与龙湖南路交叉口正南方向303米左右",
        "tel": "",
        "category": "基础设施:公共设施:公共厕所",
        "type": 0,
        "location": {
            "lat": 32.629548,
            "lng": 117.019924
        },
        "ad_info": {
            "adcode": 340403,
            "province": "安徽省",
            "city": "淮南市",
            "district": "田家庵区"
        }
    },
    {
        "id": "13721816493475806994",
        "title": "公共厕所",
        "address": "安徽省淮南市凤台县岳张集镇张集大街十字路口往西50米",
        "tel": "",
        "category": "基础设施:公共设施:公共厕所",
        "type": 0,
        "location": {
            "lat": 32.754592,
            "lng": 116.522913
        },
        "ad_info": {
            "adcode": 340421,
            "province": "安徽省",
            "city": "淮南市",
            "district": "凤台县"
        }
    },
    {
        "id": "10351740329225110786",
        "title": "免费公共厕所",
        "address": "安徽省淮南市大通区民主北路与田大南路交叉口东北方向21米左右",
        "tel": "",
        "category": "基础设施:公共设施:公共厕所",
        "type": 0,
        "location": {
            "lat": 32.635924,
            "lng": 117.052162
        },
        "ad_info": {
            "adcode": 340402,
            "province": "安徽省",
            "city": "淮南市",
            "district": "大通区"
        }
    },
    {
        "id": "13972504375833417577",
        "title": "公共厕所",
        "address": "安徽省淮南市田家庵区泉山路35号九十七处公交站",
        "tel": "",
        "category": "基础设施:公共设施:公共厕所",
        "type": 0,
        "location": {
            "lat": 32.610633,
            "lng": 116.975138
        },
        "ad_info": {
            "adcode": 340403,
            "province": "安徽省",
            "city": "淮南市",
            "district": "田家庵区"
        }
    },
    {
        "id": "2339396890122124711",
        "title": "公共厕所",
        "address": "安徽省淮南市田家庵区泉山路与洞山中路交叉口正东方向185米左右",
        "tel": "",
        "category": "基础设施:公共设施:公共厕所",
        "type": 0,
        "location": {
            "lat": 32.622121,
            "lng": 116.975922
        },
        "ad_info": {
            "adcode": 340403,
            "province": "安徽省",
            "city": "淮南市",
            "district": "田家庵区"
        }
    },
    {
        "id": "13824071863118921122",
        "title": "公共厕所",
        "address": "安徽省淮南市凤台县新区路,凤凰湖n区西门北侧",
        "tel": "",
        "category": "基础设施:公共设施:公共厕所",
        "type": 0,
        "location": {
            "lat": 32.733169,
            "lng": 116.680863
        },
        "ad_info": {
            "adcode": 340421,
            "province": "安徽省",
            "city": "淮南市",
            "district": "凤台县"
        }
    },
    {
        "id": "4010042300819427616",
        "title": "无障碍公共厕所",
        "address": "安徽省淮南市谢家集区唐山路勘探村城建小区",
        "tel": "",
        "category": "基础设施:公共设施:公共厕所",
        "type": 0,
        "location": {
            "lat": 32.595441,
            "lng": 116.865081
        },
        "ad_info": {
            "adcode": 340404,
            "province": "安徽省",
            "city": "淮南市",
            "district": "谢家集区"
        }
    },
    {
        "id": "1342254039322112960",
        "title": "无障碍公共厕所",
        "address": "安徽省淮南市田家庵区淮舜北路与长青路交叉口正南方向47米左右",
        "tel": "",
        "category": "基础设施:公共设施:公共厕所",
        "type": 0,
        "location": {
            "lat": 32.655961,
            "lng": 117.026762
        },
        "ad_info": {
            "adcode": 340403,
            "province": "安徽省",
            "city": "淮南市",
            "district": "田家庵区"
        }
    },
    {
        "id": "6592836641661361534",
        "title": "公共厕所",
        "address": "安徽省淮南市大通区支二路与支四路交叉口东南方向314米左右",
        "tel": "",
        "category": "基础设施:公共设施:公共厕所",
        "type": 0,
        "location": {
            "lat": 32.632122,
            "lng": 117.058101
        },
        "ad_info": {
            "adcode": 340402,
            "province": "安徽省",
            "city": "淮南市",
            "district": "大通区"
        }
    },
    {
        "id": "7322900138778999737",
        "title": "公共卫生间",
        "address": "安徽省淮南市凤台县焦岗湖景区(兴湖路西150米)",
        "tel": "",
        "category": "基础设施:公共设施:公共厕所",
        "type": 0,
        "location": {
            "lat": 32.613658,
            "lng": 116.628327
        },
        "ad_info": {
            "adcode": 340421,
            "province": "安徽省",
            "city": "淮南市",
            "district": "凤台县"
        }
    },
    {
        "id": "2695675531839919690",
        "title": "芍陂服务区公共厕所",
        "address": "安徽省淮南市寿县中国石化芍陂服务区西加油站西北侧160米",
        "tel": "",
        "category": "基础设施:公共设施:公共厕所",
        "type": 0,
        "location": {
            "lat": 32.376911,
            "lng": 116.759553
        },
        "ad_info": {
            "adcode": 340422,
            "province": "安徽省",
            "city": "淮南市",
            "district": "寿县"
        }
    },
    {
        "id": "10895838069334218802",
        "title": "公共厕所",
        "address": "安徽省淮南市寿县025县道与135乡道交叉口北150米",
        "tel": "",
        "category": "基础设施:公共设施:公共厕所",
        "type": 0,
        "location": {
            "lat": 31.995321,
            "lng": 116.769376
        },
        "ad_info": {
            "adcode": 340422,
            "province": "安徽省",
            "city": "淮南市",
            "district": "寿县"
        }
    },
    {
        "id": "1313735911874144841",
        "title": "公共厕所",
        "address": "安徽省淮南市八公山区八公山记忆广场",
        "tel": "",
        "category": "基础设施:公共设施:公共厕所",
        "type": 0,
        "location": {
            "lat": 32.631525,
            "lng": 116.841149
        },
        "ad_info": {
            "adcode": 340405,
            "province": "安徽省",
            "city": "淮南市",
            "district": "八公山区"
        }
    },
    {
        "id": "7792566160270891026",
        "title": "公共厕所",
        "address": "安徽省淮南市大通区民主东路与田大南路交叉口正西方向315米左右",
        "tel": "",
        "category": "基础设施:公共设施:公共厕所",
        "type": 0,
        "location": {
            "lat": 32.631249,
            "lng": 117.051467
        },
        "ad_info": {
            "adcode": 340402,
            "province": "安徽省",
            "city": "淮南市",
            "district": "大通区"
        }
    },
    {
        "id": "4903078348744337403",
        "title": "公共厕所",
        "address": "安徽省淮南市田家庵区四号路与电厂路交叉口正南方向32米左右",
        "tel": "",
        "category": "基础设施:公共设施:公共厕所",
        "type": 0,
        "location": {
            "lat": 32.662992,
            "lng": 117.038099
        },
        "ad_info": {
            "adcode": 340403,
            "province": "安徽省",
            "city": "淮南市",
            "district": "田家庵区"
        }
    },
    {
        "id": "16826097439335888225",
        "title": "公共厕所",
        "address": "安徽省淮南市凤台县淮河路金亿家私旁十米",
        "tel": "",
        "category": "基础设施:公共设施:公共厕所",
        "type": 0,
        "location": {
            "lat": 32.699082,
            "lng": 116.725483
        },
        "ad_info": {
            "adcode": 340421,
            "province": "安徽省",
            "city": "淮南市",
            "district": "凤台县"
        }
    },
    {
        "id": "13835100316066294728",
        "title": "男洗手间",
        "address": "安徽省淮南市田家庵区学院路与朝阳路交口向北200米金大地龙湖中心F1",
        "tel": "",
        "category": "基础设施:公共设施:男洗手间",
        "type": 0,
        "location": {
            "lat": 32.643861,
            "lng": 117.01243
        },
        "ad_info": {
            "adcode": 340403,
            "province": "安徽省",
            "city": "淮南市",
            "district": "田家庵区"
        }
    },
    {
        "id": "5862913370346193583",
        "title": "公共厕所",
        "address": "安徽省淮南市凤台县Y007与兴湖路交叉口正西方向819米左右",
        "tel": "",
        "category": "基础设施:公共设施:公共厕所",
        "type": 0,
        "location": {
            "lat": 32.628407,
            "lng": 116.621534
        },
        "ad_info": {
            "adcode": 340421,
            "province": "安徽省",
            "city": "淮南市",
            "district": "凤台县"
        }
    },
    {
        "id": "10769288104573260102",
        "title": "公共厕所",
        "address": "安徽省淮南市田家庵区田家庵区镇南路030号",
        "tel": "",
        "category": "基础设施:公共设施:公共厕所",
        "type": 0,
        "location": {
            "lat": 32.477429,
            "lng": 117.054399
        },
        "ad_info": {
            "adcode": 340403,
            "province": "安徽省",
            "city": "淮南市",
            "district": "田家庵区"
        }
    },
    {
        "id": "5315372936323733929",
        "title": "公共厕所",
        "address": "安徽省淮南市大通区居庆路与洞山东路交叉口东南方向140米左右",
        "tel": "",
        "category": "基础设施:公共设施:公共厕所",
        "type": 0,
        "location": {
            "lat": 32.62842,
            "lng": 117.047121
        },
        "ad_info": {
            "adcode": 340402,
            "province": "安徽省",
            "city": "淮南市",
            "district": "大通区"
        }
    },
    {
        "id": "7892512233174283753",
        "title": "公共厕所",
        "address": "安徽省淮南市田家庵区舜耕中路与龙湖南路交叉口正南方向303米左右",
        "tel": "",
        "category": "基础设施:公共设施:公共厕所",
        "type": 0,
        "location": {
            "lat": 32.629548,
            "lng": 117.019924
        },
        "ad_info": {
            "adcode": 340403,
            "province": "安徽省",
            "city": "淮南市",
            "district": "田家庵区"
        }
    },
    {
        "id": "13721816493475806994",
        "title": "公共厕所",
        "address": "安徽省淮南市凤台县岳张集镇张集大街十字路口往西50米",
        "tel": "",
        "category": "基础设施:公共设施:公共厕所",
        "type": 0,
        "location": {
            "lat": 32.754592,
            "lng": 116.522913
        },
        "ad_info": {
            "adcode": 340421,
            "province": "安徽省",
            "city": "淮南市",
            "district": "凤台县"
        }
    },
    {
        "id": "10351740329225110786",
        "title": "免费公共厕所",
        "address": "安徽省淮南市大通区民主北路与田大南路交叉口东北方向21米左右",
        "tel": "",
        "category": "基础设施:公共设施:公共厕所",
        "type": 0,
        "location": {
            "lat": 32.635924,
            "lng": 117.052162
        },
        "ad_info": {
            "adcode": 340402,
            "province": "安徽省",
            "city": "淮南市",
            "district": "大通区"
        }
    },
    {
        "id": "13972504375833417577",
        "title": "公共厕所",
        "address": "安徽省淮南市田家庵区泉山路35号九十七处公交站",
        "tel": "",
        "category": "基础设施:公共设施:公共厕所",
        "type": 0,
        "location": {
            "lat": 32.610633,
            "lng": 116.975138
        },
        "ad_info": {
            "adcode": 340403,
            "province": "安徽省",
            "city": "淮南市",
            "district": "田家庵区"
        }
    },
    {
        "id": "2339396890122124711",
        "title": "公共厕所",
        "address": "安徽省淮南市田家庵区泉山路与洞山中路交叉口正东方向185米左右",
        "tel": "",
        "category": "基础设施:公共设施:公共厕所",
        "type": 0,
        "location": {
            "lat": 32.622121,
            "lng": 116.975922
        },
        "ad_info": {
            "adcode": 340403,
            "province": "安徽省",
            "city": "淮南市",
            "district": "田家庵区"
        }
    },
    {
        "id": "13824071863118921122",
        "title": "公共厕所",
        "address": "安徽省淮南市凤台县新区路,凤凰湖n区西门北侧",
        "tel": "",
        "category": "基础设施:公共设施:公共厕所",
        "type": 0,
        "location": {
            "lat": 32.733169,
            "lng": 116.680863
        },
        "ad_info": {
            "adcode": 340421,
            "province": "安徽省",
            "city": "淮南市",
            "district": "凤台县"
        }
    },
    {
        "id": "4010042300819427616",
        "title": "无障碍公共厕所",
        "address": "安徽省淮南市谢家集区唐山路勘探村城建小区",
        "tel": "",
        "category": "基础设施:公共设施:公共厕所",
        "type": 0,
        "location": {
            "lat": 32.595441,
            "lng": 116.865081
        },
        "ad_info": {
            "adcode": 340404,
            "province": "安徽省",
            "city": "淮南市",
            "district": "谢家集区"
        }
    },
    {
        "id": "1342254039322112960",
        "title": "无障碍公共厕所",
        "address": "安徽省淮南市田家庵区淮舜北路与长青路交叉口正南方向47米左右",
        "tel": "",
        "category": "基础设施:公共设施:公共厕所",
        "type": 0,
        "location": {
            "lat": 32.655961,
            "lng": 117.026762
        },
        "ad_info": {
            "adcode": 340403,
            "province": "安徽省",
            "city": "淮南市",
            "district": "田家庵区"
        }
    },
    {
        "id": "6592836641661361534",
        "title": "公共厕所",
        "address": "安徽省淮南市大通区支二路与支四路交叉口东南方向314米左右",
        "tel": "",
        "category": "基础设施:公共设施:公共厕所",
        "type": 0,
        "location": {
            "lat": 32.632122,
            "lng": 117.058101
        },
        "ad_info": {
            "adcode": 340402,
            "province": "安徽省",
            "city": "淮南市",
            "district": "大通区"
        }
    },
    {
        "id": "7322900138778999737",
        "title": "公共卫生间",
        "address": "安徽省淮南市凤台县焦岗湖景区(兴湖路西150米)",
        "tel": "",
        "category": "基础设施:公共设施:公共厕所",
        "type": 0,
        "location": {
            "lat": 32.613658,
            "lng": 116.628327
        },
        "ad_info": {
            "adcode": 340421,
            "province": "安徽省",
            "city": "淮南市",
            "district": "凤台县"
        }
    },
    {
        "id": "2695675531839919690",
        "title": "芍陂服务区公共厕所",
        "address": "安徽省淮南市寿县中国石化芍陂服务区西加油站西北侧160米",
        "tel": "",
        "category": "基础设施:公共设施:公共厕所",
        "type": 0,
        "location": {
            "lat": 32.376911,
            "lng": 116.759553
        },
        "ad_info": {
            "adcode": 340422,
            "province": "安徽省",
            "city": "淮南市",
            "district": "寿县"
        }
    },
    {
        "id": "10895838069334218802",
        "title": "公共厕所",
        "address": "安徽省淮南市寿县025县道与135乡道交叉口北150米",
        "tel": "",
        "category": "基础设施:公共设施:公共厕所",
        "type": 0,
        "location": {
            "lat": 31.995321,
            "lng": 116.769376
        },
        "ad_info": {
            "adcode": 340422,
            "province": "安徽省",
            "city": "淮南市",
            "district": "寿县"
        }
    },
    {
        "id": "1313735911874144841",
        "title": "公共厕所",
        "address": "安徽省淮南市八公山区八公山记忆广场",
        "tel": "",
        "category": "基础设施:公共设施:公共厕所",
        "type": 0,
        "location": {
            "lat": 32.631525,
            "lng": 116.841149
        },
        "ad_info": {
            "adcode": 340405,
            "province": "安徽省",
            "city": "淮南市",
            "district": "八公山区"
        }
    },
    {
        "id": "7792566160270891026",
        "title": "公共厕所",
        "address": "安徽省淮南市大通区民主东路与田大南路交叉口正西方向315米左右",
        "tel": "",
        "category": "基础设施:公共设施:公共厕所",
        "type": 0,
        "location": {
            "lat": 32.631249,
            "lng": 117.051467
        },
        "ad_info": {
            "adcode": 340402,
            "province": "安徽省",
            "city": "淮南市",
            "district": "大通区"
        }
    },
    {
        "id": "4903078348744337403",
        "title": "公共厕所",
        "address": "安徽省淮南市田家庵区四号路与电厂路交叉口正南方向32米左右",
        "tel": "",
        "category": "基础设施:公共设施:公共厕所",
        "type": 0,
        "location": {
            "lat": 32.662992,
            "lng": 117.038099
        },
        "ad_info": {
            "adcode": 340403,
            "province": "安徽省",
            "city": "淮南市",
            "district": "田家庵区"
        }
    },
    {
        "id": "16826097439335888225",
        "title": "公共厕所",
        "address": "安徽省淮南市凤台县淮河路金亿家私旁十米",
        "tel": "",
        "category": "基础设施:公共设施:公共厕所",
        "type": 0,
        "location": {
            "lat": 32.699082,
            "lng": 116.725483
        },
        "ad_info": {
            "adcode": 340421,
            "province": "安徽省",
            "city": "淮南市",
            "district": "凤台县"
        }
    },
    {
        "id": "13835100316066294728",
        "title": "男洗手间",
        "address": "安徽省淮南市田家庵区学院路与朝阳路交口向北200米金大地龙湖中心F1",
        "tel": "",
        "category": "基础设施:公共设施:男洗手间",
        "type": 0,
        "location": {
            "lat": 32.643861,
            "lng": 117.01243
        },
        "ad_info": {
            "adcode": 340403,
            "province": "安徽省",
            "city": "淮南市",
            "district": "田家庵区"
        }
    },
    {
        "id": "5862913370346193583",
        "title": "公共厕所",
        "address": "安徽省淮南市凤台县Y007与兴湖路交叉口正西方向819米左右",
        "tel": "",
        "category": "基础设施:公共设施:公共厕所",
        "type": 0,
        "location": {
            "lat": 32.628407,
            "lng": 116.621534
        },
        "ad_info": {
            "adcode": 340421,
            "province": "安徽省",
            "city": "淮南市",
            "district": "凤台县"
        }
    },
    {
        "id": "10769288104573260102",
        "title": "公共厕所",
        "address": "安徽省淮南市田家庵区田家庵区镇南路030号",
        "tel": "",
        "category": "基础设施:公共设施:公共厕所",
        "type": 0,
        "location": {
            "lat": 32.477429,
            "lng": 117.054399
        },
        "ad_info": {
            "adcode": 340403,
            "province": "安徽省",
            "city": "淮南市",
            "district": "田家庵区"
        }
    },
    {
        "id": "5315372936323733929",
        "title": "公共厕所",
        "address": "安徽省淮南市大通区居庆路与洞山东路交叉口东南方向140米左右",
        "tel": "",
        "category": "基础设施:公共设施:公共厕所",
        "type": 0,
        "location": {
            "lat": 32.62842,
            "lng": 117.047121
        },
        "ad_info": {
            "adcode": 340402,
            "province": "安徽省",
            "city": "淮南市",
            "district": "大通区"
        }
    },
    {
        "id": "7892512233174283753",
        "title": "公共厕所",
        "address": "安徽省淮南市田家庵区舜耕中路与龙湖南路交叉口正南方向303米左右",
        "tel": "",
        "category": "基础设施:公共设施:公共厕所",
        "type": 0,
        "location": {
            "lat": 32.629548,
            "lng": 117.019924
        },
        "ad_info": {
            "adcode": 340403,
            "province": "安徽省",
            "city": "淮南市",
            "district": "田家庵区"
        }
    },
    {
        "id": "13721816493475806994",
        "title": "公共厕所",
        "address": "安徽省淮南市凤台县岳张集镇张集大街十字路口往西50米",
        "tel": "",
        "category": "基础设施:公共设施:公共厕所",
        "type": 0,
        "location": {
            "lat": 32.754592,
            "lng": 116.522913
        },
        "ad_info": {
            "adcode": 340421,
            "province": "安徽省",
            "city": "淮南市",
            "district": "凤台县"
        }
    },
    {
        "id": "10351740329225110786",
        "title": "免费公共厕所",
        "address": "安徽省淮南市大通区民主北路与田大南路交叉口东北方向21米左右",
        "tel": "",
        "category": "基础设施:公共设施:公共厕所",
        "type": 0,
        "location": {
            "lat": 32.635924,
            "lng": 117.052162
        },
        "ad_info": {
            "adcode": 340402,
            "province": "安徽省",
            "city": "淮南市",
            "district": "大通区"
        }
    },
    {
        "id": "13972504375833417577",
        "title": "公共厕所",
        "address": "安徽省淮南市田家庵区泉山路35号九十七处公交站",
        "tel": "",
        "category": "基础设施:公共设施:公共厕所",
        "type": 0,
        "location": {
            "lat": 32.610633,
            "lng": 116.975138
        },
        "ad_info": {
            "adcode": 340403,
            "province": "安徽省",
            "city": "淮南市",
            "district": "田家庵区"
        }
    },
    {
        "id": "2339396890122124711",
        "title": "公共厕所",
        "address": "安徽省淮南市田家庵区泉山路与洞山中路交叉口正东方向185米左右",
        "tel": "",
        "category": "基础设施:公共设施:公共厕所",
        "type": 0,
        "location": {
            "lat": 32.622121,
            "lng": 116.975922
        },
        "ad_info": {
            "adcode": 340403,
            "province": "安徽省",
            "city": "淮南市",
            "district": "田家庵区"
        }
    },
    {
        "id": "13824071863118921122",
        "title": "公共厕所",
        "address": "安徽省淮南市凤台县新区路,凤凰湖n区西门北侧",
        "tel": "",
        "category": "基础设施:公共设施:公共厕所",
        "type": 0,
        "location": {
            "lat": 32.733169,
            "lng": 116.680863
        },
        "ad_info": {
            "adcode": 340421,
            "province": "安徽省",
            "city": "淮南市",
            "district": "凤台县"
        }
    },
    {
        "id": "4010042300819427616",
        "title": "无障碍公共厕所",
        "address": "安徽省淮南市谢家集区唐山路勘探村城建小区",
        "tel": "",
        "category": "基础设施:公共设施:公共厕所",
        "type": 0,
        "location": {
            "lat": 32.595441,
            "lng": 116.865081
        },
        "ad_info": {
            "adcode": 340404,
            "province": "安徽省",
            "city": "淮南市",
            "district": "谢家集区"
        }
    },
    {
        "id": "1342254039322112960",
        "title": "无障碍公共厕所",
        "address": "安徽省淮南市田家庵区淮舜北路与长青路交叉口正南方向47米左右",
        "tel": "",
        "category": "基础设施:公共设施:公共厕所",
        "type": 0,
        "location": {
            "lat": 32.655961,
            "lng": 117.026762
        },
        "ad_info": {
            "adcode": 340403,
            "province": "安徽省",
            "city": "淮南市",
            "district": "田家庵区"
        }
    },
    {
        "id": "6592836641661361534",
        "title": "公共厕所",
        "address": "安徽省淮南市大通区支二路与支四路交叉口东南方向314米左右",
        "tel": "",
        "category": "基础设施:公共设施:公共厕所",
        "type": 0,
        "location": {
            "lat": 32.632122,
            "lng": 117.058101
        },
        "ad_info": {
            "adcode": 340402,
            "province": "安徽省",
            "city": "淮南市",
            "district": "大通区"
        }
    },
    {
        "id": "7322900138778999737",
        "title": "公共卫生间",
        "address": "安徽省淮南市凤台县焦岗湖景区(兴湖路西150米)",
        "tel": "",
        "category": "基础设施:公共设施:公共厕所",
        "type": 0,
        "location": {
            "lat": 32.613658,
            "lng": 116.628327
        },
        "ad_info": {
            "adcode": 340421,
            "province": "安徽省",
            "city": "淮南市",
            "district": "凤台县"
        }
    },
    {
        "id": "2695675531839919690",
        "title": "芍陂服务区公共厕所",
        "address": "安徽省淮南市寿县中国石化芍陂服务区西加油站西北侧160米",
        "tel": "",
        "category": "基础设施:公共设施:公共厕所",
        "type": 0,
        "location": {
            "lat": 32.376911,
            "lng": 116.759553
        },
        "ad_info": {
            "adcode": 340422,
            "province": "安徽省",
            "city": "淮南市",
            "district": "寿县"
        }
    },
    {
        "id": "10895838069334218802",
        "title": "公共厕所",
        "address": "安徽省淮南市寿县025县道与135乡道交叉口北150米",
        "tel": "",
        "category": "基础设施:公共设施:公共厕所",
        "type": 0,
        "location": {
            "lat": 31.995321,
            "lng": 116.769376
        },
        "ad_info": {
            "adcode": 340422,
            "province": "安徽省",
            "city": "淮南市",
            "district": "寿县"
        }
    },
    {
        "id": "1313735911874144841",
        "title": "公共厕所",
        "address": "安徽省淮南市八公山区八公山记忆广场",
        "tel": "",
        "category": "基础设施:公共设施:公共厕所",
        "type": 0,
        "location": {
            "lat": 32.631525,
            "lng": 116.841149
        },
        "ad_info": {
            "adcode": 340405,
            "province": "安徽省",
            "city": "淮南市",
            "district": "八公山区"
        }
    },
    {
        "id": "7792566160270891026",
        "title": "公共厕所",
        "address": "安徽省淮南市大通区民主东路与田大南路交叉口正西方向315米左右",
        "tel": "",
        "category": "基础设施:公共设施:公共厕所",
        "type": 0,
        "location": {
            "lat": 32.631249,
            "lng": 117.051467
        },
        "ad_info": {
            "adcode": 340402,
            "province": "安徽省",
            "city": "淮南市",
            "district": "大通区"
        }
    },
    {
        "id": "4903078348744337403",
        "title": "公共厕所",
        "address": "安徽省淮南市田家庵区四号路与电厂路交叉口正南方向32米左右",
        "tel": "",
        "category": "基础设施:公共设施:公共厕所",
        "type": 0,
        "location": {
            "lat": 32.662992,
            "lng": 117.038099
        },
        "ad_info": {
            "adcode": 340403,
            "province": "安徽省",
            "city": "淮南市",
            "district": "田家庵区"
        }
    },
    {
        "id": "16826097439335888225",
        "title": "公共厕所",
        "address": "安徽省淮南市凤台县淮河路金亿家私旁十米",
        "tel": "",
        "category": "基础设施:公共设施:公共厕所",
        "type": 0,
        "location": {
            "lat": 32.699082,
            "lng": 116.725483
        },
        "ad_info": {
            "adcode": 340421,
            "province": "安徽省",
            "city": "淮南市",
            "district": "凤台县"
        }
    },
    {
        "id": "13835100316066294728",
        "title": "男洗手间",
        "address": "安徽省淮南市田家庵区学院路与朝阳路交口向北200米金大地龙湖中心F1",
        "tel": "",
        "category": "基础设施:公共设施:男洗手间",
        "type": 0,
        "location": {
            "lat": 32.643861,
            "lng": 117.01243
        },
        "ad_info": {
            "adcode": 340403,
            "province": "安徽省",
            "city": "淮南市",
            "district": "田家庵区"
        }
    },
    {
        "id": "5862913370346193583",
        "title": "公共厕所",
        "address": "安徽省淮南市凤台县Y007与兴湖路交叉口正西方向819米左右",
        "tel": "",
        "category": "基础设施:公共设施:公共厕所",
        "type": 0,
        "location": {
            "lat": 32.628407,
            "lng": 116.621534
        },
        "ad_info": {
            "adcode": 340421,
            "province": "安徽省",
            "city": "淮南市",
            "district": "凤台县"
        }
    },
    {
        "id": "10769288104573260102",
        "title": "公共厕所",
        "address": "安徽省淮南市田家庵区田家庵区镇南路030号",
        "tel": "",
        "category": "基础设施:公共设施:公共厕所",
        "type": 0,
        "location": {
            "lat": 32.477429,
            "lng": 117.054399
        },
        "ad_info": {
            "adcode": 340403,
            "province": "安徽省",
            "city": "淮南市",
            "district": "田家庵区"
        }
    },
    {
        "id": "5315372936323733929",
        "title": "公共厕所",
        "address": "安徽省淮南市大通区居庆路与洞山东路交叉口东南方向140米左右",
        "tel": "",
        "category": "基础设施:公共设施:公共厕所",
        "type": 0,
        "location": {
            "lat": 32.62842,
            "lng": 117.047121
        },
        "ad_info": {
            "adcode": 340402,
            "province": "安徽省",
            "city": "淮南市",
            "district": "大通区"
        }
    },
    {
        "id": "7892512233174283753",
        "title": "公共厕所",
        "address": "安徽省淮南市田家庵区舜耕中路与龙湖南路交叉口正南方向303米左右",
        "tel": "",
        "category": "基础设施:公共设施:公共厕所",
        "type": 0,
        "location": {
            "lat": 32.629548,
            "lng": 117.019924
        },
        "ad_info": {
            "adcode": 340403,
            "province": "安徽省",
            "city": "淮南市",
            "district": "田家庵区"
        }
    },
    {
        "id": "13721816493475806994",
        "title": "公共厕所",
        "address": "安徽省淮南市凤台县岳张集镇张集大街十字路口往西50米",
        "tel": "",
        "category": "基础设施:公共设施:公共厕所",
        "type": 0,
        "location": {
            "lat": 32.754592,
            "lng": 116.522913
        },
        "ad_info": {
            "adcode": 340421,
            "province": "安徽省",
            "city": "淮南市",
            "district": "凤台县"
        }
    },
    {
        "id": "10351740329225110786",
        "title": "免费公共厕所",
        "address": "安徽省淮南市大通区民主北路与田大南路交叉口东北方向21米左右",
        "tel": "",
        "category": "基础设施:公共设施:公共厕所",
        "type": 0,
        "location": {
            "lat": 32.635924,
            "lng": 117.052162
        },
        "ad_info": {
            "adcode": 340402,
            "province": "安徽省",
            "city": "淮南市",
            "district": "大通区"
        }
    },
    {
        "id": "13972504375833417577",
        "title": "公共厕所",
        "address": "安徽省淮南市田家庵区泉山路35号九十七处公交站",
        "tel": "",
        "category": "基础设施:公共设施:公共厕所",
        "type": 0,
        "location": {
            "lat": 32.610633,
            "lng": 116.975138
        },
        "ad_info": {
            "adcode": 340403,
            "province": "安徽省",
            "city": "淮南市",
            "district": "田家庵区"
        }
    },
    {
        "id": "2339396890122124711",
        "title": "公共厕所",
        "address": "安徽省淮南市田家庵区泉山路与洞山中路交叉口正东方向185米左右",
        "tel": "",
        "category": "基础设施:公共设施:公共厕所",
        "type": 0,
        "location": {
            "lat": 32.622121,
            "lng": 116.975922
        },
        "ad_info": {
            "adcode": 340403,
            "province": "安徽省",
            "city": "淮南市",
            "district": "田家庵区"
        }
    },
    {
        "id": "13824071863118921122",
        "title": "公共厕所",
        "address": "安徽省淮南市凤台县新区路,凤凰湖n区西门北侧",
        "tel": "",
        "category": "基础设施:公共设施:公共厕所",
        "type": 0,
        "location": {
            "lat": 32.733169,
            "lng": 116.680863
        },
        "ad_info": {
            "adcode": 340421,
            "province": "安徽省",
            "city": "淮南市",
            "district": "凤台县"
        }
    },
    {
        "id": "4010042300819427616",
        "title": "无障碍公共厕所",
        "address": "安徽省淮南市谢家集区唐山路勘探村城建小区",
        "tel": "",
        "category": "基础设施:公共设施:公共厕所",
        "type": 0,
        "location": {
            "lat": 32.595441,
            "lng": 116.865081
        },
        "ad_info": {
            "adcode": 340404,
            "province": "安徽省",
            "city": "淮南市",
            "district": "谢家集区"
        }
    },
    {
        "id": "1342254039322112960",
        "title": "无障碍公共厕所",
        "address": "安徽省淮南市田家庵区淮舜北路与长青路交叉口正南方向47米左右",
        "tel": "",
        "category": "基础设施:公共设施:公共厕所",
        "type": 0,
        "location": {
            "lat": 32.655961,
            "lng": 117.026762
        },
        "ad_info": {
            "adcode": 340403,
            "province": "安徽省",
            "city": "淮南市",
            "district": "田家庵区"
        }
    },
    {
        "id": "6592836641661361534",
        "title": "公共厕所",
        "address": "安徽省淮南市大通区支二路与支四路交叉口东南方向314米左右",
        "tel": "",
        "category": "基础设施:公共设施:公共厕所",
        "type": 0,
        "location": {
            "lat": 32.632122,
            "lng": 117.058101
        },
        "ad_info": {
            "adcode": 340402,
            "province": "安徽省",
            "city": "淮南市",
            "district": "大通区"
        }
    },
    {
        "id": "7322900138778999737",
        "title": "公共卫生间",
        "address": "安徽省淮南市凤台县焦岗湖景区(兴湖路西150米)",
        "tel": "",
        "category": "基础设施:公共设施:公共厕所",
        "type": 0,
        "location": {
            "lat": 32.613658,
            "lng": 116.628327
        },
        "ad_info": {
            "adcode": 340421,
            "province": "安徽省",
            "city": "淮南市",
            "district": "凤台县"
        }
    },
    {
        "id": "2695675531839919690",
        "title": "芍陂服务区公共厕所",
        "address": "安徽省淮南市寿县中国石化芍陂服务区西加油站西北侧160米",
        "tel": "",
        "category": "基础设施:公共设施:公共厕所",
        "type": 0,
        "location": {
            "lat": 32.376911,
            "lng": 116.759553
        },
        "ad_info": {
            "adcode": 340422,
            "province": "安徽省",
            "city": "淮南市",
            "district": "寿县"
        }
    },
    {
        "id": "10895838069334218802",
        "title": "公共厕所",
        "address": "安徽省淮南市寿县025县道与135乡道交叉口北150米",
        "tel": "",
        "category": "基础设施:公共设施:公共厕所",
        "type": 0,
        "location": {
            "lat": 31.995321,
            "lng": 116.769376
        },
        "ad_info": {
            "adcode": 340422,
            "province": "安徽省",
            "city": "淮南市",
            "district": "寿县"
        }
    },
    {
        "id": "1313735911874144841",
        "title": "公共厕所",
        "address": "安徽省淮南市八公山区八公山记忆广场",
        "tel": "",
        "category": "基础设施:公共设施:公共厕所",
        "type": 0,
        "location": {
            "lat": 32.631525,
            "lng": 116.841149
        },
        "ad_info": {
            "adcode": 340405,
            "province": "安徽省",
            "city": "淮南市",
            "district": "八公山区"
        }
    },
    {
        "id": "7792566160270891026",
        "title": "公共厕所",
        "address": "安徽省淮南市大通区民主东路与田大南路交叉口正西方向315米左右",
        "tel": "",
        "category": "基础设施:公共设施:公共厕所",
        "type": 0,
        "location": {
            "lat": 32.631249,
            "lng": 117.051467
        },
        "ad_info": {
            "adcode": 340402,
            "province": "安徽省",
            "city": "淮南市",
            "district": "大通区"
        }
    },
    {
        "id": "4903078348744337403",
        "title": "公共厕所",
        "address": "安徽省淮南市田家庵区四号路与电厂路交叉口正南方向32米左右",
        "tel": "",
        "category": "基础设施:公共设施:公共厕所",
        "type": 0,
        "location": {
            "lat": 32.662992,
            "lng": 117.038099
        },
        "ad_info": {
            "adcode": 340403,
            "province": "安徽省",
            "city": "淮南市",
            "district": "田家庵区"
        }
    },
    {
        "id": "16826097439335888225",
        "title": "公共厕所",
        "address": "安徽省淮南市凤台县淮河路金亿家私旁十米",
        "tel": "",
        "category": "基础设施:公共设施:公共厕所",
        "type": 0,
        "location": {
            "lat": 32.699082,
            "lng": 116.725483
        },
        "ad_info": {
            "adcode": 340421,
            "province": "安徽省",
            "city": "淮南市",
            "district": "凤台县"
        }
    },
    {
        "id": "13835100316066294728",
        "title": "男洗手间",
        "address": "安徽省淮南市田家庵区学院路与朝阳路交口向北200米金大地龙湖中心F1",
        "tel": "",
        "category": "基础设施:公共设施:男洗手间",
        "type": 0,
        "location": {
            "lat": 32.643861,
            "lng": 117.01243
        },
        "ad_info": {
            "adcode": 340403,
            "province": "安徽省",
            "city": "淮南市",
            "district": "田家庵区"
        }
    },
    {
        "id": "5862913370346193583",
        "title": "公共厕所",
        "address": "安徽省淮南市凤台县Y007与兴湖路交叉口正西方向819米左右",
        "tel": "",
        "category": "基础设施:公共设施:公共厕所",
        "type": 0,
        "location": {
            "lat": 32.628407,
            "lng": 116.621534
        },
        "ad_info": {
            "adcode": 340421,
            "province": "安徽省",
            "city": "淮南市",
            "district": "凤台县"
        }
    },
    {
        "id": "10769288104573260102",
        "title": "公共厕所",
        "address": "安徽省淮南市田家庵区田家庵区镇南路030号",
        "tel": "",
        "category": "基础设施:公共设施:公共厕所",
        "type": 0,
        "location": {
            "lat": 32.477429,
            "lng": 117.054399
        },
        "ad_info": {
            "adcode": 340403,
            "province": "安徽省",
            "city": "淮南市",
            "district": "田家庵区"
        }
    },
    {
        "id": "5315372936323733929",
        "title": "公共厕所",
        "address": "安徽省淮南市大通区居庆路与洞山东路交叉口东南方向140米左右",
        "tel": "",
        "category": "基础设施:公共设施:公共厕所",
        "type": 0,
        "location": {
            "lat": 32.62842,
            "lng": 117.047121
        },
        "ad_info": {
            "adcode": 340402,
            "province": "安徽省",
            "city": "淮南市",
            "district": "大通区"
        }
    },
    {
        "id": "7892512233174283753",
        "title": "公共厕所",
        "address": "安徽省淮南市田家庵区舜耕中路与龙湖南路交叉口正南方向303米左右",
        "tel": "",
        "category": "基础设施:公共设施:公共厕所",
        "type": 0,
        "location": {
            "lat": 32.629548,
            "lng": 117.019924
        },
        "ad_info": {
            "adcode": 340403,
            "province": "安徽省",
            "city": "淮南市",
            "district": "田家庵区"
        }
    },
    {
        "id": "13721816493475806994",
        "title": "公共厕所",
        "address": "安徽省淮南市凤台县岳张集镇张集大街十字路口往西50米",
        "tel": "",
        "category": "基础设施:公共设施:公共厕所",
        "type": 0,
        "location": {
            "lat": 32.754592,
            "lng": 116.522913
        },
        "ad_info": {
            "adcode": 340421,
            "province": "安徽省",
            "city": "淮南市",
            "district": "凤台县"
        }
    },
    {
        "id": "10351740329225110786",
        "title": "免费公共厕所",
        "address": "安徽省淮南市大通区民主北路与田大南路交叉口东北方向21米左右",
        "tel": "",
        "category": "基础设施:公共设施:公共厕所",
        "type": 0,
        "location": {
            "lat": 32.635924,
            "lng": 117.052162
        },
        "ad_info": {
            "adcode": 340402,
            "province": "安徽省",
            "city": "淮南市",
            "district": "大通区"
        }
    },
    {
        "id": "13972504375833417577",
        "title": "公共厕所",
        "address": "安徽省淮南市田家庵区泉山路35号九十七处公交站",
        "tel": "",
        "category": "基础设施:公共设施:公共厕所",
        "type": 0,
        "location": {
            "lat": 32.610633,
            "lng": 116.975138
        },
        "ad_info": {
            "adcode": 340403,
            "province": "安徽省",
            "city": "淮南市",
            "district": "田家庵区"
        }
    },
    {
        "id": "2339396890122124711",
        "title": "公共厕所",
        "address": "安徽省淮南市田家庵区泉山路与洞山中路交叉口正东方向185米左右",
        "tel": "",
        "category": "基础设施:公共设施:公共厕所",
        "type": 0,
        "location": {
            "lat": 32.622121,
            "lng": 116.975922
        },
        "ad_info": {
            "adcode": 340403,
            "province": "安徽省",
            "city": "淮南市",
            "district": "田家庵区"
        }
    },
    {
        "id": "13824071863118921122",
        "title": "公共厕所",
        "address": "安徽省淮南市凤台县新区路,凤凰湖n区西门北侧",
        "tel": "",
        "category": "基础设施:公共设施:公共厕所",
        "type": 0,
        "location": {
            "lat": 32.733169,
            "lng": 116.680863
        },
        "ad_info": {
            "adcode": 340421,
            "province": "安徽省",
            "city": "淮南市",
            "district": "凤台县"
        }
    },
    {
        "id": "4010042300819427616",
        "title": "无障碍公共厕所",
        "address": "安徽省淮南市谢家集区唐山路勘探村城建小区",
        "tel": "",
        "category": "基础设施:公共设施:公共厕所",
        "type": 0,
        "location": {
            "lat": 32.595441,
            "lng": 116.865081
        },
        "ad_info": {
            "adcode": 340404,
            "province": "安徽省",
            "city": "淮南市",
            "district": "谢家集区"
        }
    },
    {
        "id": "1342254039322112960",
        "title": "无障碍公共厕所",
        "address": "安徽省淮南市田家庵区淮舜北路与长青路交叉口正南方向47米左右",
        "tel": "",
        "category": "基础设施:公共设施:公共厕所",
        "type": 0,
        "location": {
            "lat": 32.655961,
            "lng": 117.026762
        },
        "ad_info": {
            "adcode": 340403,
            "province": "安徽省",
            "city": "淮南市",
            "district": "田家庵区"
        }
    }
]