[
    {
        "id": "14903567530074219374",
        "title": "公共厕所",
        "address": "浙江省温州市瑞安市兴业北路与实验路交叉口正东方向111米左右",
        "tel": "",
        "category": "基础设施:公共设施:公共厕所",
        "type": 0,
        "location": {
            "lat": 27.831756,
            "lng": 120.691551
        },
        "ad_info": {
            "adcode": 330381,
            "province": "浙江省",
            "city": "温州市",
            "district": "瑞安市"
        }
    },
    {
        "id": "11251621480125856415",
        "title": "公共厕所",
        "address": "浙江省温州市瑞安市邮电路与镇中大街交叉口东南方向206米左右",
        "tel": "",
        "category": "基础设施:公共设施:公共厕所",
        "type": 0,
        "location": {
            "lat": 27.698066,
            "lng": 120.652628
        },
        "ad_info": {
            "adcode": 330381,
            "province": "浙江省",
            "city": "温州市",
            "district": "瑞安市"
        }
    },
    {
        "id": "10252075609499729504",
        "title": "公共厕所",
        "address": "浙江省温州市瑞安市万松东路与安吉路交叉口正北方向69米左右",
        "tel": "",
        "category": "基础设施:公共设施:公共厕所",
        "type": 0,
        "location": {
            "lat": 27.778194,
            "lng": 120.651628
        },
        "ad_info": {
            "adcode": 330381,
            "province": "浙江省",
            "city": "温州市",
            "district": "瑞安市"
        }
    },
    {
        "id": "572199892804119178",
        "title": "公共厕所",
        "address": "浙江省温州市鹿城区过境路与里垟新路交叉口东北方向33米左右",
        "tel": "",
        "category": "基础设施:公共设施:公共厕所",
        "type": 0,
        "location": {
            "lat": 27.987463,
            "lng": 120.654607
        },
        "ad_info": {
            "adcode": 330302,
            "province": "浙江省",
            "city": "温州市",
            "district": "鹿城区"
        }
    },
    {
        "id": "8856866814841752158",
        "title": "公共厕所",
        "address": "浙江省温州市瑞安市富民北路与工人路交叉口东南方向146米左右",
        "tel": "",
        "category": "基础设施:公共设施:公共厕所",
        "type": 0,
        "location": {
            "lat": 27.786336,
            "lng": 120.680078
        },
        "ad_info": {
            "adcode": 330381,
            "province": "浙江省",
            "city": "温州市",
            "district": "瑞安市"
        }
    },
    {
        "id": "13893115157113788968",
        "title": "公共厕所",
        "address": "浙江省温州市瑞安市富康路与富民北路交叉口东南方向124米左右",
        "tel": "",
        "category": "基础设施:公共设施:公共厕所",
        "type": 0,
        "location": {
            "lat": 27.784416,
            "lng": 120.677831
        },
        "ad_info": {
            "adcode": 330381,
            "province": "浙江省",
            "city": "温州市",
            "district": "瑞安市"
        }
    },
    {
        "id": "14200426394731662756",
        "title": "公共厕所",
        "address": "浙江省温州市瓯海区前王路115号",
        "tel": "",
        "category": "基础设施:公共设施:公共厕所",
        "type": 0,
        "location": {
            "lat": 27.965052,
            "lng": 120.675393
        },
        "ad_info": {
            "adcode": 330304,
            "province": "浙江省",
            "city": "温州市",
            "district": "瓯海区"
        }
    },
    {
        "id": "10269992771952246015",
        "title": "公共厕所",
        "address": "浙江省温州市瑞安市五星路与沙河路交叉口正西方向216米左右",
        "tel": "",
        "category": "基础设施:公共设施:公共厕所",
        "type": 0,
        "location": {
            "lat": 27.791444,
            "lng": 120.626611
        },
        "ad_info": {
            "adcode": 330381,
            "province": "浙江省",
            "city": "温州市",
            "district": "瑞安市"
        }
    },
    {
        "id": "5959272328422618094",
        "title": "公共厕所",
        "address": "浙江省温州市瑞安市六百巷与龙首桥街交叉口正西方向22米左右",
        "tel": "",
        "category": "基础设施:公共设施:公共厕所",
        "type": 0,
        "location": {
            "lat": 27.77798,
            "lng": 120.633701
        },
        "ad_info": {
            "adcode": 330381,
            "province": "浙江省",
            "city": "温州市",
            "district": "瑞安市"
        }
    },
    {
        "id": "14046044221829349580",
        "title": "公共厕所",
        "address": "浙江省温州市鹿城区温金路271号",
        "tel": "",
        "category": "基础设施:公共设施:公共厕所",
        "type": 0,
        "location": {
            "lat": 28.018872,
            "lng": 120.602027
        },
        "ad_info": {
            "adcode": 330302,
            "province": "浙江省",
            "city": "温州市",
            "district": "鹿城区"
        }
    },
    {
        "id": "1282503806921062213",
        "title": "公共厕所",
        "address": "浙江省温州市永嘉县千东南路与千石大街交叉口西北方向107米左右",
        "tel": "",
        "category": "基础设施:公共设施:公共厕所",
        "type": 0,
        "location": {
            "lat": 28.064319,
            "lng": 120.686432
        },
        "ad_info": {
            "adcode": 330324,
            "province": "浙江省",
            "city": "温州市",
            "district": "永嘉县"
        }
    },
    {
        "id": "18370081684448128313",
        "title": "公共厕所",
        "address": "浙江省温州市鹿城区马鞍池西路与马鞍池西路164弄交叉口西南方向50米",
        "tel": "",
        "category": "基础设施:公共设施:公共厕所",
        "type": 0,
        "location": {
            "lat": 28.001779,
            "lng": 120.653129
        },
        "ad_info": {
            "adcode": 330302,
            "province": "浙江省",
            "city": "温州市",
            "district": "鹿城区"
        }
    },
    {
        "id": "13695567374193665374",
        "title": "公共厕所",
        "address": "浙江省温州市瑞安市则诚路与嘉宁路交叉口正西方向90米左右",
        "tel": "",
        "category": "基础设施:公共设施:公共厕所",
        "type": 0,
        "location": {
            "lat": 27.769096,
            "lng": 120.662036
        },
        "ad_info": {
            "adcode": 330381,
            "province": "浙江省",
            "city": "温州市",
            "district": "瑞安市"
        }
    },
    {
        "id": "8007215727707820342",
        "title": "公共厕所",
        "address": "浙江省温州市鹿城区杏花路与水心路交叉口正南方向75米左右",
        "tel": "",
        "category": "基础设施:公共设施:公共厕所",
        "type": 0,
        "location": {
            "lat": 28.0026,
            "lng": 120.64863
        },
        "ad_info": {
            "adcode": 330302,
            "province": "浙江省",
            "city": "温州市",
            "district": "鹿城区"
        }
    },
    {
        "id": "1564730193286597794",
        "title": "公共厕所",
        "address": "浙江省温州市瑞安市渔都路与滨江大道交叉口正西方向239米左右",
        "tel": "",
        "category": "基础设施:公共设施:公共厕所",
        "type": 0,
        "location": {
            "lat": 27.747394,
            "lng": 120.646063
        },
        "ad_info": {
            "adcode": 330381,
            "province": "浙江省",
            "city": "温州市",
            "district": "瑞安市"
        }
    },
    {
        "id": "7287525446304906417",
        "title": "公共厕所",
        "address": "浙江省温州市鹿城区蒲鞋市路与飞霞南路交叉口正北方向43米左右",
        "tel": "",
        "category": "基础设施:公共设施:公共厕所",
        "type": 0,
        "location": {
            "lat": 28.005655,
            "lng": 120.668017
        },
        "ad_info": {
            "adcode": 330302,
            "province": "浙江省",
            "city": "温州市",
            "district": "鹿城区"
        }
    },
    {
        "id": "530716050465135705",
        "title": "公共厕所",
        "address": "浙江省温州市鹿城区樊宅巷与瓜棚下交叉口正东方向44米左右",
        "tel": "",
        "category": "基础设施:公共设施:公共厕所",
        "type": 0,
        "location": {
            "lat": 28.021986,
            "lng": 120.64817
        },
        "ad_info": {
            "adcode": 330302,
            "province": "浙江省",
            "city": "温州市",
            "district": "鹿城区"
        }
    },
    {
        "id": "6528956121165606145",
        "title": "公共厕所",
        "address": "浙江省温州市龙港市惠民街与江浦路交叉口正南方向71米左右",
        "tel": "",
        "category": "基础设施:公共设施:公共厕所",
        "type": 0,
        "location": {
            "lat": 27.564902,
            "lng": 120.57119
        },
        "ad_info": {
            "adcode": 330383,
            "province": "浙江省",
            "city": "温州市",
            "district": "龙港市"
        }
    },
    {
        "id": "7893723909174847583",
        "title": "公共厕所",
        "address": "浙江省温州市鹿城区兴海路与勤奋路交叉口正东方向64米左右",
        "tel": "",
        "category": "基础设施:公共设施:公共厕所",
        "type": 0,
        "location": {
            "lat": 28.006783,
            "lng": 120.641434
        },
        "ad_info": {
            "adcode": 330302,
            "province": "浙江省",
            "city": "温州市",
            "district": "鹿城区"
        }
    },
    {
        "id": "10807000219012027470",
        "title": "公共厕所",
        "address": "浙江省温州市鹿城区蒲州街148号",
        "tel": "",
        "category": "基础设施:公共设施:公共厕所",
        "type": 0,
        "location": {
            "lat": 27.998416,
            "lng": 120.726276
        },
        "ad_info": {
            "adcode": 330302,
            "province": "浙江省",
            "city": "温州市",
            "district": "鹿城区"
        }
    },
    {
        "id": "14590858787334804742",
        "title": "公共厕所",
        "address": "浙江省温州市瑞安市瑞南大道与飞云西路交叉口东北方向539米左右",
        "tel": "",
        "category": "基础设施:公共设施:公共厕所",
        "type": 0,
        "location": {
            "lat": 27.784658,
            "lng": 120.605164
        },
        "ad_info": {
            "adcode": 330381,
            "province": "浙江省",
            "city": "温州市",
            "district": "瑞安市"
        }
    },
    {
        "id": "5466987499829511536",
        "title": "公共厕所",
        "address": "浙江省温州市鹿城区鹿翔路203号",
        "tel": "",
        "category": "基础设施:公共设施:公共厕所",
        "type": 0,
        "location": {
            "lat": 28.038197,
            "lng": 120.57807
        },
        "ad_info": {
            "adcode": 330302,
            "province": "浙江省",
            "city": "温州市",
            "district": "鹿城区"
        }
    },
    {
        "id": "5424493003774570127",
        "title": "公共厕所",
        "address": "浙江省温州市瑞安市大桥中路与滨中路交叉口东南方向41米左右",
        "tel": "",
        "category": "基础设施:公共设施:公共厕所",
        "type": 0,
        "location": {
            "lat": 27.768219,
            "lng": 120.635858
        },
        "ad_info": {
            "adcode": 330381,
            "province": "浙江省",
            "city": "温州市",
            "district": "瑞安市"
        }
    },
    {
        "id": "7372970472202807062",
        "title": "公共厕所",
        "address": "浙江省温州市瓯海区温瑞大道与瓯越大道交叉口东南方向166米左右",
        "tel": "",
        "category": "基础设施:公共设施:公共厕所",
        "type": 0,
        "location": {
            "lat": 27.952872,
            "lng": 120.687511
        },
        "ad_info": {
            "adcode": 330304,
            "province": "浙江省",
            "city": "温州市",
            "district": "瓯海区"
        }
    },
    {
        "id": "9692866181185738462",
        "title": "公共厕所",
        "address": "浙江省温州市瑞安市锦湖街道万松西路163号后面",
        "tel": "",
        "category": "基础设施:公共设施:公共厕所",
        "type": 0,
        "location": {
            "lat": 27.785661,
            "lng": 120.627488
        },
        "ad_info": {
            "adcode": 330381,
            "province": "浙江省",
            "city": "温州市",
            "district": "瑞安市"
        }
    },
    {
        "id": "2538456644280497241",
        "title": "公共厕所",
        "address": "浙江省温州市瑞安市东风西路与邮电南路交叉口东北方向57米左右",
        "tel": "",
        "category": "基础设施:公共设施:公共厕所",
        "type": 0,
        "location": {
            "lat": 27.707684,
            "lng": 120.61298
        },
        "ad_info": {
            "adcode": 330381,
            "province": "浙江省",
            "city": "温州市",
            "district": "瑞安市"
        }
    },
    {
        "id": "15141957627403031057",
        "title": "公共厕所",
        "address": "浙江省温州市瑞安市儒河西路与望荣北路交叉口正南方向116米左右",
        "tel": "",
        "category": "基础设施:公共设施:公共厕所",
        "type": 0,
        "location": {
            "lat": 27.767068,
            "lng": 120.66815
        },
        "ad_info": {
            "adcode": 330381,
            "province": "浙江省",
            "city": "温州市",
            "district": "瑞安市"
        }
    },
    {
        "id": "16225496395679232862",
        "title": "公共厕所",
        "address": "浙江省温州市瑞安市中心东路塘下名泰广场(西侧)",
        "tel": "",
        "category": "基础设施:公共设施:公共厕所",
        "type": 0,
        "location": {
            "lat": 27.827188,
            "lng": 120.692482
        },
        "ad_info": {
            "adcode": 330381,
            "province": "浙江省",
            "city": "温州市",
            "district": "瑞安市"
        }
    },
    {
        "id": "1551425426716949103",
        "title": "公共厕所",
        "address": "浙江省温州市鹿城区民航路横河北小区",
        "tel": "",
        "category": "基础设施:公共设施:公共厕所",
        "type": 0,
        "location": {
            "lat": 28.00342,
            "lng": 120.6752
        },
        "ad_info": {
            "adcode": 330302,
            "province": "浙江省",
            "city": "温州市",
            "district": "鹿城区"
        }
    },
    {
        "id": "14457838001599953217",
        "title": "公共厕所",
        "address": "浙江省温州市鹿城区兴文里与铁井栏交叉口西南方向54米左右",
        "tel": "",
        "category": "基础设施:公共设施:公共厕所",
        "type": 0,
        "location": {
            "lat": 28.014426,
            "lng": 120.661741
        },
        "ad_info": {
            "adcode": 330302,
            "province": "浙江省",
            "city": "温州市",
            "district": "鹿城区"
        }
    },
    {
        "id": "15823103653394092620",
        "title": "公共厕所",
        "address": "浙江省温州市鹿城区府东路与锦江路交叉口西北方向124米左右",
        "tel": "",
        "category": "基础设施:公共设施:公共厕所",
        "type": 0,
        "location": {
            "lat": 27.987147,
            "lng": 120.701119
        },
        "ad_info": {
            "adcode": 330302,
            "province": "浙江省",
            "city": "温州市",
            "district": "鹿城区"
        }
    },
    {
        "id": "11486179157871351041",
        "title": "公共厕所",
        "address": "浙江省温州市瑞安市花园路与陶山北路交叉口东北方向55米左右",
        "tel": "",
        "category": "基础设施:公共设施:公共厕所",
        "type": 0,
        "location": {
            "lat": 27.84382,
            "lng": 120.49307
        },
        "ad_info": {
            "adcode": 330381,
            "province": "浙江省",
            "city": "温州市",
            "district": "瑞安市"
        }
    },
    {
        "id": "13674253524759111828",
        "title": "公共厕所",
        "address": "浙江省温州市瓯海区经四路与金屿路交叉口正西方向54米左右",
        "tel": "",
        "category": "基础设施:公共设施:公共厕所",
        "type": 0,
        "location": {
            "lat": 27.973529,
            "lng": 120.710616
        },
        "ad_info": {
            "adcode": 330304,
            "province": "浙江省",
            "city": "温州市",
            "district": "瓯海区"
        }
    },
    {
        "id": "4666033281089798936",
        "title": "公共厕所",
        "address": "浙江省温州市瑞安市叔远东路与清泉路交叉口正南方向96米左右",
        "tel": "",
        "category": "基础设施:公共设施:公共厕所",
        "type": 0,
        "location": {
            "lat": 27.710717,
            "lng": 120.461225
        },
        "ad_info": {
            "adcode": 330381,
            "province": "浙江省",
            "city": "温州市",
            "district": "瑞安市"
        }
    },
    {
        "id": "4680874796474803712",
        "title": "公共厕所",
        "address": "浙江省温州市鹿城区双乐路与康城路交叉口东北方向208米左右",
        "tel": "",
        "category": "基础设施:公共设施:公共厕所",
        "type": 0,
        "location": {
            "lat": 28.006341,
            "lng": 120.621594
        },
        "ad_info": {
            "adcode": 330302,
            "province": "浙江省",
            "city": "温州市",
            "district": "鹿城区"
        }
    },
    {
        "id": "13357544859975970824",
        "title": "公共厕所",
        "address": "浙江省温州市瓯海区东垟东路与河林路交叉口正西方向205米左右",
        "tel": "",
        "category": "基础设施:公共设施:公共厕所",
        "type": 0,
        "location": {
            "lat": 27.974061,
            "lng": 120.688754
        },
        "ad_info": {
            "adcode": 330304,
            "province": "浙江省",
            "city": "温州市",
            "district": "瓯海区"
        }
    },
    {
        "id": "8468533435494388297",
        "title": "公共厕所",
        "address": "浙江省温州市鹿城区富伊路与尚信路交叉口正南方向114米左右",
        "tel": "",
        "category": "基础设施:公共设施:公共厕所",
        "type": 0,
        "location": {
            "lat": 28.033922,
            "lng": 120.580825
        },
        "ad_info": {
            "adcode": 330302,
            "province": "浙江省",
            "city": "温州市",
            "district": "鹿城区"
        }
    },
    {
        "id": "8327550302929594891",
        "title": "公共厕所",
        "address": "浙江省温州市瓯海区宝成路12号",
        "tel": "",
        "category": "基础设施:公共设施:公共厕所",
        "type": 0,
        "location": {
            "lat": 27.855606,
            "lng": 120.669279
        },
        "ad_info": {
            "adcode": 330304,
            "province": "浙江省",
            "city": "温州市",
            "district": "瓯海区"
        }
    },
    {
        "id": "16725774388894113844",
        "title": "公共厕所",
        "address": "浙江省温州市瑞安市万锦大道与支纬九路交叉口正西方向159米左右",
        "tel": "",
        "category": "基础设施:公共设施:公共厕所",
        "type": 0,
        "location": {
            "lat": 27.768023,
            "lng": 120.583052
        },
        "ad_info": {
            "adcode": 330381,
            "province": "浙江省",
            "city": "温州市",
            "district": "瑞安市"
        }
    },
    {
        "id": "9937705872042387003",
        "title": "公共厕所",
        "address": "浙江省温州市鹿城区学院西路与民航路交叉口正东方向162米左右",
        "tel": "",
        "category": "基础设施:公共设施:公共厕所",
        "type": 0,
        "location": {
            "lat": 28.005621,
            "lng": 120.677313
        },
        "ad_info": {
            "adcode": 330302,
            "province": "浙江省",
            "city": "温州市",
            "district": "鹿城区"
        }
    },
    {
        "id": "7107852567630299969",
        "title": "公共厕所",
        "address": "浙江省温州市鹿城区鞋都大道时尚港",
        "tel": "",
        "category": "基础设施:公共设施:公共厕所",
        "type": 0,
        "location": {
            "lat": 28.036514,
            "lng": 120.590195
        },
        "ad_info": {
            "adcode": 330302,
            "province": "浙江省",
            "city": "温州市",
            "district": "鹿城区"
        }
    },
    {
        "id": "14140858407300388593",
        "title": "公共厕所",
        "address": "浙江省温州市瓯海区学员路与育童路交叉口西南方向64米左右",
        "tel": "",
        "category": "基础设施:公共设施:公共厕所",
        "type": 0,
        "location": {
            "lat": 27.941318,
            "lng": 120.600323
        },
        "ad_info": {
            "adcode": 330304,
            "province": "浙江省",
            "city": "温州市",
            "district": "瓯海区"
        }
    },
    {
        "id": "15619532753449918651",
        "title": "公共厕所",
        "address": "浙江省温州市瓯海区中心东路与永宁路交叉口正西方向89米左右",
        "tel": "",
        "category": "基础设施:公共设施:公共厕所",
        "type": 0,
        "location": {
            "lat": 27.916512,
            "lng": 120.705596
        },
        "ad_info": {
            "adcode": 330304,
            "province": "浙江省",
            "city": "温州市",
            "district": "瓯海区"
        }
    },
    {
        "id": "11274672491201806725",
        "title": "公共厕所",
        "address": "浙江省温州市瓯海区兴吕北路与洲洋路交叉口西北方向123米左右",
        "tel": "",
        "category": "基础设施:公共设施:公共厕所",
        "type": 0,
        "location": {
            "lat": 27.968914,
            "lng": 120.599802
        },
        "ad_info": {
            "adcode": 330304,
            "province": "浙江省",
            "city": "温州市",
            "district": "瓯海区"
        }
    },
    {
        "id": "14848272018177351356",
        "title": "公共厕所",
        "address": "浙江省温州市瑞安市仙降鞋都旅馆北100米(富强街东)",
        "tel": "",
        "category": "基础设施:公共设施:公共厕所",
        "type": 0,
        "location": {
            "lat": 27.786228,
            "lng": 120.548729
        },
        "ad_info": {
            "adcode": 330381,
            "province": "浙江省",
            "city": "温州市",
            "district": "瑞安市"
        }
    },
    {
        "id": "12761466664617195907",
        "title": "公共厕所",
        "address": "浙江省温州市鹿城区勤奋路与望江东路交叉口东南方向76米左右",
        "tel": "",
        "category": "基础设施:公共设施:公共厕所",
        "type": 0,
        "location": {
            "lat": 28.020989,
            "lng": 120.640317
        },
        "ad_info": {
            "adcode": 330302,
            "province": "浙江省",
            "city": "温州市",
            "district": "鹿城区"
        }
    },
    {
        "id": "12832564592967275407",
        "title": "公共厕所",
        "address": "浙江省温州市永嘉县五星西路与金贸大街交叉口正北方向126米左右",
        "tel": "",
        "category": "基础设施:公共设施:公共厕所",
        "type": 0,
        "location": {
            "lat": 28.044622,
            "lng": 120.610875
        },
        "ad_info": {
            "adcode": 330324,
            "province": "浙江省",
            "city": "温州市",
            "district": "永嘉县"
        }
    },
    {
        "id": "1647123474693714816",
        "title": "公共厕所",
        "address": "浙江省温州市瑞安市仙降大道与菜场街交叉口西北方向118米左右",
        "tel": "",
        "category": "基础设施:公共设施:公共厕所",
        "type": 0,
        "location": {
            "lat": 27.786535,
            "lng": 120.545953
        },
        "ad_info": {
            "adcode": 330381,
            "province": "浙江省",
            "city": "温州市",
            "district": "瑞安市"
        }
    },
    {
        "id": "17103187293662166054",
        "title": "公共厕所",
        "address": "浙江省温州市瓯海区飞翔路与高迎路交叉口东南方向27米左右",
        "tel": "",
        "category": "基础设施:公共设施:公共厕所",
        "type": 0,
        "location": {
            "lat": 27.976451,
            "lng": 120.636848
        },
        "ad_info": {
            "adcode": 330304,
            "province": "浙江省",
            "city": "温州市",
            "district": "瓯海区"
        }
    },
    {
        "id": "663326860231436045",
        "title": "公共厕所",
        "address": "浙江省温州市瓯海区东经一路与梧慈路交叉口正东方向114米左右",
        "tel": "",
        "category": "基础设施:公共设施:公共厕所",
        "type": 0,
        "location": {
            "lat": 27.957316,
            "lng": 120.662894
        },
        "ad_info": {
            "adcode": 330304,
            "province": "浙江省",
            "city": "温州市",
            "district": "瓯海区"
        }
    },
    {
        "id": "3094424814730461606",
        "title": "公共厕所",
        "address": "浙江省温州市永嘉县永宁路与罗浮大街交叉口东北方向63米左右",
        "tel": "",
        "category": "基础设施:公共设施:公共厕所",
        "type": 0,
        "location": {
            "lat": 28.036888,
            "lng": 120.661964
        },
        "ad_info": {
            "adcode": 330324,
            "province": "浙江省",
            "city": "温州市",
            "district": "永嘉县"
        }
    },
    {
        "id": "16713366954509992966",
        "title": "公共厕所",
        "address": "浙江省温州市瓯海区官庄路与官锦路交叉口西南方向9米左右",
        "tel": "",
        "category": "基础设施:公共设施:公共厕所",
        "type": 0,
        "location": {
            "lat": 27.981958,
            "lng": 120.55041
        },
        "ad_info": {
            "adcode": 330304,
            "province": "浙江省",
            "city": "温州市",
            "district": "瓯海区"
        }
    },
    {
        "id": "16692148792178427908",
        "title": "公共厕所",
        "address": "浙江省温州市鹿城区江滨中路与洪殿北路交叉口正北方向196米左右",
        "tel": "",
        "category": "基础设施:公共设施:公共厕所",
        "type": 0,
        "location": {
            "lat": 28.017714,
            "lng": 120.688624
        },
        "ad_info": {
            "adcode": 330302,
            "province": "浙江省",
            "city": "温州市",
            "district": "鹿城区"
        }
    },
    {
        "id": "15837380291124885348",
        "title": "公共厕所(营楼桥牛三角路口)",
        "address": "浙江省温州市鹿城区牛三角路22号",
        "tel": "",
        "category": "基础设施:公共设施:公共厕所",
        "type": 0,
        "location": {
            "lat": 28.022796,
            "lng": 120.616741
        },
        "ad_info": {
            "adcode": 330302,
            "province": "浙江省",
            "city": "温州市",
            "district": "鹿城区"
        }
    },
    {
        "id": "3602272885956551250",
        "title": "公共厕所",
        "address": "浙江省温州市瑞安市塘河北路109号",
        "tel": "",
        "category": "基础设施:公共设施:公共厕所",
        "type": 0,
        "location": {
            "lat": 27.777061,
            "lng": 120.64604
        },
        "ad_info": {
            "adcode": 330381,
            "province": "浙江省",
            "city": "温州市",
            "district": "瑞安市"
        }
    },
    {
        "id": "8393454752324887955",
        "title": "公共厕所(内部专用)",
        "address": "浙江省温州市鹿城区府东路与新城大道交叉口正南方向211米左右",
        "tel": "",
        "category": "基础设施:公共设施:公共厕所",
        "type": 0,
        "location": {
            "lat": 27.997118,
            "lng": 120.701954
        },
        "ad_info": {
            "adcode": 330302,
            "province": "浙江省",
            "city": "温州市",
            "district": "鹿城区"
        }
    },
    {
        "id": "5451362529032315889",
        "title": "公共厕所",
        "address": "浙江省温州市永嘉县洞庆线与环城西路交叉口西南方向64米左右",
        "tel": "",
        "category": "基础设施:公共设施:公共厕所",
        "type": 0,
        "location": {
            "lat": 28.151243,
            "lng": 120.689894
        },
        "ad_info": {
            "adcode": 330324,
            "province": "浙江省",
            "city": "温州市",
            "district": "永嘉县"
        }
    },
    {
        "id": "1821703249021676918",
        "title": "公共厕所",
        "address": "浙江省温州市瓯海区兴海路与繁新路交叉口西南方向53米左右",
        "tel": "",
        "category": "基础设施:公共设施:公共厕所",
        "type": 0,
        "location": {
            "lat": 28.006451,
            "lng": 120.638309
        },
        "ad_info": {
            "adcode": 330304,
            "province": "浙江省",
            "city": "温州市",
            "district": "瓯海区"
        }
    },
    {
        "id": "15746278762892038344",
        "title": "公共厕所",
        "address": "浙江省温州市瑞安市三马中路与新朝巷交叉口东北方向30米左右",
        "tel": "",
        "category": "基础设施:公共设施:公共厕所",
        "type": 0,
        "location": {
            "lat": 27.782376,
            "lng": 120.45669
        },
        "ad_info": {
            "adcode": 330381,
            "province": "浙江省",
            "city": "温州市",
            "district": "瑞安市"
        }
    },
    {
        "id": "12054316042285045159",
        "title": "公共厕所",
        "address": "浙江省温州市鹿城区前庄路与学院中路交叉口正北方向175米左右",
        "tel": "",
        "category": "基础设施:公共设施:公共厕所",
        "type": 0,
        "location": {
            "lat": 28.00637,
            "lng": 120.694763
        },
        "ad_info": {
            "adcode": 330302,
            "province": "浙江省",
            "city": "温州市",
            "district": "鹿城区"
        }
    },
    {
        "id": "6594215526570693901",
        "title": "公共厕所",
        "address": "浙江省温州市永嘉县前河西路与河西路交叉口西南方向7米左右",
        "tel": "",
        "category": "基础设施:公共设施:公共厕所",
        "type": 0,
        "location": {
            "lat": 28.052083,
            "lng": 120.612808
        },
        "ad_info": {
            "adcode": 330324,
            "province": "浙江省",
            "city": "温州市",
            "district": "永嘉县"
        }
    },
    {
        "id": "18047842137112472336",
        "title": "公共厕所",
        "address": "浙江省温州市瑞安市瑞光大道与罗阳大道交叉口东北方向104米左右",
        "tel": "",
        "category": "基础设施:公共设施:公共厕所",
        "type": 0,
        "location": {
            "lat": 27.754859,
            "lng": 120.650217
        },
        "ad_info": {
            "adcode": 330381,
            "province": "浙江省",
            "city": "温州市",
            "district": "瑞安市"
        }
    },
    {
        "id": "9611566776146968104",
        "title": "公共厕所",
        "address": "浙江省温州市瑞安市友谊东路与瓯越大道交叉口正西方向122米左右",
        "tel": "",
        "category": "基础设施:公共设施:公共厕所",
        "type": 0,
        "location": {
            "lat": 27.83043,
            "lng": 120.69613
        },
        "ad_info": {
            "adcode": 330381,
            "province": "浙江省",
            "city": "温州市",
            "district": "瑞安市"
        }
    },
    {
        "id": "18433016498591430795",
        "title": "公共厕所",
        "address": "浙江省温州市文成县中国农业银行ATM(花支线)西侧100米",
        "tel": "",
        "category": "基础设施:公共设施:公共厕所",
        "type": 0,
        "location": {
            "lat": 27.719293,
            "lng": 119.925146
        },
        "ad_info": {
            "adcode": 330328,
            "province": "浙江省",
            "city": "温州市",
            "district": "文成县"
        }
    },
    {
        "id": "7749393497769330228",
        "title": "公共厕所",
        "address": "浙江省温州市鹿城区万源路与绣山路交叉口正东方向70米左右",
        "tel": "",
        "category": "基础设施:公共设施:公共厕所",
        "type": 0,
        "location": {
            "lat": 27.995459,
            "lng": 120.70588
        },
        "ad_info": {
            "adcode": 330302,
            "province": "浙江省",
            "city": "温州市",
            "district": "鹿城区"
        }
    },
    {
        "id": "1495211546351329082",
        "title": "公共厕所",
        "address": "浙江省温州市苍南县龙魁线",
        "tel": "",
        "category": "基础设施:公共设施:公共厕所",
        "type": 0,
        "location": {
            "lat": 27.295632,
            "lng": 120.555606
        },
        "ad_info": {
            "adcode": 330327,
            "province": "浙江省",
            "city": "温州市",
            "district": "苍南县"
        }
    },
    {
        "id": "9774721052541469854",
        "title": "公共厕所",
        "address": "浙江省温州市瑞安市民莘西路与瑞祥大道交叉口西北方向145米左右",
        "tel": "",
        "category": "基础设施:公共设施:公共厕所",
        "type": 0,
        "location": {
            "lat": 27.785612,
            "lng": 120.668126
        },
        "ad_info": {
            "adcode": 330381,
            "province": "浙江省",
            "city": "温州市",
            "district": "瑞安市"
        }
    },
    {
        "id": "12383894021179932691",
        "title": "公共厕所",
        "address": "浙江省温州市鹿城区车站大道与温州大道交叉口西北方向63米地下商城9号门",
        "tel": "",
        "category": "基础设施:公共设施:公共厕所",
        "type": 0,
        "location": {
            "lat": 27.982466,
            "lng": 120.684726
        },
        "ad_info": {
            "adcode": 330302,
            "province": "浙江省",
            "city": "温州市",
            "district": "鹿城区"
        }
    },
    {
        "id": "4149125528298317434",
        "title": "公共卫生间",
        "address": "浙江省温州市瓯海区中汇路与景屿路交叉口正南方向116米左右",
        "tel": "",
        "category": "基础设施:公共设施:公共厕所",
        "type": 0,
        "location": {
            "lat": 27.951255,
            "lng": 120.601403
        },
        "ad_info": {
            "adcode": 330304,
            "province": "浙江省",
            "city": "温州市",
            "district": "瓯海区"
        }
    },
    {
        "id": "5369783482408990038",
        "title": "公共厕所",
        "address": "浙江省温州市永嘉县上塘中心城区嘉宁街164号",
        "tel": "",
        "category": "基础设施:公共设施:公共厕所",
        "type": 0,
        "location": {
            "lat": 28.153865,
            "lng": 120.689679
        },
        "ad_info": {
            "adcode": 330324,
            "province": "浙江省",
            "city": "温州市",
            "district": "永嘉县"
        }
    },
    {
        "id": "14507856834442757619",
        "title": "公共厕所",
        "address": "浙江省温州市鹿城区锦源路与龙源路交叉口西南方向126米左右",
        "tel": "",
        "category": "基础设施:公共设施:公共厕所",
        "type": 0,
        "location": {
            "lat": 27.984314,
            "lng": 120.686542
        },
        "ad_info": {
            "adcode": 330302,
            "province": "浙江省",
            "city": "温州市",
            "district": "鹿城区"
        }
    },
    {
        "id": "12054146374761800301",
        "title": "公共厕所",
        "address": "浙江省温州市永嘉县码道东路与码道中路交叉口正东方向94米左右",
        "tel": "",
        "category": "基础设施:公共设施:公共厕所",
        "type": 0,
        "location": {
            "lat": 28.037255,
            "lng": 120.635779
        },
        "ad_info": {
            "adcode": 330324,
            "province": "浙江省",
            "city": "温州市",
            "district": "永嘉县"
        }
    },
    {
        "id": "1829004767027988968",
        "title": "公共厕所",
        "address": "浙江省温州市龙湾区新安江路与玉苍中路交叉口东北方向68米左右",
        "tel": "",
        "category": "基础设施:公共设施:公共厕所",
        "type": 0,
        "location": {
            "lat": 27.978215,
            "lng": 120.736673
        },
        "ad_info": {
            "adcode": 330303,
            "province": "浙江省",
            "city": "温州市",
            "district": "龙湾区"
        }
    },
    {
        "id": "9961049050819763119",
        "title": "公共厕所",
        "address": "浙江省温州市鹿城区龙源路文化公园",
        "tel": "",
        "category": "基础设施:公共设施:公共厕所",
        "type": 0,
        "location": {
            "lat": 27.983312,
            "lng": 120.687855
        },
        "ad_info": {
            "adcode": 330302,
            "province": "浙江省",
            "city": "温州市",
            "district": "鹿城区"
        }
    },
    {
        "id": "916106131138891514",
        "title": "公共厕所",
        "address": "浙江省温州市乐清市兴西路与镇北大街交叉口正西方向47米左右",
        "tel": "",
        "category": "基础设施:公共设施:公共厕所",
        "type": 0,
        "location": {
            "lat": 28.027244,
            "lng": 120.973228
        },
        "ad_info": {
            "adcode": 330382,
            "province": "浙江省",
            "city": "温州市",
            "district": "乐清市"
        }
    },
    {
        "id": "4568698911879880002",
        "title": "公共厕所",
        "address": "浙江省温州市龙湾区繁荣北路与胜泉西路交叉口正西方向28米左右",
        "tel": "",
        "category": "基础设施:公共设施:公共厕所",
        "type": 0,
        "location": {
            "lat": 27.860332,
            "lng": 120.791306
        },
        "ad_info": {
            "adcode": 330303,
            "province": "浙江省",
            "city": "温州市",
            "district": "龙湾区"
        }
    },
    {
        "id": "4414367510257422443",
        "title": "公共厕所",
        "address": "浙江省温州市龙湾区罗东街与陈宅路交叉口正西方向47米左右",
        "tel": "",
        "category": "基础设施:公共设施:公共厕所",
        "type": 0,
        "location": {
            "lat": 27.918368,
            "lng": 120.827354
        },
        "ad_info": {
            "adcode": 330303,
            "province": "浙江省",
            "city": "温州市",
            "district": "龙湾区"
        }
    },
    {
        "id": "6502204366763691783",
        "title": "公共厕所",
        "address": "浙江省温州市瓯海区北纬一路与后岸路交叉口西南方向108米左右",
        "tel": "",
        "category": "基础设施:公共设施:公共厕所",
        "type": 0,
        "location": {
            "lat": 27.957582,
            "lng": 120.665785
        },
        "ad_info": {
            "adcode": 330304,
            "province": "浙江省",
            "city": "温州市",
            "district": "瓯海区"
        }
    },
    {
        "id": "12315673870831263928",
        "title": "公共厕所",
        "address": "浙江省温州市平阳县二中北路与康乐街交叉口正东方向102米左右",
        "tel": "",
        "category": "基础设施:公共设施:公共厕所",
        "type": 0,
        "location": {
            "lat": 27.634996,
            "lng": 120.325731
        },
        "ad_info": {
            "adcode": 330326,
            "province": "浙江省",
            "city": "温州市",
            "district": "平阳县"
        }
    },
    {
        "id": "8065591905098652166",
        "title": "公共厕所",
        "address": "浙江省温州市鹿城区小高桥与府前街交叉口东南方向39米左右",
        "tel": "",
        "category": "基础设施:公共设施:公共厕所",
        "type": 0,
        "location": {
            "lat": 28.009794,
            "lng": 120.657258
        },
        "ad_info": {
            "adcode": 330302,
            "province": "浙江省",
            "city": "温州市",
            "district": "鹿城区"
        }
    },
    {
        "id": "12909826526940325887",
        "title": "公共厕所",
        "address": "浙江省温州市乐清市虹南路与幸福东路交叉口西北方向110米",
        "tel": "",
        "category": "基础设施:公共设施:公共厕所",
        "type": 0,
        "location": {
            "lat": 28.217462,
            "lng": 121.03639
        },
        "ad_info": {
            "adcode": 330382,
            "province": "浙江省",
            "city": "温州市",
            "district": "乐清市"
        }
    },
    {
        "id": "4608076161742037396",
        "title": "公共厕所",
        "address": "浙江省温州市龙湾区清江路与白云山路交叉口正东方向48米左右",
        "tel": "",
        "category": "基础设施:公共设施:公共厕所",
        "type": 0,
        "location": {
            "lat": 27.984537,
            "lng": 120.71853
        },
        "ad_info": {
            "adcode": 330303,
            "province": "浙江省",
            "city": "温州市",
            "district": "龙湾区"
        }
    },
    {
        "id": "17779225371719043816",
        "title": "公共厕所",
        "address": "浙江省温州市永嘉县双塔路与肖桥大街交叉口正南方向33米左右",
        "tel": "",
        "category": "基础设施:公共设施:公共厕所",
        "type": 0,
        "location": {
            "lat": 28.039937,
            "lng": 120.659933
        },
        "ad_info": {
            "adcode": 330324,
            "province": "浙江省",
            "city": "温州市",
            "district": "永嘉县"
        }
    },
    {
        "id": "17418800771935918363",
        "title": "公共厕所",
        "address": "浙江省温州市乐清市丰登路与新阳路交叉口东南方向23米左右",
        "tel": "",
        "category": "基础设施:公共设施:公共厕所",
        "type": 0,
        "location": {
            "lat": 28.062007,
            "lng": 120.895672
        },
        "ad_info": {
            "adcode": 330382,
            "province": "浙江省",
            "city": "温州市",
            "district": "乐清市"
        }
    },
    {
        "id": "8056157598004525374",
        "title": "公共厕所",
        "address": "浙江省温州市龙湾区滨海一道与滨海二十三路交叉口西北方向126米左右",
        "tel": "",
        "category": "基础设施:公共设施:公共厕所",
        "type": 0,
        "location": {
            "lat": 27.801276,
            "lng": 120.788071
        },
        "ad_info": {
            "adcode": 330303,
            "province": "浙江省",
            "city": "温州市",
            "district": "龙湾区"
        }
    },
    {
        "id": "3590152188985566714",
        "title": "公共厕所",
        "address": "浙江省温州市鹿城区江滨中路江湾锦苑",
        "tel": "",
        "category": "基础设施:公共设施:公共厕所",
        "type": 0,
        "location": {
            "lat": 28.015653,
            "lng": 120.694866
        },
        "ad_info": {
            "adcode": 330302,
            "province": "浙江省",
            "city": "温州市",
            "district": "鹿城区"
        }
    },
    {
        "id": "17883679382599024940",
        "title": "公共厕所",
        "address": "浙江省温州市龙湾区沙前街与海滨街交叉口正南方向247米左右",
        "tel": "",
        "category": "基础设施:公共设施:公共厕所",
        "type": 0,
        "location": {
            "lat": 27.907133,
            "lng": 120.840865
        },
        "ad_info": {
            "adcode": 330303,
            "province": "浙江省",
            "city": "温州市",
            "district": "龙湾区"
        }
    },
    {
        "id": "17796145024858421953",
        "title": "公共厕所",
        "address": "浙江省温州市鹿城区万岁里28号",
        "tel": "",
        "category": "基础设施:公共设施:公共厕所",
        "type": 0,
        "location": {
            "lat": 28.02182,
            "lng": 120.654418
        },
        "ad_info": {
            "adcode": 330302,
            "province": "浙江省",
            "city": "温州市",
            "district": "鹿城区"
        }
    },
    {
        "id": "2857777018104567065",
        "title": "公共厕所",
        "address": "浙江省温州市乐清市交通北路与交通路交叉口东北方向100米左右",
        "tel": "",
        "category": "基础设施:公共设施:公共厕所",
        "type": 0,
        "location": {
            "lat": 28.046151,
            "lng": 120.851566
        },
        "ad_info": {
            "adcode": 330382,
            "province": "浙江省",
            "city": "温州市",
            "district": "乐清市"
        }
    },
    {
        "id": "7156681032298308388",
        "title": "公共厕所",
        "address": "浙江省温州市乐清市东兴东路与育才路交叉口正南方向47米左右",
        "tel": "",
        "category": "基础设施:公共设施:公共厕所",
        "type": 0,
        "location": {
            "lat": 28.03608,
            "lng": 120.85772
        },
        "ad_info": {
            "adcode": 330382,
            "province": "浙江省",
            "city": "温州市",
            "district": "乐清市"
        }
    },
    {
        "id": "11717597713110275870",
        "title": "公共厕所",
        "address": "浙江省温州市鹿城区江滨中路与海事路交叉口正北方向59米左右",
        "tel": "",
        "category": "基础设施:公共设施:公共厕所",
        "type": 0,
        "location": {
            "lat": 28.016456,
            "lng": 120.69019
        },
        "ad_info": {
            "adcode": 330302,
            "province": "浙江省",
            "city": "温州市",
            "district": "鹿城区"
        }
    },
    {
        "id": "3690304303506084738",
        "title": "公共厕所",
        "address": "浙江省温州市乐清市柳青南路与溪桥中路交叉口西北方向170米左右",
        "tel": "",
        "category": "基础设施:公共设施:公共厕所",
        "type": 0,
        "location": {
            "lat": 28.037878,
            "lng": 120.891683
        },
        "ad_info": {
            "adcode": 330382,
            "province": "浙江省",
            "city": "温州市",
            "district": "乐清市"
        }
    },
    {
        "id": "15693361034572027390",
        "title": "公共厕所",
        "address": "浙江省温州市瑞安市安民路清泰小区东门",
        "tel": "",
        "category": "基础设施:公共设施:公共厕所",
        "type": 0,
        "location": {
            "lat": 27.776843,
            "lng": 120.655211
        },
        "ad_info": {
            "adcode": 330381,
            "province": "浙江省",
            "city": "温州市",
            "district": "瑞安市"
        }
    },
    {
        "id": "17867264533167980550",
        "title": "公共厕所",
        "address": "浙江省温州市龙湾区机场大道与船厂路交叉口正东方向185米左右",
        "tel": "",
        "category": "基础设施:公共设施:公共厕所",
        "type": 0,
        "location": {
            "lat": 27.973943,
            "lng": 120.753338
        },
        "ad_info": {
            "adcode": 330303,
            "province": "浙江省",
            "city": "温州市",
            "district": "龙湾区"
        }
    },
    {
        "id": "6942901835170087282",
        "title": "公共厕所",
        "address": "浙江省温州市龙港市兴安街与西一街交叉口东北方向219米左右",
        "tel": "",
        "category": "基础设施:公共设施:公共厕所",
        "type": 0,
        "location": {
            "lat": 27.578043,
            "lng": 120.54435
        },
        "ad_info": {
            "adcode": 330383,
            "province": "浙江省",
            "city": "温州市",
            "district": "龙港市"
        }
    },
    {
        "id": "15716533191275469049",
        "title": "旅游公共厕所",
        "address": "浙江省温州市瓯海区教育路与月乐西街交叉口东北方向40米左右",
        "tel": "",
        "category": "基础设施:公共设施:公共厕所",
        "type": 0,
        "location": {
            "lat": 27.973298,
            "lng": 120.666765
        },
        "ad_info": {
            "adcode": 330304,
            "province": "浙江省",
            "city": "温州市",
            "district": "瓯海区"
        }
    },
    {
        "id": "12231085760765315265",
        "title": "公共厕所(幸福路)",
        "address": "浙江省温州市瓯海区伴云山路与幸福路交叉口正南方向19米左右",
        "tel": "",
        "category": "基础设施:公共设施:公共厕所",
        "type": 0,
        "location": {
            "lat": 27.933272,
            "lng": 120.652074
        },
        "ad_info": {
            "adcode": 330304,
            "province": "浙江省",
            "city": "温州市",
            "district": "瓯海区"
        }
    },
    {
        "id": "17333467885363221087",
        "title": "公共厕所",
        "address": "浙江省温州市龙湾区永梅公路与镇前街交叉口正南方向75米左右",
        "tel": "",
        "category": "基础设施:公共设施:公共厕所",
        "type": 0,
        "location": {
            "lat": 27.829672,
            "lng": 120.762572
        },
        "ad_info": {
            "adcode": 330303,
            "province": "浙江省",
            "city": "温州市",
            "district": "龙湾区"
        }
    },
    {
        "id": "17045771962820533275",
        "title": "公共厕所",
        "address": "浙江省温州市瓯海区亭桥路与瞿雄路交叉口正北方向89米左右",
        "tel": "",
        "category": "基础设施:公共设施:公共厕所",
        "type": 0,
        "location": {
            "lat": 27.969105,
            "lng": 120.540714
        },
        "ad_info": {
            "adcode": 330304,
            "province": "浙江省",
            "city": "温州市",
            "district": "瓯海区"
        }
    },
    {
        "id": "14372785110494615657",
        "title": "公共厕所",
        "address": "浙江省温州市龙港市海景路与龙翔路交叉口西南方向407米左右",
        "tel": "",
        "category": "基础设施:公共设施:公共厕所",
        "type": 0,
        "location": {
            "lat": 27.502975,
            "lng": 120.607253
        },
        "ad_info": {
            "adcode": 330383,
            "province": "浙江省",
            "city": "温州市",
            "district": "龙港市"
        }
    },
    {
        "id": "12820216318767597682",
        "title": "公共厕所",
        "address": "浙江省温州市龙湾区永嘉路与龙腾北路交叉口正东方向129米左右",
        "tel": "",
        "category": "基础设施:公共设施:公共厕所",
        "type": 0,
        "location": {
            "lat": 27.971388,
            "lng": 120.765144
        },
        "ad_info": {
            "adcode": 330303,
            "province": "浙江省",
            "city": "温州市",
            "district": "龙湾区"
        }
    },
    {
        "id": "17896016774305076478",
        "title": "女洗手间",
        "address": "浙江省温州市鹿城区东瓯路与温州大道交叉口东南方向67米左右",
        "tel": "",
        "category": "基础设施:公共设施:公共厕所",
        "type": 0,
        "location": {
            "lat": 27.981799,
            "lng": 120.680906
        },
        "ad_info": {
            "adcode": 330302,
            "province": "浙江省",
            "city": "温州市",
            "district": "鹿城区"
        }
    },
    {
        "id": "18096554953393848857",
        "title": "公共厕所",
        "address": "浙江省温州市平阳县昆鳌大道与蓝田路交叉口西北方向159米左右",
        "tel": "",
        "category": "基础设施:公共设施:公共厕所",
        "type": 0,
        "location": {
            "lat": 27.612631,
            "lng": 120.563356
        },
        "ad_info": {
            "adcode": 330326,
            "province": "浙江省",
            "city": "温州市",
            "district": "平阳县"
        }
    },
    {
        "id": "6681421051721552479",
        "title": "免费公共厕所",
        "address": "浙江省温州市鹿城区屿头中路与鞋都大道交叉口正北方向76米左右",
        "tel": "",
        "category": "基础设施:公共设施:公共厕所",
        "type": 0,
        "location": {
            "lat": 28.040073,
            "lng": 120.590548
        },
        "ad_info": {
            "adcode": 330302,
            "province": "浙江省",
            "city": "温州市",
            "district": "鹿城区"
        }
    },
    {
        "id": "9859205060479778722",
        "title": "桥头服务区公共厕所",
        "address": "浙江省温州市永嘉县G1513温丽高速与桥头服务区交叉口东南260米",
        "tel": "",
        "category": "基础设施:公共设施:公共厕所",
        "type": 0,
        "location": {
            "lat": 28.136355,
            "lng": 120.516614
        },
        "ad_info": {
            "adcode": 330324,
            "province": "浙江省",
            "city": "温州市",
            "district": "永嘉县"
        }
    },
    {
        "id": "9680222442916316402",
        "title": "苍南服务区公共厕所",
        "address": "浙江省温州市苍南县二中西路与通福路交叉口西北方向542米左右",
        "tel": "",
        "category": "基础设施:公共设施:公共厕所",
        "type": 0,
        "location": {
            "lat": 27.507331,
            "lng": 120.380354
        },
        "ad_info": {
            "adcode": 330327,
            "province": "浙江省",
            "city": "温州市",
            "district": "苍南县"
        }
    },
    {
        "id": "6719159543979674692",
        "title": "公共厕所",
        "address": "浙江省温州市平阳县二中北路与江山东路交叉口西南方向43米左右",
        "tel": "",
        "category": "基础设施:公共设施:公共厕所",
        "type": 0,
        "location": {
            "lat": 27.63286,
            "lng": 120.32447
        },
        "ad_info": {
            "adcode": 330326,
            "province": "浙江省",
            "city": "温州市",
            "district": "平阳县"
        }
    },
    {
        "id": "3865331863227244125",
        "title": "生态公共厕所",
        "address": "浙江省温州市平阳县平海大道与海泽路交叉口西北方向91米左右",
        "tel": "",
        "category": "基础设施:公共设施:公共厕所",
        "type": 0,
        "location": {
            "lat": 27.671295,
            "lng": 120.673812
        },
        "ad_info": {
            "adcode": 330326,
            "province": "浙江省",
            "city": "温州市",
            "district": "平阳县"
        }
    },
    {
        "id": "10234093992446296665",
        "title": "苍南服务区第二公共厕所",
        "address": "浙江省温州市苍南县中国石油苍南服务区加油站南侧",
        "tel": "",
        "category": "基础设施:公共设施:公共厕所",
        "type": 0,
        "location": {
            "lat": 27.508371,
            "lng": 120.381033
        },
        "ad_info": {
            "adcode": 330327,
            "province": "浙江省",
            "city": "温州市",
            "district": "苍南县"
        }
    },
    {
        "id": "7124911668392358261",
        "title": "永嘉服务区第一公共厕所",
        "address": "浙江省温州市永嘉县S26诸永高速与永嘉服务区交叉口西北300米",
        "tel": "",
        "category": "基础设施:公共设施:公共厕所",
        "type": 0,
        "location": {
            "lat": 28.365234,
            "lng": 120.751514
        },
        "ad_info": {
            "adcode": 330324,
            "province": "浙江省",
            "city": "温州市",
            "district": "永嘉县"
        }
    },
    {
        "id": "17038020574681518802",
        "title": "公共厕所",
        "address": "浙江省温州市龙湾区滨海七路与滨海三道交叉口西北方向132米左右",
        "tel": "",
        "category": "基础设施:公共设施:公共厕所",
        "type": 0,
        "location": {
            "lat": 27.860377,
            "lng": 120.817118
        },
        "ad_info": {
            "adcode": 330303,
            "province": "浙江省",
            "city": "温州市",
            "district": "龙湾区"
        }
    },
    {
        "id": "10854485624276121704",
        "title": "苍南服务区第二公共厕所",
        "address": "浙江省温州市苍南县灵浦路与灵溪线交叉口正南方向463米左右",
        "tel": "",
        "category": "基础设施:公共设施:公共厕所",
        "type": 0,
        "location": {
            "lat": 27.508448,
            "lng": 120.379502
        },
        "ad_info": {
            "adcode": 330327,
            "province": "浙江省",
            "city": "温州市",
            "district": "苍南县"
        }
    },
    {
        "id": "10028995354507085247",
        "title": "公共厕所",
        "address": "浙江省温州市龙湾区振星路与永丰西路交叉口正西方向39米左右",
        "tel": "",
        "category": "基础设施:公共设施:公共厕所",
        "type": 0,
        "location": {
            "lat": 27.860781,
            "lng": 120.786926
        },
        "ad_info": {
            "adcode": 330303,
            "province": "浙江省",
            "city": "温州市",
            "district": "龙湾区"
        }
    },
    {
        "id": "10228677013642311216",
        "title": "公共厕所",
        "address": "浙江省温州市乐清市新市中街与车站路交叉口正南方向32米左右",
        "tel": "",
        "category": "基础设施:公共设施:公共厕所",
        "type": 0,
        "location": {
            "lat": 28.047903,
            "lng": 120.900965
        },
        "ad_info": {
            "adcode": 330382,
            "province": "浙江省",
            "city": "温州市",
            "district": "乐清市"
        }
    },
    {
        "id": "13326769883199562492",
        "title": "清江服务区公共厕所",
        "address": "浙江省温州市乐清市G15沈海高速与清江服务区交叉口东北200米",
        "tel": "",
        "category": "基础设施:公共设施:公共厕所",
        "type": 0,
        "location": {
            "lat": 28.290684,
            "lng": 121.121829
        },
        "ad_info": {
            "adcode": 330382,
            "province": "浙江省",
            "city": "温州市",
            "district": "乐清市"
        }
    },
    {
        "id": "17216910541805857069",
        "title": "玉苍东路公共厕所",
        "address": "浙江省温州市龙湾区姚江路与玉苍东路交叉口正东方向69米左右",
        "tel": "",
        "category": "基础设施:公共设施:公共厕所",
        "type": 0,
        "location": {
            "lat": 27.970013,
            "lng": 120.751027
        },
        "ad_info": {
            "adcode": 330303,
            "province": "浙江省",
            "city": "温州市",
            "district": "龙湾区"
        }
    },
    {
        "id": "16654514259590186406",
        "title": "永嘉服务区第一公共厕所",
        "address": "浙江省温州市永嘉县诸永高速永嘉服务区",
        "tel": "",
        "category": "基础设施:公共设施:公共厕所",
        "type": 0,
        "location": {
            "lat": 28.365557,
            "lng": 120.748392
        },
        "ad_info": {
            "adcode": 330324,
            "province": "浙江省",
            "city": "温州市",
            "district": "永嘉县"
        }
    },
    {
        "id": "1862178915948548328",
        "title": "公共厕所",
        "address": "浙江省温州市龙湾区滨海三道与滨海十路交叉口正南方向48米左右",
        "tel": "",
        "category": "基础设施:公共设施:公共厕所",
        "type": 0,
        "location": {
            "lat": 27.853464,
            "lng": 120.812322
        },
        "ad_info": {
            "adcode": 330303,
            "province": "浙江省",
            "city": "温州市",
            "district": "龙湾区"
        }
    },
    {
        "id": "222471678120059345",
        "title": "五马公共厕所",
        "address": "浙江省温州市鹿城区五马街与公安路交叉口正南方向28米左右",
        "tel": "",
        "category": "基础设施:公共设施:公共厕所",
        "type": 0,
        "location": {
            "lat": 28.011801,
            "lng": 120.658753
        },
        "ad_info": {
            "adcode": 330302,
            "province": "浙江省",
            "city": "温州市",
            "district": "鹿城区"
        }
    },
    {
        "id": "6799414438020845831",
        "title": "公共厕所",
        "address": "浙江省温州市瑞安市隆山东路瑞安市中医院",
        "tel": "",
        "category": "基础设施:公共设施:公共厕所",
        "type": 0,
        "location": {
            "lat": 27.770914,
            "lng": 120.654571
        },
        "ad_info": {
            "adcode": 330381,
            "province": "浙江省",
            "city": "温州市",
            "district": "瑞安市"
        }
    },
    {
        "id": "16272876463067597151",
        "title": "公共厕所",
        "address": "浙江省温州市瑞安市繁峰北街与繁峰南街交叉口正西方向91米左右",
        "tel": "",
        "category": "基础设施:公共设施:公共厕所",
        "type": 0,
        "location": {
            "lat": 27.841163,
            "lng": 120.494343
        },
        "ad_info": {
            "adcode": 330381,
            "province": "浙江省",
            "city": "温州市",
            "district": "瑞安市"
        }
    },
    {
        "id": "13343068691606979500",
        "title": "公共厕所",
        "address": "浙江省温州市瓯海区南汇路与秀浦路交叉口东南方向242米左右",
        "tel": "",
        "category": "基础设施:公共设施:公共厕所",
        "type": 0,
        "location": {
            "lat": 27.951144,
            "lng": 120.593675
        },
        "ad_info": {
            "adcode": 330304,
            "province": "浙江省",
            "city": "温州市",
            "district": "瓯海区"
        }
    },
    {
        "id": "10680660994299739075",
        "title": "公共厕所",
        "address": "浙江省温州市鹿城区吴桥路与得胜路交叉口东南方向131米左右",
        "tel": "",
        "category": "基础设施:公共设施:公共厕所",
        "type": 0,
        "location": {
            "lat": 27.997181,
            "lng": 120.65818
        },
        "ad_info": {
            "adcode": 330302,
            "province": "浙江省",
            "city": "温州市",
            "district": "鹿城区"
        }
    },
    {
        "id": "1430055552372897117",
        "title": "公共厕所",
        "address": "浙江省温州市鹿城区新田路与聚才路交叉口正东方向79米左右",
        "tel": "",
        "category": "基础设施:公共设施:公共厕所",
        "type": 0,
        "location": {
            "lat": 28.000804,
            "lng": 120.726681
        },
        "ad_info": {
            "adcode": 330302,
            "province": "浙江省",
            "city": "温州市",
            "district": "鹿城区"
        }
    },
    {
        "id": "1988174053083224536",
        "title": "公共厕所",
        "address": "浙江省温州市龙湾区永梅公路与镇前街交叉口东南方向99米左右",
        "tel": "",
        "category": "基础设施:公共设施:公共厕所",
        "type": 0,
        "location": {
            "lat": 27.829662,
            "lng": 120.763473
        },
        "ad_info": {
            "adcode": 330303,
            "province": "浙江省",
            "city": "温州市",
            "district": "龙湾区"
        }
    },
    {
        "id": "11733205310905835632",
        "title": "公共厕所",
        "address": "浙江省温州市瓯海区繁盛南路与锦宁路交叉口正南方向68米左右",
        "tel": "",
        "category": "基础设施:公共设施:公共厕所",
        "type": 0,
        "location": {
            "lat": 27.975068,
            "lng": 120.57111
        },
        "ad_info": {
            "adcode": 330304,
            "province": "浙江省",
            "city": "温州市",
            "district": "瓯海区"
        }
    },
    {
        "id": "6422474439452518605",
        "title": "公共厕所",
        "address": "浙江省温州市鹿城区万岁里与四营堂巷交叉口正东方向32米左右",
        "tel": "",
        "category": "基础设施:公共设施:公共厕所",
        "type": 0,
        "location": {
            "lat": 28.020976,
            "lng": 120.654747
        },
        "ad_info": {
            "adcode": 330302,
            "province": "浙江省",
            "city": "温州市",
            "district": "鹿城区"
        }
    },
    {
        "id": "8444734307300235518",
        "title": "公共厕所",
        "address": "浙江省温州市乐清市大康路与大桥路交叉口西北方向26米左右",
        "tel": "",
        "category": "基础设施:公共设施:公共厕所",
        "type": 0,
        "location": {
            "lat": 28.294597,
            "lng": 121.03391
        },
        "ad_info": {
            "adcode": 330382,
            "province": "浙江省",
            "city": "温州市",
            "district": "乐清市"
        }
    },
    {
        "id": "13893575635780326803",
        "title": "公共厕所",
        "address": "浙江省温州市鹿城区杏花路新村大楼",
        "tel": "",
        "category": "基础设施:公共设施:公共厕所",
        "type": 0,
        "location": {
            "lat": 28.006354,
            "lng": 120.646781
        },
        "ad_info": {
            "adcode": 330302,
            "province": "浙江省",
            "city": "温州市",
            "district": "鹿城区"
        }
    },
    {
        "id": "5291815654507867792",
        "title": "公共厕所",
        "address": "浙江省温州市瑞安市商业街与罗凤中路交叉口西南方向170米左右",
        "tel": "",
        "category": "基础设施:公共设施:公共厕所",
        "type": 0,
        "location": {
            "lat": 27.842602,
            "lng": 120.673878
        },
        "ad_info": {
            "adcode": 330381,
            "province": "浙江省",
            "city": "温州市",
            "district": "瑞安市"
        }
    },
    {
        "id": "13509377649978333002",
        "title": "下埠菜场公共厕所",
        "address": "浙江省温州市龙湾区蒲兴路与蒲江北路交叉口正东方向164米左右",
        "tel": "",
        "category": "基础设施:公共设施:公共厕所",
        "type": 0,
        "location": {
            "lat": 27.990102,
            "lng": 120.731521
        },
        "ad_info": {
            "adcode": 330303,
            "province": "浙江省",
            "city": "温州市",
            "district": "龙湾区"
        }
    },
    {
        "id": "18068844436141916574",
        "title": "公共厕所",
        "address": "浙江省温州市龙港市龙港大道53号",
        "tel": "",
        "category": "基础设施:公共设施:公共厕所",
        "type": 0,
        "location": {
            "lat": 27.573982,
            "lng": 120.522327
        },
        "ad_info": {
            "adcode": 330383,
            "province": "浙江省",
            "city": "温州市",
            "district": "龙港市"
        }
    },
    {
        "id": "12196203429025948127",
        "title": "公共厕所",
        "address": "浙江省温州市乐清市县浦中路与鑫浦路交叉口东南方向38米左右",
        "tel": "",
        "category": "基础设施:公共设施:公共厕所",
        "type": 0,
        "location": {
            "lat": 28.107985,
            "lng": 120.974362
        },
        "ad_info": {
            "adcode": 330382,
            "province": "浙江省",
            "city": "温州市",
            "district": "乐清市"
        }
    },
    {
        "id": "16020443052293255892",
        "title": "公共厕所",
        "address": "浙江省温州市瓯海区梧慈路与西经三路交叉口东南方向47米左右",
        "tel": "",
        "category": "基础设施:公共设施:公共厕所",
        "type": 0,
        "location": {
            "lat": 27.953634,
            "lng": 120.656577
        },
        "ad_info": {
            "adcode": 330304,
            "province": "浙江省",
            "city": "温州市",
            "district": "瓯海区"
        }
    },
    {
        "id": "16054370550943821669",
        "title": "公共厕所",
        "address": "浙江省温州市龙港市建新路与百有南街交叉口东南方向71米左右",
        "tel": "",
        "category": "基础设施:公共设施:公共厕所",
        "type": 0,
        "location": {
            "lat": 27.582495,
            "lng": 120.550371
        },
        "ad_info": {
            "adcode": 330383,
            "province": "浙江省",
            "city": "温州市",
            "district": "龙港市"
        }
    },
    {
        "id": "10702145252353596266",
        "title": "公共厕所",
        "address": "浙江省温州市鹿城区锦绣路温州体育中心体育场",
        "tel": "",
        "category": "基础设施:公共设施:公共厕所",
        "type": 0,
        "location": {
            "lat": 28.000188,
            "lng": 120.675644
        },
        "ad_info": {
            "adcode": 330302,
            "province": "浙江省",
            "city": "温州市",
            "district": "鹿城区"
        }
    },
    {
        "id": "10700821939826091532",
        "title": "公共厕所",
        "address": "浙江省温州市乐清市老镇府路与镇东街交叉口正东方向115米左右",
        "tel": "",
        "category": "基础设施:公共设施:公共厕所",
        "type": 0,
        "location": {
            "lat": 28.025802,
            "lng": 120.9715
        },
        "ad_info": {
            "adcode": 330382,
            "province": "浙江省",
            "city": "温州市",
            "district": "乐清市"
        }
    },
    {
        "id": "4463491016639353809",
        "title": "公共厕所",
        "address": "浙江省温州市龙湾区环川东路与胜泉西路交叉口正西方向31米左右",
        "tel": "",
        "category": "基础设施:公共设施:公共厕所",
        "type": 0,
        "location": {
            "lat": 27.862372,
            "lng": 120.789509
        },
        "ad_info": {
            "adcode": 330303,
            "province": "浙江省",
            "city": "温州市",
            "district": "龙湾区"
        }
    },
    {
        "id": "16714176374817713273",
        "title": "公共厕所",
        "address": "浙江省温州市鹿城区河岙线与钟山新街交叉口西北方向174米左右",
        "tel": "",
        "category": "基础设施:公共设施:公共厕所",
        "type": 0,
        "location": {
            "lat": 28.063119,
            "lng": 120.58583
        },
        "ad_info": {
            "adcode": 330302,
            "province": "浙江省",
            "city": "温州市",
            "district": "鹿城区"
        }
    },
    {
        "id": "14106556460328876425",
        "title": "公共厕所",
        "address": "浙江省温州市乐清市塔西路与河滨东路交叉口西北方向13米左右",
        "tel": "",
        "category": "基础设施:公共设施:公共厕所",
        "type": 0,
        "location": {
            "lat": 28.024908,
            "lng": 120.970084
        },
        "ad_info": {
            "adcode": 330382,
            "province": "浙江省",
            "city": "温州市",
            "district": "乐清市"
        }
    },
    {
        "id": "7147685126427517387",
        "title": "公共厕所",
        "address": "浙江省温州市鹿城区学院中路与学院西路交叉口正西方向210米左右",
        "tel": "",
        "category": "基础设施:公共设施:公共厕所",
        "type": 0,
        "location": {
            "lat": 28.00622,
            "lng": 120.68011
        },
        "ad_info": {
            "adcode": 330302,
            "province": "浙江省",
            "city": "温州市",
            "district": "鹿城区"
        }
    },
    {
        "id": "3941571067576269491",
        "title": "公共厕所",
        "address": "浙江省温州市乐清市定安北路与定安南路交叉口西北方向45米左右",
        "tel": "",
        "category": "基础设施:公共设施:公共厕所",
        "type": 0,
        "location": {
            "lat": 28.162834,
            "lng": 121.053249
        },
        "ad_info": {
            "adcode": 330382,
            "province": "浙江省",
            "city": "温州市",
            "district": "乐清市"
        }
    },
    {
        "id": "1372389310697063722",
        "title": "公共厕所",
        "address": "浙江省温州市乐清市白象大道与象北路交叉口西南方向106米左右",
        "tel": "",
        "category": "基础设施:公共设施:公共厕所",
        "type": 0,
        "location": {
            "lat": 28.039526,
            "lng": 120.855885
        },
        "ad_info": {
            "adcode": 330382,
            "province": "浙江省",
            "city": "温州市",
            "district": "乐清市"
        }
    },
    {
        "id": "15865237883285101302",
        "title": "公共厕所",
        "address": "浙江省温州市永嘉县五星路与阳光大道交叉口东北方向61米左右",
        "tel": "",
        "category": "基础设施:公共设施:公共厕所",
        "type": 0,
        "location": {
            "lat": 28.034546,
            "lng": 120.621525
        },
        "ad_info": {
            "adcode": 330324,
            "province": "浙江省",
            "city": "温州市",
            "district": "永嘉县"
        }
    },
    {
        "id": "273653601224565210",
        "title": "生态公共厕所",
        "address": "浙江省温州市瑞安市国泰路与环镇西路交叉口东北方向158米左右",
        "tel": "",
        "category": "基础设施:公共设施:公共厕所",
        "type": 0,
        "location": {
            "lat": 27.83723,
            "lng": 120.678705
        },
        "ad_info": {
            "adcode": 330381,
            "province": "浙江省",
            "city": "温州市",
            "district": "瑞安市"
        }
    },
    {
        "id": "14350115380824743696",
        "title": "公共厕所",
        "address": "浙江省温州市鹿城区前黄路与葡萄路交叉口西北方向185米左右",
        "tel": "",
        "category": "基础设施:公共设施:公共厕所",
        "type": 0,
        "location": {
            "lat": 27.98868,
            "lng": 120.643716
        },
        "ad_info": {
            "adcode": 330302,
            "province": "浙江省",
            "city": "温州市",
            "district": "鹿城区"
        }
    },
    {
        "id": "16772557203225292740",
        "title": "公共厕所(塘西便民疏导点)",
        "address": "浙江省温州市瓯海区蛟凤北路29号",
        "tel": "",
        "category": "基础设施:公共设施:公共厕所",
        "type": 0,
        "location": {
            "lat": 27.970809,
            "lng": 120.660338
        },
        "ad_info": {
            "adcode": 330304,
            "province": "浙江省",
            "city": "温州市",
            "district": "瓯海区"
        }
    },
    {
        "id": "9376671515118106353",
        "title": "公共厕所",
        "address": "浙江省温州市永嘉县双塔路与江北大街交叉口东南方向159米左右",
        "tel": "",
        "category": "基础设施:公共设施:公共厕所",
        "type": 0,
        "location": {
            "lat": 28.039586,
            "lng": 120.63909
        },
        "ad_info": {
            "adcode": 330324,
            "province": "浙江省",
            "city": "温州市",
            "district": "永嘉县"
        }
    },
    {
        "id": "8568367319388569085",
        "title": "公共厕所",
        "address": "浙江省温州市永嘉县江北大街与浦西街交叉口正北方向73米左右",
        "tel": "",
        "category": "基础设施:公共设施:公共厕所",
        "type": 0,
        "location": {
            "lat": 28.043077,
            "lng": 120.637979
        },
        "ad_info": {
            "adcode": 330324,
            "province": "浙江省",
            "city": "温州市",
            "district": "永嘉县"
        }
    },
    {
        "id": "13303362443430298728",
        "title": "公共厕所",
        "address": "浙江省温州市乐清市中心大道与白象大道交叉口正西方向141米左右",
        "tel": "",
        "category": "基础设施:公共设施:公共厕所",
        "type": 0,
        "location": {
            "lat": 28.031777,
            "lng": 120.862787
        },
        "ad_info": {
            "adcode": 330382,
            "province": "浙江省",
            "city": "温州市",
            "district": "乐清市"
        }
    },
    {
        "id": "15291296925411586976",
        "title": "公共厕所",
        "address": "浙江省温州市瓯海区卧龙路与花园北路交叉口正东方向24米左右",
        "tel": "",
        "category": "基础设施:公共设施:公共厕所",
        "type": 0,
        "location": {
            "lat": 27.908741,
            "lng": 120.706894
        },
        "ad_info": {
            "adcode": 330304,
            "province": "浙江省",
            "city": "温州市",
            "district": "瓯海区"
        }
    },
    {
        "id": "16693009055711723976",
        "title": "公共厕所",
        "address": "浙江省温州市鹿城区学院东路与宏源路交叉口正西方向123米左右",
        "tel": "",
        "category": "基础设施:公共设施:公共厕所",
        "type": 0,
        "location": {
            "lat": 28.005194,
            "lng": 120.707687
        },
        "ad_info": {
            "adcode": 330302,
            "province": "浙江省",
            "city": "温州市",
            "district": "鹿城区"
        }
    },
    {
        "id": "6636065373337446535",
        "title": "丽水街公共厕所",
        "address": "浙江省温州市永嘉县宗前街与金楠路交叉口正西方向74米左右",
        "tel": "",
        "category": "基础设施:公共设施:公共厕所",
        "type": 0,
        "location": {
            "lat": 28.336167,
            "lng": 120.735085
        },
        "ad_info": {
            "adcode": 330324,
            "province": "浙江省",
            "city": "温州市",
            "district": "永嘉县"
        }
    },
    {
        "id": "14992556016296810901",
        "title": "公共厕所",
        "address": "浙江省温州市瑞安市塘河路与大桥西路交叉口东北方向55米左右",
        "tel": "",
        "category": "基础设施:公共设施:公共厕所",
        "type": 0,
        "location": {
            "lat": 27.768631,
            "lng": 120.616234
        },
        "ad_info": {
            "adcode": 330381,
            "province": "浙江省",
            "city": "温州市",
            "district": "瑞安市"
        }
    },
    {
        "id": "6817523513745941743",
        "title": "公共厕所",
        "address": "浙江省温州市龙湾区永工南路与永强大道交叉口东南方向224米左右",
        "tel": "",
        "category": "基础设施:公共设施:公共厕所",
        "type": 0,
        "location": {
            "lat": 27.871714,
            "lng": 120.798142
        },
        "ad_info": {
            "adcode": 330303,
            "province": "浙江省",
            "city": "温州市",
            "district": "龙湾区"
        }
    },
    {
        "id": "14824256031919009380",
        "title": "公共厕所",
        "address": "浙江省温州市平阳县郑林东路8号",
        "tel": "",
        "category": "基础设施:公共设施:公共厕所",
        "type": 0,
        "location": {
            "lat": 27.726284,
            "lng": 120.605478
        },
        "ad_info": {
            "adcode": 330326,
            "province": "浙江省",
            "city": "温州市",
            "district": "平阳县"
        }
    },
    {
        "id": "3957401502688290720",
        "title": "公共厕所",
        "address": "浙江省温州市乐清市东兴东路与邮政街交叉口正北方向14米左右",
        "tel": "",
        "category": "基础设施:公共设施:公共厕所",
        "type": 0,
        "location": {
            "lat": 28.034493,
            "lng": 120.855466
        },
        "ad_info": {
            "adcode": 330382,
            "province": "浙江省",
            "city": "温州市",
            "district": "乐清市"
        }
    },
    {
        "id": "7631606837214723542",
        "title": "公共厕所",
        "address": "浙江省温州市鹿城区勤奋路与鹿城路交叉口正南方向163米左右",
        "tel": "",
        "category": "基础设施:公共设施:公共厕所",
        "type": 0,
        "location": {
            "lat": 28.011502,
            "lng": 120.641043
        },
        "ad_info": {
            "adcode": 330302,
            "province": "浙江省",
            "city": "温州市",
            "district": "鹿城区"
        }
    },
    {
        "id": "1923643418957717001",
        "title": "公共厕所",
        "address": "浙江省温州市平阳县凤林南路与商贸路交叉口正东方向42米左右",
        "tel": "",
        "category": "基础设施:公共设施:公共厕所",
        "type": 0,
        "location": {
            "lat": 27.635405,
            "lng": 120.33316
        },
        "ad_info": {
            "adcode": 330326,
            "province": "浙江省",
            "city": "温州市",
            "district": "平阳县"
        }
    },
    {
        "id": "4594239393775680018",
        "title": "公共厕所",
        "address": "浙江省温州市龙湾区一号路与繁青路交叉口西北方向231米左右",
        "tel": "",
        "category": "基础设施:公共设施:公共厕所",
        "type": 0,
        "location": {
            "lat": 27.934834,
            "lng": 120.803155
        },
        "ad_info": {
            "adcode": 330303,
            "province": "浙江省",
            "city": "温州市",
            "district": "龙湾区"
        }
    },
    {
        "id": "10941440862970370268",
        "title": "公共厕所",
        "address": "浙江省温州市鹿城区东门商业步行街与株浦路交叉口西南方向46米左右",
        "tel": "",
        "category": "基础设施:公共设施:公共厕所",
        "type": 0,
        "location": {
            "lat": 28.021309,
            "lng": 120.669931
        },
        "ad_info": {
            "adcode": 330302,
            "province": "浙江省",
            "city": "温州市",
            "district": "鹿城区"
        }
    },
    {
        "id": "9734423728960774637",
        "title": "公共厕所",
        "address": "浙江省温州市龙湾区机场大道与甬江路交叉口正南方向46米左右",
        "tel": "",
        "category": "基础设施:公共设施:公共厕所",
        "type": 0,
        "location": {
            "lat": 27.970977,
            "lng": 120.754542
        },
        "ad_info": {
            "adcode": 330303,
            "province": "浙江省",
            "city": "温州市",
            "district": "龙湾区"
        }
    },
    {
        "id": "6147137404863094164",
        "title": "公共厕所",
        "address": "浙江省温州市龙湾区金泉路与龙泉路交叉口东南方向129米左右",
        "tel": "",
        "category": "基础设施:公共设施:公共厕所",
        "type": 0,
        "location": {
            "lat": 27.858543,
            "lng": 120.795012
        },
        "ad_info": {
            "adcode": 330303,
            "province": "浙江省",
            "city": "温州市",
            "district": "龙湾区"
        }
    },
    {
        "id": "16961368049791120997",
        "title": "公共厕所",
        "address": "浙江省温州市乐清市纬七路与经六路交叉口正南方向55米左右",
        "tel": "",
        "category": "基础设施:公共设施:公共厕所",
        "type": 0,
        "location": {
            "lat": 28.06958,
            "lng": 120.994617
        },
        "ad_info": {
            "adcode": 330382,
            "province": "浙江省",
            "city": "温州市",
            "district": "乐清市"
        }
    },
    {
        "id": "9746190381918766996",
        "title": "公共厕所",
        "address": "浙江省温州市瑞安市金光东街与革兴东街交叉口西北方向140米左右",
        "tel": "",
        "category": "基础设施:公共设施:公共厕所",
        "type": 0,
        "location": {
            "lat": 27.791588,
            "lng": 120.553661
        },
        "ad_info": {
            "adcode": 330381,
            "province": "浙江省",
            "city": "温州市",
            "district": "瑞安市"
        }
    },
    {
        "id": "15905919062444814467",
        "title": "公共厕所",
        "address": "浙江省温州市瑞安市东山西路与瑞光大道交叉口正东方向41米左右",
        "tel": "",
        "category": "基础设施:公共设施:公共厕所",
        "type": 0,
        "location": {
            "lat": 27.763099,
            "lng": 120.642801
        },
        "ad_info": {
            "adcode": 330381,
            "province": "浙江省",
            "city": "温州市",
            "district": "瑞安市"
        }
    },
    {
        "id": "3499645370463592929",
        "title": "公共厕所",
        "address": "浙江省温州市鹿城区莲花路与马鞍池东路交叉口正北方向78米左右",
        "tel": "",
        "category": "基础设施:公共设施:公共厕所",
        "type": 0,
        "location": {
            "lat": 28.004867,
            "lng": 120.663162
        },
        "ad_info": {
            "adcode": 330302,
            "province": "浙江省",
            "city": "温州市",
            "district": "鹿城区"
        }
    },
    {
        "id": "10405300551509007879",
        "title": "公共厕所",
        "address": "浙江省温州市苍南县上江路与水门内街交叉口正东方向115米左右",
        "tel": "",
        "category": "基础设施:公共设施:公共厕所",
        "type": 0,
        "location": {
            "lat": 27.522522,
            "lng": 120.423686
        },
        "ad_info": {
            "adcode": 330327,
            "province": "浙江省",
            "city": "温州市",
            "district": "苍南县"
        }
    },
    {
        "id": "8665716688606347560",
        "title": "公共厕所",
        "address": "浙江省温州市鹿城区温寿线与温金路交叉口西南方向86米左右",
        "tel": "",
        "category": "基础设施:公共设施:公共厕所",
        "type": 0,
        "location": {
            "lat": 28.08421,
            "lng": 120.588807
        },
        "ad_info": {
            "adcode": 330302,
            "province": "浙江省",
            "city": "温州市",
            "district": "鹿城区"
        }
    },
    {
        "id": "12277254415529459667",
        "title": "公共厕所",
        "address": "浙江省温州市瓯海区前达路与金达路交叉口正北方向52米左右",
        "tel": "",
        "category": "基础设施:公共设施:公共厕所",
        "type": 0,
        "location": {
            "lat": 27.979792,
            "lng": 120.617757
        },
        "ad_info": {
            "adcode": 330304,
            "province": "浙江省",
            "city": "温州市",
            "district": "瓯海区"
        }
    },
    {
        "id": "877626115131197513",
        "title": "公共厕所",
        "address": "浙江省温州市鹿城区腾跃路与鞋都大道交叉口正东方向284米左右",
        "tel": "",
        "category": "基础设施:公共设施:公共厕所",
        "type": 0,
        "location": {
            "lat": 28.043207,
            "lng": 120.593002
        },
        "ad_info": {
            "adcode": 330302,
            "province": "浙江省",
            "city": "温州市",
            "district": "鹿城区"
        }
    },
    {
        "id": "11323312454766472722",
        "title": "公共厕所",
        "address": "浙江省温州市鹿城区吴丰路与高新路交叉口正东方向58米左右",
        "tel": "",
        "category": "基础设施:公共设施:公共厕所",
        "type": 0,
        "location": {
            "lat": 27.992146,
            "lng": 120.657492
        },
        "ad_info": {
            "adcode": 330302,
            "province": "浙江省",
            "city": "温州市",
            "district": "鹿城区"
        }
    },
    {
        "id": "6962153009886629354",
        "title": "公共厕所",
        "address": "浙江省温州市乐清市一横路与巨宅路交叉口东南方向170米左右",
        "tel": "",
        "category": "基础设施:公共设施:公共厕所",
        "type": 0,
        "location": {
            "lat": 28.078775,
            "lng": 120.92796
        },
        "ad_info": {
            "adcode": 330382,
            "province": "浙江省",
            "city": "温州市",
            "district": "乐清市"
        }
    },
    {
        "id": "4923772721077274325",
        "title": "公共厕所",
        "address": "浙江省温州市鹿城区前庄路上陡门十二组团住宅区-西区",
        "tel": "",
        "category": "基础设施:公共设施:公共厕所",
        "type": 0,
        "location": {
            "lat": 28.002169,
            "lng": 120.694818
        },
        "ad_info": {
            "adcode": 330302,
            "province": "浙江省",
            "city": "温州市",
            "district": "鹿城区"
        }
    },
    {
        "id": "16553969432520064099",
        "title": "公共厕所",
        "address": "浙江省温州市鹿城区鞋都大道1912号",
        "tel": "",
        "category": "基础设施:公共设施:公共厕所",
        "type": 0,
        "location": {
            "lat": 28.043261,
            "lng": 120.590394
        },
        "ad_info": {
            "adcode": 330302,
            "province": "浙江省",
            "city": "温州市",
            "district": "鹿城区"
        }
    },
    {
        "id": "11978236875190169389",
        "title": "公共厕所",
        "address": "浙江省温州市鹿城区飞霞南路918弄7号",
        "tel": "",
        "category": "基础设施:公共设施:公共厕所",
        "type": 0,
        "location": {
            "lat": 28.010085,
            "lng": 120.671039
        },
        "ad_info": {
            "adcode": 330302,
            "province": "浙江省",
            "city": "温州市",
            "district": "鹿城区"
        }
    },
    {
        "id": "12499612264010800354",
        "title": "公共厕所",
        "address": "浙江省温州市龙湾区山西路与西台路交叉口正东方向126米左右",
        "tel": "",
        "category": "基础设施:公共设施:公共厕所",
        "type": 0,
        "location": {
            "lat": 27.955849,
            "lng": 120.760137
        },
        "ad_info": {
            "adcode": 330303,
            "province": "浙江省",
            "city": "温州市",
            "district": "龙湾区"
        }
    },
    {
        "id": "4025199788312279006",
        "title": "公共厕所",
        "address": "浙江省温州市瓯海区瓯海大道2648号",
        "tel": "",
        "category": "基础设施:公共设施:公共厕所",
        "type": 0,
        "location": {
            "lat": 27.972013,
            "lng": 120.552081
        },
        "ad_info": {
            "adcode": 330304,
            "province": "浙江省",
            "city": "温州市",
            "district": "瓯海区"
        }
    },
    {
        "id": "3905461002894284935",
        "title": "公共厕所",
        "address": "浙江省温州市乐清市前市南街与马仁桥一路交叉口正东方向95米左右",
        "tel": "",
        "category": "基础设施:公共设施:公共厕所",
        "type": 0,
        "location": {
            "lat": 28.03855,
            "lng": 120.90227
        },
        "ad_info": {
            "adcode": 330382,
            "province": "浙江省",
            "city": "温州市",
            "district": "乐清市"
        }
    },
    {
        "id": "8015154960781755067",
        "title": "公共厕所",
        "address": "浙江省温州市瓯海区潘桥街道社区卫生服务中心陈庄社区卫生服务站东北侧70米",
        "tel": "",
        "category": "基础设施:公共设施:公共厕所",
        "type": 0,
        "location": {
            "lat": 27.942471,
            "lng": 120.585649
        },
        "ad_info": {
            "adcode": 330304,
            "province": "浙江省",
            "city": "温州市",
            "district": "瓯海区"
        }
    },
    {
        "id": "255327548140779572",
        "title": "公共厕所",
        "address": "浙江省温州市龙港市沿江路与西三街交叉口西北方向43米左右",
        "tel": "",
        "category": "基础设施:公共设施:公共厕所",
        "type": 0,
        "location": {
            "lat": 27.582838,
            "lng": 120.533337
        },
        "ad_info": {
            "adcode": 330383,
            "province": "浙江省",
            "city": "温州市",
            "district": "龙港市"
        }
    },
    {
        "id": "15015045891046644082",
        "title": "公共厕所",
        "address": "浙江省温州市平阳县兴鳌东路与技校街交叉口东北方向71米左右",
        "tel": "",
        "category": "基础设施:公共设施:公共厕所",
        "type": 0,
        "location": {
            "lat": 27.600586,
            "lng": 120.557855
        },
        "ad_info": {
            "adcode": 330326,
            "province": "浙江省",
            "city": "温州市",
            "district": "平阳县"
        }
    },
    {
        "id": "6323892874388785455",
        "title": "公共厕所",
        "address": "浙江省温州市瑞安市时代路与罗凤西路交叉口西北方向44米左右",
        "tel": "",
        "category": "基础设施:公共设施:公共厕所",
        "type": 0,
        "location": {
            "lat": 27.839052,
            "lng": 120.65521
        },
        "ad_info": {
            "adcode": 330381,
            "province": "浙江省",
            "city": "温州市",
            "district": "瑞安市"
        }
    },
    {
        "id": "9006268307843043875",
        "title": "公共厕所",
        "address": "浙江省温州市鹿城区解放街99正西方向40米",
        "tel": "",
        "category": "基础设施:公共设施:公共厕所",
        "type": 0,
        "location": {
            "lat": 28.012474,
            "lng": 120.661249
        },
        "ad_info": {
            "adcode": 330302,
            "province": "浙江省",
            "city": "温州市",
            "district": "鹿城区"
        }
    },
    {
        "id": "2706767456147146731",
        "title": "公共厕所",
        "address": "浙江省温州市鹿城区环城东路与瓯江路交叉口正南方向34米左右",
        "tel": "",
        "category": "基础设施:公共设施:公共厕所",
        "type": 0,
        "location": {
            "lat": 28.024657,
            "lng": 120.661278
        },
        "ad_info": {
            "adcode": 330302,
            "province": "浙江省",
            "city": "温州市",
            "district": "鹿城区"
        }
    },
    {
        "id": "7830265772876350201",
        "title": "公共厕所",
        "address": "浙江省温州市龙湾区刘宅二路与罗东南街交叉口东南方向173米左右",
        "tel": "",
        "category": "基础设施:公共设施:公共厕所",
        "type": 0,
        "location": {
            "lat": 27.883572,
            "lng": 120.801854
        },
        "ad_info": {
            "adcode": 330303,
            "province": "浙江省",
            "city": "温州市",
            "district": "龙湾区"
        }
    },
    {
        "id": "2611938787920229693",
        "title": "公共厕所",
        "address": "浙江省温州市永嘉县广源东路与新宅路交叉口正西方向97米左右",
        "tel": "",
        "category": "基础设施:公共设施:公共厕所",
        "type": 0,
        "location": {
            "lat": 28.027771,
            "lng": 120.790057
        },
        "ad_info": {
            "adcode": 330324,
            "province": "浙江省",
            "city": "温州市",
            "district": "永嘉县"
        }
    },
    {
        "id": "17100325812050601103",
        "title": "公共厕所",
        "address": "浙江省温州市鹿城区瓯江路曼哈屯小区西门",
        "tel": "",
        "category": "基础设施:公共设施:公共厕所",
        "type": 0,
        "location": {
            "lat": 28.023282,
            "lng": 120.670818
        },
        "ad_info": {
            "adcode": 330302,
            "province": "浙江省",
            "city": "温州市",
            "district": "鹿城区"
        }
    },
    {
        "id": "12395211557273050762",
        "title": "公共厕所",
        "address": "浙江省温州市瓯海区富强东路与豪达路交叉口正东方向105米左右",
        "tel": "",
        "category": "基础设施:公共设施:公共厕所",
        "type": 0,
        "location": {
            "lat": 27.990699,
            "lng": 120.548655
        },
        "ad_info": {
            "adcode": 330304,
            "province": "浙江省",
            "city": "温州市",
            "district": "瓯海区"
        }
    },
    {
        "id": "7240984202866265553",
        "title": "公共厕所",
        "address": "浙江省温州市鹿城区温州大道与车站大道交叉口东南方向176米左右",
        "tel": "",
        "category": "基础设施:公共设施:公共厕所",
        "type": 0,
        "location": {
            "lat": 27.980975,
            "lng": 120.686237
        },
        "ad_info": {
            "adcode": 330302,
            "province": "浙江省",
            "city": "温州市",
            "district": "鹿城区"
        }
    },
    {
        "id": "8195671432068605244",
        "title": "肯德基(柳市柳青餐厅)-洗手间",
        "address": "浙江省温州市乐清市惠丰西路与柳青南路交叉口正北方向45米左右",
        "tel": "",
        "category": "基础设施:公共设施:公共厕所",
        "type": 0,
        "location": {
            "lat": 28.046439,
            "lng": 120.896679
        },
        "ad_info": {
            "adcode": 330382,
            "province": "浙江省",
            "city": "温州市",
            "district": "乐清市"
        }
    },
    {
        "id": "14095083228268569477",
        "title": "公共厕所",
        "address": "浙江省温州市瓯海区兴业路与埭河路交叉口正西方向118米左右",
        "tel": "",
        "category": "基础设施:公共设施:公共厕所",
        "type": 0,
        "location": {
            "lat": 27.986657,
            "lng": 120.539134
        },
        "ad_info": {
            "adcode": 330304,
            "province": "浙江省",
            "city": "温州市",
            "district": "瓯海区"
        }
    },
    {
        "id": "15419109142356015175",
        "title": "公共厕所",
        "address": "浙江省温州市鹿城区百里东路安平大厦(三官殿巷)",
        "tel": "",
        "category": "基础设施:公共设施:公共厕所",
        "type": 0,
        "location": {
            "lat": 28.01965,
            "lng": 120.650447
        },
        "ad_info": {
            "adcode": 330302,
            "province": "浙江省",
            "city": "温州市",
            "district": "鹿城区"
        }
    },
    {
        "id": "7937993705361747167",
        "title": "公共厕所",
        "address": "浙江省温州市乐清市北白象枢纽奥特莱斯",
        "tel": "",
        "category": "基础设施:公共设施:公共厕所",
        "type": 0,
        "location": {
            "lat": 28.021943,
            "lng": 120.819476
        },
        "ad_info": {
            "adcode": 330382,
            "province": "浙江省",
            "city": "温州市",
            "district": "乐清市"
        }
    },
    {
        "id": "16850363994224188504",
        "title": "公共厕所",
        "address": "浙江省温州市鹿城区腾跃路与鞋都大道交叉口正东方向280米左右",
        "tel": "",
        "category": "基础设施:公共设施:公共厕所",
        "type": 0,
        "location": {
            "lat": 28.042917,
            "lng": 120.593023
        },
        "ad_info": {
            "adcode": 330302,
            "province": "浙江省",
            "city": "温州市",
            "district": "鹿城区"
        }
    },
    {
        "id": "12443774216167790365",
        "title": "公共厕所",
        "address": "浙江省温州市平阳县兴鳌中路140-144号",
        "tel": "",
        "category": "基础设施:公共设施:公共厕所",
        "type": 0,
        "location": {
            "lat": 27.59951,
            "lng": 120.550847
        },
        "ad_info": {
            "adcode": 330326,
            "province": "浙江省",
            "city": "温州市",
            "district": "平阳县"
        }
    },
    {
        "id": "1965978807664322873",
        "title": "公共厕所",
        "address": "浙江省温州市瓯海区榕霞路与瓯海大道辅道交叉口西南60米",
        "tel": "",
        "category": "基础设施:公共设施:公共厕所",
        "type": 0,
        "location": {
            "lat": 27.964684,
            "lng": 120.628802
        },
        "ad_info": {
            "adcode": 330304,
            "province": "浙江省",
            "city": "温州市",
            "district": "瓯海区"
        }
    },
    {
        "id": "15799521786045200415",
        "title": "公共厕所",
        "address": "浙江省温州市乐清市纬十八路与经六路交叉口正北方向75米左右",
        "tel": "",
        "category": "基础设施:公共设施:公共厕所",
        "type": 0,
        "location": {
            "lat": 28.052148,
            "lng": 120.996479
        },
        "ad_info": {
            "adcode": 330382,
            "province": "浙江省",
            "city": "温州市",
            "district": "乐清市"
        }
    },
    {
        "id": "7875571605830351402",
        "title": "公共厕所",
        "address": "浙江省温州市瓯海区潘桥街道马桥村卫生室西侧240米",
        "tel": "",
        "category": "基础设施:公共设施:公共厕所",
        "type": 0,
        "location": {
            "lat": 27.94419,
            "lng": 120.56471
        },
        "ad_info": {
            "adcode": 330304,
            "province": "浙江省",
            "city": "温州市",
            "district": "瓯海区"
        }
    },
    {
        "id": "16904820977812835538",
        "title": "公共厕所",
        "address": "浙江省温州市乐清市三里一路与兴达路交叉口正北方向79米左右",
        "tel": "",
        "category": "基础设施:公共设施:公共厕所",
        "type": 0,
        "location": {
            "lat": 28.039825,
            "lng": 120.896591
        },
        "ad_info": {
            "adcode": 330382,
            "province": "浙江省",
            "city": "温州市",
            "district": "乐清市"
        }
    },
    {
        "id": "255327548140779572",
        "title": "公共厕所",
        "address": "浙江省温州市龙港市沿江路与西三街交叉口西北方向43米左右",
        "tel": "",
        "category": "基础设施:公共设施:公共厕所",
        "type": 0,
        "location": {
            "lat": 27.582838,
            "lng": 120.533337
        },
        "ad_info": {
            "adcode": 330383,
            "province": "浙江省",
            "city": "温州市",
            "district": "龙港市"
        }
    },
    {
        "id": "15015045891046644082",
        "title": "公共厕所",
        "address": "浙江省温州市平阳县兴鳌东路与技校街交叉口东北方向71米左右",
        "tel": "",
        "category": "基础设施:公共设施:公共厕所",
        "type": 0,
        "location": {
            "lat": 27.600586,
            "lng": 120.557855
        },
        "ad_info": {
            "adcode": 330326,
            "province": "浙江省",
            "city": "温州市",
            "district": "平阳县"
        }
    },
    {
        "id": "6323892874388785455",
        "title": "公共厕所",
        "address": "浙江省温州市瑞安市时代路与罗凤西路交叉口西北方向44米左右",
        "tel": "",
        "category": "基础设施:公共设施:公共厕所",
        "type": 0,
        "location": {
            "lat": 27.839052,
            "lng": 120.65521
        },
        "ad_info": {
            "adcode": 330381,
            "province": "浙江省",
            "city": "温州市",
            "district": "瑞安市"
        }
    },
    {
        "id": "9006268307843043875",
        "title": "公共厕所",
        "address": "浙江省温州市鹿城区解放街99正西方向40米",
        "tel": "",
        "category": "基础设施:公共设施:公共厕所",
        "type": 0,
        "location": {
            "lat": 28.012474,
            "lng": 120.661249
        },
        "ad_info": {
            "adcode": 330302,
            "province": "浙江省",
            "city": "温州市",
            "district": "鹿城区"
        }
    },
    {
        "id": "2706767456147146731",
        "title": "公共厕所",
        "address": "浙江省温州市鹿城区环城东路与瓯江路交叉口正南方向34米左右",
        "tel": "",
        "category": "基础设施:公共设施:公共厕所",
        "type": 0,
        "location": {
            "lat": 28.024657,
            "lng": 120.661278
        },
        "ad_info": {
            "adcode": 330302,
            "province": "浙江省",
            "city": "温州市",
            "district": "鹿城区"
        }
    },
    {
        "id": "7830265772876350201",
        "title": "公共厕所",
        "address": "浙江省温州市龙湾区刘宅二路与罗东南街交叉口东南方向173米左右",
        "tel": "",
        "category": "基础设施:公共设施:公共厕所",
        "type": 0,
        "location": {
            "lat": 27.883572,
            "lng": 120.801854
        },
        "ad_info": {
            "adcode": 330303,
            "province": "浙江省",
            "city": "温州市",
            "district": "龙湾区"
        }
    },
    {
        "id": "2611938787920229693",
        "title": "公共厕所",
        "address": "浙江省温州市永嘉县广源东路与新宅路交叉口正西方向97米左右",
        "tel": "",
        "category": "基础设施:公共设施:公共厕所",
        "type": 0,
        "location": {
            "lat": 28.027771,
            "lng": 120.790057
        },
        "ad_info": {
            "adcode": 330324,
            "province": "浙江省",
            "city": "温州市",
            "district": "永嘉县"
        }
    },
    {
        "id": "17100325812050601103",
        "title": "公共厕所",
        "address": "浙江省温州市鹿城区瓯江路曼哈屯小区西门",
        "tel": "",
        "category": "基础设施:公共设施:公共厕所",
        "type": 0,
        "location": {
            "lat": 28.023282,
            "lng": 120.670818
        },
        "ad_info": {
            "adcode": 330302,
            "province": "浙江省",
            "city": "温州市",
            "district": "鹿城区"
        }
    },
    {
        "id": "12395211557273050762",
        "title": "公共厕所",
        "address": "浙江省温州市瓯海区富强东路与豪达路交叉口正东方向105米左右",
        "tel": "",
        "category": "基础设施:公共设施:公共厕所",
        "type": 0,
        "location": {
            "lat": 27.990699,
            "lng": 120.548655
        },
        "ad_info": {
            "adcode": 330304,
            "province": "浙江省",
            "city": "温州市",
            "district": "瓯海区"
        }
    },
    {
        "id": "7240984202866265553",
        "title": "公共厕所",
        "address": "浙江省温州市鹿城区温州大道与车站大道交叉口东南方向176米左右",
        "tel": "",
        "category": "基础设施:公共设施:公共厕所",
        "type": 0,
        "location": {
            "lat": 27.980975,
            "lng": 120.686237
        },
        "ad_info": {
            "adcode": 330302,
            "province": "浙江省",
            "city": "温州市",
            "district": "鹿城区"
        }
    },
    {
        "id": "8195671432068605244",
        "title": "肯德基(柳市柳青餐厅)-洗手间",
        "address": "浙江省温州市乐清市惠丰西路与柳青南路交叉口正北方向45米左右",
        "tel": "",
        "category": "基础设施:公共设施:公共厕所",
        "type": 0,
        "location": {
            "lat": 28.046439,
            "lng": 120.896679
        },
        "ad_info": {
            "adcode": 330382,
            "province": "浙江省",
            "city": "温州市",
            "district": "乐清市"
        }
    },
    {
        "id": "14095083228268569477",
        "title": "公共厕所",
        "address": "浙江省温州市瓯海区兴业路与埭河路交叉口正西方向118米左右",
        "tel": "",
        "category": "基础设施:公共设施:公共厕所",
        "type": 0,
        "location": {
            "lat": 27.986657,
            "lng": 120.539134
        },
        "ad_info": {
            "adcode": 330304,
            "province": "浙江省",
            "city": "温州市",
            "district": "瓯海区"
        }
    },
    {
        "id": "15419109142356015175",
        "title": "公共厕所",
        "address": "浙江省温州市鹿城区百里东路安平大厦(三官殿巷)",
        "tel": "",
        "category": "基础设施:公共设施:公共厕所",
        "type": 0,
        "location": {
            "lat": 28.01965,
            "lng": 120.650447
        },
        "ad_info": {
            "adcode": 330302,
            "province": "浙江省",
            "city": "温州市",
            "district": "鹿城区"
        }
    },
    {
        "id": "7937993705361747167",
        "title": "公共厕所",
        "address": "浙江省温州市乐清市北白象枢纽奥特莱斯",
        "tel": "",
        "category": "基础设施:公共设施:公共厕所",
        "type": 0,
        "location": {
            "lat": 28.021943,
            "lng": 120.819476
        },
        "ad_info": {
            "adcode": 330382,
            "province": "浙江省",
            "city": "温州市",
            "district": "乐清市"
        }
    },
    {
        "id": "16850363994224188504",
        "title": "公共厕所",
        "address": "浙江省温州市鹿城区腾跃路与鞋都大道交叉口正东方向280米左右",
        "tel": "",
        "category": "基础设施:公共设施:公共厕所",
        "type": 0,
        "location": {
            "lat": 28.042917,
            "lng": 120.593023
        },
        "ad_info": {
            "adcode": 330302,
            "province": "浙江省",
            "city": "温州市",
            "district": "鹿城区"
        }
    },
    {
        "id": "12443774216167790365",
        "title": "公共厕所",
        "address": "浙江省温州市平阳县兴鳌中路140-144号",
        "tel": "",
        "category": "基础设施:公共设施:公共厕所",
        "type": 0,
        "location": {
            "lat": 27.59951,
            "lng": 120.550847
        },
        "ad_info": {
            "adcode": 330326,
            "province": "浙江省",
            "city": "温州市",
            "district": "平阳县"
        }
    },
    {
        "id": "1965978807664322873",
        "title": "公共厕所",
        "address": "浙江省温州市瓯海区榕霞路与瓯海大道辅道交叉口西南60米",
        "tel": "",
        "category": "基础设施:公共设施:公共厕所",
        "type": 0,
        "location": {
            "lat": 27.964684,
            "lng": 120.628802
        },
        "ad_info": {
            "adcode": 330304,
            "province": "浙江省",
            "city": "温州市",
            "district": "瓯海区"
        }
    },
    {
        "id": "15799521786045200415",
        "title": "公共厕所",
        "address": "浙江省温州市乐清市纬十八路与经六路交叉口正北方向75米左右",
        "tel": "",
        "category": "基础设施:公共设施:公共厕所",
        "type": 0,
        "location": {
            "lat": 28.052148,
            "lng": 120.996479
        },
        "ad_info": {
            "adcode": 330382,
            "province": "浙江省",
            "city": "温州市",
            "district": "乐清市"
        }
    },
    {
        "id": "7875571605830351402",
        "title": "公共厕所",
        "address": "浙江省温州市瓯海区潘桥街道马桥村卫生室西侧240米",
        "tel": "",
        "category": "基础设施:公共设施:公共厕所",
        "type": 0,
        "location": {
            "lat": 27.94419,
            "lng": 120.56471
        },
        "ad_info": {
            "adcode": 330304,
            "province": "浙江省",
            "city": "温州市",
            "district": "瓯海区"
        }
    },
    {
        "id": "16904820977812835538",
        "title": "公共厕所",
        "address": "浙江省温州市乐清市三里一路与兴达路交叉口正北方向79米左右",
        "tel": "",
        "category": "基础设施:公共设施:公共厕所",
        "type": 0,
        "location": {
            "lat": 28.039825,
            "lng": 120.896591
        },
        "ad_info": {
            "adcode": 330382,
            "province": "浙江省",
            "city": "温州市",
            "district": "乐清市"
        }
    },
    {
        "id": "255327548140779572",
        "title": "公共厕所",
        "address": "浙江省温州市龙港市沿江路与西三街交叉口西北方向43米左右",
        "tel": "",
        "category": "基础设施:公共设施:公共厕所",
        "type": 0,
        "location": {
            "lat": 27.582838,
            "lng": 120.533337
        },
        "ad_info": {
            "adcode": 330383,
            "province": "浙江省",
            "city": "温州市",
            "district": "龙港市"
        }
    },
    {
        "id": "15015045891046644082",
        "title": "公共厕所",
        "address": "浙江省温州市平阳县兴鳌东路与技校街交叉口东北方向71米左右",
        "tel": "",
        "category": "基础设施:公共设施:公共厕所",
        "type": 0,
        "location": {
            "lat": 27.600586,
            "lng": 120.557855
        },
        "ad_info": {
            "adcode": 330326,
            "province": "浙江省",
            "city": "温州市",
            "district": "平阳县"
        }
    },
    {
        "id": "6323892874388785455",
        "title": "公共厕所",
        "address": "浙江省温州市瑞安市时代路与罗凤西路交叉口西北方向44米左右",
        "tel": "",
        "category": "基础设施:公共设施:公共厕所",
        "type": 0,
        "location": {
            "lat": 27.839052,
            "lng": 120.65521
        },
        "ad_info": {
            "adcode": 330381,
            "province": "浙江省",
            "city": "温州市",
            "district": "瑞安市"
        }
    },
    {
        "id": "9006268307843043875",
        "title": "公共厕所",
        "address": "浙江省温州市鹿城区解放街99正西方向40米",
        "tel": "",
        "category": "基础设施:公共设施:公共厕所",
        "type": 0,
        "location": {
            "lat": 28.012474,
            "lng": 120.661249
        },
        "ad_info": {
            "adcode": 330302,
            "province": "浙江省",
            "city": "温州市",
            "district": "鹿城区"
        }
    },
    {
        "id": "2706767456147146731",
        "title": "公共厕所",
        "address": "浙江省温州市鹿城区环城东路与瓯江路交叉口正南方向34米左右",
        "tel": "",
        "category": "基础设施:公共设施:公共厕所",
        "type": 0,
        "location": {
            "lat": 28.024657,
            "lng": 120.661278
        },
        "ad_info": {
            "adcode": 330302,
            "province": "浙江省",
            "city": "温州市",
            "district": "鹿城区"
        }
    },