[
    {
        "id": "2613970086504598989",
        "title": "公共厕所",
        "address": "湖南省湘潭市岳塘区建设南路与湘潭大道交叉口正西方向69米左右",
        "tel": "",
        "category": "基础设施:公共设施:公共厕所",
        "type": 0,
        "location": {
            "lat": 27.82433,
            "lng": 112.925136
        },
        "ad_info": {
            "adcode": 430304,
            "province": "湖南省",
            "city": "湘潭市",
            "district": "岳塘区"
        }
    },
    {
        "id": "5838801401158634524",
        "title": "公共厕所",
        "address": "湖南省湘潭市岳塘区建设中路与福星中路交叉口正西方向96米左右",
        "tel": "",
        "category": "基础设施:公共设施:公共厕所",
        "type": 0,
        "location": {
            "lat": 27.840015,
            "lng": 112.915216
        },
        "ad_info": {
            "adcode": 430304,
            "province": "湖南省",
            "city": "湘潭市",
            "district": "岳塘区"
        }
    },
    {
        "id": "5363928702731442982",
        "title": "公共厕所",
        "address": "湖南省湘潭市岳塘区火炬中路与高新路交叉口西北方向214米左右",
        "tel": "",
        "category": "基础设施:公共设施:公共厕所",
        "type": 0,
        "location": {
            "lat": 27.837932,
            "lng": 112.950191
        },
        "ad_info": {
            "adcode": 430304,
            "province": "湖南省",
            "city": "湘潭市",
            "district": "岳塘区"
        }
    },
    {
        "id": "1289548868779477785",
        "title": "公共厕所",
        "address": "湖南省湘潭市雨湖区建设北路与韶山中路交叉口东南方向166米左右",
        "tel": "",
        "category": "基础设施:公共设施:公共厕所",
        "type": 0,
        "location": {
            "lat": 27.86188,
            "lng": 112.906458
        },
        "ad_info": {
            "adcode": 430302,
            "province": "湖南省",
            "city": "湘潭市",
            "district": "雨湖区"
        }
    },
    {
        "id": "11302109934632451145",
        "title": "公共厕所",
        "address": "湖南省湘潭市雨湖区杉山路与立志路交叉口西南方向211米左右",
        "tel": "",
        "category": "基础设施:公共设施:公共厕所",
        "type": 0,
        "location": {
            "lat": 27.933212,
            "lng": 112.929844
        },
        "ad_info": {
            "adcode": 430302,
            "province": "湖南省",
            "city": "湘潭市",
            "district": "雨湖区"
        }
    },
    {
        "id": "13769819590516802761",
        "title": "公共厕所",
        "address": "湖南省湘潭市岳塘区岚霞路与河东大道交叉口东南方向204米左右",
        "tel": "",
        "category": "基础设施:公共设施:公共厕所",
        "type": 0,
        "location": {
            "lat": 27.832404,
            "lng": 112.917131
        },
        "ad_info": {
            "adcode": 430304,
            "province": "湖南省",
            "city": "湘潭市",
            "district": "岳塘区"
        }
    },
    {
        "id": "12303952248067020651",
        "title": "公共厕所",
        "address": "湖南省湘潭市雨湖区建设北路与民主路交叉口东南方向143米左右",
        "tel": "",
        "category": "基础设施:公共设施:公共厕所",
        "type": 0,
        "location": {
            "lat": 27.858088,
            "lng": 112.907571
        },
        "ad_info": {
            "adcode": 430302,
            "province": "湖南省",
            "city": "湘潭市",
            "district": "雨湖区"
        }
    },
    {
        "id": "14001258938315864359",
        "title": "公共厕所",
        "address": "湖南省湘潭市雨湖区北二环路与新湘路交叉口西南方向190米左右",
        "tel": "",
        "category": "基础设施:公共设施:公共厕所",
        "type": 0,
        "location": {
            "lat": 27.878146,
            "lng": 112.869921
        },
        "ad_info": {
            "adcode": 430302,
            "province": "湖南省",
            "city": "湘潭市",
            "district": "雨湖区"
        }
    },
    {
        "id": "18330125432203623827",
        "title": "公共厕所",
        "address": "湖南省湘潭市雨湖区湘望路与立志路交叉口西南方向144米左右",
        "tel": "",
        "category": "基础设施:公共设施:公共厕所",
        "type": 0,
        "location": {
            "lat": 27.933969,
            "lng": 112.933705
        },
        "ad_info": {
            "adcode": 430302,
            "province": "湖南省",
            "city": "湘潭市",
            "district": "雨湖区"
        }
    },
    {
        "id": "3697571528945798732",
        "title": "公共厕所",
        "address": "湖南省湘潭市雨湖区大新路与学府路辅路交叉口正东方向76米左右",
        "tel": "",
        "category": "基础设施:公共设施:公共厕所",
        "type": 0,
        "location": {
            "lat": 27.90262,
            "lng": 112.932387
        },
        "ad_info": {
            "adcode": 430302,
            "province": "湖南省",
            "city": "湘潭市",
            "district": "雨湖区"
        }
    },
    {
        "id": "7806425515173446549",
        "title": "公共厕所",
        "address": "湖南省湘潭市雨湖区潭邵路与韶山西路交叉口东北方向51米左右",
        "tel": "",
        "category": "基础设施:公共设施:公共厕所",
        "type": 0,
        "location": {
            "lat": 27.858138,
            "lng": 112.883311
        },
        "ad_info": {
            "adcode": 430302,
            "province": "湖南省",
            "city": "湘潭市",
            "district": "雨湖区"
        }
    },
    {
        "id": "1689547342127657203",
        "title": "公共厕所",
        "address": "湖南省湘潭市岳塘区双拥中路与双拥北路交叉口东南方向98米左右",
        "tel": "",
        "category": "基础设施:公共设施:公共厕所",
        "type": 0,
        "location": {
            "lat": 27.844069,
            "lng": 112.947669
        },
        "ad_info": {
            "adcode": 430304,
            "province": "湖南省",
            "city": "湘潭市",
            "district": "岳塘区"
        }
    },
    {
        "id": "5658557339639813941",
        "title": "公共厕所",
        "address": "湖南省湘潭市雨湖区建设北路与忠义路交叉口正西方向86米左右",
        "tel": "",
        "category": "基础设施:公共设施:公共厕所",
        "type": 0,
        "location": {
            "lat": 27.869946,
            "lng": 112.902383
        },
        "ad_info": {
            "adcode": 430302,
            "province": "湖南省",
            "city": "湘潭市",
            "district": "雨湖区"
        }
    },
    {
        "id": "15321340463617428616",
        "title": "公共厕所",
        "address": "湖南省湘潭市雨湖区护潭路与金塘路交叉口东北方向659米左右",
        "tel": "",
        "category": "基础设施:公共设施:公共厕所",
        "type": 0,
        "location": {
            "lat": 27.891599,
            "lng": 112.909428
        },
        "ad_info": {
            "adcode": 430302,
            "province": "湖南省",
            "city": "湘潭市",
            "district": "雨湖区"
        }
    },
    {
        "id": "18370945797786848749",
        "title": "公共厕所",
        "address": "湖南省湘潭市雨湖区和平桥巷蔚霞新村",
        "tel": "",
        "category": "基础设施:公共设施:公共厕所",
        "type": 0,
        "location": {
            "lat": 27.863476,
            "lng": 112.917422
        },
        "ad_info": {
            "adcode": 430302,
            "province": "湖南省",
            "city": "湘潭市",
            "district": "雨湖区"
        }
    },
    {
        "id": "11164805658069873507",
        "title": "公共厕所",
        "address": "湖南省湘潭市雨湖区宝丰街与庆丰横巷交叉口正南方向63米左右",
        "tel": "",
        "category": "基础设施:公共设施:公共厕所",
        "type": 0,
        "location": {
            "lat": 27.853834,
            "lng": 112.887794
        },
        "ad_info": {
            "adcode": 430302,
            "province": "湖南省",
            "city": "湘潭市",
            "district": "雨湖区"
        }
    },
    {
        "id": "4742756250576217055",
        "title": "公共厕所",
        "address": "湖南省湘潭市雨湖区白马湖路与迎宾东路交叉口正北方向102米左右",
        "tel": "",
        "category": "基础设施:公共设施:公共厕所",
        "type": 0,
        "location": {
            "lat": 27.858747,
            "lng": 112.898775
        },
        "ad_info": {
            "adcode": 430302,
            "province": "湖南省",
            "city": "湘潭市",
            "district": "雨湖区"
        }
    },
    {
        "id": "17538720747899218128",
        "title": "公共厕所",
        "address": "湖南省湘潭市雨湖区新湘路湘潭农产品物流配送中心",
        "tel": "",
        "category": "基础设施:公共设施:公共厕所",
        "type": 0,
        "location": {
            "lat": 27.863327,
            "lng": 112.870545
        },
        "ad_info": {
            "adcode": 430302,
            "province": "湖南省",
            "city": "湘潭市",
            "district": "雨湖区"
        }
    },
    {
        "id": "11683463550158800700",
        "title": "公共厕所",
        "address": "湖南省湘潭市雨湖区建设北路与韶山中路交叉口正南方向212米左右",
        "tel": "",
        "category": "基础设施:公共设施:公共厕所",
        "type": 0,
        "location": {
            "lat": 27.861153,
            "lng": 112.905735
        },
        "ad_info": {
            "adcode": 430302,
            "province": "湖南省",
            "city": "湘潭市",
            "district": "雨湖区"
        }
    },
    {
        "id": "8352641373934258788",
        "title": "公共厕所",
        "address": "湖南省湘潭市岳塘区望月路与湘潭大道交叉口西北方向127米左右",
        "tel": "",
        "category": "基础设施:公共设施:公共厕所",
        "type": 0,
        "location": {
            "lat": 27.829152,
            "lng": 112.940536
        },
        "ad_info": {
            "adcode": 430304,
            "province": "湖南省",
            "city": "湘潭市",
            "district": "岳塘区"
        }
    },
    {
        "id": "14537631501214759219",
        "title": "公共厕所",
        "address": "湖南省湘潭市岳塘区建设南路与莲城商业步行街交叉口正东方向84米左右",
        "tel": "",
        "category": "基础设施:公共设施:公共厕所",
        "type": 0,
        "location": {
            "lat": 27.832148,
            "lng": 112.921102
        },
        "ad_info": {
            "adcode": 430304,
            "province": "湖南省",
            "city": "湘潭市",
            "district": "岳塘区"
        }
    },
    {
        "id": "12284438311359228822",
        "title": "公共厕所",
        "address": "湖南省湘潭市雨湖区旭东巷与雨湖路交叉口西北方向87米左右",
        "tel": "",
        "category": "基础设施:公共设施:公共厕所",
        "type": 0,
        "location": {
            "lat": 27.858322,
            "lng": 112.909121
        },
        "ad_info": {
            "adcode": 430302,
            "province": "湖南省",
            "city": "湘潭市",
            "district": "雨湖区"
        }
    },
    {
        "id": "10044868693935800284",
        "title": "公共厕所",
        "address": "湖南省湘潭市岳塘区建设南路莲城步行街一期C3栋1楼",
        "tel": "",
        "category": "基础设施:公共设施:公共厕所",
        "type": 0,
        "location": {
            "lat": 27.830777,
            "lng": 112.919303
        },
        "ad_info": {
            "adcode": 430304,
            "province": "湖南省",
            "city": "湘潭市",
            "district": "岳塘区"
        }
    },
    {
        "id": "5129812016487648866",
        "title": "公共厕所",
        "address": "湖南省湘潭市湘潭县云龙东路与荷花中路交叉口正东方向85米左右",
        "tel": "",
        "category": "基础设施:公共设施:公共厕所",
        "type": 0,
        "location": {
            "lat": 27.773278,
            "lng": 112.965415
        },
        "ad_info": {
            "adcode": 430321,
            "province": "湖南省",
            "city": "湘潭市",
            "district": "湘潭县"
        }
    },
    {
        "id": "6531859679380614625",
        "title": "公共厕所",
        "address": "湖南省湘潭市雨湖区平政路与南步街交叉口西160米",
        "tel": "",
        "category": "基础设施:公共设施:公共厕所",
        "type": 0,
        "location": {
            "lat": 27.856938,
            "lng": 112.914132
        },
        "ad_info": {
            "adcode": 430302,
            "province": "湖南省",
            "city": "湘潭市",
            "district": "雨湖区"
        }
    },
    {
        "id": "11524767551693246116",
        "title": "公共厕所",
        "address": "湖南省湘潭市岳塘区宝塔中路与霞光路交叉口正东方向115米左右",
        "tel": "",
        "category": "基础设施:公共设施:公共厕所",
        "type": 0,
        "location": {
            "lat": 27.832501,
            "lng": 112.931298
        },
        "ad_info": {
            "adcode": 430304,
            "province": "湖南省",
            "city": "湘潭市",
            "district": "岳塘区"
        }
    },
    {
        "id": "3571145754593068351",
        "title": "公共厕所",
        "address": "湖南省湘潭市雨湖区广云东路与车站路交叉口东南方向30米左右",
        "tel": "",
        "category": "基础设施:公共设施:公共厕所",
        "type": 0,
        "location": {
            "lat": 27.869154,
            "lng": 112.911896
        },
        "ad_info": {
            "adcode": 430302,
            "province": "湖南省",
            "city": "湘潭市",
            "district": "雨湖区"
        }
    },
    {
        "id": "6589076382713359094",
        "title": "公共厕所",
        "address": "湖南省湘潭市雨湖区杨家湾路与繁湖路交叉口正西方向152米左右",
        "tel": "",
        "category": "基础设施:公共设施:公共厕所",
        "type": 0,
        "location": {
            "lat": 27.868166,
            "lng": 112.914479
        },
        "ad_info": {
            "adcode": 430302,
            "province": "湖南省",
            "city": "湘潭市",
            "district": "雨湖区"
        }
    },
    {
        "id": "260591927260824730",
        "title": "公共厕所",
        "address": "湖南省湘潭市雨湖区平政路与南步街交叉口西南140米",
        "tel": "",
        "category": "基础设施:公共设施:公共厕所",
        "type": 0,
        "location": {
            "lat": 27.855859,
            "lng": 112.915002
        },
        "ad_info": {
            "adcode": 430302,
            "province": "湖南省",
            "city": "湘潭市",
            "district": "雨湖区"
        }
    },
    {
        "id": "14029347267239434246",
        "title": "公共厕所",
        "address": "湖南省湘潭市雨湖区解放北路与解放南路交叉口东南方向225米左右",
        "tel": "",
        "category": "基础设施:公共设施:公共厕所",
        "type": 0,
        "location": {
            "lat": 27.860575,
            "lng": 112.903095
        },
        "ad_info": {
            "adcode": 430302,
            "province": "湖南省",
            "city": "湘潭市",
            "district": "雨湖区"
        }
    },
    {
        "id": "7509409311634643504",
        "title": "公共厕所",
        "address": "湖南省湘潭市雨湖区解放北路与解放南路交叉口正南方向131米左右",
        "tel": "",
        "category": "基础设施:公共设施:公共厕所",
        "type": 0,
        "location": {
            "lat": 27.861083,
            "lng": 112.90118
        },
        "ad_info": {
            "adcode": 430302,
            "province": "湖南省",
            "city": "湘潭市",
            "district": "雨湖区"
        }
    },
    {
        "id": "14695522654069751470",
        "title": "公共厕所",
        "address": "湖南省湘潭市雨湖区城正街与学坪路交叉口正西方向93米左右",
        "tel": "",
        "category": "基础设施:公共设施:公共厕所",
        "type": 0,
        "location": {
            "lat": 27.86037,
            "lng": 112.921065
        },
        "ad_info": {
            "adcode": 430302,
            "province": "湖南省",
            "city": "湘潭市",
            "district": "雨湖区"
        }
    },
    {
        "id": "8508181610086848725",
        "title": "公共厕所",
        "address": "湖南省湘潭市雨湖区大湖街与绿化巷交叉口西北方向83米左右",
        "tel": "",
        "category": "基础设施:公共设施:公共厕所",
        "type": 0,
        "location": {
            "lat": 27.855533,
            "lng": 112.901942
        },
        "ad_info": {
            "adcode": 430302,
            "province": "湖南省",
            "city": "湘潭市",
            "district": "雨湖区"
        }
    },
    {
        "id": "13394260969467375261",
        "title": "公共厕所",
        "address": "湖南省湘潭市岳塘区滨江中路湘江风光带(东侧)",
        "tel": "",
        "category": "基础设施:公共设施:公共厕所",
        "type": 0,
        "location": {
            "lat": 27.851068,
            "lng": 112.921136
        },
        "ad_info": {
            "adcode": 430304,
            "province": "湖南省",
            "city": "湘潭市",
            "district": "岳塘区"
        }
    },
    {
        "id": "5837417105562283735",
        "title": "公共厕所",
        "address": "湖南省湘潭市雨湖区城正街与泗洲庵巷交叉口西北方向32米左右",
        "tel": "",
        "category": "基础设施:公共设施:公共厕所",
        "type": 0,
        "location": {
            "lat": 27.861956,
            "lng": 112.924615
        },
        "ad_info": {
            "adcode": 430302,
            "province": "湖南省",
            "city": "湘潭市",
            "district": "雨湖区"
        }
    },
    {
        "id": "8516599038728684865",
        "title": "公共厕所",
        "address": "湖南省湘潭市雨湖区吉利西路与湘望路交叉口东南方向85米左右",
        "tel": "",
        "category": "基础设施:公共设施:公共厕所",
        "type": 0,
        "location": {
            "lat": 27.929355,
            "lng": 112.936175
        },
        "ad_info": {
            "adcode": 430302,
            "province": "湖南省",
            "city": "湘潭市",
            "district": "雨湖区"
        }
    },
    {
        "id": "4637086660610123179",
        "title": "公共厕所",
        "address": "湖南省湘潭市雨湖区白马湖路与韶山西路交叉口西南方向109米左右",
        "tel": "",
        "category": "基础设施:公共设施:公共厕所",
        "type": 0,
        "location": {
            "lat": 27.860204,
            "lng": 112.895912
        },
        "ad_info": {
            "adcode": 430302,
            "province": "湖南省",
            "city": "湘潭市",
            "district": "雨湖区"
        }
    },
    {
        "id": "14870763349056934462",
        "title": "公共厕所",
        "address": "湖南省湘潭市岳塘区火炬中路电厂新村(芙蓉中路)",
        "tel": "",
        "category": "基础设施:公共设施:公共厕所",
        "type": 0,
        "location": {
            "lat": 27.830706,
            "lng": 112.952592
        },
        "ad_info": {
            "adcode": 430304,
            "province": "湖南省",
            "city": "湘潭市",
            "district": "岳塘区"
        }
    },
    {
        "id": "6098496345967354407",
        "title": "公共厕所",
        "address": "湖南省湘潭市雨湖区民主路与绿化巷交叉口西北方向37米左右",
        "tel": "",
        "category": "基础设施:公共设施:公共厕所",
        "type": 0,
        "location": {
            "lat": 27.856311,
            "lng": 112.900882
        },
        "ad_info": {
            "adcode": 430302,
            "province": "湖南省",
            "city": "湘潭市",
            "district": "雨湖区"
        }
    },
    {
        "id": "9918752551614638229",
        "title": "公共厕所",
        "address": "湖南省湘潭市岳塘区湘潭大道湘潭汽车东站",
        "tel": "",
        "category": "基础设施:公共设施:公共厕所",
        "type": 0,
        "location": {
            "lat": 27.831226,
            "lng": 112.960469
        },
        "ad_info": {
            "adcode": 430304,
            "province": "湖南省",
            "city": "湘潭市",
            "district": "岳塘区"
        }
    },
    {
        "id": "2560812939455280557",
        "title": "公共厕所",
        "address": "湖南省湘潭市岳塘区三角坪西路与东湖西路交叉口正北方向141米左右",
        "tel": "",
        "category": "基础设施:公共设施:公共厕所",
        "type": 0,
        "location": {
            "lat": 27.845186,
            "lng": 112.913036
        },
        "ad_info": {
            "adcode": 430304,
            "province": "湖南省",
            "city": "湘潭市",
            "district": "岳塘区"
        }
    },
    {
        "id": "11161798997820474610",
        "title": "公共厕所",
        "address": "湖南省湘潭市岳塘区下摄司街与半边街交叉口正东方向73米左右",
        "tel": "",
        "category": "基础设施:公共设施:公共厕所",
        "type": 0,
        "location": {
            "lat": 27.803727,
            "lng": 112.929021
        },
        "ad_info": {
            "adcode": 430304,
            "province": "湖南省",
            "city": "湘潭市",
            "district": "岳塘区"
        }
    },
    {
        "id": "2132262128087614119",
        "title": "公共厕所",
        "address": "湖南省湘潭市雨湖区工人新村巷与雨湖路交叉口正北方向76米左右",
        "tel": "",
        "category": "基础设施:公共设施:公共厕所",
        "type": 0,
        "location": {
            "lat": 27.860101,
            "lng": 112.912341
        },
        "ad_info": {
            "adcode": 430302,
            "province": "湖南省",
            "city": "湘潭市",
            "district": "雨湖区"
        }
    },
    {
        "id": "9254093765410793732",
        "title": "公共厕所",
        "address": "湖南省湘潭市雨湖区宝庆路69号",
        "tel": "",
        "category": "基础设施:公共设施:公共厕所",
        "type": 0,
        "location": {
            "lat": 27.850916,
            "lng": 112.889576
        },
        "ad_info": {
            "adcode": 430302,
            "province": "湖南省",
            "city": "湘潭市",
            "district": "雨湖区"
        }
    },
    {
        "id": "4463653541956035343",
        "title": "公共厕所",
        "address": "湖南省湘潭市岳塘区宝塔北路与滨江中路交叉口正东方向588米左右",
        "tel": "",
        "category": "基础设施:公共设施:公共厕所",
        "type": 0,
        "location": {
            "lat": 27.85437,
            "lng": 112.930918
        },
        "ad_info": {
            "adcode": 430304,
            "province": "湖南省",
            "city": "湘潭市",
            "district": "岳塘区"
        }
    },
    {
        "id": "6983193201468858590",
        "title": "公共厕所",
        "address": "湖南省湘潭市岳塘区书院中路与双拥南路交叉口正西方向285米左右",
        "tel": "",
        "category": "基础设施:公共设施:公共厕所",
        "type": 0,
        "location": {
            "lat": 27.814304,
            "lng": 112.945721
        },
        "ad_info": {
            "adcode": 430304,
            "province": "湖南省",
            "city": "湘潭市",
            "district": "岳塘区"
        }
    },
    {
        "id": "323513535711336131",
        "title": "公共厕所",
        "address": "湖南省湘潭市岳塘区峨眉路与泉心塘路交叉口正东方向47米左右",
        "tel": "",
        "category": "基础设施:公共设施:公共厕所",
        "type": 0,
        "location": {
            "lat": 27.810711,
            "lng": 112.919267
        },
        "ad_info": {
            "adcode": 430304,
            "province": "湖南省",
            "city": "湘潭市",
            "district": "岳塘区"
        }
    },
    {
        "id": "269497772615538760",
        "title": "公共厕所",
        "address": "湖南省湘潭市岳塘区华雅路与电工北路交叉口西北方向85米左右",
        "tel": "",
        "category": "基础设施:公共设施:公共厕所",
        "type": 0,
        "location": {
            "lat": 27.811266,
            "lng": 112.932184
        },
        "ad_info": {
            "adcode": 430304,
            "province": "湖南省",
            "city": "湘潭市",
            "district": "岳塘区"
        }
    },
    {
        "id": "9291182438036926586",
        "title": "公共厕所",
        "address": "湖南省湘潭市岳塘区宝塔中路与宝塔南路交叉口正西方向197米左右",
        "tel": "",
        "category": "基础设施:公共设施:公共厕所",
        "type": 0,
        "location": {
            "lat": 27.827017,
            "lng": 112.930225
        },
        "ad_info": {
            "adcode": 430304,
            "province": "湖南省",
            "city": "湘潭市",
            "district": "岳塘区"
        }
    },
    {
        "id": "14825974409632543422",
        "title": "公共厕所",
        "address": "湖南省湘潭市岳塘区板马路与湘潭大道交叉口正北方向76米左右",
        "tel": "",
        "category": "基础设施:公共设施:公共厕所",
        "type": 0,
        "location": {
            "lat": 27.844831,
            "lng": 113.011594
        },
        "ad_info": {
            "adcode": 430304,
            "province": "湖南省",
            "city": "湘潭市",
            "district": "岳塘区"
        }
    },
    {
        "id": "2891581859356463761",
        "title": "公共厕所",
        "address": "湖南省湘潭市雨湖区G320与X031交叉口正东方向1136米左右",
        "tel": "",
        "category": "基础设施:公共设施:公共厕所",
        "type": 0,
        "location": {
            "lat": 27.850576,
            "lng": 112.784174
        },
        "ad_info": {
            "adcode": 430302,
            "province": "湖南省",
            "city": "湘潭市",
            "district": "雨湖区"
        }
    },
    {
        "id": "10442051875721838997",
        "title": "公共卫生间",
        "address": "湖南省湘潭市湘潭县滨江中路生活垃圾中转站",
        "tel": "",
        "category": "基础设施:公共设施:公共厕所",
        "type": 0,
        "location": {
            "lat": 27.794318,
            "lng": 112.962639
        },
        "ad_info": {
            "adcode": 430321,
            "province": "湖南省",
            "city": "湘潭市",
            "district": "湘潭县"
        }
    },
    {
        "id": "10075636027294184364",
        "title": "公共厕所",
        "address": "湖南省湘潭市岳塘区东坪路与树荣巷交叉口正南方向26米左右",
        "tel": "",
        "category": "基础设施:公共设施:公共厕所",
        "type": 0,
        "location": {
            "lat": 27.842739,
            "lng": 112.903397
        },
        "ad_info": {
            "adcode": 430304,
            "province": "湖南省",
            "city": "湘潭市",
            "district": "岳塘区"
        }
    },
    {
        "id": "5377433176306844307",
        "title": "公共厕所",
        "address": "湖南省湘潭市湘乡市兴枣路与涟清路交叉口西北方向102米左右",
        "tel": "",
        "category": "基础设施:公共设施:公共厕所",
        "type": 0,
        "location": {
            "lat": 27.742562,
            "lng": 112.541249
        },
        "ad_info": {
            "adcode": 430381,
            "province": "湖南省",
            "city": "湘潭市",
            "district": "湘乡市"
        }
    },
    {
        "id": "365229838708556054",
        "title": "公共厕所",
        "address": "湖南省湘潭市岳塘区电工北路89号",
        "tel": "",
        "category": "基础设施:公共设施:公共厕所",
        "type": 0,
        "location": {
            "lat": 27.814432,
            "lng": 112.931934
        },
        "ad_info": {
            "adcode": 430304,
            "province": "湖南省",
            "city": "湘潭市",
            "district": "岳塘区"
        }
    },
    {
        "id": "4147132096728660050",
        "title": "公共厕所",
        "address": "湖南省湘潭市岳塘区指方路与芙蓉大道辅路交叉口东北方向102米左右",
        "tel": "",
        "category": "基础设施:公共设施:公共厕所",
        "type": 0,
        "location": {
            "lat": 27.906773,
            "lng": 113.011765
        },
        "ad_info": {
            "adcode": 430304,
            "province": "湖南省",
            "city": "湘潭市",
            "district": "岳塘区"
        }
    },
    {
        "id": "5287895653666555065",
        "title": "公共厕所",
        "address": "湖南省湘潭市岳塘区东泗路与东湖西路交叉口东南方向156米左右",
        "tel": "",
        "category": "基础设施:公共设施:公共厕所",
        "type": 0,
        "location": {
            "lat": 27.842489,
            "lng": 112.912561
        },
        "ad_info": {
            "adcode": 430304,
            "province": "湖南省",
            "city": "湘潭市",
            "district": "岳塘区"
        }
    },
    {
        "id": "7009946475716772399",
        "title": "公共厕所",
        "address": "湖南省湘潭市湘潭县凤凰东路与贵竹北路交叉口正东方向199米左右",
        "tel": "",
        "category": "基础设施:公共设施:公共厕所",
        "type": 0,
        "location": {
            "lat": 27.792375,
            "lng": 112.97718
        },
        "ad_info": {
            "adcode": 430321,
            "province": "湖南省",
            "city": "湘潭市",
            "district": "湘潭县"
        }
    },
    {
        "id": "4096009943271800852",
        "title": "公共厕所",
        "address": "湖南省湘潭市岳塘区林华路与火炬南路交叉口正北方向123米左右",
        "tel": "",
        "category": "基础设施:公共设施:公共厕所",
        "type": 0,
        "location": {
            "lat": 27.822653,
            "lng": 112.952784
        },
        "ad_info": {
            "adcode": 430304,
            "province": "湖南省",
            "city": "湘潭市",
            "district": "岳塘区"
        }
    },
    {
        "id": "1328466444954154634",
        "title": "公共厕所",
        "address": "湖南省湘潭市岳塘区中洲路与九州巷交叉口正南方向71米左右",
        "tel": "",
        "category": "基础设施:公共设施:公共厕所",
        "type": 0,
        "location": {
            "lat": 27.80501,
            "lng": 112.926085
        },
        "ad_info": {
            "adcode": 430304,
            "province": "湖南省",
            "city": "湘潭市",
            "district": "岳塘区"
        }
    },
    {
        "id": "15799225013584057832",
        "title": "公共厕所",
        "address": "湖南省湘潭市岳塘区下摄司街与燕雀巷交叉口正东方向42米左右",
        "tel": "",
        "category": "基础设施:公共设施:公共厕所",
        "type": 0,
        "location": {
            "lat": 27.807987,
            "lng": 112.927211
        },
        "ad_info": {
            "adcode": 430304,
            "province": "湖南省",
            "city": "湘潭市",
            "district": "岳塘区"
        }
    },
    {
        "id": "7227481174966982011",
        "title": "公共厕所",
        "address": "湖南省湘潭市韶山市红旗路中国石化加油站(韶山市竹鸡站)",
        "tel": "",
        "category": "基础设施:公共设施:公共厕所",
        "type": 0,
        "location": {
            "lat": 27.898953,
            "lng": 112.535805
        },
        "ad_info": {
            "adcode": 430382,
            "province": "湖南省",
            "city": "湘潭市",
            "district": "韶山市"
        }
    },
    {
        "id": "5133205428375514005",
        "title": "公共厕所",
        "address": "湖南省湘潭市湘潭县砚井路湘潭县汽车站",
        "tel": "",
        "category": "基础设施:公共设施:公共厕所",
        "type": 0,
        "location": {
            "lat": 27.780975,
            "lng": 112.941951
        },
        "ad_info": {
            "adcode": 430321,
            "province": "湖南省",
            "city": "湘潭市",
            "district": "湘潭县"
        }
    },
    {
        "id": "14870131983589259164",
        "title": "公共厕所",
        "address": "湖南省湘潭市湘潭县滨江中路与龙江路交叉口正西方向143米左右",
        "tel": "",
        "category": "基础设施:公共设施:公共厕所",
        "type": 0,
        "location": {
            "lat": 27.791664,
            "lng": 112.95308
        },
        "ad_info": {
            "adcode": 430321,
            "province": "湖南省",
            "city": "湘潭市",
            "district": "湘潭县"
        }
    },
    {
        "id": "15197186106458555200",
        "title": "公共厕所",
        "address": "湖南省湘潭市岳塘区纱厂横街与纱厂直街交叉口正北方向54米左右",
        "tel": "",
        "category": "基础设施:公共设施:公共厕所",
        "type": 0,
        "location": {
            "lat": 27.858268,
            "lng": 112.958234
        },
        "ad_info": {
            "adcode": 430304,
            "province": "湖南省",
            "city": "湘潭市",
            "district": "岳塘区"
        }
    },
    {
        "id": "12225162126486478493",
        "title": "公共厕所",
        "address": "湖南省湘潭市岳塘区湘潭大道与电厂路交叉口正西方向112米左右",
        "tel": "",
        "category": "基础设施:公共设施:公共厕所",
        "type": 0,
        "location": {
            "lat": 27.834748,
            "lng": 112.996113
        },
        "ad_info": {
            "adcode": 430304,
            "province": "湖南省",
            "city": "湘潭市",
            "district": "岳塘区"
        }
    },
    {
        "id": "12941399530472209069",
        "title": "公共厕所",
        "address": "湖南省湘潭市湘乡市东山中路与南正街交叉口正北方向68米左右",
        "tel": "",
        "category": "基础设施:公共设施:公共厕所",
        "type": 0,
        "location": {
            "lat": 27.724759,
            "lng": 112.52621
        },
        "ad_info": {
            "adcode": 430381,
            "province": "湖南省",
            "city": "湘潭市",
            "district": "湘乡市"
        }
    },
    {
        "id": "83971580214379474",
        "title": "公共厕所",
        "address": "湖南省湘潭市湘潭县大鹏中路与牡丹路交叉口西北方向32米左右",
        "tel": "",
        "category": "基础设施:公共设施:公共厕所",
        "type": 0,
        "location": {
            "lat": 27.778752,
            "lng": 112.95007
        },
        "ad_info": {
            "adcode": 430321,
            "province": "湖南省",
            "city": "湘潭市",
            "district": "湘潭县"
        }
    },
    {
        "id": "8811215307160284566",
        "title": "公共卫生间",
        "address": "湖南省湘潭市岳塘区沁园路与芙蓉大道交叉口正西方向230米左右",
        "tel": "",
        "category": "基础设施:公共设施:公共厕所",
        "type": 0,
        "location": {
            "lat": 27.874193,
            "lng": 112.968922
        },
        "ad_info": {
            "adcode": 430304,
            "province": "湖南省",
            "city": "湘潭市",
            "district": "岳塘区"
        }
    },
    {
        "id": "973247075974550905",
        "title": "公共厕所",
        "address": "湖南省湘潭市湘潭县X014与X019交叉口正北方向83米左右",
        "tel": "",
        "category": "基础设施:公共设施:公共厕所",
        "type": 0,
        "location": {
            "lat": 27.812318,
            "lng": 112.852804
        },
        "ad_info": {
            "adcode": 430321,
            "province": "湖南省",
            "city": "湘潭市",
            "district": "湘潭县"
        }
    },
    {
        "id": "11184114046686101322",
        "title": "公共厕所",
        "address": "湖南省湘潭市湘潭县海棠北路586号海湾石油加油站内",
        "tel": "",
        "category": "基础设施:公共设施:公共厕所",
        "type": 0,
        "location": {
            "lat": 27.788175,
            "lng": 112.96528
        },
        "ad_info": {
            "adcode": 430321,
            "province": "湖南省",
            "city": "湘潭市",
            "district": "湘潭县"
        }
    },
    {
        "id": "4471489612735139991",
        "title": "公共厕所",
        "address": "湖南省湘潭市湘乡市新湘西路与潭宝路交叉口正南方向44米左右",
        "tel": "",
        "category": "基础设施:公共设施:公共厕所",
        "type": 0,
        "location": {
            "lat": 27.730183,
            "lng": 112.521661
        },
        "ad_info": {
            "adcode": 430381,
            "province": "湖南省",
            "city": "湘潭市",
            "district": "湘乡市"
        }
    },
    {
        "id": "16247798570047779458",
        "title": "公共厕所",
        "address": "湖南省湘潭市湘潭县和诚汽贸宏顺汽车服务中心东侧80米",
        "tel": "",
        "category": "基础设施:公共设施:公共厕所",
        "type": 0,
        "location": {
            "lat": 27.755597,
            "lng": 112.725521
        },
        "ad_info": {
            "adcode": 430321,
            "province": "湖南省",
            "city": "湘潭市",
            "district": "湘潭县"
        }
    },
    {
        "id": "11840006699306564986",
        "title": "公共厕所",
        "address": "湖南省湘潭市湘乡市健康北路与健康南路交叉口正北方向30米左右",
        "tel": "",
        "category": "基础设施:公共设施:公共厕所",
        "type": 0,
        "location": {
            "lat": 27.728469,
            "lng": 112.529418
        },
        "ad_info": {
            "adcode": 430381,
            "province": "湖南省",
            "city": "湘潭市",
            "district": "湘乡市"
        }
    },
    {
        "id": "17748145950576791931",
        "title": "公共厕所",
        "address": "湖南省湘潭市湘潭县S219与X018交叉口东南方向1513米左右",
        "tel": "",
        "category": "基础设施:公共设施:公共厕所",
        "type": 0,
        "location": {
            "lat": 27.494636,
            "lng": 112.741225
        },
        "ad_info": {
            "adcode": 430321,
            "province": "湖南省",
            "city": "湘潭市",
            "district": "湘潭县"
        }
    },
    {
        "id": "1830382633909027680",
        "title": "公共厕所",
        "address": "湖南省湘潭市湘潭县天鹅路与荷花北路交叉口正东方向150米左右",
        "tel": "",
        "category": "基础设施:公共设施:公共厕所",
        "type": 0,
        "location": {
            "lat": 27.787141,
            "lng": 112.96825
        },
        "ad_info": {
            "adcode": 430321,
            "province": "湖南省",
            "city": "湘潭市",
            "district": "湘潭县"
        }
    },
    {
        "id": "1731811956123736281",
        "title": "公共厕所",
        "address": "湖南省湘潭市湘潭县X018与湘莲大道交叉口正南方向265米左右",
        "tel": "",
        "category": "基础设施:公共设施:公共厕所",
        "type": 0,
        "location": {
            "lat": 27.766882,
            "lng": 112.865707
        },
        "ad_info": {
            "adcode": 430321,
            "province": "湖南省",
            "city": "湘潭市",
            "district": "湘潭县"
        }
    },
    {
        "id": "15934892735369898095",
        "title": "公共厕所",
        "address": "湖南省湘潭市岳塘区晓塘西路与曲尺巷交叉口正西方向58米左右",
        "tel": "",
        "category": "基础设施:公共设施:公共厕所",
        "type": 0,
        "location": {
            "lat": 27.817535,
            "lng": 112.922857
        },
        "ad_info": {
            "adcode": 430304,
            "province": "湖南省",
            "city": "湘潭市",
            "district": "岳塘区"
        }
    },
    {
        "id": "16203748106186342074",
        "title": "公共厕所",
        "address": "湖南省湘潭市韶山市枣园路与迎宾路交叉口西北方向36米左右",
        "tel": "",
        "category": "基础设施:公共设施:公共厕所",
        "type": 0,
        "location": {
            "lat": 27.924411,
            "lng": 112.523096
        },
        "ad_info": {
            "adcode": 430382,
            "province": "湖南省",
            "city": "湘潭市",
            "district": "韶山市"
        }
    },
    {
        "id": "10105812524239738999",
        "title": "公共厕所",
        "address": "湖南省湘潭市湘乡市梅长路与车站南路交叉口正南方向151米左右",
        "tel": "",
        "category": "基础设施:公共设施:公共厕所",
        "type": 0,
        "location": {
            "lat": 27.740268,
            "lng": 112.517227
        },
        "ad_info": {
            "adcode": 430381,
            "province": "湖南省",
            "city": "湘潭市",
            "district": "湘乡市"
        }
    },
    {
        "id": "3423576203141849435",
        "title": "公共厕所",
        "address": "湖南省湘潭市湘乡市东风路102号附近湘乡站F1站前广场",
        "tel": "",
        "category": "基础设施:公共设施:公共厕所",
        "type": 0,
        "location": {
            "lat": 27.743749,
            "lng": 112.528748
        },
        "ad_info": {
            "adcode": 430381,
            "province": "湖南省",
            "city": "湘潭市",
            "district": "湘乡市"
        }
    },
    {
        "id": "8523795569424880946",
        "title": "公共厕所",
        "address": "湖南省湘潭市湘乡市向阳路与步行街交叉口正西方向120米左右",
        "tel": "",
        "category": "基础设施:公共设施:公共厕所",
        "type": 0,
        "location": {
            "lat": 27.741197,
            "lng": 112.523812
        },
        "ad_info": {
            "adcode": 430381,
            "province": "湖南省",
            "city": "湘潭市",
            "district": "湘乡市"
        }
    },
    {
        "id": "15874871292242658064",
        "title": "公共厕所",
        "address": "湖南省湘潭市湘潭县S219与X028交叉口正北方向782米左右",
        "tel": "",
        "category": "基础设施:公共设施:公共厕所",
        "type": 0,
        "location": {
            "lat": 27.618107,
            "lng": 112.647433
        },
        "ad_info": {
            "adcode": 430321,
            "province": "湖南省",
            "city": "湘潭市",
            "district": "湘潭县"
        }
    },
    {
        "id": "2559109491982552047",
        "title": "公共厕所",
        "address": "湖南省湘潭市雨湖区广云路与广技巷交叉口正东方向142米左右",
        "tel": "",
        "category": "基础设施:公共设施:公共厕所",
        "type": 0,
        "location": {
            "lat": 27.866234,
            "lng": 112.899277
        },
        "ad_info": {
            "adcode": 430302,
            "province": "湖南省",
            "city": "湘潭市",
            "district": "雨湖区"
        }
    },
    {
        "id": "2453798699830252501",
        "title": "公共厕所",
        "address": "湖南省湘潭市雨湖区建设北路与金凤横巷交叉口西北方向72米左右",
        "tel": "",
        "category": "基础设施:公共设施:公共厕所",
        "type": 0,
        "location": {
            "lat": 27.86645,
            "lng": 112.904214
        },
        "ad_info": {
            "adcode": 430302,
            "province": "湖南省",
            "city": "湘潭市",
            "district": "雨湖区"
        }
    },
    {
        "id": "15219337054281516713",
        "title": "公共厕所",
        "address": "湖南省湘潭市湘潭县G107",
        "tel": "",
        "category": "基础设施:公共设施:公共厕所",
        "type": 0,
        "location": {
            "lat": 27.566951,
            "lng": 112.935894
        },
        "ad_info": {
            "adcode": 430321,
            "province": "湖南省",
            "city": "湘潭市",
            "district": "湘潭县"
        }
    },
    {
        "id": "7300643978261601691",
        "title": "公共厕所",
        "address": "湖南省湘潭市湘乡市S226与水府互通交叉口正北方向66米左右",
        "tel": "",
        "category": "基础设施:公共设施:公共厕所",
        "type": 0,
        "location": {
            "lat": 27.7165,
            "lng": 112.247014
        },
        "ad_info": {
            "adcode": 430381,
            "province": "湖南省",
            "city": "湘潭市",
            "district": "湘乡市"
        }
    },
    {
        "id": "396354270212037565",
        "title": "公共厕所",
        "address": "湖南省湘潭市湘乡市三眼井巷与健康北路交叉口正南方向86米左右",
        "tel": "",
        "category": "基础设施:公共设施:公共厕所",
        "type": 0,
        "location": {
            "lat": 27.730643,
            "lng": 112.527879
        },
        "ad_info": {
            "adcode": 430381,
            "province": "湖南省",
            "city": "湘潭市",
            "district": "湘乡市"
        }
    },
    {
        "id": "8862590527433549124",
        "title": "公共厕所",
        "address": "湖南省湘潭市雨湖区国庆路与杨家湾路交叉口东北方向49米左右",
        "tel": "",
        "category": "基础设施:公共设施:公共厕所",
        "type": 0,
        "location": {
            "lat": 27.870705,
            "lng": 112.920988
        },
        "ad_info": {
            "adcode": 430302,
            "province": "湖南省",
            "city": "湘潭市",
            "district": "雨湖区"
        }
    },
    {
        "id": "3019347533937767195",
        "title": "公共厕所",
        "address": "湖南省湘潭市湘乡市X034与桑梅东路交叉口正南方向85米左右",
        "tel": "",
        "category": "基础设施:公共设施:公共厕所",
        "type": 0,
        "location": {
            "lat": 27.752792,
            "lng": 112.551488
        },
        "ad_info": {
            "adcode": 430381,
            "province": "湖南省",
            "city": "湘潭市",
            "district": "湘乡市"
        }
    },
    {
        "id": "4799311518851250975",
        "title": "公共厕所",
        "address": "湖南省湘潭市湘乡市东风路与步行街交叉口正西方向98米左右",
        "tel": "",
        "category": "基础设施:公共设施:公共厕所",
        "type": 0,
        "location": {
            "lat": 27.742146,
            "lng": 112.52918
        },
        "ad_info": {
            "adcode": 430381,
            "province": "湖南省",
            "city": "湘潭市",
            "district": "湘乡市"
        }
    },
    {
        "id": "15222790526126078878",
        "title": "公共厕所",
        "address": "湖南省湘潭市湘乡市S222与X043交叉口西北方向312米左右",
        "tel": "",
        "category": "基础设施:公共设施:公共厕所",
        "type": 0,
        "location": {
            "lat": 27.950557,
            "lng": 112.34394
        },
        "ad_info": {
            "adcode": 430381,
            "province": "湖南省",
            "city": "湘潭市",
            "district": "湘乡市"
        }
    },
    {
        "id": "8443749733115153999",
        "title": "公共厕所",
        "address": "湖南省湘潭市湘乡市S330与X004交叉口正西方向89米左右",
        "tel": "",
        "category": "基础设施:公共设施:公共厕所",
        "type": 0,
        "location": {
            "lat": 27.716665,
            "lng": 112.251064
        },
        "ad_info": {
            "adcode": 430381,
            "province": "湖南省",
            "city": "湘潭市",
            "district": "湘乡市"
        }
    },
    {
        "id": "12521063867336956276",
        "title": "公共厕所",
        "address": "湖南省湘潭市湘乡市",
        "tel": "",
        "category": "基础设施:公共设施:公共厕所",
        "type": 0,
        "location": {
            "lat": 27.700959,
            "lng": 112.090765
        },
        "ad_info": {
            "adcode": 430381,
            "province": "湖南省",
            "city": "湘潭市",
            "district": "湘乡市"
        }
    },
    {
        "id": "11424660201892971216",
        "title": "公共厕所",
        "address": "湖南省湘潭市湘乡市S226与X048交叉口正东方向1108米左右",
        "tel": "",
        "category": "基础设施:公共设施:公共厕所",
        "type": 0,
        "location": {
            "lat": 27.756481,
            "lng": 112.190532
        },
        "ad_info": {
            "adcode": 430381,
            "province": "湖南省",
            "city": "湘潭市",
            "district": "湘乡市"
        }
    },
    {
        "id": "6615833070823298902",
        "title": "公共厕所",
        "address": "湖南省湘潭市湘乡市龙洞卫生院南侧230米",
        "tel": "",
        "category": "基础设施:公共设施:公共厕所",
        "type": 0,
        "location": {
            "lat": 27.831531,
            "lng": 112.518417
        },
        "ad_info": {
            "adcode": 430381,
            "province": "湖南省",
            "city": "湘潭市",
            "district": "湘乡市"
        }
    },
    {
        "id": "8466924809802402723",
        "title": "无障碍公共厕所",
        "address": "湖南省湘潭市岳塘区芙蓉东路与湘潭大道辅路交叉口北300米",
        "tel": "",
        "category": "基础设施:公共设施:公共厕所",
        "type": 0,
        "location": {
            "lat": 27.833192,
            "lng": 112.958771
        },
        "ad_info": {
            "adcode": 430304,
            "province": "湖南省",
            "city": "湘潭市",
            "district": "岳塘区"
        }
    },
    {
        "id": "7337873401663218249",
        "title": "无障碍公共厕所",
        "address": "湖南省湘潭市岳塘区建设中路华兴小区(如家快捷酒店西)",
        "tel": "",
        "category": "基础设施:公共设施:公共厕所",
        "type": 0,
        "location": {
            "lat": 27.835609,
            "lng": 112.918324
        },
        "ad_info": {
            "adcode": 430304,
            "province": "湖南省",
            "city": "湘潭市",
            "district": "岳塘区"
        }
    },
    {
        "id": "10839149505150384845",
        "title": "公共卫生间",
        "address": "湖南省湘潭市湘乡市解放路与大正街交叉口北80米",
        "tel": "",
        "category": "基础设施:公共设施:公共厕所",
        "type": 0,
        "location": {
            "lat": 27.732816,
            "lng": 112.53174
        },
        "ad_info": {
            "adcode": 430381,
            "province": "湖南省",
            "city": "湘潭市",
            "district": "湘乡市"
        }
    },
    {
        "id": "16194741586542183473",
        "title": "肯德基(白石广场餐厅)-洗手间",
        "address": "湖南省湘潭市雨湖区建设北路8号大洋百货B1",
        "tel": "",
        "category": "基础设施:公共设施:公共厕所",
        "type": 0,
        "location": {
            "lat": 27.85849,
            "lng": 112.906221
        },
        "ad_info": {
            "adcode": 430302,
            "province": "湖南省",
            "city": "湘潭市",
            "district": "雨湖区"
        }
    },
    {
        "id": "10139162816308814529",
        "title": "公共厕所",
        "address": "湖南省湘潭市湘乡市壕塘口弄与新湘中路交叉口正北方向34米左右",
        "tel": "",
        "category": "基础设施:公共设施:公共厕所",
        "type": 0,
        "location": {
            "lat": 27.732021,
            "lng": 112.525436
        },
        "ad_info": {
            "adcode": 430381,
            "province": "湖南省",
            "city": "湘潭市",
            "district": "湘乡市"
        }
    },
    {
        "id": "9353731992942280542",
        "title": "红旗社区公园-公共厕所",
        "address": "湖南省湘潭市雨湖区红旗路与红都路交叉口东南方向27米左右",
        "tel": "",
        "category": "基础设施:公共设施:公共厕所",
        "type": 0,
        "location": {
            "lat": 27.904313,
            "lng": 112.942407
        },
        "ad_info": {
            "adcode": 430302,
            "province": "湖南省",
            "city": "湘潭市",
            "district": "雨湖区"
        }
    },
    {
        "id": "12930084865719498219",
        "title": "公共厕所",
        "address": "湖南省湘潭市湘乡市南正街22号",
        "tel": "",
        "category": "基础设施:公共设施:公共厕所",
        "type": 0,
        "location": {
            "lat": 27.730973,
            "lng": 112.531307
        },
        "ad_info": {
            "adcode": 430381,
            "province": "湖南省",
            "city": "湘潭市",
            "district": "湘乡市"
        }
    },
    {
        "id": "11443375924539476859",
        "title": "公共场所",
        "address": "湖南省湘潭市雨湖区G320与S219交叉口正西方向500米左右",
        "tel": "",
        "category": "基础设施:公共设施:公共厕所",
        "type": 0,
        "location": {
            "lat": 27.847633,
            "lng": 112.758109
        },
        "ad_info": {
            "adcode": 430302,
            "province": "湖南省",
            "city": "湘潭市",
            "district": "雨湖区"
        }
    },
    {
        "id": "14946571388706884296",
        "title": "公共厕所",
        "address": "湖南省湘潭市湘乡市务门前街与夏梓桥街交叉口正南方向23米左右",
        "tel": "",
        "category": "基础设施:公共设施:公共厕所",
        "type": 0,
        "location": {
            "lat": 27.733601,
            "lng": 112.535551
        },
        "ad_info": {
            "adcode": 430381,
            "province": "湖南省",
            "city": "湘潭市",
            "district": "湘乡市"
        }
    },
    {
        "id": "11750887333319606380",
        "title": "公共厕所",
        "address": "湖南省湘潭市湘乡市健康南路与涟滨北路交叉口东北方向37米左右",
        "tel": "",
        "category": "基础设施:公共设施:公共厕所",
        "type": 0,
        "location": {
            "lat": 27.726981,
            "lng": 112.532738
        },
        "ad_info": {
            "adcode": 430381,
            "province": "湖南省",
            "city": "湘潭市",
            "district": "湘乡市"
        }
    },
    {
        "id": "3154824626924279437",
        "title": "卫生间",
        "address": "湖南省湘潭市湘乡市东风路3号万隆中央广场F3",
        "tel": "",
        "category": "基础设施:公共设施:公共厕所",
        "type": 0,
        "location": {
            "lat": 27.734743,
            "lng": 112.531478
        },
        "ad_info": {
            "adcode": 430381,
            "province": "湖南省",
            "city": "湘潭市",
            "district": "湘乡市"
        }
    },
    {
        "id": "11256501953772285105",
        "title": "三眼井公共厕所",
        "address": "湖南省湘潭市湘乡市大正街72号",
        "tel": "",
        "category": "基础设施:公共设施:公共厕所",
        "type": 0,
        "location": {
            "lat": 27.73199,
            "lng": 112.529509
        },
        "ad_info": {
            "adcode": 430381,
            "province": "湖南省",
            "city": "湘潭市",
            "district": "湘乡市"
        }
    },
    {
        "id": "18281702464163720563",
        "title": "无障碍公共厕所",
        "address": "湖南省湘潭市湘潭县杏花一路与杏花二路交叉口正东方向21米左右",
        "tel": "",
        "category": "基础设施:公共设施:公共厕所",
        "type": 0,
        "location": {
            "lat": 27.780546,
            "lng": 112.945849
        },
        "ad_info": {
            "adcode": 430321,
            "province": "湖南省",
            "city": "湘潭市",
            "district": "湘潭县"
        }
    },
    {
        "id": "12530009753241134506",
        "title": "昭山服务区公共厕所",
        "address": "湖南省湘潭市岳塘区Y002与昭云路交叉口东南方向493米左右",
        "tel": "",
        "category": "基础设施:公共设施:公共厕所",
        "type": 0,
        "location": {
            "lat": 27.965993,
            "lng": 113.044372
        },
        "ad_info": {
            "adcode": 430304,
            "province": "湖南省",
            "city": "湘潭市",
            "district": "岳塘区"
        }
    },
    {
        "id": "10170826278955235636",
        "title": "射埠服务区公共厕所",
        "address": "湖南省湘潭市湘潭县射埠立交桥",
        "tel": "",
        "category": "基础设施:公共设施:公共厕所",
        "type": 0,
        "location": {
            "lat": 27.65929,
            "lng": 112.764806
        },
        "ad_info": {
            "adcode": 430321,
            "province": "湖南省",
            "city": "湘潭市",
            "district": "湘潭县"
        }
    },
    {
        "id": "6086242567616169340",
        "title": "水府庙服务区公共厕所",
        "address": "湖南省湘潭市湘乡市沪昆高速水府庙服务区",
        "tel": "",
        "category": "基础设施:公共设施:公共厕所",
        "type": 0,
        "location": {
            "lat": 27.685381,
            "lng": 112.184559
        },
        "ad_info": {
            "adcode": 430381,
            "province": "湖南省",
            "city": "湘潭市",
            "district": "湘乡市"
        }
    },
    {
        "id": "2890942420558086129",
        "title": "射埠服务区第二公共厕所",
        "address": "湖南省湘潭市湘潭县射埠服务区与G0421许广高速入口交叉口南140米",
        "tel": "",
        "category": "基础设施:公共设施:公共厕所",
        "type": 0,
        "location": {
            "lat": 27.660437,
            "lng": 112.763976
        },
        "ad_info": {
            "adcode": 430321,
            "province": "湖南省",
            "city": "湘潭市",
            "district": "湘潭县"
        }
    },
    {
        "id": "4090023539054286718",
        "title": "水府庙服务区公共厕所",
        "address": "湖南省湘潭市湘乡市毛田镇沪昆高速公路水府庙服务区北",
        "tel": "",
        "category": "基础设施:公共设施:公共厕所",
        "type": 0,
        "location": {
            "lat": 27.684732,
            "lng": 112.187388
        },
        "ad_info": {
            "adcode": 430381,
            "province": "湖南省",
            "city": "湘潭市",
            "district": "湘乡市"
        }
    },
    {
        "id": "12197499803638529016",
        "title": "白石文化广场公共厕所",
        "address": "湖南省湘潭市湘潭县凤凰中路白石文化广场(西侧)",
        "tel": "",
        "category": "基础设施:公共设施:公共厕所",
        "type": 0,
        "location": {
            "lat": 27.783545,
            "lng": 112.950188
        },
        "ad_info": {
            "adcode": 430321,
            "province": "湖南省",
            "city": "湘潭市",
            "district": "湘潭县"
        }
    },
    {
        "id": "2971037625797077886",
        "title": "湘乡服务区公共厕所",
        "address": "湖南省湘潭市湘乡市S50长芷高速与湘乡服务区交叉口西320米",
        "tel": "",
        "category": "基础设施:公共设施:公共厕所",
        "type": 0,
        "location": {
            "lat": 27.956647,
            "lng": 112.297846
        },
        "ad_info": {
            "adcode": 430381,
            "province": "湖南省",
            "city": "湘潭市",
            "district": "湘乡市"
        }
    },
    {
        "id": "14092860462387900956",
        "title": "湘乡东服务区公共厕所",
        "address": "湖南省湘潭市湘乡市",
        "tel": "",
        "category": "基础设施:公共设施:公共厕所",
        "type": 0,
        "location": {
            "lat": 27.79213,
            "lng": 112.552421
        },
        "ad_info": {
            "adcode": 430381,
            "province": "湖南省",
            "city": "湘潭市",
            "district": "湘乡市"
        }
    },
    {
        "id": "13926611813938959825",
        "title": "湘乡服务区公共厕所",
        "address": "湖南省湘潭市湘乡市中国石化湘乡服务区加油站西南侧140米",
        "tel": "",
        "category": "基础设施:公共设施:公共厕所",
        "type": 0,
        "location": {
            "lat": 27.955042,
            "lng": 112.298114
        },
        "ad_info": {
            "adcode": 430381,
            "province": "湖南省",
            "city": "湘潭市",
            "district": "湘乡市"
        }
    },
    {
        "id": "12155412029742483764",
        "title": "射埠服务区第一公共厕所",
        "address": "湖南省湘潭市湘潭县射埠服务区(岳临高速公路西)",
        "tel": "",
        "category": "基础设施:公共设施:公共厕所",
        "type": 0,
        "location": {
            "lat": 27.6614,
            "lng": 112.762408
        },
        "ad_info": {
            "adcode": 430321,
            "province": "湖南省",
            "city": "湘潭市",
            "district": "湘潭县"
        }
    },
    {
        "id": "3889551856299460893",
        "title": "男卫生间",
        "address": "湖南省湘潭市湘乡市东风路3号万隆中央广场F2",
        "tel": "",
        "category": "基础设施:公共设施:男洗手间",
        "type": 0,
        "location": {
            "lat": 27.734764,
            "lng": 112.531489
        },
        "ad_info": {
            "adcode": 430381,
            "province": "湖南省",
            "city": "湘潭市",
            "district": "湘乡市"
        }
    },
    {
        "id": "11689765795786337097",
        "title": "公共厕所",
        "address": "湖南省湘潭市湘乡市洗笔池路与罗家弄交叉口正东方向52米左右",
        "tel": "",
        "category": "基础设施:公共设施:公共厕所",
        "type": 0,
        "location": {
            "lat": 27.736936,
            "lng": 112.540724
        },
        "ad_info": {
            "adcode": 430381,
            "province": "湖南省",
            "city": "湘潭市",
            "district": "湘乡市"
        }
    },
    {
        "id": "15332437864764145637",
        "title": "公共厕所",
        "address": "湖南省湘潭市湘潭县G320与S325交叉口正北方向118米左右",
        "tel": "",
        "category": "基础设施:公共设施:公共厕所",
        "type": 0,
        "location": {
            "lat": 27.842552,
            "lng": 112.734612
        },
        "ad_info": {
            "adcode": 430321,
            "province": "湖南省",
            "city": "湘潭市",
            "district": "湘潭县"
        }
    },
    {
        "id": "14481240222300837596",
        "title": "公共厕所",
        "address": "湖南省湘潭市雨湖区韶山西路与风车坪巷交叉口东南方向34米左右",
        "tel": "",
        "category": "基础设施:公共设施:公共厕所",
        "type": 0,
        "location": {
            "lat": 27.862487,
            "lng": 112.904678
        },
        "ad_info": {
            "adcode": 430302,
            "province": "湖南省",
            "city": "湘潭市",
            "district": "雨湖区"
        }
    },
    {
        "id": "7198263654111243668",
        "title": "公共厕所",
        "address": "湖南省湘潭市雨湖区湖园路49号",
        "tel": "",
        "category": "基础设施:公共设施:公共厕所",
        "type": 0,
        "location": {
            "lat": 27.855952,
            "lng": 112.910957
        },
        "ad_info": {
            "adcode": 430302,
            "province": "湖南省",
            "city": "湘潭市",
            "district": "雨湖区"
        }
    },
    {
        "id": "10695856479021224356",
        "title": "公共卫生间",
        "address": "湖南省湘潭市湘乡市环卫管理处(云门寺东北)",
        "tel": "",
        "category": "基础设施:公共设施:公共厕所",
        "type": 0,
        "location": {
            "lat": 27.737663,
            "lng": 112.533424
        },
        "ad_info": {
            "adcode": 430381,
            "province": "湖南省",
            "city": "湘潭市",
            "district": "湘乡市"
        }
    },
    {
        "id": "12277133782059077377",
        "title": "公共厕所",
        "address": "湖南省湘潭市湘潭县G320与S219交叉口正东方向44米左右",
        "tel": "",
        "category": "基础设施:公共设施:公共厕所",
        "type": 0,
        "location": {
            "lat": 27.817466,
            "lng": 112.702467
        },
        "ad_info": {
            "adcode": 430321,
            "province": "湖南省",
            "city": "湘潭市",
            "district": "湘潭县"
        }
    },
    {
        "id": "5510260107489980233",
        "title": "公共厕所",
        "address": "湖南省湘潭市湘乡市引凤路与湘乡大道交叉口正北方向279米左右",
        "tel": "",
        "category": "基础设施:公共设施:公共厕所",
        "type": 0,
        "location": {
            "lat": 27.763535,
            "lng": 112.506254
        },
        "ad_info": {
            "adcode": 430381,
            "province": "湖南省",
            "city": "湘潭市",
            "district": "湘乡市"
        }
    },
    {
        "id": "7951919033747197616",
        "title": "毛田服务区公共厕所",
        "address": "湖南省湘潭市湘乡市S71华常高速与毛田服务区交叉口西南340米",
        "tel": "",
        "category": "基础设施:公共设施:公共厕所",
        "type": 0,
        "location": {
            "lat": 27.702221,
            "lng": 112.089509
        },
        "ad_info": {
            "adcode": 430381,
            "province": "湖南省",
            "city": "湘潭市",
            "district": "湘乡市"
        }
    },
    {
        "id": "3768724367728679868",
        "title": "公共厕所",
        "address": "湖南省湘潭市岳塘区三塘路与联合路交叉口西南方向341米左右",
        "tel": "",
        "category": "基础设施:公共设施:公共厕所",
        "type": 0,
        "location": {
            "lat": 27.824998,
            "lng": 112.901477
        },
        "ad_info": {
            "adcode": 430304,
            "province": "湖南省",
            "city": "湘潭市",
            "district": "岳塘区"
        }
    },
    {
        "id": "16944673120304946766",
        "title": "公共厕所",
        "address": "湖南省湘潭市雨湖区熙春门路与雨湖路交叉口正北方向33米左右",
        "tel": "",
        "category": "基础设施:公共设施:公共厕所",
        "type": 0,
        "location": {
            "lat": 27.860361,
            "lng": 112.913758
        },
        "ad_info": {
            "adcode": 430302,
            "province": "湖南省",
            "city": "湘潭市",
            "district": "雨湖区"
        }
    },
    {
        "id": "214750314326019806",
        "title": "无障碍公共厕所",
        "address": "湖南省湘潭市湘潭县云鹏四路与大鹏中路交叉口正南方向54米左右",
        "tel": "",
        "category": "基础设施:公共设施:公共厕所",
        "type": 0,
        "location": {
            "lat": 27.779074,
            "lng": 112.957429
        },
        "ad_info": {
            "adcode": 430321,
            "province": "湖南省",
            "city": "湘潭市",
            "district": "湘潭县"
        }
    },
    {
        "id": "4352020982148131012",
        "title": "公共厕所",
        "address": "湖南省湘潭市雨湖区晨光路与金龙路交叉口正北方向326米左右",
        "tel": "",
        "category": "基础设施:公共设施:公共厕所",
        "type": 0,
        "location": {
            "lat": 27.98011,
            "lng": 112.867964
        },
        "ad_info": {
            "adcode": 430302,
            "province": "湖南省",
            "city": "湘潭市",
            "district": "雨湖区"
        }
    },
    {
        "id": "6640254106768058671",
        "title": "公共厕所",
        "address": "湖南省湘潭市雨湖区金鹏东路与银盖路交叉口正北方向356米左右",
        "tel": "",
        "category": "基础设施:公共设施:公共厕所",
        "type": 0,
        "location": {
            "lat": 27.964382,
            "lng": 112.94083
        },
        "ad_info": {
            "adcode": 430302,
            "province": "湖南省",
            "city": "湘潭市",
            "district": "雨湖区"
        }
    },
    {
        "id": "11841783482234103532",
        "title": "公共厕所",
        "address": "湖南省湘潭市岳塘区三塘路与联合路交叉口正西方向485米左右",
        "tel": "",
        "category": "基础设施:公共设施:公共厕所",
        "type": 0,
        "location": {
            "lat": 27.828324,
            "lng": 112.899586
        },
        "ad_info": {
            "adcode": 430304,
            "province": "湖南省",
            "city": "湘潭市",
            "district": "岳塘区"
        }
    },
    {
        "id": "1473239051704770455",
        "title": "公共厕所",
        "address": "湖南省湘潭市湘乡市惜池北路与惜福路交叉口西北方向127米左右",
        "tel": "",
        "category": "基础设施:公共设施:公共厕所",
        "type": 0,
        "location": {
            "lat": 27.740946,
            "lng": 112.532387
        },
        "ad_info": {
            "adcode": 430381,
            "province": "湖南省",
            "city": "湘潭市",
            "district": "湘乡市"
        }
    },
    {
        "id": "9171496808838003509",
        "title": "公共厕所",
        "address": "湖南省湘潭市雨湖区潭邵路92号",
        "tel": "",
        "category": "基础设施:公共设施:公共厕所",
        "type": 0,
        "location": {
            "lat": 27.861348,
            "lng": 112.873701
        },
        "ad_info": {
            "adcode": 430302,
            "province": "湖南省",
            "city": "湘潭市",
            "district": "雨湖区"
        }
    },
    {
        "id": "9082626824381030776",
        "title": "公共厕所",
        "address": "湖南省湘潭市韶山市厦门路与新颜路交叉口正西方向83米左右",
        "tel": "",
        "category": "基础设施:公共设施:公共厕所",
        "type": 0,
        "location": {
            "lat": 27.915541,
            "lng": 112.531352
        },
        "ad_info": {
            "adcode": 430382,
            "province": "湖南省",
            "city": "湘潭市",
            "district": "韶山市"
        }
    },
    {
        "id": "18274275193523725634",
        "title": "无障碍公共厕所",
        "address": "湖南省湘潭市雨湖区城正街与通济门路交叉口正西方向23米左右",
        "tel": "",
        "category": "基础设施:公共设施:公共厕所",
        "type": 0,
        "location": {
            "lat": 27.86105,
            "lng": 112.922795
        },
        "ad_info": {
            "adcode": 430302,
            "province": "湖南省",
            "city": "湘潭市",
            "district": "雨湖区"
        }
    },
    {
        "id": "11179206517806410826",
        "title": "无障碍公共厕所",
        "address": "湖南省湘潭市雨湖区江南大道九华金水湾",
        "tel": "",
        "category": "基础设施:公共设施:公共厕所",
        "type": 0,
        "location": {
            "lat": 27.909909,
            "lng": 112.927487
        },
        "ad_info": {
            "adcode": 430302,
            "province": "湖南省",
            "city": "湘潭市",
            "district": "雨湖区"
        }
    },
    {
        "id": "1586156394087866482",
        "title": "公共厕所",
        "address": "湖南省湘潭市雨湖区樟岭路与潭州大道辅路交叉口东南方向109米左右",
        "tel": "",
        "category": "基础设施:公共设施:公共厕所",
        "type": 0,
        "location": {
            "lat": 27.912699,
            "lng": 112.948829
        },
        "ad_info": {
            "adcode": 430302,
            "province": "湖南省",
            "city": "湘潭市",
            "district": "雨湖区"
        }
    },
    {
        "id": "15227282862003213405",
        "title": "男卫生间",
        "address": "湖南省湘潭市湘乡市东风路3号万隆中央广场F1",
        "tel": "",
        "category": "基础设施:公共设施:男洗手间",
        "type": 0,
        "location": {
            "lat": 27.734562,
            "lng": 112.531456
        },
        "ad_info": {
            "adcode": 430381,
            "province": "湖南省",
            "city": "湘潭市",
            "district": "湘乡市"
        }
    },
    {
        "id": "11126113524507571188",
        "title": "公共厕所",
        "address": "湖南省湘潭市岳塘区社建路阳光尚城",
        "tel": "",
        "category": "基础设施:公共设施:公共厕所",
        "type": 0,
        "location": {
            "lat": 27.861752,
            "lng": 112.960227
        },
        "ad_info": {
            "adcode": 430304,
            "province": "湖南省",
            "city": "湘潭市",
            "district": "岳塘区"
        }
    },
    {
        "id": "13552049025868797348",
        "title": "公共厕所",
        "address": "湖南省湘潭市韶山市如意路与韶润大道交叉口西南方向87米左右",
        "tel": "",
        "category": "基础设施:公共设施:公共厕所",
        "type": 0,
        "location": {
            "lat": 27.88397,
            "lng": 112.531294
        },
        "ad_info": {
            "adcode": 430382,
            "province": "湖南省",
            "city": "湘潭市",
            "district": "韶山市"
        }
    },
    {
        "id": "10881823291764470285",
        "title": "公共厕所",
        "address": "湖南省湘潭市湘乡市中国石油铝南村加油站西南侧220米",
        "tel": "",
        "category": "基础设施:公共设施:公共厕所",
        "type": 0,
        "location": {
            "lat": 27.713856,
            "lng": 112.508645
        },
        "ad_info": {
            "adcode": 430381,
            "province": "湖南省",
            "city": "湘潭市",
            "district": "湘乡市"
        }
    },
    {
        "id": "7078532447626858877",
        "title": "公共厕所",
        "address": "湖南省湘潭市韶山市新杨路与红旗路交叉口东南方向273米左右",
        "tel": "",
        "category": "基础设施:公共设施:公共厕所",
        "type": 0,
        "location": {
            "lat": 27.894921,
            "lng": 112.569307
        },
        "ad_info": {
            "adcode": 430382,
            "province": "湖南省",
            "city": "湘潭市",
            "district": "韶山市"
        }
    },
    {
        "id": "6526520471444370679",
        "title": "公共厕所",
        "address": "湖南省湘潭市湘潭县X024",
        "tel": "",
        "category": "基础设施:公共设施:公共厕所",
        "type": 0,
        "location": {
            "lat": 27.405548,
            "lng": 112.818373
        },
        "ad_info": {
            "adcode": 430321,
            "province": "湖南省",
            "city": "湘潭市",
            "district": "湘潭县"
        }
    },
    {
        "id": "11404355740935472240",
        "title": "昭山服务区公共厕所",
        "address": "湖南省湘潭市岳塘区昭山服务区与G4京港澳高速交叉口西南150米",
        "tel": "",
        "category": "基础设施:公共设施:公共厕所",
        "type": 0,
        "location": {
            "lat": 27.966711,
            "lng": 113.043152
        },
        "ad_info": {
            "adcode": 430304,
            "province": "湖南省",
            "city": "湘潭市",
            "district": "岳塘区"
        }
    },
    {
        "id": "11779560160667858896",
        "title": "公共厕所",
        "address": "湖南省湘潭市湘乡市G234与S323交叉口正北方向763米左右",
        "tel": "",
        "category": "基础设施:公共设施:公共厕所",
        "type": 0,
        "location": {
            "lat": 27.854723,
            "lng": 112.027778
        },
        "ad_info": {
            "adcode": 430381,
            "province": "湖南省",
            "city": "湘潭市",
            "district": "湘乡市"
        }
    },
    {
        "id": "1731473490681530983",
        "title": "公共厕所",
        "address": "湖南省湘潭市韶山市韶山大道中国石油加油站(海翔大道)",
        "tel": "",
        "category": "基础设施:公共设施:公共厕所",
        "type": 0,
        "location": {
            "lat": 27.906828,
            "lng": 112.548708
        },
        "ad_info": {
            "adcode": 430382,
            "province": "湖南省",
            "city": "湘潭市",
            "district": "韶山市"
        }
    },
    {
        "id": "14391392101402828354",
        "title": "公共厕所",
        "address": "湖南省湘潭市湘乡市S222与新铺大桥交叉口正南方向835米左右",
        "tel": "",
        "category": "基础设施:公共设施:公共厕所",
        "type": 0,
        "location": {
            "lat": 27.773397,
            "lng": 112.332404
        },
        "ad_info": {
            "adcode": 430381,
            "province": "湖南省",
            "city": "湘潭市",
            "district": "湘乡市"
        }
    },
    {
        "id": "1567255334192135109",
        "title": "公共厕所",
        "address": "湖南省湘潭市湘乡市城西路与湘铝路交叉口正北方向121米左右",
        "tel": "",
        "category": "基础设施:公共设施:公共厕所",
        "type": 0,
        "location": {
            "lat": 27.736457,
            "lng": 112.510291
        },
        "ad_info": {
            "adcode": 430381,
            "province": "湖南省",
            "city": "湘潭市",
            "district": "湘乡市"
        }
    },
    {
        "id": "15292709931721022773",
        "title": "公共厕所",
        "address": "湖南省湘潭市湘潭县X018与Y040交叉口东北方向119米左右",
        "tel": "",
        "category": "基础设施:公共设施:公共厕所",
        "type": 0,
        "location": {
            "lat": 27.690545,
            "lng": 112.822441
        },
        "ad_info": {
            "adcode": 430321,
            "province": "湖南省",
            "city": "湘潭市",
            "district": "湘潭县"
        }
    },
    {
        "id": "4213745850723408010",
        "title": "卫生间",
        "address": "湖南省湘潭市湘乡市东风路3号万隆中央广场F4",
        "tel": "",
        "category": "基础设施:公共设施:公共厕所",
        "type": 0,
        "location": {
            "lat": 27.734742,
            "lng": 112.531474
        },
        "ad_info": {
            "adcode": 430381,
            "province": "湖南省",
            "city": "湘潭市",
            "district": "湘乡市"
        }
    },
    {
        "id": "1962344256044342624",
        "title": "公共厕所",
        "address": "湖南省湘潭市雨湖区文星门路与莲城大道交叉口西北方向117米左右",
        "tel": "",
        "category": "基础设施:公共设施:公共厕所",
        "type": 0,
        "location": {
            "lat": 27.871939,
            "lng": 112.926886
        },
        "ad_info": {
            "adcode": 430302,
            "province": "湖南省",
            "city": "湘潭市",
            "district": "雨湖区"
        }
    },
    {
        "id": "11240537977821013076",
        "title": "公共厕所",
        "address": "湖南省湘潭市湘乡市S222与X053交叉口正北方向975米左右",
        "tel": "",
        "category": "基础设施:公共设施:公共厕所",
        "type": 0,
        "location": {
            "lat": 27.617007,
            "lng": 112.356964
        },
        "ad_info": {
            "adcode": 430381,
            "province": "湖南省",
            "city": "湘潭市",
            "district": "湘乡市"
        }
    },
    {
        "id": "14035289841400119142",
        "title": "公共厕所",
        "address": "湖南省湘潭市湘乡市G354与Y013交叉口西南方向579米左右",
        "tel": "",
        "category": "基础设施:公共设施:公共厕所",
        "type": 0,
        "location": {
            "lat": 27.756798,
            "lng": 112.140453
        },
        "ad_info": {
            "adcode": 430381,
            "province": "湖南省",
            "city": "湘潭市",
            "district": "湘乡市"
        }
    },
    {
        "id": "17517625135737180860",
        "title": "上门水电安装氧电焊疏通厕所",
        "address": "湖南省湘潭市雨湖区宝丰街与高标路交叉口西北方向29米左右",
        "tel": "",
        "category": "基础设施:公共设施:公共厕所",
        "type": 0,
        "location": {
            "lat": 27.853537,
            "lng": 112.888831
        },
        "ad_info": {
            "adcode": 430302,
            "province": "湖南省",
            "city": "湘潭市",
            "district": "雨湖区"
        }
    },
    {
        "id": "2130424426517408504",
        "title": "公共厕所",
        "address": "湖南省湘潭市湘潭县乌石峰村乡村三十六坊稻田餐厅西侧130米",
        "tel": "",
        "category": "基础设施:公共设施:公共厕所",
        "type": 0,
        "location": {
            "lat": 27.669129,
            "lng": 112.628882
        },
        "ad_info": {
            "adcode": 430321,
            "province": "湖南省",
            "city": "湘潭市",
            "district": "湘潭县"
        }
    },
    {
        "id": "16350209399462142033",
        "title": "公共厕所",
        "address": "湖南省湘潭市岳塘区双健路与昭义路交叉口正东方向352米左右",
        "tel": "",
        "category": "基础设施:公共设施:公共厕所",
        "type": 0,
        "location": {
            "lat": 27.924874,
            "lng": 113.01205
        },
        "ad_info": {
            "adcode": 430304,
            "province": "湖南省",
            "city": "湘潭市",
            "district": "岳塘区"
        }
    },
    {
        "id": "13741299268047652774",
        "title": "公共厕所",
        "address": "湖南省湘潭市湘乡市湘乡大道德馨小区",
        "tel": "",
        "category": "基础设施:公共设施:公共厕所",
        "type": 0,
        "location": {
            "lat": 27.750871,
            "lng": 112.51484
        },
        "ad_info": {
            "adcode": 430381,
            "province": "湖南省",
            "city": "湘潭市",
            "district": "湘乡市"
        }
    },
    {
        "id": "14707360668001906864",
        "title": "公共厕所",
        "address": "湖南省湘潭市湘潭县玉兰北路与玉砚路交叉口西南方向167米左右",
        "tel": "",
        "category": "基础设施:公共设施:公共厕所",
        "type": 0,
        "location": {
            "lat": 27.780564,
            "lng": 112.939185
        },
        "ad_info": {
            "adcode": 430321,
            "province": "湖南省",
            "city": "湘潭市",
            "district": "湘潭县"
        }
    },
    {
        "id": "9526082271558053676",
        "title": "公共厕所",
        "address": "湖南省湘潭市岳塘区万福路与财神巷交叉口东南方向136米左右",
        "tel": "",
        "category": "基础设施:公共设施:公共厕所",
        "type": 0,
        "location": {
            "lat": 27.840733,
            "lng": 112.90126
        },
        "ad_info": {
            "adcode": 430304,
            "province": "湖南省",
            "city": "湘潭市",
            "district": "岳塘区"
        }
    },
    {
        "id": "11002809888402561335",
        "title": "无障碍公共厕所",
        "address": "湖南省湘潭市岳塘区板塘八号路与芙蓉大道交叉口西北方向62米左右",
        "tel": "",
        "category": "基础设施:公共设施:公共厕所",
        "type": 0,
        "location": {
            "lat": 27.870297,
            "lng": 112.96777
        },
        "ad_info": {
            "adcode": 430304,
            "province": "湖南省",
            "city": "湘潭市",
            "district": "岳塘区"
        }
    },
    {
        "id": "15442550051251993408",
        "title": "公共厕所",
        "address": "湖南省湘潭市湘潭县玉兰南路509号",
        "tel": "",
        "category": "基础设施:公共设施:公共厕所",
        "type": 0,
        "location": {
            "lat": 27.763932,
            "lng": 112.952456
        },
        "ad_info": {
            "adcode": 430321,
            "province": "湖南省",
            "city": "湘潭市",
            "district": "湘潭县"
        }
    },
    {
        "id": "7634477896142600081",
        "title": "公共厕所(雨湖区栗塘生态农场)",
        "address": "湖南省湘潭市雨湖区姜畲镇新城村266号",
        "tel": "",
        "category": "基础设施:公共设施:公共厕所",
        "type": 0,
        "location": {
            "lat": 27.883647,
            "lng": 112.825282
        },
        "ad_info": {
            "adcode": 430302,
            "province": "湖南省",
            "city": "湘潭市",
            "district": "雨湖区"
        }
    },
    {
        "id": "9773824353600886414",
        "title": "无障碍公共厕所",
        "address": "湖南省湘潭市雨湖区广云路与文星门路交叉口东南方向22米左右",
        "tel": "",
        "category": "基础设施:公共设施:公共厕所",
        "type": 0,
        "location": {
            "lat": 27.872896,
            "lng": 112.917014
        },
        "ad_info": {
            "adcode": 430302,
            "province": "湖南省",
            "city": "湘潭市",
            "district": "雨湖区"
        }
    },
    {
        "id": "7227827485277309338",
        "title": "公共厕所(湘潭经开区响水乡黄龙村应德恩黄龙欢乐农场)",
        "address": "湖南省湘潭市雨湖区S107与杨梅路交叉口西南方向596米左右",
        "tel": "",
        "category": "基础设施:公共设施:公共厕所",
        "type": 0,
        "location": {
            "lat": 27.929002,
            "lng": 112.858115
        },
        "ad_info": {
            "adcode": 430302,
            "province": "湖南省",
            "city": "湘潭市",
            "district": "雨湖区"
        }
    },
    {
        "id": "3356925703997852412",
        "title": "公共厕所",
        "address": "湖南省湘潭市岳塘区新联路与晴岚路交叉口正北方向66米左右",
        "tel": "",
        "category": "基础设施:公共设施:公共厕所",
        "type": 0,
        "location": {
            "lat": 27.946869,
            "lng": 113.020765
        },
        "ad_info": {
            "adcode": 430304,
            "province": "湖南省",
            "city": "湘潭市",
            "district": "岳塘区"
        }
    },
    {
        "id": "8575572243586352501",
        "title": "第三卫生间",
        "address": "湖南省湘潭市雨湖区广云路与文星门路交叉口东南方向24米左右",
        "tel": "",
        "category": "基础设施:公共设施:公共厕所",
        "type": 0,
        "location": {
            "lat": 27.872859,
            "lng": 112.917005
        },
        "ad_info": {
            "adcode": 430302,
            "province": "湖南省",
            "city": "湘潭市",
            "district": "雨湖区"
        }
    },
    {
        "id": "15548668993557086530",
        "title": "无障碍公共厕所",
        "address": "湖南省湘潭市雨湖区吉利西路与民乐路交叉口西北方向135米左右",
        "tel": "",
        "category": "基础设施:公共设施:公共厕所",
        "type": 0,
        "location": {
            "lat": 27.9297,
            "lng": 112.921552
        },
        "ad_info": {
            "adcode": 430302,
            "province": "湖南省",
            "city": "湘潭市",
            "district": "雨湖区"
        }
    },
    {
        "id": "519762310812975099",
        "title": "公共厕所",
        "address": "湖南省湘潭市雨湖区城正街与雨湖路交叉口东北方向126米左右",
        "tel": "",
        "category": "基础设施:公共设施:公共厕所",
        "type": 0,
        "location": {
            "lat": 27.86067,
            "lng": 112.917828
        },
        "ad_info": {
            "adcode": 430302,
            "province": "湖南省",
            "city": "湘潭市",
            "district": "雨湖区"
        }
    },
    {
        "id": "11267495221428241471",
        "title": "公共厕所",
        "address": "湖南省湘潭市岳塘区峨眉路与胜利路交叉口西南方向13米左右",
        "tel": "",
        "category": "基础设施:公共设施:公共厕所",
        "type": 0,
        "location": {
            "lat": 27.808601,
            "lng": 112.919279
        },
        "ad_info": {
            "adcode": 430304,
            "province": "湖南省",
            "city": "湘潭市",
            "district": "岳塘区"
        }
    },
    {
        "id": "1700324876319680142",
        "title": "公共厕所",
        "address": "湖南省湘潭市湘潭县朝阳路与荷花南路交叉口东南方向64米左右",
        "tel": "",
        "category": "基础设施:公共设施:公共厕所",
        "type": 0,
        "location": {
            "lat": 27.760024,
            "lng": 112.961606
        },
        "ad_info": {
            "adcode": 430321,
            "province": "湖南省",
            "city": "湘潭市",
            "district": "湘潭县"
        }
    },
    {
        "id": "2212815087990080965",
        "title": "公共厕所(三益葡萄园)",
        "address": "湖南省湘潭市雨湖区伍家花园三益葡萄园",
        "tel": "",
        "category": "基础设施:公共设施:公共厕所",
        "type": 0,
        "location": {
            "lat": 27.870035,
            "lng": 112.833205
        },
        "ad_info": {
            "adcode": 430302,
            "province": "湖南省",
            "city": "湘潭市",
            "district": "雨湖区"
        }
    },
    {
        "id": "8111711805089075548",
        "title": "无障碍公共厕所",
        "address": "湖南省湘潭市雨湖区幸福湾巷与车站路交叉口正南方向91米左右",
        "tel": "",
        "category": "基础设施:公共设施:公共厕所",
        "type": 0,
        "location": {
            "lat": 27.859896,
            "lng": 112.909145
        },
        "ad_info": {
            "adcode": 430302,
            "province": "湖南省",
            "city": "湘潭市",
            "district": "雨湖区"
        }
    },
    {
        "id": "9179347081358807578",
        "title": "公共厕所",
        "address": "湖南省湘潭市雨湖区伏林东路与伏林路交叉口东北方向50米左右",
        "tel": "",
        "category": "基础设施:公共设施:公共厕所",
        "type": 0,
        "location": {
            "lat": 27.916832,
            "lng": 112.939375
        },
        "ad_info": {
            "adcode": 430302,
            "province": "湖南省",
            "city": "湘潭市",
            "district": "雨湖区"
        }
    },
    {
        "id": "6870791260332898182",
        "title": "公共厕所",
        "address": "湖南省湘潭市雨湖区文星门路辅路与熙春门路交叉口正南方向69米左右",
        "tel": "",
        "category": "基础设施:公共设施:公共厕所",
        "type": 0,
        "location": {
            "lat": 27.868212,
            "lng": 112.932015
        },
        "ad_info": {
            "adcode": 430302,
            "province": "湖南省",
            "city": "湘潭市",
            "district": "雨湖区"
        }
    },
    {
        "id": "17542167124822687495",
        "title": "公共厕所",
        "address": "湖南省湘潭市岳塘区宝塔北路与福星中路交叉口东北方向167米左右",
        "tel": "",
        "category": "基础设施:公共设施:公共厕所",
        "type": 0,
        "location": {
            "lat": 27.843105,
            "lng": 112.928429
        },
        "ad_info": {
            "adcode": 430304,
            "province": "湖南省",
            "city": "湘潭市",
            "district": "岳塘区"
        }
    },
    {
        "id": "12239285869356199326",
        "title": "中国石化朝阳加油站公共厕所",
        "address": "湖南省湘潭市湘潭县凤凰中路489号中国石化朝阳加油站",
        "tel": "",
        "category": "基础设施:公共设施:公共厕所",
        "type": 0,
        "location": {
            "lat": 27.786947,
            "lng": 112.958002
        },
        "ad_info": {
            "adcode": 430321,
            "province": "湖南省",
            "city": "湘潭市",
            "district": "湘潭县"
        }
    },
    {
        "id": "3948170476825311227",
        "title": "公共厕所",
        "address": "湖南省湘潭市湘乡市S226与S328交叉口正西方向1505米左右",
        "tel": "",
        "category": "基础设施:公共设施:公共厕所",
        "type": 0,
        "location": {
            "lat": 27.681909,
            "lng": 112.061908
        },
        "ad_info": {
            "adcode": 430381,
            "province": "湖南省",
            "city": "湘潭市",
            "district": "湘乡市"
        }
    },
    {
        "id": "9922613941172166148",
        "title": "昭山服务区第三公共厕所",
        "address": "湖南省湘潭市岳塘区Y002与昭云路交叉口东南方向419米左右",
        "tel": "",
        "category": "基础设施:公共设施:公共厕所",
        "type": 0,
        "location": {
            "lat": 27.965784,
            "lng": 113.042773
        },
        "ad_info": {
            "adcode": 430304,
            "province": "湖南省",
            "city": "湘潭市",
            "district": "岳塘区"
        }
    },
    {
        "id": "14968301275884048253",
        "title": "公共厕所",
        "address": "湖南省湘潭市雨湖区城正街与观湘门路交叉口西北方向176米左右",
        "tel": "",
        "category": "基础设施:公共设施:公共厕所",
        "type": 0,
        "location": {
            "lat": 27.863781,
            "lng": 112.925595
        },
        "ad_info": {
            "adcode": 430302,
            "province": "湖南省",
            "city": "湘潭市",
            "district": "雨湖区"
        }
    },
    {
        "id": "968710462763463591",
        "title": "公共厕所",
        "address": "湖南省湘潭市雨湖区车站路556号湘潭站公交站场",
        "tel": "",
        "category": "基础设施:公共设施:公共厕所",
        "type": 0,
        "location": {
            "lat": 27.874157,
            "lng": 112.911368
        },
        "ad_info": {
            "adcode": 430302,
            "province": "湖南省",
            "city": "湘潭市",
            "district": "雨湖区"
        }
    },
    {
        "id": "1262152128202403934",
        "title": "公共厕所",
        "address": "湖南省湘潭市湘潭县天易大道与荷花中路交叉口正东方向159米左右",
        "tel": "",
        "category": "基础设施:公共设施:公共厕所",
        "type": 0,
        "location": {
            "lat": 27.780302,
            "lng": 112.967141
        },
        "ad_info": {
            "adcode": 430321,
            "province": "湖南省",
            "city": "湘潭市",
            "district": "湘潭县"
        }
    },
    {
        "id": "2292826057290244689",
        "title": "公共厕所",
        "address": "湖南省湘潭市雨湖区金庭街湘潭市第十一中学",
        "tel": "",
        "category": "基础设施:公共设施:公共厕所",
        "type": 0,
        "location": {
            "lat": 27.854077,
            "lng": 112.902407
        },
        "ad_info": {
            "adcode": 430302,
            "province": "湖南省",
            "city": "湘潭市",
            "district": "雨湖区"
        }
    },
    {
        "id": "17194925293354990334",
        "title": "公共厕所",
        "address": "湖南省湘潭市湘乡市大正街与直四牌楼街交叉口西南方向56米左右",
        "tel": "",
        "category": "基础设施:公共设施:公共厕所",
        "type": 0,
        "location": {
            "lat": 27.730578,
            "lng": 112.534109
        },
        "ad_info": {
            "adcode": 430381,
            "province": "湖南省",
            "city": "湘潭市",
            "district": "湘乡市"
        }
    },
    {
        "id": "2244723857357950835",
        "title": "洗手间",
        "address": "湖南省湘潭市岳塘区钢城路1号",
        "tel": "",
        "category": "基础设施:公共设施:公共厕所",
        "type": 0,
        "location": {
            "lat": 27.815471,
            "lng": 112.915167
        },
        "ad_info": {
            "adcode": 430304,
            "province": "湖南省",
            "city": "湘潭市",
            "district": "岳塘区"
        }
    },
    {
        "id": "9382732975059563352",
        "title": "公共厕所",
        "address": "湖南省湘潭市岳塘区书院西路与禾花巷交叉口正北方向151米左右",
        "tel": "",
        "category": "基础设施:公共设施:公共厕所",
        "type": 0,
        "location": {
            "lat": 27.816629,
            "lng": 112.932023
        },
        "ad_info": {
            "adcode": 430304,
            "province": "湖南省",
            "city": "湘潭市",
            "district": "岳塘区"
        }
    },
    {
        "id": "14770141367970033689",
        "title": "公共厕所",
        "address": "湖南省湘潭市湘乡市书院路与民主路交叉口西北方向61米左右",
        "tel": "",
        "category": "基础设施:公共设施:公共厕所",
        "type": 0,
        "location": {
            "lat": 27.724466,
            "lng": 112.545978
        },
        "ad_info": {
            "adcode": 430381,
            "province": "湖南省",
            "city": "湘潭市",
            "district": "湘乡市"
        }
    },
    {
        "id": "984494438932752377",
        "title": "公共厕所",
        "address": "湖南省湘潭市雨湖区G320与S219交叉口正西方向1277米左右",
        "tel": "",
        "category": "基础设施:公共设施:公共厕所",
        "type": 0,
        "location": {
            "lat": 27.846985,
            "lng": 112.750196
        },
        "ad_info": {
            "adcode": 430302,
            "province": "湖南省",
            "city": "湘潭市",
            "district": "雨湖区"
        }
    },
    {
        "id": "7574841267331839227",
        "title": "公共厕所",
        "address": "湖南省湘潭市雨湖区文星门路与车站路交叉口正北方向226米左右",
        "tel": "",
        "category": "基础设施:公共设施:公共厕所",
        "type": 0,
        "location": {
            "lat": 27.875332,
            "lng": 112.91234
        },
        "ad_info": {
            "adcode": 430302,
            "province": "湖南省",
            "city": "湘潭市",
            "district": "雨湖区"
        }
    },
    {
        "id": "12116835583488880350",
        "title": "公共厕所",
        "address": "湖南省湘潭市岳塘区申塘路与福星中路交叉口正东方向71米左右",
        "tel": "",
        "category": "基础设施:公共设施:公共厕所",
        "type": 0,
        "location": {
            "lat": 27.840848,
            "lng": 112.920672
        },
        "ad_info": {
            "adcode": 430304,
            "province": "湖南省",
            "city": "湘潭市",
            "district": "岳塘区"
        }
    },
    {
        "id": "6239304718020819982",
        "title": "公共厕所(湘潭华银生态园休闲中心)",
        "address": "湖南省湘潭市雨湖区湘潭华银生态园",
        "tel": "",
        "category": "基础设施:公共设施:公共厕所",
        "type": 0,
        "location": {
            "lat": 27.862069,
            "lng": 112.842998
        },
        "ad_info": {
            "adcode": 430302,
            "province": "湖南省",
            "city": "湘潭市",
            "district": "雨湖区"
        }
    },
    {
        "id": "165088672826201946",
        "title": "公共厕所",
        "address": "湖南省湘潭市韶山市清溪路与车站路交叉口西南方向85米左右",
        "tel": "",
        "category": "基础设施:公共设施:公共厕所",
        "type": 0,
        "location": {
            "lat": 27.92142,
            "lng": 112.527822
        },
        "ad_info": {
            "adcode": 430382,
            "province": "湖南省",
            "city": "湘潭市",
            "district": "韶山市"
        }
    },
    {
        "id": "17532311667283886173",
        "title": "公共厕所",
        "address": "湖南省湘潭市湘潭县南区中心路与南区大道交叉口东南方向56米左右",
        "tel": "",
        "category": "基础设施:公共设施:公共厕所",
        "type": 0,
        "location": {
            "lat": 27.754629,
            "lng": 112.719831
        },
        "ad_info": {
            "adcode": 430321,
            "province": "湖南省",
            "city": "湘潭市",
            "district": "湘潭县"
        }
    },
    {
        "id": "824021409627012848",
        "title": "女洗手间(嘉亨茂)",
        "address": "湖南省湘潭市湘乡市东风路3号万隆中央广场F2",
        "tel": "",
        "category": "基础设施:公共设施:女洗手间",
        "type": 0,
        "location": {
            "lat": 27.734718,
            "lng": 112.531463
        },
        "ad_info": {
            "adcode": 430381,
            "province": "湖南省",
            "city": "湘潭市",
            "district": "湘乡市"
        }
    },
    {
        "id": "15754719279544440366",
        "title": "女卫生间(嘉亨茂)",
        "address": "湖南省湘潭市湘乡市东风路3号万隆中央广场F1",
        "tel": "",
        "category": "基础设施:公共设施:女洗手间",
        "type": 0,
        "location": {
            "lat": 27.73459,
            "lng": 112.531466
        },
        "ad_info": {
            "adcode": 430381,
            "province": "湖南省",
            "city": "湘潭市",
            "district": "湘乡市"
        }
    },
    {
        "id": "13697010248381233845",
        "title": "洗手间",
        "address": "湖南省湘潭市湘乡市G320与S222交叉口西南方向285米左右",
        "tel": "",
        "category": "基础设施:公共设施:公共厕所",
        "type": 0,
        "location": {
            "lat": 27.605212,
            "lng": 112.356724
        },
        "ad_info": {
            "adcode": 430381,
            "province": "湖南省",
            "city": "湘潭市",
            "district": "湘乡市"
        }
    },
    {
        "id": "69268476501195781",
        "title": "公共厕所",
        "address": "湖南省湘潭市雨湖区X082与白云路交叉口西南方向387米左右",
        "tel": "",
        "category": "基础设施:公共设施:公共厕所",
        "type": 0,
        "location": {
            "lat": 27.985037,
            "lng": 112.870042
        },
        "ad_info": {
            "adcode": 430302,
            "province": "湖南省",
            "city": "湘潭市",
            "district": "雨湖区"
        }
    },
    {
        "id": "14235355003052322795",
        "title": "公共厕所(湘潭经开区响水乡星沙村半部苑)",
        "address": "湖南省湘潭市雨湖区红星路21号",
        "tel": "",
        "category": "基础设施:公共设施:公共厕所",
        "type": 0,
        "location": {
            "lat": 27.914138,
            "lng": 112.903761
        },
        "ad_info": {
            "adcode": 430302,
            "province": "湖南省",
            "city": "湘潭市",
            "district": "雨湖区"
        }
    },
    {
        "id": "9922613941172166148",
        "title": "昭山服务区第三公共厕所",
        "address": "湖南省湘潭市岳塘区Y002与昭云路交叉口东南方向419米左右",
        "tel": "",
        "category": "基础设施:公共设施:公共厕所",
        "type": 0,
        "location": {
            "lat": 27.965784,
            "lng": 113.042773
        },
        "ad_info": {
            "adcode": 430304,
            "province": "湖南省",
            "city": "湘潭市",
            "district": "岳塘区"
        }
    },
    {
        "id": "14968301275884048253",
        "title": "公共厕所",
        "address": "湖南省湘潭市雨湖区城正街与观湘门路交叉口西北方向176米左右",
        "tel": "",
        "category": "基础设施:公共设施:公共厕所",
        "type": 0,
        "location": {
            "lat": 27.863781,
            "lng": 112.925595
        },
        "ad_info": {
            "adcode": 430302,
            "province": "湖南省",
            "city": "湘潭市",
            "district": "雨湖区"
        }
    },
    {
        "id": "968710462763463591",
        "title": "公共厕所",
        "address": "湖南省湘潭市雨湖区车站路556号湘潭站公交站场",
        "tel": "",
        "category": "基础设施:公共设施:公共厕所",
        "type": 0,
        "location": {
            "lat": 27.874157,
            "lng": 112.911368
        },
        "ad_info": {
            "adcode": 430302,
            "province": "湖南省",
            "city": "湘潭市",
            "district": "雨湖区"
        }
    },
    {
        "id": "1262152128202403934",
        "title": "公共厕所",
        "address": "湖南省湘潭市湘潭县天易大道与荷花中路交叉口正东方向159米左右",
        "tel": "",
        "category": "基础设施:公共设施:公共厕所",
        "type": 0,
        "location": {
            "lat": 27.780302,
            "lng": 112.967141
        },
        "ad_info": {
            "adcode": 430321,
            "province": "湖南省",
            "city": "湘潭市",
            "district": "湘潭县"
        }
    },
    {
        "id": "2292826057290244689",
        "title": "公共厕所",
        "address": "湖南省湘潭市雨湖区金庭街湘潭市第十一中学",
        "tel": "",
        "category": "基础设施:公共设施:公共厕所",
        "type": 0,
        "location": {
            "lat": 27.854077,
            "lng": 112.902407
        },
        "ad_info": {
            "adcode": 430302,
            "province": "湖南省",
            "city": "湘潭市",
            "district": "雨湖区"
        }
    },
    {
        "id": "17194925293354990334",
        "title": "公共厕所",
        "address": "湖南省湘潭市湘乡市大正街与直四牌楼街交叉口西南方向56米左右",
        "tel": "",
        "category": "基础设施:公共设施:公共厕所",
        "type": 0,
        "location": {
            "lat": 27.730578,
            "lng": 112.534109
        },
        "ad_info": {
            "adcode": 430381,
            "province": "湖南省",
            "city": "湘潭市",
            "district": "湘乡市"
        }
    },
    {
        "id": "2244723857357950835",
        "title": "洗手间",
        "address": "湖南省湘潭市岳塘区钢城路1号",
        "tel": "",
        "category": "基础设施:公共设施:公共厕所",
        "type": 0,
        "location": {
            "lat": 27.815471,
            "lng": 112.915167
        },
        "ad_info": {
            "adcode": 430304,
            "province": "湖南省",
            "city": "湘潭市",
            "district": "岳塘区"
        }
    },
    {
        "id": "9382732975059563352",
        "title": "公共厕所",
        "address": "湖南省湘潭市岳塘区书院西路与禾花巷交叉口正北方向151米左右",
        "tel": "",
        "category": "基础设施:公共设施:公共厕所",
        "type": 0,
        "location": {
            "lat": 27.816629,
            "lng": 112.932023
        },
        "ad_info": {
            "adcode": 430304,
            "province": "湖南省",
            "city": "湘潭市",
            "district": "岳塘区"
        }
    },
    {
        "id": "14770141367970033689",
        "title": "公共厕所",
        "address": "湖南省湘潭市湘乡市书院路与民主路交叉口西北方向61米左右",
        "tel": "",
        "category": "基础设施:公共设施:公共厕所",
        "type": 0,
        "location": {
            "lat": 27.724466,
            "lng": 112.545978
        },
        "ad_info": {
            "adcode": 430381,
            "province": "湖南省",
            "city": "湘潭市",
            "district": "湘乡市"
        }
    },
    {
        "id": "984494438932752377",
        "title": "公共厕所",
        "address": "湖南省湘潭市雨湖区G320与S219交叉口正西方向1277米左右",
        "tel": "",
        "category": "基础设施:公共设施:公共厕所",
        "type": 0,
        "location": {
            "lat": 27.846985,
            "lng": 112.750196
        },
        "ad_info": {
            "adcode": 430302,
            "province": "湖南省",
            "city": "湘潭市",
            "district": "雨湖区"
        }
    },
    {
        "id": "7574841267331839227",
        "title": "公共厕所",
        "address": "湖南省湘潭市雨湖区文星门路与车站路交叉口正北方向226米左右",
        "tel": "",
        "category": "基础设施:公共设施:公共厕所",
        "type": 0,
        "location": {
            "lat": 27.875332,
            "lng": 112.91234
        },
        "ad_info": {
            "adcode": 430302,
            "province": "湖南省",
            "city": "湘潭市",
            "district": "雨湖区"
        }
    },
    {
        "id": "12116835583488880350",
        "title": "公共厕所",
        "address": "湖南省湘潭市岳塘区申塘路与福星中路交叉口正东方向71米左右",
        "tel": "",
        "category": "基础设施:公共设施:公共厕所",
        "type": 0,
        "location": {
            "lat": 27.840848,
            "lng": 112.920672
        },
        "ad_info": {
            "adcode": 430304,
            "province": "湖南省",
            "city": "湘潭市",
            "district": "岳塘区"
        }
    },
    {
        "id": "6239304718020819982",
        "title": "公共厕所(湘潭华银生态园休闲中心)",
        "address": "湖南省湘潭市雨湖区湘潭华银生态园",
        "tel": "",
        "category": "基础设施:公共设施:公共厕所",
        "type": 0,
        "location": {
            "lat": 27.862069,
            "lng": 112.842998
        },
        "ad_info": {
            "adcode": 430302,
            "province": "湖南省",
            "city": "湘潭市",
            "district": "雨湖区"
        }
    },
    {
        "id": "165088672826201946",
        "title": "公共厕所",
        "address": "湖南省湘潭市韶山市清溪路与车站路交叉口西南方向85米左右",
        "tel": "",
        "category": "基础设施:公共设施:公共厕所",
        "type": 0,
        "location": {
            "lat": 27.92142,
            "lng": 112.527822
        },
        "ad_info": {
            "adcode": 430382,
            "province": "湖南省",
            "city": "湘潭市",
            "district": "韶山市"
        }
    },
    {
        "id": "17532311667283886173",
        "title": "公共厕所",
        "address": "湖南省湘潭市湘潭县南区中心路与南区大道交叉口东南方向56米左右",
        "tel": "",
        "category": "基础设施:公共设施:公共厕所",
        "type": 0,
        "location": {
            "lat": 27.754629,
            "lng": 112.719831
        },
        "ad_info": {
            "adcode": 430321,
            "province": "湖南省",
            "city": "湘潭市",
            "district": "湘潭县"
        }
    },
    {
        "id": "824021409627012848",
        "title": "女洗手间(嘉亨茂)",
        "address": "湖南省湘潭市湘乡市东风路3号万隆中央广场F2",
        "tel": "",
        "category": "基础设施:公共设施:女洗手间",
        "type": 0,
        "location": {
            "lat": 27.734718,
            "lng": 112.531463
        },
        "ad_info": {
            "adcode": 430381,
            "province": "湖南省",
            "city": "湘潭市",
            "district": "湘乡市"
        }
    },
    {
        "id": "15754719279544440366",
        "title": "女卫生间(嘉亨茂)",
        "address": "湖南省湘潭市湘乡市东风路3号万隆中央广场F1",
        "tel": "",
        "category": "基础设施:公共设施:女洗手间",
        "type": 0,
        "location": {
            "lat": 27.73459,
            "lng": 112.531466
        },
        "ad_info": {
            "adcode": 430381,
            "province": "湖南省",
            "city": "湘潭市",
            "district": "湘乡市"
        }
    },
    {
        "id": "13697010248381233845",
        "title": "洗手间",
        "address": "湖南省湘潭市湘乡市G320与S222交叉口西南方向285米左右",
        "tel": "",
        "category": "基础设施:公共设施:公共厕所",
        "type": 0,
        "location": {
            "lat": 27.605212,
            "lng": 112.356724
        },
        "ad_info": {
            "adcode": 430381,
            "province": "湖南省",
            "city": "湘潭市",
            "district": "湘乡市"
        }
    },
    {
        "id": "69268476501195781",
        "title": "公共厕所",
        "address": "湖南省湘潭市雨湖区X082与白云路交叉口西南方向387米左右",
        "tel": "",
        "category": "基础设施:公共设施:公共厕所",
        "type": 0,
        "location": {
            "lat": 27.985037,
            "lng": 112.870042
        },
        "ad_info": {
            "adcode": 430302,
            "province": "湖南省",
            "city": "湘潭市",
            "district": "雨湖区"
        }
    },
    {
        "id": "14235355003052322795",
        "title": "公共厕所(湘潭经开区响水乡星沙村半部苑)",
        "address": "湖南省湘潭市雨湖区红星路21号",
        "tel": "",
        "category": "基础设施:公共设施:公共厕所",
        "type": 0,
        "location": {
            "lat": 27.914138,
            "lng": 112.903761
        },
        "ad_info": {
            "adcode": 430302,
            "province": "湖南省",
            "city": "湘潭市",
            "district": "雨湖区"
        }
    },
    {
        "id": "9922613941172166148",
        "title": "昭山服务区第三公共厕所",
        "address": "湖南省湘潭市岳塘区Y002与昭云路交叉口东南方向419米左右",
        "tel": "",
        "category": "基础设施:公共设施:公共厕所",
        "type": 0,
        "location": {
            "lat": 27.965784,
            "lng": 113.042773
        },
        "ad_info": {
            "adcode": 430304,
            "province": "湖南省",
            "city": "湘潭市",
            "district": "岳塘区"
        }
    },
    {
        "id": "14968301275884048253",
        "title": "公共厕所",
        "address": "湖南省湘潭市雨湖区城正街与观湘门路交叉口西北方向176米左右",
        "tel": "",
        "category": "基础设施:公共设施:公共厕所",
        "type": 0,
        "location": {
            "lat": 27.863781,
            "lng": 112.925595
        },
        "ad_info": {
            "adcode": 430302,
            "province": "湖南省",
            "city": "湘潭市",
            "district": "雨湖区"
        }
    },
    {
        "id": "968710462763463591",
        "title": "公共厕所",
        "address": "湖南省湘潭市雨湖区车站路556号湘潭站公交站场",
        "tel": "",
        "category": "基础设施:公共设施:公共厕所",
        "type": 0,
        "location": {
            "lat": 27.874157,
            "lng": 112.911368
        },
        "ad_info": {
            "adcode": 430302,
            "province": "湖南省",
            "city": "湘潭市",
            "district": "雨湖区"
        }
    },
    {
        "id": "1262152128202403934",
        "title": "公共厕所",
        "address": "湖南省湘潭市湘潭县天易大道与荷花中路交叉口正东方向159米左右",
        "tel": "",
        "category": "基础设施:公共设施:公共厕所",
        "type": 0,
        "location": {
            "lat": 27.780302,
            "lng": 112.967141
        },
        "ad_info": {
            "adcode": 430321,
            "province": "湖南省",
            "city": "湘潭市",
            "district": "湘潭县"
        }
    },
    {
        "id": "2292826057290244689",
        "title": "公共厕所",
        "address": "湖南省湘潭市雨湖区金庭街湘潭市第十一中学",
        "tel": "",
        "category": "基础设施:公共设施:公共厕所",
        "type": 0,
        "location": {
            "lat": 27.854077,
            "lng": 112.902407
        },
        "ad_info": {
            "adcode": 430302,
            "province": "湖南省",
            "city": "湘潭市",
            "district": "雨湖区"
        }
    },
    {
        "id": "17194925293354990334",
        "title": "公共厕所",
        "address": "湖南省湘潭市湘乡市大正街与直四牌楼街交叉口西南方向56米左右",
        "tel": "",
        "category": "基础设施:公共设施:公共厕所",
        "type": 0,
        "location": {
            "lat": 27.730578,
            "lng": 112.534109
        },
        "ad_info": {
            "adcode": 430381,
            "province": "湖南省",
            "city": "湘潭市",
            "district": "湘乡市"
        }
    },
    {
        "id": "2244723857357950835",
        "title": "洗手间",
        "address": "湖南省湘潭市岳塘区钢城路1号",
        "tel": "",
        "category": "基础设施:公共设施:公共厕所",
        "type": 0,
        "location": {
            "lat": 27.815471,
            "lng": 112.915167
        },
        "ad_info": {
            "adcode": 430304,
            "province": "湖南省",
            "city": "湘潭市",
            "district": "岳塘区"
        }
    },
    {
        "id": "9382732975059563352",
        "title": "公共厕所",
        "address": "湖南省湘潭市岳塘区书院西路与禾花巷交叉口正北方向151米左右",
        "tel": "",
        "category": "基础设施:公共设施:公共厕所",
        "type": 0,
        "location": {
            "lat": 27.816629,
            "lng": 112.932023
        },
        "ad_info": {
            "adcode": 430304,
            "province": "湖南省",
            "city": "湘潭市",
            "district": "岳塘区"
        }
    },
    {
        "id": "14770141367970033689",
        "title": "公共厕所",
        "address": "湖南省湘潭市湘乡市书院路与民主路交叉口西北方向61米左右",
        "tel": "",
        "category": "基础设施:公共设施:公共厕所",
        "type": 0,
        "location": {
            "lat": 27.724466,
            "lng": 112.545978
        },
        "ad_info": {
            "adcode": 430381,
            "province": "湖南省",
            "city": "湘潭市",
            "district": "湘乡市"
        }
    },
    {
        "id": "984494438932752377",
        "title": "公共厕所",
        "address": "湖南省湘潭市雨湖区G320与S219交叉口正西方向1277米左右",
        "tel": "",
        "category": "基础设施:公共设施:公共厕所",
        "type": 0,
        "location": {
            "lat": 27.846985,
            "lng": 112.750196
        },
        "ad_info": {
            "adcode": 430302,
            "province": "湖南省",
            "city": "湘潭市",
            "district": "雨湖区"
        }
    },
    {
        "id": "7574841267331839227",
        "title": "公共厕所",
        "address": "湖南省湘潭市雨湖区文星门路与车站路交叉口正北方向226米左右",
        "tel": "",
        "category": "基础设施:公共设施:公共厕所",
        "type": 0,
        "location": {
            "lat": 27.875332,
            "lng": 112.91234
        },
        "ad_info": {
            "adcode": 430302,
            "province": "湖南省",
            "city": "湘潭市",
            "district": "雨湖区"
        }
    },
    {
        "id": "12116835583488880350",
        "title": "公共厕所",
        "address": "湖南省湘潭市岳塘区申塘路与福星中路交叉口正东方向71米左右",
        "tel": "",
        "category": "基础设施:公共设施:公共厕所",
        "type": 0,
        "location": {
            "lat": 27.840848,
            "lng": 112.920672
        },
        "ad_info": {
            "adcode": 430304,
            "province": "湖南省",
            "city": "湘潭市",
            "district": "岳塘区"
        }
    },
    {
        "id": "6239304718020819982",
        "title": "公共厕所(湘潭华银生态园休闲中心)",
        "address": "湖南省湘潭市雨湖区湘潭华银生态园",
        "tel": "",
        "category": "基础设施:公共设施:公共厕所",
        "type": 0,
        "location": {
            "lat": 27.862069,
            "lng": 112.842998
        },
        "ad_info": {
            "adcode": 430302,
            "province": "湖南省",
            "city": "湘潭市",
            "district": "雨湖区"
        }
    },
    {
        "id": "165088672826201946",
        "title": "公共厕所",
        "address": "湖南省湘潭市韶山市清溪路与车站路交叉口西南方向85米左右",
        "tel": "",
        "category": "基础设施:公共设施:公共厕所",
        "type": 0,
        "location": {
            "lat": 27.92142,
            "lng": 112.527822
        },
        "ad_info": {
            "adcode": 430382,
            "province": "湖南省",
            "city": "湘潭市",
            "district": "韶山市"
        }
    },
    {
        "id": "17532311667283886173",
        "title": "公共厕所",
        "address": "湖南省湘潭市湘潭县南区中心路与南区大道交叉口东南方向56米左右",
        "tel": "",
        "category": "基础设施:公共设施:公共厕所",
        "type": 0,
        "location": {
            "lat": 27.754629,
            "lng": 112.719831
        },
        "ad_info": {
            "adcode": 430321,
            "province": "湖南省",
            "city": "湘潭市",
            "district": "湘潭县"
        }
    },
    {
        "id": "824021409627012848",
        "title": "女洗手间(嘉亨茂)",
        "address": "湖南省湘潭市湘乡市东风路3号万隆中央广场F2",
        "tel": "",
        "category": "基础设施:公共设施:女洗手间",
        "type": 0,
        "location": {
            "lat": 27.734718,
            "lng": 112.531463
        },
        "ad_info": {
            "adcode": 430381,
            "province": "湖南省",
            "city": "湘潭市",
            "district": "湘乡市"
        }
    },
    {
        "id": "15754719279544440366",
        "title": "女卫生间(嘉亨茂)",
        "address": "湖南省湘潭市湘乡市东风路3号万隆中央广场F1",
        "tel": "",
        "category": "基础设施:公共设施:女洗手间",
        "type": 0,
        "location": {
            "lat": 27.73459,
            "lng": 112.531466
        },
        "ad_info": {
            "adcode": 430381,
            "province": "湖南省",
            "city": "湘潭市",
            "district": "湘乡市"
        }
    },
    {
        "id": "13697010248381233845",
        "title": "洗手间",
        "address": "湖南省湘潭市湘乡市G320与S222交叉口西南方向285米左右",
        "tel": "",
        "category": "基础设施:公共设施:公共厕所",
        "type": 0,
        "location": {
            "lat": 27.605212,
            "lng": 112.356724
        },
        "ad_info": {
            "adcode": 430381,
            "province": "湖南省",
            "city": "湘潭市",
            "district": "湘乡市"
        }
    },
    {
        "id": "69268476501195781",
        "title": "公共厕所",
        "address": "湖南省湘潭市雨湖区X082与白云路交叉口西南方向387米左右",
        "tel": "",
        "category": "基础设施:公共设施:公共厕所",
        "type": 0,
        "location": {
            "lat": 27.985037,
            "lng": 112.870042
        },
        "ad_info": {
            "adcode": 430302,
            "province": "湖南省",
            "city": "湘潭市",
            "district": "雨湖区"
        }
    },
    {
        "id": "14235355003052322795",
        "title": "公共厕所(湘潭经开区响水乡星沙村半部苑)",
        "address": "湖南省湘潭市雨湖区红星路21号",
        "tel": "",
        "category": "基础设施:公共设施:公共厕所",
        "type": 0,
        "location": {
            "lat": 27.914138,
            "lng": 112.903761
        },
        "ad_info": {
            "adcode": 430302,
            "province": "湖南省",
            "city": "湘潭市",
            "district": "雨湖区"
        }
    },
    {
        "id": "9922613941172166148",
        "title": "昭山服务区第三公共厕所",
        "address": "湖南省湘潭市岳塘区Y002与昭云路交叉口东南方向419米左右",
        "tel": "",
        "category": "基础设施:公共设施:公共厕所",
        "type": 0,
        "location": {
            "lat": 27.965784,
            "lng": 113.042773
        },
        "ad_info": {
            "adcode": 430304,
            "province": "湖南省",
            "city": "湘潭市",
            "district": "岳塘区"
        }
    },
    {
        "id": "14968301275884048253",
        "title": "公共厕所",
        "address": "湖南省湘潭市雨湖区城正街与观湘门路交叉口西北方向176米左右",
        "tel": "",
        "category": "基础设施:公共设施:公共厕所",
        "type": 0,
        "location": {
            "lat": 27.863781,
            "lng": 112.925595
        },
        "ad_info": {
            "adcode": 430302,
            "province": "湖南省",
            "city": "湘潭市",
            "district": "雨湖区"
        }
    },
    {
        "id": "968710462763463591",
        "title": "公共厕所",
        "address": "湖南省湘潭市雨湖区车站路556号湘潭站公交站场",
        "tel": "",
        "category": "基础设施:公共设施:公共厕所",
        "type": 0,
        "location": {
            "lat": 27.874157,
            "lng": 112.911368
        },
        "ad_info": {
            "adcode": 430302,
            "province": "湖南省",
            "city": "湘潭市",
            "district": "雨湖区"
        }
    },
    {
        "id": "1262152128202403934",
        "title": "公共厕所",
        "address": "湖南省湘潭市湘潭县天易大道与荷花中路交叉口正东方向159米左右",
        "tel": "",
        "category": "基础设施:公共设施:公共厕所",
        "type": 0,
        "location": {
            "lat": 27.780302,
            "lng": 112.967141
        },
        "ad_info": {
            "adcode": 430321,
            "province": "湖南省",
            "city": "湘潭市",
            "district": "湘潭县"
        }
    },
    {
        "id": "2292826057290244689",
        "title": "公共厕所",
        "address": "湖南省湘潭市雨湖区金庭街湘潭市第十一中学",
        "tel": "",
        "category": "基础设施:公共设施:公共厕所",
        "type": 0,
        "location": {
            "lat": 27.854077,
            "lng": 112.902407
        },
        "ad_info": {
            "adcode": 430302,
            "province": "湖南省",
            "city": "湘潭市",
            "district": "雨湖区"
        }
    },
    {
        "id": "17194925293354990334",
        "title": "公共厕所",
        "address": "湖南省湘潭市湘乡市大正街与直四牌楼街交叉口西南方向56米左右",
        "tel": "",
        "category": "基础设施:公共设施:公共厕所",
        "type": 0,
        "location": {
            "lat": 27.730578,
            "lng": 112.534109
        },
        "ad_info": {
            "adcode": 430381,
            "province": "湖南省",
            "city": "湘潭市",
            "district": "湘乡市"
        }
    },
    {
        "id": "2244723857357950835",
        "title": "洗手间",
        "address": "湖南省湘潭市岳塘区钢城路1号",
        "tel": "",
        "category": "基础设施:公共设施:公共厕所",
        "type": 0,
        "location": {
            "lat": 27.815471,
            "lng": 112.915167
        },
        "ad_info": {
            "adcode": 430304,
            "province": "湖南省",
            "city": "湘潭市",
            "district": "岳塘区"
        }
    },
    {
        "id": "9382732975059563352",
        "title": "公共厕所",
        "address": "湖南省湘潭市岳塘区书院西路与禾花巷交叉口正北方向151米左右",
        "tel": "",
        "category": "基础设施:公共设施:公共厕所",
        "type": 0,
        "location": {
            "lat": 27.816629,
            "lng": 112.932023
        },
        "ad_info": {
            "adcode": 430304,
            "province": "湖南省",
            "city": "湘潭市",
            "district": "岳塘区"
        }
    },
    {
        "id": "14770141367970033689",
        "title": "公共厕所",
        "address": "湖南省湘潭市湘乡市书院路与民主路交叉口西北方向61米左右",
        "tel": "",
        "category": "基础设施:公共设施:公共厕所",
        "type": 0,
        "location": {
            "lat": 27.724466,
            "lng": 112.545978
        },
        "ad_info": {
            "adcode": 430381,
            "province": "湖南省",
            "city": "湘潭市",
            "district": "湘乡市"
        }
    },
    {
        "id": "984494438932752377",
        "title": "公共厕所",
        "address": "湖南省湘潭市雨湖区G320与S219交叉口正西方向1277米左右",
        "tel": "",
        "category": "基础设施:公共设施:公共厕所",
        "type": 0,
        "location": {
            "lat": 27.846985,
            "lng": 112.750196
        },
        "ad_info": {
            "adcode": 430302,
            "province": "湖南省",
            "city": "湘潭市",
            "district": "雨湖区"
        }
    },
    {
        "id": "7574841267331839227",
        "title": "公共厕所",
        "address": "湖南省湘潭市雨湖区文星门路与车站路交叉口正北方向226米左右",
        "tel": "",
        "category": "基础设施:公共设施:公共厕所",
        "type": 0,
        "location": {
            "lat": 27.875332,
            "lng": 112.91234
        },
        "ad_info": {
            "adcode": 430302,
            "province": "湖南省",
            "city": "湘潭市",
            "district": "雨湖区"
        }
    },
    {
        "id": "12116835583488880350",
        "title": "公共厕所",
        "address": "湖南省湘潭市岳塘区申塘路与福星中路交叉口正东方向71米左右",
        "tel": "",
        "category": "基础设施:公共设施:公共厕所",
        "type": 0,
        "location": {
            "lat": 27.840848,
            "lng": 112.920672
        },
        "ad_info": {
            "adcode": 430304,
            "province": "湖南省",
            "city": "湘潭市",
            "district": "岳塘区"
        }
    },
    {
        "id": "6239304718020819982",
        "title": "公共厕所(湘潭华银生态园休闲中心)",
        "address": "湖南省湘潭市雨湖区湘潭华银生态园",
        "tel": "",
        "category": "基础设施:公共设施:公共厕所",
        "type": 0,
        "location": {
            "lat": 27.862069,
            "lng": 112.842998
        },
        "ad_info": {
            "adcode": 430302,
            "province": "湖南省",
            "city": "湘潭市",
            "district": "雨湖区"
        }
    },
    {
        "id": "165088672826201946",
        "title": "公共厕所",
        "address": "湖南省湘潭市韶山市清溪路与车站路交叉口西南方向85米左右",
        "tel": "",
        "category": "基础设施:公共设施:公共厕所",
        "type": 0,
        "location": {
            "lat": 27.92142,
            "lng": 112.527822
        },
        "ad_info": {
            "adcode": 430382,
            "province": "湖南省",
            "city": "湘潭市",
            "district": "韶山市"
        }
    },
    {
        "id": "17532311667283886173",
        "title": "公共厕所",
        "address": "湖南省湘潭市湘潭县南区中心路与南区大道交叉口东南方向56米左右",
        "tel": "",
        "category": "基础设施:公共设施:公共厕所",
        "type": 0,
        "location": {
            "lat": 27.754629,
            "lng": 112.719831
        },
        "ad_info": {
            "adcode": 430321,
            "province": "湖南省",
            "city": "湘潭市",
            "district": "湘潭县"
        }
    },
    {
        "id": "824021409627012848",
        "title": "女洗手间(嘉亨茂)",
        "address": "湖南省湘潭市湘乡市东风路3号万隆中央广场F2",
        "tel": "",
        "category": "基础设施:公共设施:女洗手间",
        "type": 0,
        "location": {
            "lat": 27.734718,
            "lng": 112.531463
        },
        "ad_info": {
            "adcode": 430381,
            "province": "湖南省",
            "city": "湘潭市",
            "district": "湘乡市"
        }
    },
    {
        "id": "15754719279544440366",
        "title": "女卫生间(嘉亨茂)",
        "address": "湖南省湘潭市湘乡市东风路3号万隆中央广场F1",
        "tel": "",
        "category": "基础设施:公共设施:女洗手间",
        "type": 0,
        "location": {
            "lat": 27.73459,
            "lng": 112.531466
        },
        "ad_info": {
            "adcode": 430381,
            "province": "湖南省",
            "city": "湘潭市",
            "district": "湘乡市"
        }
    },
    {
        "id": "13697010248381233845",
        "title": "洗手间",
        "address": "湖南省湘潭市湘乡市G320与S222交叉口西南方向285米左右",
        "tel": "",
        "category": "基础设施:公共设施:公共厕所",
        "type": 0,
        "location": {
            "lat": 27.605212,
            "lng": 112.356724
        },
        "ad_info": {
            "adcode": 430381,
            "province": "湖南省",
            "city": "湘潭市",
            "district": "湘乡市"
        }
    },
    {
        "id": "69268476501195781",
        "title": "公共厕所",
        "address": "湖南省湘潭市雨湖区X082与白云路交叉口西南方向387米左右",
        "tel": "",
        "category": "基础设施:公共设施:公共厕所",
        "type": 0,
        "location": {
            "lat": 27.985037,
            "lng": 112.870042
        },
        "ad_info": {
            "adcode": 430302,
            "province": "湖南省",
            "city": "湘潭市",
            "district": "雨湖区"
        }
    },
    {
        "id": "14235355003052322795",
        "title": "公共厕所(湘潭经开区响水乡星沙村半部苑)",
        "address": "湖南省湘潭市雨湖区红星路21号",
        "tel": "",
        "category": "基础设施:公共设施:公共厕所",
        "type": 0,
        "location": {
            "lat": 27.914138,
            "lng": 112.903761
        },
        "ad_info": {
            "adcode": 430302,
            "province": "湖南省",
            "city": "湘潭市",
            "district": "雨湖区"
        }
    },
    {
        "id": "9922613941172166148",
        "title": "昭山服务区第三公共厕所",
        "address": "湖南省湘潭市岳塘区Y002与昭云路交叉口东南方向419米左右",
        "tel": "",
        "category": "基础设施:公共设施:公共厕所",
        "type": 0,
        "location": {
            "lat": 27.965784,
            "lng": 113.042773
        },
        "ad_info": {
            "adcode": 430304,
            "province": "湖南省",
            "city": "湘潭市",
            "district": "岳塘区"
        }
    },
    {
        "id": "14968301275884048253",
        "title": "公共厕所",
        "address": "湖南省湘潭市雨湖区城正街与观湘门路交叉口西北方向176米左右",
        "tel": "",
        "category": "基础设施:公共设施:公共厕所",
        "type": 0,
        "location": {
            "lat": 27.863781,
            "lng": 112.925595
        },
        "ad_info": {
            "adcode": 430302,
            "province": "湖南省",
            "city": "湘潭市",
            "district": "雨湖区"
        }
    },
    {
        "id": "968710462763463591",
        "title": "公共厕所",
        "address": "湖南省湘潭市雨湖区车站路556号湘潭站公交站场",
        "tel": "",
        "category": "基础设施:公共设施:公共厕所",
        "type": 0,
        "location": {
            "lat": 27.874157,
            "lng": 112.911368
        },
        "ad_info": {
            "adcode": 430302,
            "province": "湖南省",
            "city": "湘潭市",
            "district": "雨湖区"
        }
    },
    {
        "id": "1262152128202403934",
        "title": "公共厕所",
        "address": "湖南省湘潭市湘潭县天易大道与荷花中路交叉口正东方向159米左右",
        "tel": "",
        "category": "基础设施:公共设施:公共厕所",
        "type": 0,
        "location": {
            "lat": 27.780302,
            "lng": 112.967141
        },
        "ad_info": {
            "adcode": 430321,
            "province": "湖南省",
            "city": "湘潭市",
            "district": "湘潭县"
        }
    },
    {
        "id": "2292826057290244689",
        "title": "公共厕所",
        "address": "湖南省湘潭市雨湖区金庭街湘潭市第十一中学",
        "tel": "",
        "category": "基础设施:公共设施:公共厕所",
        "type": 0,
        "location": {
            "lat": 27.854077,
            "lng": 112.902407
        },
        "ad_info": {
            "adcode": 430302,
            "province": "湖南省",
            "city": "湘潭市",
            "district": "雨湖区"
        }
    },
    {
        "id": "17194925293354990334",
        "title": "公共厕所",
        "address": "湖南省湘潭市湘乡市大正街与直四牌楼街交叉口西南方向56米左右",
        "tel": "",
        "category": "基础设施:公共设施:公共厕所",
        "type": 0,
        "location": {
            "lat": 27.730578,
            "lng": 112.534109
        },
        "ad_info": {
            "adcode": 430381,
            "province": "湖南省",
            "city": "湘潭市",
            "district": "湘乡市"
        }
    },
    {
        "id": "2244723857357950835",
        "title": "洗手间",
        "address": "湖南省湘潭市岳塘区钢城路1号",
        "tel": "",
        "category": "基础设施:公共设施:公共厕所",
        "type": 0,
        "location": {
            "lat": 27.815471,
            "lng": 112.915167
        },
        "ad_info": {
            "adcode": 430304,
            "province": "湖南省",
            "city": "湘潭市",
            "district": "岳塘区"
        }
    },
    {
        "id": "9382732975059563352",
        "title": "公共厕所",
        "address": "湖南省湘潭市岳塘区书院西路与禾花巷交叉口正北方向151米左右",
        "tel": "",
        "category": "基础设施:公共设施:公共厕所",
        "type": 0,
        "location": {
            "lat": 27.816629,
            "lng": 112.932023
        },
        "ad_info": {
            "adcode": 430304,
            "province": "湖南省",
            "city": "湘潭市",
            "district": "岳塘区"
        }
    },
    {
        "id": "14770141367970033689",
        "title": "公共厕所",
        "address": "湖南省湘潭市湘乡市书院路与民主路交叉口西北方向61米左右",
        "tel": "",
        "category": "基础设施:公共设施:公共厕所",
        "type": 0,
        "location": {
            "lat": 27.724466,
            "lng": 112.545978
        },
        "ad_info": {
            "adcode": 430381,
            "province": "湖南省",
            "city": "湘潭市",
            "district": "湘乡市"
        }
    },
    {
        "id": "984494438932752377",
        "title": "公共厕所",
        "address": "湖南省湘潭市雨湖区G320与S219交叉口正西方向1277米左右",
        "tel": "",
        "category": "基础设施:公共设施:公共厕所",
        "type": 0,
        "location": {
            "lat": 27.846985,
            "lng": 112.750196
        },
        "ad_info": {
            "adcode": 430302,
            "province": "湖南省",
            "city": "湘潭市",
            "district": "雨湖区"
        }
    },
    {
        "id": "7574841267331839227",
        "title": "公共厕所",
        "address": "湖南省湘潭市雨湖区文星门路与车站路交叉口正北方向226米左右",
        "tel": "",
        "category": "基础设施:公共设施:公共厕所",
        "type": 0,
        "location": {
            "lat": 27.875332,
            "lng": 112.91234
        },
        "ad_info": {
            "adcode": 430302,
            "province": "湖南省",
            "city": "湘潭市",
            "district": "雨湖区"
        }
    },
    {
        "id": "12116835583488880350",
        "title": "公共厕所",
        "address": "湖南省湘潭市岳塘区申塘路与福星中路交叉口正东方向71米左右",
        "tel": "",
        "category": "基础设施:公共设施:公共厕所",
        "type": 0,
        "location": {
            "lat": 27.840848,
            "lng": 112.920672
        },
        "ad_info": {
            "adcode": 430304,
            "province": "湖南省",
            "city": "湘潭市",
            "district": "岳塘区"
        }
    },
    {
        "id": "6239304718020819982",
        "title": "公共厕所(湘潭华银生态园休闲中心)",
        "address": "湖南省湘潭市雨湖区湘潭华银生态园",
        "tel": "",
        "category": "基础设施:公共设施:公共厕所",
        "type": 0,
        "location": {
            "lat": 27.862069,
            "lng": 112.842998
        },
        "ad_info": {
            "adcode": 430302,
            "province": "湖南省",
            "city": "湘潭市",
            "district": "雨湖区"
        }
    },
    {
        "id": "165088672826201946",
        "title": "公共厕所",
        "address": "湖南省湘潭市韶山市清溪路与车站路交叉口西南方向85米左右",
        "tel": "",
        "category": "基础设施:公共设施:公共厕所",
        "type": 0,
        "location": {
            "lat": 27.92142,
            "lng": 112.527822
        },
        "ad_info": {
            "adcode": 430382,
            "province": "湖南省",
            "city": "湘潭市",
            "district": "韶山市"
        }
    },
    {
        "id": "17532311667283886173",
        "title": "公共厕所",
        "address": "湖南省湘潭市湘潭县南区中心路与南区大道交叉口东南方向56米左右",
        "tel": "",
        "category": "基础设施:公共设施:公共厕所",
        "type": 0,
        "location": {
            "lat": 27.754629,
            "lng": 112.719831
        },
        "ad_info": {
            "adcode": 430321,
            "province": "湖南省",
            "city": "湘潭市",
            "district": "湘潭县"
        }
    },
    {
        "id": "824021409627012848",
        "title": "女洗手间(嘉亨茂)",
        "address": "湖南省湘潭市湘乡市东风路3号万隆中央广场F2",
        "tel": "",
        "category": "基础设施:公共设施:女洗手间",
        "type": 0,
        "location": {
            "lat": 27.734718,
            "lng": 112.531463
        },
        "ad_info": {
            "adcode": 430381,
            "province": "湖南省",
            "city": "湘潭市",
            "district": "湘乡市"
        }
    },
    {
        "id": "15754719279544440366",
        "title": "女卫生间(嘉亨茂)",
        "address": "湖南省湘潭市湘乡市东风路3号万隆中央广场F1",
        "tel": "",
        "category": "基础设施:公共设施:女洗手间",
        "type": 0,
        "location": {
            "lat": 27.73459,
            "lng": 112.531466
        },
        "ad_info": {
            "adcode": 430381,
            "province": "湖南省",
            "city": "湘潭市",
            "district": "湘乡市"
        }
    },
    {
        "id": "13697010248381233845",
        "title": "洗手间",
        "address": "湖南省湘潭市湘乡市G320与S222交叉口西南方向285米左右",
        "tel": "",
        "category": "基础设施:公共设施:公共厕所",
        "type": 0,
        "location": {
            "lat": 27.605212,
            "lng": 112.356724
        },
        "ad_info": {
            "adcode": 430381,
            "province": "湖南省",
            "city": "湘潭市",
            "district": "湘乡市"
        }
    },
    {
        "id": "69268476501195781",
        "title": "公共厕所",
        "address": "湖南省湘潭市雨湖区X082与白云路交叉口西南方向387米左右",
        "tel": "",
        "category": "基础设施:公共设施:公共厕所",
        "type": 0,
        "location": {
            "lat": 27.985037,
            "lng": 112.870042
        },
        "ad_info": {
            "adcode": 430302,
            "province": "湖南省",
            "city": "湘潭市",
            "district": "雨湖区"
        }
    },
    {
        "id": "14235355003052322795",
        "title": "公共厕所(湘潭经开区响水乡星沙村半部苑)",
        "address": "湖南省湘潭市雨湖区红星路21号",
        "tel": "",
        "category": "基础设施:公共设施:公共厕所",
        "type": 0,
        "location": {
            "lat": 27.914138,
            "lng": 112.903761
        },
        "ad_info": {
            "adcode": 430302,
            "province": "湖南省",
            "city": "湘潭市",
            "district": "雨湖区"
        }
    },
    {
        "id": "9922613941172166148",
        "title": "昭山服务区第三公共厕所",
        "address": "湖南省湘潭市岳塘区Y002与昭云路交叉口东南方向419米左右",
        "tel": "",
        "category": "基础设施:公共设施:公共厕所",
        "type": 0,
        "location": {
            "lat": 27.965784,
            "lng": 113.042773
        },
        "ad_info": {
            "adcode": 430304,
            "province": "湖南省",
            "city": "湘潭市",
            "district": "岳塘区"
        }
    },
    {
        "id": "14968301275884048253",
        "title": "公共厕所",
        "address": "湖南省湘潭市雨湖区城正街与观湘门路交叉口西北方向176米左右",
        "tel": "",
        "category": "基础设施:公共设施:公共厕所",
        "type": 0,
        "location": {
            "lat": 27.863781,
            "lng": 112.925595
        },
        "ad_info": {
            "adcode": 430302,
            "province": "湖南省",
            "city": "湘潭市",
            "district": "雨湖区"
        }
    },
    {
        "id": "968710462763463591",
        "title": "公共厕所",
        "address": "湖南省湘潭市雨湖区车站路556号湘潭站公交站场",
        "tel": "",
        "category": "基础设施:公共设施:公共厕所",
        "type": 0,
        "location": {
            "lat": 27.874157,
            "lng": 112.911368
        },
        "ad_info": {
            "adcode": 430302,
            "province": "湖南省",
            "city": "湘潭市",
            "district": "雨湖区"
        }
    },
    {
        "id": "1262152128202403934",
        "title": "公共厕所",
        "address": "湖南省湘潭市湘潭县天易大道与荷花中路交叉口正东方向159米左右",
        "tel": "",
        "category": "基础设施:公共设施:公共厕所",
        "type": 0,
        "location": {
            "lat": 27.780302,
            "lng": 112.967141
        },
        "ad_info": {
            "adcode": 430321,
            "province": "湖南省",
            "city": "湘潭市",
            "district": "湘潭县"
        }
    },
    {
        "id": "2292826057290244689",
        "title": "公共厕所",
        "address": "湖南省湘潭市雨湖区金庭街湘潭市第十一中学",
        "tel": "",
        "category": "基础设施:公共设施:公共厕所",
        "type": 0,
        "location": {
            "lat": 27.854077,
            "lng": 112.902407
        },
        "ad_info": {
            "adcode": 430302,
            "province": "湖南省",
            "city": "湘潭市",
            "district": "雨湖区"
        }
    },
    {
        "id": "17194925293354990334",
        "title": "公共厕所",
        "address": "湖南省湘潭市湘乡市大正街与直四牌楼街交叉口西南方向56米左右",
        "tel": "",
        "category": "基础设施:公共设施:公共厕所",
        "type": 0,
        "location": {
            "lat": 27.730578,
            "lng": 112.534109
        },
        "ad_info": {
            "adcode": 430381,
            "province": "湖南省",
            "city": "湘潭市",
            "district": "湘乡市"
        }
    },
    {
        "id": "2244723857357950835",
        "title": "洗手间",
        "address": "湖南省湘潭市岳塘区钢城路1号",
        "tel": "",
        "category": "基础设施:公共设施:公共厕所",
        "type": 0,
        "location": {
            "lat": 27.815471,
            "lng": 112.915167
        },
        "ad_info": {
            "adcode": 430304,
            "province": "湖南省",
            "city": "湘潭市",
            "district": "岳塘区"
        }
    },
    {
        "id": "9382732975059563352",
        "title": "公共厕所",
        "address": "湖南省湘潭市岳塘区书院西路与禾花巷交叉口正北方向151米左右",
        "tel": "",
        "category": "基础设施:公共设施:公共厕所",
        "type": 0,
        "location": {
            "lat": 27.816629,
            "lng": 112.932023
        },
        "ad_info": {
            "adcode": 430304,
            "province": "湖南省",
            "city": "湘潭市",
            "district": "岳塘区"
        }
    },
    {
        "id": "14770141367970033689",
        "title": "公共厕所",
        "address": "湖南省湘潭市湘乡市书院路与民主路交叉口西北方向61米左右",
        "tel": "",
        "category": "基础设施:公共设施:公共厕所",
        "type": 0,
        "location": {
            "lat": 27.724466,
            "lng": 112.545978
        },
        "ad_info": {
            "adcode": 430381,
            "province": "湖南省",
            "city": "湘潭市",
            "district": "湘乡市"
        }
    },
    {
        "id": "984494438932752377",
        "title": "公共厕所",
        "address": "湖南省湘潭市雨湖区G320与S219交叉口正西方向1277米左右",
        "tel": "",
        "category": "基础设施:公共设施:公共厕所",
        "type": 0,
        "location": {
            "lat": 27.846985,
            "lng": 112.750196
        },
        "ad_info": {
            "adcode": 430302,
            "province": "湖南省",
            "city": "湘潭市",
            "district": "雨湖区"
        }
    },
    {
        "id": "7574841267331839227",
        "title": "公共厕所",
        "address": "湖南省湘潭市雨湖区文星门路与车站路交叉口正北方向226米左右",
        "tel": "",
        "category": "基础设施:公共设施:公共厕所",
        "type": 0,
        "location": {
            "lat": 27.875332,
            "lng": 112.91234
        },
        "ad_info": {
            "adcode": 430302,
            "province": "湖南省",
            "city": "湘潭市",
            "district": "雨湖区"
        }
    },
    {
        "id": "12116835583488880350",
        "title": "公共厕所",
        "address": "湖南省湘潭市岳塘区申塘路与福星中路交叉口正东方向71米左右",
        "tel": "",
        "category": "基础设施:公共设施:公共厕所",
        "type": 0,
        "location": {
            "lat": 27.840848,
            "lng": 112.920672
        },
        "ad_info": {
            "adcode": 430304,
            "province": "湖南省",
            "city": "湘潭市",
            "district": "岳塘区"
        }
    },
    {
        "id": "6239304718020819982",
        "title": "公共厕所(湘潭华银生态园休闲中心)",
        "address": "湖南省湘潭市雨湖区湘潭华银生态园",
        "tel": "",
        "category": "基础设施:公共设施:公共厕所",
        "type": 0,
        "location": {
            "lat": 27.862069,
            "lng": 112.842998
        },
        "ad_info": {
            "adcode": 430302,
            "province": "湖南省",
            "city": "湘潭市",
            "district": "雨湖区"
        }
    },
    {
        "id": "165088672826201946",
        "title": "公共厕所",
        "address": "湖南省湘潭市韶山市清溪路与车站路交叉口西南方向85米左右",
        "tel": "",
        "category": "基础设施:公共设施:公共厕所",
        "type": 0,
        "location": {
            "lat": 27.92142,
            "lng": 112.527822
        },
        "ad_info": {
            "adcode": 430382,
            "province": "湖南省",
            "city": "湘潭市",
            "district": "韶山市"
        }
    },
    {
        "id": "17532311667283886173",
        "title": "公共厕所",
        "address": "湖南省湘潭市湘潭县南区中心路与南区大道交叉口东南方向56米左右",
        "tel": "",
        "category": "基础设施:公共设施:公共厕所",
        "type": 0,
        "location": {
            "lat": 27.754629,
            "lng": 112.719831
        },
        "ad_info": {
            "adcode": 430321,
            "province": "湖南省",
            "city": "湘潭市",
            "district": "湘潭县"
        }
    },
    {
        "id": "824021409627012848",
        "title": "女洗手间(嘉亨茂)",
        "address": "湖南省湘潭市湘乡市东风路3号万隆中央广场F2",
        "tel": "",
        "category": "基础设施:公共设施:女洗手间",
        "type": 0,
        "location": {
            "lat": 27.734718,
            "lng": 112.531463
        },
        "ad_info": {
            "adcode": 430381,
            "province": "湖南省",
            "city": "湘潭市",
            "district": "湘乡市"
        }
    },
    {
        "id": "15754719279544440366",
        "title": "女卫生间(嘉亨茂)",
        "address": "湖南省湘潭市湘乡市东风路3号万隆中央广场F1",
        "tel": "",
        "category": "基础设施:公共设施:女洗手间",
        "type": 0,
        "location": {
            "lat": 27.73459,
            "lng": 112.531466
        },
        "ad_info": {
            "adcode": 430381,
            "province": "湖南省",
            "city": "湘潭市",
            "district": "湘乡市"
        }
    },
    {
        "id": "13697010248381233845",
        "title": "洗手间",
        "address": "湖南省湘潭市湘乡市G320与S222交叉口西南方向285米左右",
        "tel": "",
        "category": "基础设施:公共设施:公共厕所",
        "type": 0,
        "location": {
            "lat": 27.605212,
            "lng": 112.356724
        },
        "ad_info": {
            "adcode": 430381,
            "province": "湖南省",
            "city": "湘潭市",
            "district": "湘乡市"
        }
    },
    {
        "id": "69268476501195781",
        "title": "公共厕所",
        "address": "湖南省湘潭市雨湖区X082与白云路交叉口西南方向387米左右",
        "tel": "",
        "category": "基础设施:公共设施:公共厕所",
        "type": 0,
        "location": {
            "lat": 27.985037,
            "lng": 112.870042
        },
        "ad_info": {
            "adcode": 430302,
            "province": "湖南省",
            "city": "湘潭市",
            "district": "雨湖区"
        }
    },
    {
        "id": "14235355003052322795",
        "title": "公共厕所(湘潭经开区响水乡星沙村半部苑)",
        "address": "湖南省湘潭市雨湖区红星路21号",
        "tel": "",
        "category": "基础设施:公共设施:公共厕所",
        "type": 0,
        "location": {
            "lat": 27.914138,
            "lng": 112.903761
        },
        "ad_info": {
            "adcode": 430302,
            "province": "湖南省",
            "city": "湘潭市",
            "district": "雨湖区"
        }
    },
    {
        "id": "9922613941172166148",
        "title": "昭山服务区第三公共厕所",
        "address": "湖南省湘潭市岳塘区Y002与昭云路交叉口东南方向419米左右",
        "tel": "",
        "category": "基础设施:公共设施:公共厕所",
        "type": 0,
        "location": {
            "lat": 27.965784,
            "lng": 113.042773
        },
        "ad_info": {
            "adcode": 430304,
            "province": "湖南省",
            "city": "湘潭市",
            "district": "岳塘区"
        }
    },
    {
        "id": "14968301275884048253",
        "title": "公共厕所",
        "address": "湖南省湘潭市雨湖区城正街与观湘门路交叉口西北方向176米左右",
        "tel": "",
        "category": "基础设施:公共设施:公共厕所",
        "type": 0,
        "location": {
            "lat": 27.863781,
            "lng": 112.925595
        },
        "ad_info": {
            "adcode": 430302,
            "province": "湖南省",
            "city": "湘潭市",
            "district": "雨湖区"
        }
    },
    {
        "id": "968710462763463591",
        "title": "公共厕所",
        "address": "湖南省湘潭市雨湖区车站路556号湘潭站公交站场",
        "tel": "",
        "category": "基础设施:公共设施:公共厕所",
        "type": 0,
        "location": {
            "lat": 27.874157,
            "lng": 112.911368
        },
        "ad_info": {
            "adcode": 430302,
            "province": "湖南省",
            "city": "湘潭市",
            "district": "雨湖区"
        }
    },
    {
        "id": "1262152128202403934",
        "title": "公共厕所",
        "address": "湖南省湘潭市湘潭县天易大道与荷花中路交叉口正东方向159米左右",
        "tel": "",
        "category": "基础设施:公共设施:公共厕所",
        "type": 0,
        "location": {
            "lat": 27.780302,
            "lng": 112.967141
        },
        "ad_info": {
            "adcode": 430321,
            "province": "湖南省",
            "city": "湘潭市",
            "district": "湘潭县"
        }
    },
    {
        "id": "2292826057290244689",
        "title": "公共厕所",
        "address": "湖南省湘潭市雨湖区金庭街湘潭市第十一中学",
        "tel": "",
        "category": "基础设施:公共设施:公共厕所",
        "type": 0,
        "location": {
            "lat": 27.854077,
            "lng": 112.902407
        },
        "ad_info": {
            "adcode": 430302,
            "province": "湖南省",
            "city": "湘潭市",
            "district": "雨湖区"
        }
    },
    {
        "id": "17194925293354990334",
        "title": "公共厕所",
        "address": "湖南省湘潭市湘乡市大正街与直四牌楼街交叉口西南方向56米左右",
        "tel": "",
        "category": "基础设施:公共设施:公共厕所",
        "type": 0,
        "location": {
            "lat": 27.730578,
            "lng": 112.534109
        },
        "ad_info": {
            "adcode": 430381,
            "province": "湖南省",
            "city": "湘潭市",
            "district": "湘乡市"
        }
    },
    {
        "id": "2244723857357950835",
        "title": "洗手间",
        "address": "湖南省湘潭市岳塘区钢城路1号",
        "tel": "",
        "category": "基础设施:公共设施:公共厕所",
        "type": 0,
        "location": {
            "lat": 27.815471,
            "lng": 112.915167
        },
        "ad_info": {
            "adcode": 430304,
            "province": "湖南省",
            "city": "湘潭市",
            "district": "岳塘区"
        }
    },
    {
        "id": "9382732975059563352",
        "title": "公共厕所",
        "address": "湖南省湘潭市岳塘区书院西路与禾花巷交叉口正北方向151米左右",
        "tel": "",
        "category": "基础设施:公共设施:公共厕所",
        "type": 0,
        "location": {
            "lat": 27.816629,
            "lng": 112.932023
        },
        "ad_info": {
            "adcode": 430304,
            "province": "湖南省",
            "city": "湘潭市",
            "district": "岳塘区"
        }
    },
    {
        "id": "14770141367970033689",
        "title": "公共厕所",
        "address": "湖南省湘潭市湘乡市书院路与民主路交叉口西北方向61米左右",
        "tel": "",
        "category": "基础设施:公共设施:公共厕所",
        "type": 0,
        "location": {
            "lat": 27.724466,
            "lng": 112.545978
        },
        "ad_info": {
            "adcode": 430381,
            "province": "湖南省",
            "city": "湘潭市",
            "district": "湘乡市"
        }
    },
    {
        "id": "984494438932752377",
        "title": "公共厕所",
        "address": "湖南省湘潭市雨湖区G320与S219交叉口正西方向1277米左右",
        "tel": "",
        "category": "基础设施:公共设施:公共厕所",
        "type": 0,
        "location": {
            "lat": 27.846985,
            "lng": 112.750196
        },
        "ad_info": {
            "adcode": 430302,
            "province": "湖南省",
            "city": "湘潭市",
            "district": "雨湖区"
        }
    },
    {
        "id": "7574841267331839227",
        "title": "公共厕所",
        "address": "湖南省湘潭市雨湖区文星门路与车站路交叉口正北方向226米左右",
        "tel": "",
        "category": "基础设施:公共设施:公共厕所",
        "type": 0,
        "location": {
            "lat": 27.875332,
            "lng": 112.91234
        },
        "ad_info": {
            "adcode": 430302,
            "province": "湖南省",
            "city": "湘潭市",
            "district": "雨湖区"
        }
    },
    {
        "id": "12116835583488880350",
        "title": "公共厕所",
        "address": "湖南省湘潭市岳塘区申塘路与福星中路交叉口正东方向71米左右",
        "tel": "",
        "category": "基础设施:公共设施:公共厕所",
        "type": 0,
        "location": {
            "lat": 27.840848,
            "lng": 112.920672
        },
        "ad_info": {
            "adcode": 430304,
            "province": "湖南省",
            "city": "湘潭市",
            "district": "岳塘区"
        }
    },
    {
        "id": "6239304718020819982",
        "title": "公共厕所(湘潭华银生态园休闲中心)",
        "address": "湖南省湘潭市雨湖区湘潭华银生态园",
        "tel": "",
        "category": "基础设施:公共设施:公共厕所",
        "type": 0,
        "location": {
            "lat": 27.862069,
            "lng": 112.842998
        },
        "ad_info": {
            "adcode": 430302,
            "province": "湖南省",
            "city": "湘潭市",
            "district": "雨湖区"
        }
    },
    {
        "id": "165088672826201946",
        "title": "公共厕所",
        "address": "湖南省湘潭市韶山市清溪路与车站路交叉口西南方向85米左右",
        "tel": "",
        "category": "基础设施:公共设施:公共厕所",
        "type": 0,
        "location": {
            "lat": 27.92142,
            "lng": 112.527822
        },
        "ad_info": {
            "adcode": 430382,
            "province": "湖南省",
            "city": "湘潭市",
            "district": "韶山市"
        }
    },
    {
        "id": "17532311667283886173",
        "title": "公共厕所",
        "address": "湖南省湘潭市湘潭县南区中心路与南区大道交叉口东南方向56米左右",
        "tel": "",
        "category": "基础设施:公共设施:公共厕所",
        "type": 0,
        "location": {
            "lat": 27.754629,
            "lng": 112.719831
        },
        "ad_info": {
            "adcode": 430321,
            "province": "湖南省",
            "city": "湘潭市",
            "district": "湘潭县"
        }
    },
    {
        "id": "824021409627012848",
        "title": "女洗手间(嘉亨茂)",
        "address": "湖南省湘潭市湘乡市东风路3号万隆中央广场F2",
        "tel": "",
        "category": "基础设施:公共设施:女洗手间",
        "type": 0,
        "location": {
            "lat": 27.734718,
            "lng": 112.531463
        },
        "ad_info": {
            "adcode": 430381,
            "province": "湖南省",
            "city": "湘潭市",
            "district": "湘乡市"
        }
    },
    {
        "id": "15754719279544440366",
        "title": "女卫生间(嘉亨茂)",
        "address": "湖南省湘潭市湘乡市东风路3号万隆中央广场F1",
        "tel": "",
        "category": "基础设施:公共设施:女洗手间",
        "type": 0,
        "location": {
            "lat": 27.73459,
            "lng": 112.531466
        },
        "ad_info": {
            "adcode": 430381,
            "province": "湖南省",
            "city": "湘潭市",
            "district": "湘乡市"
        }
    },
    {
        "id": "13697010248381233845",
        "title": "洗手间",
        "address": "湖南省湘潭市湘乡市G320与S222交叉口西南方向285米左右",
        "tel": "",
        "category": "基础设施:公共设施:公共厕所",
        "type": 0,
        "location": {
            "lat": 27.605212,
            "lng": 112.356724
        },
        "ad_info": {
            "adcode": 430381,
            "province": "湖南省",
            "city": "湘潭市",
            "district": "湘乡市"
        }
    },
    {
        "id": "69268476501195781",
        "title": "公共厕所",
        "address": "湖南省湘潭市雨湖区X082与白云路交叉口西南方向387米左右",
        "tel": "",
        "category": "基础设施:公共设施:公共厕所",
        "type": 0,
        "location": {
            "lat": 27.985037,
            "lng": 112.870042
        },
        "ad_info": {
            "adcode": 430302,
            "province": "湖南省",
            "city": "湘潭市",
            "district": "雨湖区"
        }
    },
    {
        "id": "14235355003052322795",
        "title": "公共厕所(湘潭经开区响水乡星沙村半部苑)",
        "address": "湖南省湘潭市雨湖区红星路21号",
        "tel": "",
        "category": "基础设施:公共设施:公共厕所",
        "type": 0,
        "location": {
            "lat": 27.914138,
            "lng": 112.903761
        },
        "ad_info": {
            "adcode": 430302,
            "province": "湖南省",
            "city": "湘潭市",
            "district": "雨湖区"
        }
    },
    {
        "id": "9922613941172166148",
        "title": "昭山服务区第三公共厕所",
        "address": "湖南省湘潭市岳塘区Y002与昭云路交叉口东南方向419米左右",
        "tel": "",
        "category": "基础设施:公共设施:公共厕所",
        "type": 0,
        "location": {
            "lat": 27.965784,
            "lng": 113.042773
        },
        "ad_info": {
            "adcode": 430304,
            "province": "湖南省",
            "city": "湘潭市",
            "district": "岳塘区"
        }
    },
    {
        "id": "14968301275884048253",
        "title": "公共厕所",
        "address": "湖南省湘潭市雨湖区城正街与观湘门路交叉口西北方向176米左右",
        "tel": "",
        "category": "基础设施:公共设施:公共厕所",
        "type": 0,
        "location": {
            "lat": 27.863781,
            "lng": 112.925595
        },
        "ad_info": {
            "adcode": 430302,
            "province": "湖南省",
            "city": "湘潭市",
            "district": "雨湖区"
        }
    },
    {
        "id": "968710462763463591",
        "title": "公共厕所",
        "address": "湖南省湘潭市雨湖区车站路556号湘潭站公交站场",
        "tel": "",
        "category": "基础设施:公共设施:公共厕所",
        "type": 0,
        "location": {
            "lat": 27.874157,
            "lng": 112.911368
        },
        "ad_info": {
            "adcode": 430302,
            "province": "湖南省",
            "city": "湘潭市",
            "district": "雨湖区"
        }
    },
    {
        "id": "1262152128202403934",
        "title": "公共厕所",
        "address": "湖南省湘潭市湘潭县天易大道与荷花中路交叉口正东方向159米左右",
        "tel": "",
        "category": "基础设施:公共设施:公共厕所",
        "type": 0,
        "location": {
            "lat": 27.780302,
            "lng": 112.967141
        },
        "ad_info": {
            "adcode": 430321,
            "province": "湖南省",
            "city": "湘潭市",
            "district": "湘潭县"
        }
    },
    {
        "id": "2292826057290244689",
        "title": "公共厕所",
        "address": "湖南省湘潭市雨湖区金庭街湘潭市第十一中学",
        "tel": "",
        "category": "基础设施:公共设施:公共厕所",
        "type": 0,
        "location": {
            "lat": 27.854077,
            "lng": 112.902407
        },
        "ad_info": {
            "adcode": 430302,
            "province": "湖南省",
            "city": "湘潭市",
            "district": "雨湖区"
        }
    },
    {
        "id": "17194925293354990334",
        "title": "公共厕所",
        "address": "湖南省湘潭市湘乡市大正街与直四牌楼街交叉口西南方向56米左右",
        "tel": "",
        "category": "基础设施:公共设施:公共厕所",
        "type": 0,
        "location": {
            "lat": 27.730578,
            "lng": 112.534109
        },
        "ad_info": {
            "adcode": 430381,
            "province": "湖南省",
            "city": "湘潭市",
            "district": "湘乡市"
        }
    },
    {
        "id": "2244723857357950835",
        "title": "洗手间",
        "address": "湖南省湘潭市岳塘区钢城路1号",
        "tel": "",
        "category": "基础设施:公共设施:公共厕所",
        "type": 0,
        "location": {
            "lat": 27.815471,
            "lng": 112.915167
        },
        "ad_info": {
            "adcode": 430304,
            "province": "湖南省",
            "city": "湘潭市",
            "district": "岳塘区"
        }
    },
    {
        "id": "9382732975059563352",
        "title": "公共厕所",
        "address": "湖南省湘潭市岳塘区书院西路与禾花巷交叉口正北方向151米左右",
        "tel": "",
        "category": "基础设施:公共设施:公共厕所",
        "type": 0,
        "location": {
            "lat": 27.816629,
            "lng": 112.932023
        },
        "ad_info": {
            "adcode": 430304,
            "province": "湖南省",
            "city": "湘潭市",
            "district": "岳塘区"
        }
    },
    {
        "id": "14770141367970033689",
        "title": "公共厕所",
        "address": "湖南省湘潭市湘乡市书院路与民主路交叉口西北方向61米左右",
        "tel": "",
        "category": "基础设施:公共设施:公共厕所",
        "type": 0,
        "location": {
            "lat": 27.724466,
            "lng": 112.545978
        },
        "ad_info": {
            "adcode": 430381,
            "province": "湖南省",
            "city": "湘潭市",
            "district": "湘乡市"
        }
    },
    {
        "id": "984494438932752377",
        "title": "公共厕所",
        "address": "湖南省湘潭市雨湖区G320与S219交叉口正西方向1277米左右",
        "tel": "",
        "category": "基础设施:公共设施:公共厕所",
        "type": 0,
        "location": {
            "lat": 27.846985,
            "lng": 112.750196
        },
        "ad_info": {
            "adcode": 430302,
            "province": "湖南省",
            "city": "湘潭市",
            "district": "雨湖区"
        }
    },
    {
        "id": "7574841267331839227",
        "title": "公共厕所",
        "address": "湖南省湘潭市雨湖区文星门路与车站路交叉口正北方向226米左右",
        "tel": "",
        "category": "基础设施:公共设施:公共厕所",
        "type": 0,
        "location": {
            "lat": 27.875332,
            "lng": 112.91234
        },
        "ad_info": {
            "adcode": 430302,
            "province": "湖南省",
            "city": "湘潭市",
            "district": "雨湖区"
        }
    },
    {
        "id": "12116835583488880350",
        "title": "公共厕所",
        "address": "湖南省湘潭市岳塘区申塘路与福星中路交叉口正东方向71米左右",
        "tel": "",
        "category": "基础设施:公共设施:公共厕所",
        "type": 0,
        "location": {
            "lat": 27.840848,
            "lng": 112.920672
        },
        "ad_info": {
            "adcode": 430304,
            "province": "湖南省",
            "city": "湘潭市",
            "district": "岳塘区"
        }
    },
    {
        "id": "6239304718020819982",
        "title": "公共厕所(湘潭华银生态园休闲中心)",
        "address": "湖南省湘潭市雨湖区湘潭华银生态园",
        "tel": "",
        "category": "基础设施:公共设施:公共厕所",
        "type": 0,
        "location": {
            "lat": 27.862069,
            "lng": 112.842998
        },
        "ad_info": {
            "adcode": 430302,
            "province": "湖南省",
            "city": "湘潭市",
            "district": "雨湖区"
        }
    },
    {
        "id": "165088672826201946",
        "title": "公共厕所",
        "address": "湖南省湘潭市韶山市清溪路与车站路交叉口西南方向85米左右",
        "tel": "",
        "category": "基础设施:公共设施:公共厕所",
        "type": 0,
        "location": {
            "lat": 27.92142,
            "lng": 112.527822
        },
        "ad_info": {
            "adcode": 430382,
            "province": "湖南省",
            "city": "湘潭市",
            "district": "韶山市"
        }
    },
    {
        "id": "17532311667283886173",
        "title": "公共厕所",
        "address": "湖南省湘潭市湘潭县南区中心路与南区大道交叉口东南方向56米左右",
        "tel": "",
        "category": "基础设施:公共设施:公共厕所",
        "type": 0,
        "location": {
            "lat": 27.754629,
            "lng": 112.719831
        },
        "ad_info": {
            "adcode": 430321,
            "province": "湖南省",
            "city": "湘潭市",
            "district": "湘潭县"
        }
    },
    {
        "id": "824021409627012848",
        "title": "女洗手间(嘉亨茂)",
        "address": "湖南省湘潭市湘乡市东风路3号万隆中央广场F2",
        "tel": "",
        "category": "基础设施:公共设施:女洗手间",
        "type": 0,
        "location": {
            "lat": 27.734718,
            "lng": 112.531463
        },
        "ad_info": {
            "adcode": 430381,
            "province": "湖南省",
            "city": "湘潭市",
            "district": "湘乡市"
        }
    },
    {
        "id": "15754719279544440366",
        "title": "女卫生间(嘉亨茂)",
        "address": "湖南省湘潭市湘乡市东风路3号万隆中央广场F1",
        "tel": "",
        "category": "基础设施:公共设施:女洗手间",
        "type": 0,
        "location": {
            "lat": 27.73459,
            "lng": 112.531466
        },
        "ad_info": {
            "adcode": 430381,
            "province": "湖南省",
            "city": "湘潭市",
            "district": "湘乡市"
        }
    },
    {
        "id": "13697010248381233845",
        "title": "洗手间",
        "address": "湖南省湘潭市湘乡市G320与S222交叉口西南方向285米左右",
        "tel": "",
        "category": "基础设施:公共设施:公共厕所",
        "type": 0,
        "location": {
            "lat": 27.605212,
            "lng": 112.356724
        },
        "ad_info": {
            "adcode": 430381,
            "province": "湖南省",
            "city": "湘潭市",
            "district": "湘乡市"
        }
    },
    {
        "id": "69268476501195781",
        "title": "公共厕所",
        "address": "湖南省湘潭市雨湖区X082与白云路交叉口西南方向387米左右",
        "tel": "",
        "category": "基础设施:公共设施:公共厕所",
        "type": 0,
        "location": {
            "lat": 27.985037,
            "lng": 112.870042
        },
        "ad_info": {
            "adcode": 430302,
            "province": "湖南省",
            "city": "湘潭市",
            "district": "雨湖区"
        }
    },
    {
        "id": "14235355003052322795",
        "title": "公共厕所(湘潭经开区响水乡星沙村半部苑)",
        "address": "湖南省湘潭市雨湖区红星路21号",
        "tel": "",
        "category": "基础设施:公共设施:公共厕所",
        "type": 0,
        "location": {
            "lat": 27.914138,
            "lng": 112.903761
        },
        "ad_info": {
            "adcode": 430302,
            "province": "湖南省",
            "city": "湘潭市",
            "district": "雨湖区"
        }
    }
]