[
    {
        "id": "8039309633136675538",
        "title": "公共厕所(岩门古堡寨游客中心)",
        "address": "湖南省湘西土家族苗族自治州泸溪县118乡道",
        "tel": "",
        "category": "基础设施:公共设施:公共厕所",
        "type": 0,
        "location": {
            "lat": 28.017405,
            "lng": 110.026338
        },
        "ad_info": {
            "adcode": 433122,
            "province": "湖南省",
            "city": "湘西土家族苗族自治州",
            "district": "泸溪县"
        }
    },
    {
        "id": "357529659662869391",
        "title": "公共厕所(杨霞体育馆)",
        "address": "湖南省湘西土家族苗族自治州保靖县保靖县民族体育中心东侧210米",
        "tel": "",
        "category": "基础设施:公共设施:公共厕所",
        "type": 0,
        "location": {
            "lat": 28.72226,
            "lng": 109.659658
        },
        "ad_info": {
            "adcode": 433125,
            "province": "湖南省",
            "city": "湘西土家族苗族自治州",
            "district": "保靖县"
        }
    },
    {
        "id": "9678160478504007026",
        "title": "公共厕所",
        "address": "湖南省湘西土家族苗族自治州凤凰县南华路附近湘西州凤凰古城景区内",
        "tel": "",
        "category": "基础设施:公共设施:公共厕所",
        "type": 0,
        "location": {
            "lat": 27.946895,
            "lng": 109.600807
        },
        "ad_info": {
            "adcode": 433123,
            "province": "湖南省",
            "city": "湘西土家族苗族自治州",
            "district": "凤凰县"
        }
    },
    {
        "id": "11119960200658576466",
        "title": "公共厕所(边城)",
        "address": "湖南省湘西土家族苗族自治州花垣县X066与边城路交叉口正北方向533米左右",
        "tel": "",
        "category": "基础设施:公共设施:公共厕所",
        "type": 0,
        "location": {
            "lat": 28.500767,
            "lng": 109.27439
        },
        "ad_info": {
            "adcode": 433124,
            "province": "湖南省",
            "city": "湘西土家族苗族自治州",
            "district": "花垣县"
        }
    },
    {
        "id": "13287968925033414879",
        "title": "公共厕所",
        "address": "湖南省湘西土家族苗族自治州吉首市文艺路与武陵东路交叉口正北方向34米左右",
        "tel": "",
        "category": "基础设施:公共设施:公共厕所",
        "type": 0,
        "location": {
            "lat": 28.311078,
            "lng": 109.740287
        },
        "ad_info": {
            "adcode": 433101,
            "province": "湖南省",
            "city": "湘西土家族苗族自治州",
            "district": "吉首市"
        }
    },
    {
        "id": "18257201185638947940",
        "title": "公共厕所(吕洞山景区望天坡)",
        "address": "湖南省湘西土家族苗族自治州保靖县吕洞山景区望天坡",
        "tel": "",
        "category": "基础设施:公共设施:公共厕所",
        "type": 0,
        "location": {
            "lat": 28.448889,
            "lng": 109.664205
        },
        "ad_info": {
            "adcode": 433125,
            "province": "湖南省",
            "city": "湘西土家族苗族自治州",
            "district": "保靖县"
        }
    },
    {
        "id": "5501802419205716321",
        "title": "公共厕所(吕洞山镇夯吉村)",
        "address": "湖南省湘西土家族苗族自治州保靖县吕洞山镇夯吉村村部",
        "tel": "",
        "category": "基础设施:公共设施:公共厕所",
        "type": 0,
        "location": {
            "lat": 28.43161,
            "lng": 109.702914
        },
        "ad_info": {
            "adcode": 433125,
            "province": "湖南省",
            "city": "湘西土家族苗族自治州",
            "district": "保靖县"
        }
    },
    {
        "id": "16435540013646976303",
        "title": "公共厕所",
        "address": "湖南省湘西土家族苗族自治州吉首市人民北路与关厢门街交叉口正东方向82米左右",
        "tel": "",
        "category": "基础设施:公共设施:公共厕所",
        "type": 0,
        "location": {
            "lat": 28.314659,
            "lng": 109.739845
        },
        "ad_info": {
            "adcode": 433101,
            "province": "湖南省",
            "city": "湘西土家族苗族自治州",
            "district": "吉首市"
        }
    },
    {
        "id": "5130025939148462452",
        "title": "公共厕所(龙山县乌龙山大峡谷下索道站)",
        "address": "湖南省湘西土家族苗族自治州龙山县S260",
        "tel": "",
        "category": "基础设施:公共设施:公共厕所",
        "type": 0,
        "location": {
            "lat": 29.234636,
            "lng": 109.338132
        },
        "ad_info": {
            "adcode": 433130,
            "province": "湖南省",
            "city": "湘西土家族苗族自治州",
            "district": "龙山县"
        }
    },
    {
        "id": "3479387807614003016",
        "title": "老菜街公共厕所",
        "address": "湖南省湘西土家族苗族自治州凤凰县凤凰古城风景名胜区",
        "tel": "",
        "category": "基础设施:公共设施:公共厕所",
        "type": 0,
        "location": {
            "lat": 27.948649,
            "lng": 109.60406
        },
        "ad_info": {
            "adcode": 433123,
            "province": "湖南省",
            "city": "湘西土家族苗族自治州",
            "district": "凤凰县"
        }
    },
    {
        "id": "10655059139672265806",
        "title": "公共厕所",
        "address": "湖南省湘西土家族苗族自治州凤凰县田家弄与虹桥东路交叉口正西方向23米左右",
        "tel": "",
        "category": "基础设施:公共设施:公共厕所",
        "type": 0,
        "location": {
            "lat": 27.949231,
            "lng": 109.606311
        },
        "ad_info": {
            "adcode": 433123,
            "province": "湖南省",
            "city": "湘西土家族苗族自治州",
            "district": "凤凰县"
        }
    },
    {
        "id": "14500699895895581419",
        "title": "公共厕所(长潭河乡涂乍村)",
        "address": "湖南省湘西土家族苗族自治州保靖县涂乍村魔力卡特景区停车场",
        "tel": "",
        "category": "基础设施:公共设施:公共厕所",
        "type": 0,
        "location": {
            "lat": 28.594673,
            "lng": 109.696287
        },
        "ad_info": {
            "adcode": 433125,
            "province": "湖南省",
            "city": "湘西土家族苗族自治州",
            "district": "保靖县"
        }
    },
    {
        "id": "16003336446836666951",
        "title": "公共厕所",
        "address": "湖南省湘西土家族苗族自治州吉首市丹桂路与物流园路交叉口东南方向141米左右",
        "tel": "",
        "category": "基础设施:公共设施:公共厕所",
        "type": 0,
        "location": {
            "lat": 28.270012,
            "lng": 109.724142
        },
        "ad_info": {
            "adcode": 433101,
            "province": "湖南省",
            "city": "湘西土家族苗族自治州",
            "district": "吉首市"
        }
    },
    {
        "id": "9090734853623291729",
        "title": "公共厕所",
        "address": "湖南省湘西土家族苗族自治州吉首市人民北路与北一环交叉口正西方向90米左右",
        "tel": "",
        "category": "基础设施:公共设施:公共厕所",
        "type": 0,
        "location": {
            "lat": 28.323945,
            "lng": 109.734958
        },
        "ad_info": {
            "adcode": 433101,
            "province": "湖南省",
            "city": "湘西土家族苗族自治州",
            "district": "吉首市"
        }
    },
    {
        "id": "5505430678530896190",
        "title": "公共厕所",
        "address": "湖南省湘西土家族苗族自治州凤凰县凤凰南路与虹桥西路交叉口正西方向48米左右",
        "tel": "",
        "category": "基础设施:公共设施:公共厕所",
        "type": 0,
        "location": {
            "lat": 27.947116,
            "lng": 109.593482
        },
        "ad_info": {
            "adcode": 433123,
            "province": "湖南省",
            "city": "湘西土家族苗族自治州",
            "district": "凤凰县"
        }
    },
    {
        "id": "6923012278148396997",
        "title": "公共厕所",
        "address": "湖南省湘西土家族苗族自治州吉首市人民北路与北一环交叉口正北方向73米左右",
        "tel": "",
        "category": "基础设施:公共设施:公共厕所",
        "type": 0,
        "location": {
            "lat": 28.324285,
            "lng": 109.736028
        },
        "ad_info": {
            "adcode": 433101,
            "province": "湖南省",
            "city": "湘西土家族苗族自治州",
            "district": "吉首市"
        }
    },
    {
        "id": "2385867870206077243",
        "title": "法治公园公共厕所",
        "address": "湖南省湘西土家族苗族自治州凤凰县法治公园内",
        "tel": "",
        "category": "基础设施:公共设施:公共厕所",
        "type": 0,
        "location": {
            "lat": 27.951365,
            "lng": 109.599286
        },
        "ad_info": {
            "adcode": 433123,
            "province": "湖南省",
            "city": "湘西土家族苗族自治州",
            "district": "凤凰县"
        }
    },
    {
        "id": "9814439245299440723",
        "title": "公共厕所(吕洞山景区黄金村)",
        "address": "湖南省湘西土家族苗族自治州保靖县黄金村村部",
        "tel": "",
        "category": "基础设施:公共设施:公共厕所",
        "type": 0,
        "location": {
            "lat": 28.439611,
            "lng": 109.788435
        },
        "ad_info": {
            "adcode": 433125,
            "province": "湖南省",
            "city": "湘西土家族苗族自治州",
            "district": "保靖县"
        }
    },
    {
        "id": "7651651661667169944",
        "title": "吴家弄公共厕所",
        "address": "湖南省湘西土家族苗族自治州凤凰县南华路与王家弄交叉口东北方向38米左右",
        "tel": "",
        "category": "基础设施:公共设施:公共厕所",
        "type": 0,
        "location": {
            "lat": 27.951372,
            "lng": 109.600154
        },
        "ad_info": {
            "adcode": 433123,
            "province": "湖南省",
            "city": "湘西土家族苗族自治州",
            "district": "凤凰县"
        }
    },
    {
        "id": "16160389833588850735",
        "title": "公共厕所",
        "address": "湖南省湘西土家族苗族自治州吉首市荣光路世纪广场(西侧)",
        "tel": "",
        "category": "基础设施:公共设施:公共厕所",
        "type": 0,
        "location": {
            "lat": 28.2593,
            "lng": 109.697458
        },
        "ad_info": {
            "adcode": 433101,
            "province": "湖南省",
            "city": "湘西土家族苗族自治州",
            "district": "吉首市"
        }
    },
    {
        "id": "12546808374760879277",
        "title": "公共厕所",
        "address": "湖南省湘西土家族苗族自治州花垣县边城中心小学西南侧180米",
        "tel": "",
        "category": "基础设施:公共设施:公共厕所",
        "type": 0,
        "location": {
            "lat": 28.500895,
            "lng": 109.282518
        },
        "ad_info": {
            "adcode": 433124,
            "province": "湖南省",
            "city": "湘西土家族苗族自治州",
            "district": "花垣县"
        }
    },
    {
        "id": "18152891860679087960",
        "title": "公共厕所",
        "address": "湖南省湘西土家族苗族自治州吉首市世纪大道与西一环交叉口正南方向275米左右",
        "tel": "",
        "category": "基础设施:公共设施:公共厕所",
        "type": 0,
        "location": {
            "lat": 28.251561,
            "lng": 109.686003
        },
        "ad_info": {
            "adcode": 433101,
            "province": "湖南省",
            "city": "湘西土家族苗族自治州",
            "district": "吉首市"
        }
    },
    {
        "id": "12886149076919642088",
        "title": "公共厕所(龙山县惹巴拉景区影视基地)",
        "address": "湖南省湘西土家族苗族自治州龙山县惹巴拉影视基地东南侧150米",
        "tel": "",
        "category": "基础设施:公共设施:公共厕所",
        "type": 0,
        "location": {
            "lat": 28.991439,
            "lng": 109.503671
        },
        "ad_info": {
            "adcode": 433130,
            "province": "湖南省",
            "city": "湘西土家族苗族自治州",
            "district": "龙山县"
        }
    },
    {
        "id": "13736987800027662130",
        "title": "公共厕所",
        "address": "湖南省湘西土家族苗族自治州吉首市工业大道与长潭路交叉口西北方向69米左右",
        "tel": "",
        "category": "基础设施:公共设施:公共厕所",
        "type": 0,
        "location": {
            "lat": 28.216733,
            "lng": 109.660124
        },
        "ad_info": {
            "adcode": 433101,
            "province": "湖南省",
            "city": "湘西土家族苗族自治州",
            "district": "吉首市"
        }
    },
    {
        "id": "1872634651386011370",
        "title": "公共厕所",
        "address": "湖南省湘西土家族苗族自治州凤凰县大坡脑路与虹桥西路交叉口西南方向205米左右",
        "tel": "",
        "category": "基础设施:公共设施:公共厕所",
        "type": 0,
        "location": {
            "lat": 27.945369,
            "lng": 109.592041
        },
        "ad_info": {
            "adcode": 433123,
            "province": "湖南省",
            "city": "湘西土家族苗族自治州",
            "district": "凤凰县"
        }
    },
    {
        "id": "12625770722266273050",
        "title": "公共厕所",
        "address": "湖南省湘西土家族苗族自治州永顺县G352与Y042交叉口正西方向46米左右",
        "tel": "",
        "category": "基础设施:公共设施:公共厕所",
        "type": 0,
        "location": {
            "lat": 28.755993,
            "lng": 109.960058
        },
        "ad_info": {
            "adcode": 433127,
            "province": "湖南省",
            "city": "湘西土家族苗族自治州",
            "district": "永顺县"
        }
    },
    {
        "id": "14631979946929890114",
        "title": "公共厕所",
        "address": "湖南省湘西土家族苗族自治州保靖县S318与梅花路交叉口正东方向1341米左右",
        "tel": "",
        "category": "基础设施:公共设施:公共厕所",
        "type": 0,
        "location": {
            "lat": 28.692914,
            "lng": 109.676187
        },
        "ad_info": {
            "adcode": 433125,
            "province": "湖南省",
            "city": "湘西土家族苗族自治州",
            "district": "保靖县"
        }
    },
    {
        "id": "17964134011879444694",
        "title": "公共厕所",
        "address": "湖南省湘西土家族苗族自治州永顺县019乡道",
        "tel": "",
        "category": "基础设施:公共设施:公共厕所",
        "type": 0,
        "location": {
            "lat": 29.143528,
            "lng": 109.83336
        },
        "ad_info": {
            "adcode": 433127,
            "province": "湖南省",
            "city": "湘西土家族苗族自治州",
            "district": "永顺县"
        }
    },
    {
        "id": "484791481871544240",
        "title": "公共厕所",
        "address": "湖南省湘西土家族苗族自治州花垣县G209与X031交叉口东南方向87米左右",
        "tel": "",
        "category": "基础设施:公共设施:公共厕所",
        "type": 0,
        "location": {
            "lat": 28.533669,
            "lng": 109.486139
        },
        "ad_info": {
            "adcode": 433124,
            "province": "湖南省",
            "city": "湘西土家族苗族自治州",
            "district": "花垣县"
        }
    },
    {
        "id": "7210803995301020745",
        "title": "公共厕所",
        "address": "湖南省湘西土家族苗族自治州永顺县S230与S247交叉口正南方向730米左右",
        "tel": "",
        "category": "基础设施:公共设施:公共厕所",
        "type": 0,
        "location": {
            "lat": 28.89907,
            "lng": 109.925153
        },
        "ad_info": {
            "adcode": 433127,
            "province": "湖南省",
            "city": "湘西土家族苗族自治州",
            "district": "永顺县"
        }
    },
    {
        "id": "12705567231028438490",
        "title": "公共厕所",
        "address": "湖南省湘西土家族苗族自治州永顺县团结街与沿河街交叉口正北方向110米左右",
        "tel": "",
        "category": "基础设施:公共设施:公共厕所",
        "type": 0,
        "location": {
            "lat": 28.999449,
            "lng": 109.854786
        },
        "ad_info": {
            "adcode": 433127,
            "province": "湖南省",
            "city": "湘西土家族苗族自治州",
            "district": "永顺县"
        }
    },
    {
        "id": "15472358647182108906",
        "title": "公共厕所",
        "address": "湖南省湘西土家族苗族自治州吉首市韩泰轮胎(泰达汽车服务中心)南侧",
        "tel": "",
        "category": "基础设施:公共设施:公共厕所",
        "type": 0,
        "location": {
            "lat": 28.294139,
            "lng": 109.757292
        },
        "ad_info": {
            "adcode": 433101,
            "province": "湖南省",
            "city": "湘西土家族苗族自治州",
            "district": "吉首市"
        }
    },
    {
        "id": "7254384337541202383",
        "title": "公共厕所(红石林镇马达坪村)",
        "address": "湖南省湘西土家族苗族自治州古丈县051乡道马达坪村旅游公共厕所项目编号HUN-XX-0685",
        "tel": "",
        "category": "基础设施:公共设施:公共厕所",
        "type": 0,
        "location": {
            "lat": 28.743307,
            "lng": 109.861081
        },
        "ad_info": {
            "adcode": 433126,
            "province": "湖南省",
            "city": "湘西土家族苗族自治州",
            "district": "古丈县"
        }
    },
    {
        "id": "12326776904922235946",
        "title": "公共厕所",
        "address": "湖南省湘西土家族苗族自治州吉首市镇溪路中国石油(环城路)",
        "tel": "",
        "category": "基础设施:公共设施:公共厕所",
        "type": 0,
        "location": {
            "lat": 28.304605,
            "lng": 109.742751
        },
        "ad_info": {
            "adcode": 433101,
            "province": "湖南省",
            "city": "湘西土家族苗族自治州",
            "district": "吉首市"
        }
    },
    {
        "id": "1973821498756275010",
        "title": "公共厕所",
        "address": "湖南省湘西土家族苗族自治州花垣县G209与Y135交叉口西南方向233米左右",
        "tel": "",
        "category": "基础设施:公共设施:公共厕所",
        "type": 0,
        "location": {
            "lat": 28.599189,
            "lng": 109.513274
        },
        "ad_info": {
            "adcode": 433124,
            "province": "湖南省",
            "city": "湘西土家族苗族自治州",
            "district": "花垣县"
        }
    },
    {
        "id": "16219330475695989682",
        "title": "公共厕所",
        "address": "湖南省湘西土家族苗族自治州吉首市仓储路与北一环交叉口东北方向281米左右",
        "tel": "",
        "category": "基础设施:公共设施:公共厕所",
        "type": 0,
        "location": {
            "lat": 28.326705,
            "lng": 109.74047
        },
        "ad_info": {
            "adcode": 433101,
            "province": "湖南省",
            "city": "湘西土家族苗族自治州",
            "district": "吉首市"
        }
    },
    {
        "id": "13711072051782663549",
        "title": "公共厕所",
        "address": "湖南省湘西土家族苗族自治州花垣县G242与S231交叉口正北方向1589米左右",
        "tel": "",
        "category": "基础设施:公共设施:公共厕所",
        "type": 0,
        "location": {
            "lat": 28.573172,
            "lng": 109.40977
        },
        "ad_info": {
            "adcode": 433124,
            "province": "湖南省",
            "city": "湘西土家族苗族自治州",
            "district": "花垣县"
        }
    },
    {
        "id": "13933362873805523608",
        "title": "公共厕所(花垣县城南廉住房)",
        "address": "湖南省湘西土家族苗族自治州花垣县四方井路138号",
        "tel": "",
        "category": "基础设施:公共设施:公共厕所",
        "type": 0,
        "location": {
            "lat": 28.570322,
            "lng": 109.485315
        },
        "ad_info": {
            "adcode": 433124,
            "province": "湖南省",
            "city": "湘西土家族苗族自治州",
            "district": "花垣县"
        }
    },
    {
        "id": "15115668907739028881",
        "title": "公共厕所(龙山县里耶古城景区遗址公园广场)",
        "address": "湖南省湘西土家族苗族自治州龙山县里耶古城景区遗址公园广场",
        "tel": "",
        "category": "基础设施:公共设施:公共厕所",
        "type": 0,
        "location": {
            "lat": 28.784966,
            "lng": 109.298054
        },
        "ad_info": {
            "adcode": 433130,
            "province": "湖南省",
            "city": "湘西土家族苗族自治州",
            "district": "龙山县"
        }
    },
    {
        "id": "13215844602654433047",
        "title": "公共厕所(保靖县人民广场)",
        "address": "湖南省湘西土家族苗族自治州保靖县新政府人民广场",
        "tel": "",
        "category": "基础设施:公共设施:公共厕所",
        "type": 0,
        "location": {
            "lat": 28.701453,
            "lng": 109.659119
        },
        "ad_info": {
            "adcode": 433125,
            "province": "湖南省",
            "city": "湘西土家族苗族自治州",
            "district": "保靖县"
        }
    },
    {
        "id": "15865848689342766090",
        "title": "公共厕所",
        "address": "湖南省湘西土家族苗族自治州吉首市桐油坪隧道与西一环交叉口正东方向85米左右",
        "tel": "",
        "category": "基础设施:公共设施:公共厕所",
        "type": 0,
        "location": {
            "lat": 28.313033,
            "lng": 109.723736
        },
        "ad_info": {
            "adcode": 433101,
            "province": "湖南省",
            "city": "湘西土家族苗族自治州",
            "district": "吉首市"
        }
    },
    {
        "id": "15818979474350332533",
        "title": "凤凰古城风景名胜区老营哨公共厕所",
        "address": "湖南省湘西土家族苗族自治州凤凰县南华路与喜鹊坡路交叉口东南方向160米左右",
        "tel": "",
        "category": "基础设施:公共设施:公共厕所",
        "type": 0,
        "location": {
            "lat": 27.951206,
            "lng": 109.602415
        },
        "ad_info": {
            "adcode": 433123,
            "province": "湖南省",
            "city": "湘西土家族苗族自治州",
            "district": "凤凰县"
        }
    },
    {
        "id": "9014266287158929545",
        "title": "公共厕所(陇木峒景区停车场)",
        "address": "湖南省湘西土家族苗族自治州保靖县陇木峒景区生态园",
        "tel": "",
        "category": "基础设施:公共设施:公共厕所",
        "type": 0,
        "location": {
            "lat": 28.735299,
            "lng": 109.589861
        },
        "ad_info": {
            "adcode": 433125,
            "province": "湖南省",
            "city": "湘西土家族苗族自治州",
            "district": "保靖县"
        }
    },
    {
        "id": "7447526887228068129",
        "title": "公共厕所(泸溪县沅水慢行系统金旭公司)",
        "address": "湖南省湘西土家族苗族自治州泸溪县G319与S252交叉口正西方向558米左右",
        "tel": "",
        "category": "基础设施:公共设施:公共厕所",
        "type": 0,
        "location": {
            "lat": 28.220309,
            "lng": 110.186161
        },
        "ad_info": {
            "adcode": 433122,
            "province": "湖南省",
            "city": "湘西土家族苗族自治州",
            "district": "泸溪县"
        }
    },
    {
        "id": "10263953214578081309",
        "title": "公共厕所(吕洞山景区梯子木寨)",
        "address": "湖南省湘西土家族苗族自治州保靖县吕洞山镇梯子村",
        "tel": "",
        "category": "基础设施:公共设施:公共厕所",
        "type": 0,
        "location": {
            "lat": 28.422809,
            "lng": 109.67771
        },
        "ad_info": {
            "adcode": 433125,
            "province": "湖南省",
            "city": "湘西土家族苗族自治州",
            "district": "保靖县"
        }
    },
    {
        "id": "1131202462201702626",
        "title": "公共厕所",
        "address": "湖南省湘西土家族苗族自治州吉首市滨溶路与长潭路交叉口正东方向300米左右",
        "tel": "",
        "category": "基础设施:公共设施:公共厕所",
        "type": 0,
        "location": {
            "lat": 28.212142,
            "lng": 109.6755
        },
        "ad_info": {
            "adcode": 433101,
            "province": "湖南省",
            "city": "湘西土家族苗族自治州",
            "district": "吉首市"
        }
    },
    {
        "id": "11991638552902348733",
        "title": "公共厕所(陇木峒景区)",
        "address": "湖南省湘西土家族苗族自治州保靖县陇木峒景区游客服务中心",
        "tel": "",
        "category": "基础设施:公共设施:公共厕所",
        "type": 0,
        "location": {
            "lat": 28.741986,
            "lng": 109.58331
        },
        "ad_info": {
            "adcode": 433125,
            "province": "湖南省",
            "city": "湘西土家族苗族自治州",
            "district": "保靖县"
        }
    },
    {
        "id": "6348619996327966743",
        "title": "公共厕所",
        "address": "湖南省湘西土家族苗族自治州吉首市五里牌廉租房东侧180米",
        "tel": "",
        "category": "基础设施:公共设施:公共厕所",
        "type": 0,
        "location": {
            "lat": 28.334033,
            "lng": 109.750227
        },
        "ad_info": {
            "adcode": 433101,
            "province": "湖南省",
            "city": "湘西土家族苗族自治州",
            "district": "吉首市"
        }
    },
    {
        "id": "11453665414239829153",
        "title": "公共厕所(十八洞景区竹子寨生态停车场)",
        "address": "湖南省湘西土家族苗族自治州花垣县十八洞感党恩农家乐北侧280米",
        "tel": "",
        "category": "基础设施:公共设施:公共厕所",
        "type": 0,
        "location": {
            "lat": 28.369913,
            "lng": 109.493542
        },
        "ad_info": {
            "adcode": 433124,
            "province": "湖南省",
            "city": "湘西土家族苗族自治州",
            "district": "花垣县"
        }
    },
    {
        "id": "18406736704993216514",
        "title": "公共厕所(水田河镇金洛河村)",
        "address": "湖南省湘西土家族苗族自治州保靖县金洛河村村部",
        "tel": "",
        "category": "基础设施:公共设施:公共厕所",
        "type": 0,
        "location": {
            "lat": 28.499912,
            "lng": 109.628378
        },
        "ad_info": {
            "adcode": 433125,
            "province": "湖南省",
            "city": "湘西土家族苗族自治州",
            "district": "保靖县"
        }
    },
    {
        "id": "14677091363043181625",
        "title": "公共厕所(清水坪镇客寨村)",
        "address": "湖南省湘西土家族苗族自治州保靖县134乡道客寨有机茶场",
        "tel": "",
        "category": "基础设施:公共设施:公共厕所",
        "type": 0,
        "location": {
            "lat": 28.730229,
            "lng": 109.371356
        },
        "ad_info": {
            "adcode": 433125,
            "province": "湖南省",
            "city": "湘西土家族苗族自治州",
            "district": "保靖县"
        }
    },
    {
        "id": "1840204220528731988",
        "title": "公共厕所",
        "address": "湖南省湘西土家族苗族自治州凤凰县G354与S256交叉口正东方向705米左右",
        "tel": "",
        "category": "基础设施:公共设施:公共厕所",
        "type": 0,
        "location": {
            "lat": 27.909611,
            "lng": 109.370338
        },
        "ad_info": {
            "adcode": 433123,
            "province": "湖南省",
            "city": "湘西土家族苗族自治州",
            "district": "凤凰县"
        }
    },
    {
        "id": "2536028175476506905",
        "title": "公共厕所(花垣县边城镇磨老村)",
        "address": "湖南省湘西土家族苗族自治州花垣县",
        "tel": "",
        "category": "基础设施:公共设施:公共厕所",
        "type": 0,
        "location": {
            "lat": 28.452505,
            "lng": 109.263518
        },
        "ad_info": {
            "adcode": 433124,
            "province": "湖南省",
            "city": "湘西土家族苗族自治州",
            "district": "花垣县"
        }
    },
    {
        "id": "962630498777566484",
        "title": "公共厕所",
        "address": "湖南省湘西土家族苗族自治州凤凰县天下游公寓西侧100米",
        "tel": "",
        "category": "基础设施:公共设施:公共厕所",
        "type": 0,
        "location": {
            "lat": 27.973684,
            "lng": 109.592961
        },
        "ad_info": {
            "adcode": 433123,
            "province": "湖南省",
            "city": "湘西土家族苗族自治州",
            "district": "凤凰县"
        }
    },
    {
        "id": "16377805482365385884",
        "title": "无障碍公共厕所",
        "address": "湖南省湘西土家族苗族自治州凤凰县回龙阁与豹子湾路交叉口东北方向294米左右",
        "tel": "",
        "category": "基础设施:公共设施:公共厕所",
        "type": 0,
        "location": {
            "lat": 27.944823,
            "lng": 109.618832
        },
        "ad_info": {
            "adcode": 433123,
            "province": "湖南省",
            "city": "湘西土家族苗族自治州",
            "district": "凤凰县"
        }
    },
    {
        "id": "8859089034594479872",
        "title": "公共厕所",
        "address": "湖南省湘西土家族苗族自治州吉首市S229凤麟石油加油站",
        "tel": "",
        "category": "基础设施:公共设施:公共厕所",
        "type": 0,
        "location": {
            "lat": 28.34443,
            "lng": 109.761509
        },
        "ad_info": {
            "adcode": 433101,
            "province": "湖南省",
            "city": "湘西土家族苗族自治州",
            "district": "吉首市"
        }
    },
    {
        "id": "8401923001779214882",
        "title": "凤凰县城北游客服务中心1楼旅游厕所B",
        "address": "湖南省湘西土家族苗族自治州凤凰县G354与凤凰北路交叉口正南方向209米左右",
        "tel": "",
        "category": "基础设施:公共设施:公共厕所",
        "type": 0,
        "location": {
            "lat": 27.967604,
            "lng": 109.590634
        },
        "ad_info": {
            "adcode": 433123,
            "province": "湖南省",
            "city": "湘西土家族苗族自治州",
            "district": "凤凰县"
        }
    },
    {
        "id": "8353476328923936682",
        "title": "公共厕所",
        "address": "湖南省湘西土家族苗族自治州吉首市229省道东50米",
        "tel": "",
        "category": "基础设施:公共设施:公共厕所",
        "type": 0,
        "location": {
            "lat": 28.445569,
            "lng": 109.830782
        },
        "ad_info": {
            "adcode": 433101,
            "province": "湖南省",
            "city": "湘西土家族苗族自治州",
            "district": "吉首市"
        }
    },
    {
        "id": "14034112779972009660",
        "title": "公共厕所",
        "address": "湖南省湘西土家族苗族自治州保靖县梓桐阁路与魏竹北路交叉口西北方向168米左右",
        "tel": "",
        "category": "基础设施:公共设施:公共厕所",
        "type": 0,
        "location": {
            "lat": 28.705115,
            "lng": 109.656358
        },
        "ad_info": {
            "adcode": 433125,
            "province": "湖南省",
            "city": "湘西土家族苗族自治州",
            "district": "保靖县"
        }
    },
    {
        "id": "1738384217803434798",
        "title": "公共厕所",
        "address": "湖南省湘西土家族苗族自治州永顺县306省道西50米",
        "tel": "",
        "category": "基础设施:公共设施:公共厕所",
        "type": 0,
        "location": {
            "lat": 29.035161,
            "lng": 110.143657
        },
        "ad_info": {
            "adcode": 433127,
            "province": "湖南省",
            "city": "湘西土家族苗族自治州",
            "district": "永顺县"
        }
    },
    {
        "id": "12023424858835446199",
        "title": "公共厕所(花垣县边城茶峒景区曲乐新区停车场)",
        "address": "湖南省湘西土家族苗族自治州花垣县边城曲乐文化旅游开发有限公司东北侧130米",
        "tel": "",
        "category": "基础设施:公共设施:公共厕所",
        "type": 0,
        "location": {
            "lat": 28.515724,
            "lng": 109.27999
        },
        "ad_info": {
            "adcode": 433124,
            "province": "湖南省",
            "city": "湘西土家族苗族自治州",
            "district": "花垣县"
        }
    },
    {
        "id": "4449967268987163574",
        "title": "公共厕所",
        "address": "湖南省湘西土家族苗族自治州永顺县G352与芙蓉镇大桥交叉口东北方向288米左右",
        "tel": "",
        "category": "基础设施:公共设施:公共厕所",
        "type": 0,
        "location": {
            "lat": 28.738509,
            "lng": 109.948828
        },
        "ad_info": {
            "adcode": 433127,
            "province": "湖南省",
            "city": "湘西土家族苗族自治州",
            "district": "永顺县"
        }
    },
    {
        "id": "3382321444552878335",
        "title": "公共厕所",
        "address": "湖南省湘西土家族苗族自治州永顺县S306与Y035交叉口东北方向395米左右",
        "tel": "",
        "category": "基础设施:公共设施:公共厕所",
        "type": 0,
        "location": {
            "lat": 28.99502,
            "lng": 109.874565
        },
        "ad_info": {
            "adcode": 433127,
            "province": "湖南省",
            "city": "湘西土家族苗族自治州",
            "district": "永顺县"
        }
    },
    {
        "id": "192515520202857162",
        "title": "公共厕所(保靖县毛沟镇巴科)",
        "address": "湖南省湘西土家族苗族自治州保靖县毛沟镇巴科村",
        "tel": "",
        "category": "基础设施:公共设施:公共厕所",
        "type": 0,
        "location": {
            "lat": 28.694368,
            "lng": 109.408955
        },
        "ad_info": {
            "adcode": 433125,
            "province": "湖南省",
            "city": "湘西土家族苗族自治州",
            "district": "保靖县"
        }
    },
    {
        "id": "12600599119534720949",
        "title": "公共厕所",
        "address": "湖南省湘西土家族苗族自治州永顺县G352与张花高速交叉口东北方向1177米左右",
        "tel": "",
        "category": "基础设施:公共设施:公共厕所",
        "type": 0,
        "location": {
            "lat": 29.037058,
            "lng": 110.243681
        },
        "ad_info": {
            "adcode": 433127,
            "province": "湖南省",
            "city": "湘西土家族苗族自治州",
            "district": "永顺县"
        }
    },
    {
        "id": "9823818694490209923",
        "title": "公共厕所",
        "address": "湖南省湘西土家族苗族自治州永顺县G209与S314交叉口西北方向1080米左右",
        "tel": "",
        "category": "基础设施:公共设施:公共厕所",
        "type": 0,
        "location": {
            "lat": 29.026426,
            "lng": 109.738381
        },
        "ad_info": {
            "adcode": 433127,
            "province": "湖南省",
            "city": "湘西土家族苗族自治州",
            "district": "永顺县"
        }
    },
    {
        "id": "16827439386373823779",
        "title": "公共厕所",
        "address": "湖南省湘西土家族苗族自治州永顺县大西街与府正街交叉口正西方向866米左右",
        "tel": "",
        "category": "基础设施:公共设施:公共厕所",
        "type": 0,
        "location": {
            "lat": 29.002984,
            "lng": 109.841415
        },
        "ad_info": {
            "adcode": 433127,
            "province": "湖南省",
            "city": "湘西土家族苗族自治州",
            "district": "永顺县"
        }
    },
    {
        "id": "3605242334226360540",
        "title": "公共厕所",
        "address": "湖南省湘西土家族苗族自治州永顺县S306与Y035交叉口东北方向171米左右",
        "tel": "",
        "category": "基础设施:公共设施:公共厕所",
        "type": 0,
        "location": {
            "lat": 28.99385,
            "lng": 109.872676
        },
        "ad_info": {
            "adcode": 433127,
            "province": "湖南省",
            "city": "湘西土家族苗族自治州",
            "district": "永顺县"
        }
    },
    {
        "id": "12103249586700396880",
        "title": "公共厕所",
        "address": "湖南省湘西土家族苗族自治州永顺县229省道南50米",
        "tel": "",
        "category": "基础设施:公共设施:公共厕所",
        "type": 0,
        "location": {
            "lat": 28.939933,
            "lng": 110.037045
        },
        "ad_info": {
            "adcode": 433127,
            "province": "湖南省",
            "city": "湘西土家族苗族自治州",
            "district": "永顺县"
        }
    },
    {
        "id": "14242454387588974374",
        "title": "洗手间(凤凰县竹山村竹山乡居会议厅)",
        "address": "湖南省湘西土家族苗族自治州凤凰县竹山村竹山乡居会议厅",
        "tel": "",
        "category": "基础设施:公共设施:公共厕所",
        "type": 0,
        "location": {
            "lat": 27.981016,
            "lng": 109.45165
        },
        "ad_info": {
            "adcode": 433123,
            "province": "湖南省",
            "city": "湘西土家族苗族自治州",
            "district": "凤凰县"
        }
    },
    {
        "id": "11695191606560257620",
        "title": "公共厕所(凤凰县竹山花开演艺)",
        "address": "湖南省湘西土家族苗族自治州凤凰县竹山乡居西侧250米",
        "tel": "",
        "category": "基础设施:公共设施:公共厕所",
        "type": 0,
        "location": {
            "lat": 27.982076,
            "lng": 109.44834
        },
        "ad_info": {
            "adcode": 433123,
            "province": "湖南省",
            "city": "湘西土家族苗族自治州",
            "district": "凤凰县"
        }
    },
    {
        "id": "14173653011810636407",
        "title": "公共厕所(凤凰县竹山乡居停车场)",
        "address": "湖南省湘西土家族苗族自治州凤凰县竹山乡居东侧170米",
        "tel": "",
        "category": "基础设施:公共设施:公共厕所",
        "type": 0,
        "location": {
            "lat": 27.981503,
            "lng": 109.452694
        },
        "ad_info": {
            "adcode": 433123,
            "province": "湖南省",
            "city": "湘西土家族苗族自治州",
            "district": "凤凰县"
        }
    },
    {
        "id": "2249222286405447692",
        "title": "公共厕所(凤凰县竹山无边界泳池悬崖边)",
        "address": "湖南省湘西土家族苗族自治州凤凰县竹山乡居西侧280米",
        "tel": "",
        "category": "基础设施:公共设施:公共厕所",
        "type": 0,
        "location": {
            "lat": 27.981292,
            "lng": 109.448049
        },
        "ad_info": {
            "adcode": 433123,
            "province": "湖南省",
            "city": "湘西土家族苗族自治州",
            "district": "凤凰县"
        }
    },
    {
        "id": "9841588565404865148",
        "title": "凤凰古城风景名胜区公共厕所",
        "address": "湖南省湘西土家族苗族自治州凤凰县凤凰风景名胜区回龙阁",
        "tel": "",
        "category": "基础设施:公共设施:公共厕所",
        "type": 0,
        "location": {
            "lat": 27.945474,
            "lng": 109.608702
        },
        "ad_info": {
            "adcode": 433123,
            "province": "湖南省",
            "city": "湘西土家族苗族自治州",
            "district": "凤凰县"
        }
    },
    {
        "id": "8599864061528093381",
        "title": "公共厕所(天桥山自然保护区停车场)",
        "address": "湖南省湘西土家族苗族自治州泸溪县G56杭瑞高速",
        "tel": "",
        "category": "基础设施:公共设施:公共厕所",
        "type": 0,
        "location": {
            "lat": 28.261704,
            "lng": 110.102961
        },
        "ad_info": {
            "adcode": 433122,
            "province": "湖南省",
            "city": "湘西土家族苗族自治州",
            "district": "泸溪县"
        }
    },
    {
        "id": "1152011606243494036",
        "title": "公共厕所(普戎镇波溪村)",
        "address": "湖南省湘西土家族苗族自治州保靖县",
        "tel": "",
        "category": "基础设施:公共设施:公共厕所",
        "type": 0,
        "location": {
            "lat": 28.880289,
            "lng": 109.671293
        },
        "ad_info": {
            "adcode": 433125,
            "province": "湖南省",
            "city": "湘西土家族苗族自治州",
            "district": "保靖县"
        }
    },
    {
        "id": "1225692163310946740",
        "title": "公共厕所",
        "address": "湖南省湘西土家族苗族自治州凤凰县沱江镇凤凰古城景区万寿宫内",
        "tel": "",
        "category": "基础设施:公共设施:公共厕所",
        "type": 0,
        "location": {
            "lat": 27.948073,
            "lng": 109.60819
        },
        "ad_info": {
            "adcode": 433123,
            "province": "湖南省",
            "city": "湘西土家族苗族自治州",
            "district": "凤凰县"
        }
    },
    {
        "id": "10354777299061739670",
        "title": "公共厕所(龙山县龙吉高速龙山服务区)",
        "address": "湖南省湘西土家族苗族自治州龙山县S256与X002交叉口东北方向771米左右",
        "tel": "",
        "category": "基础设施:公共设施:公共厕所",
        "type": 0,
        "location": {
            "lat": 29.415814,
            "lng": 109.479809
        },
        "ad_info": {
            "adcode": 433130,
            "province": "湖南省",
            "city": "湘西土家族苗族自治州",
            "district": "龙山县"
        }
    },
    {
        "id": "10034285117842668973",
        "title": "公共厕所(龙山县桂塘镇乌龙山大峡谷景区)",
        "address": "湖南省湘西土家族苗族自治州龙山县乌龙山大峡谷西南侧410米",
        "tel": "",
        "category": "基础设施:公共设施:公共厕所",
        "type": 0,
        "location": {
            "lat": 29.201382,
            "lng": 109.307634
        },
        "ad_info": {
            "adcode": 433130,
            "province": "湖南省",
            "city": "湘西土家族苗族自治州",
            "district": "龙山县"
        }
    },
    {
        "id": "5694533983102991262",
        "title": "公共厕所",
        "address": "湖南省湘西土家族苗族自治州龙山县里耶古城北游客服务中心东北侧190米",
        "tel": "",
        "category": "基础设施:公共设施:公共厕所",
        "type": 0,
        "location": {
            "lat": 28.800247,
            "lng": 109.311739
        },
        "ad_info": {
            "adcode": 433130,
            "province": "湖南省",
            "city": "湘西土家族苗族自治州",
            "district": "龙山县"
        }
    },
    {
        "id": "11198290288749063853",
        "title": "公共厕所(龙山县石羔街道武陵龙凤现代农业示范园)",
        "address": "湖南省湘西土家族苗族自治州龙山县龙凤示范园西侧80米",
        "tel": "",
        "category": "基础设施:公共设施:公共厕所",
        "type": 0,
        "location": {
            "lat": 29.571112,
            "lng": 109.512433
        },
        "ad_info": {
            "adcode": 433130,
            "province": "湖南省",
            "city": "湘西土家族苗族自治州",
            "district": "龙山县"
        }
    },
    {
        "id": "8284182373006216335",
        "title": "公共厕所",
        "address": "湖南省湘西土家族苗族自治州吉首市人民中路与人民北路交叉口正南方向328米左右",
        "tel": "",
        "category": "基础设施:公共设施:公共厕所",
        "type": 0,
        "location": {
            "lat": 28.291271,
            "lng": 109.727411
        },
        "ad_info": {
            "adcode": 433101,
            "province": "湖南省",
            "city": "湘西土家族苗族自治州",
            "district": "吉首市"
        }
    },
    {
        "id": "14025177162842656198",
        "title": "公共厕所",
        "address": "湖南省湘西土家族苗族自治州吉首市双拥路与武陵东路交叉口西南方向41米左右",
        "tel": "",
        "category": "基础设施:公共设施:公共厕所",
        "type": 0,
        "location": {
            "lat": 28.310225,
            "lng": 109.742106
        },
        "ad_info": {
            "adcode": 433101,
            "province": "湖南省",
            "city": "湘西土家族苗族自治州",
            "district": "吉首市"
        }
    },
    {
        "id": "7625837283299484363",
        "title": "公共厕所(龙山县苗儿滩镇捞车村)",
        "address": "湖南省湘西土家族苗族自治州龙山县凉亭桥农家乐北侧140米",
        "tel": "",
        "category": "基础设施:公共设施:公共厕所",
        "type": 0,
        "location": {
            "lat": 28.994798,
            "lng": 109.507922
        },
        "ad_info": {
            "adcode": 433130,
            "province": "湖南省",
            "city": "湘西土家族苗族自治州",
            "district": "龙山县"
        }
    },
    {
        "id": "18154591951180623219",
        "title": "公共厕所",
        "address": "湖南省湘西土家族苗族自治州凤凰县喜鹊坡路与虹桥东路交叉口西南方向36米左右",
        "tel": "",
        "category": "基础设施:公共设施:公共厕所",
        "type": 0,
        "location": {
            "lat": 27.952709,
            "lng": 109.606781
        },
        "ad_info": {
            "adcode": 433123,
            "province": "湖南省",
            "city": "湘西土家族苗族自治州",
            "district": "凤凰县"
        }
    },
    {
        "id": "590302676537573674",
        "title": "公共厕所",
        "address": "湖南省湘西土家族苗族自治州龙山县S256与S260交叉口东北方向488米左右",
        "tel": "",
        "category": "基础设施:公共设施:公共厕所",
        "type": 0,
        "location": {
            "lat": 29.106273,
            "lng": 109.263483
        },
        "ad_info": {
            "adcode": 433130,
            "province": "湖南省",
            "city": "湘西土家族苗族自治州",
            "district": "龙山县"
        }
    },
    {
        "id": "6365208159867720196",
        "title": "公共厕所(龙山县里耶镇古城秦简博物馆外)",
        "address": "湖南省湘西土家族苗族自治州龙山县里耶古城(秦简)博物馆西侧100米",
        "tel": "",
        "category": "基础设施:公共设施:公共厕所",
        "type": 0,
        "location": {
            "lat": 28.798161,
            "lng": 109.30702
        },
        "ad_info": {
            "adcode": 433130,
            "province": "湖南省",
            "city": "湘西土家族苗族自治州",
            "district": "龙山县"
        }
    },
    {
        "id": "13190835783001264269",
        "title": "花垣县古苗河大峡谷景区停车场公共厕所",
        "address": "湖南省湘西土家族苗族自治州花垣县古苗河大峡谷景区停车场",
        "tel": "",
        "category": "基础设施:公共设施:公共厕所",
        "type": 0,
        "location": {
            "lat": 28.571003,
            "lng": 109.506076
        },
        "ad_info": {
            "adcode": 433124,
            "province": "湖南省",
            "city": "湘西土家族苗族自治州",
            "district": "花垣县"
        }
    },
    {
        "id": "12474837560000058897",
        "title": "公共厕所",
        "address": "湖南省湘西土家族苗族自治州龙山县G209与S256交叉口西北方向51米左右",
        "tel": "",
        "category": "基础设施:公共设施:公共厕所",
        "type": 0,
        "location": {
            "lat": 29.411648,
            "lng": 109.466477
        },
        "ad_info": {
            "adcode": 433130,
            "province": "湖南省",
            "city": "湘西土家族苗族自治州",
            "district": "龙山县"
        }
    },
    {
        "id": "9592521422041674690",
        "title": "公共厕所",
        "address": "湖南省湘西土家族苗族自治州龙山县G209与老城路交叉口正东方向273米左右",
        "tel": "",
        "category": "基础设施:公共设施:公共厕所",
        "type": 0,
        "location": {
            "lat": 29.437611,
            "lng": 109.461433
        },
        "ad_info": {
            "adcode": 433130,
            "province": "湖南省",
            "city": "湘西土家族苗族自治州",
            "district": "龙山县"
        }
    },
    {
        "id": "12059678770066675499",
        "title": "公共厕所",
        "address": "湖南省湘西土家族苗族自治州永顺县230省道与永顺市政路交叉口东100米",
        "tel": "",
        "category": "基础设施:公共设施:公共厕所",
        "type": 0,
        "location": {
            "lat": 28.988354,
            "lng": 109.851726
        },
        "ad_info": {
            "adcode": 433127,
            "province": "湖南省",
            "city": "湘西土家族苗族自治州",
            "district": "永顺县"
        }
    },
    {
        "id": "15190919702962355415",
        "title": "公共厕所",
        "address": "湖南省湘西土家族苗族自治州保靖县X026",
        "tel": "",
        "category": "基础设施:公共设施:公共厕所",
        "type": 0,
        "location": {
            "lat": 28.687296,
            "lng": 109.654176
        },
        "ad_info": {
            "adcode": 433125,
            "province": "湖南省",
            "city": "湘西土家族苗族自治州",
            "district": "保靖县"
        }
    },
    {
        "id": "1586926974214139158",
        "title": "公共厕所",
        "address": "湖南省湘西土家族苗族自治州吉首市世纪大道与载福路交叉口正南方向99米左右",
        "tel": "",
        "category": "基础设施:公共设施:公共厕所",
        "type": 0,
        "location": {
            "lat": 28.261578,
            "lng": 109.701616
        },
        "ad_info": {
            "adcode": 433101,
            "province": "湖南省",
            "city": "湘西土家族苗族自治州",
            "district": "吉首市"
        }
    },
    {
        "id": "14810477222069458429",
        "title": "乾州古城公共厕所",
        "address": "湖南省湘西土家族苗族自治州吉首市Y102与迎宾路交叉口正南方向98米左右",
        "tel": "",
        "category": "基础设施:公共设施:公共厕所",
        "type": 0,
        "location": {
            "lat": 28.254931,
            "lng": 109.703091
        },
        "ad_info": {
            "adcode": 433101,
            "province": "湖南省",
            "city": "湘西土家族苗族自治州",
            "district": "吉首市"
        }
    },
    {
        "id": "9752831480445708175",
        "title": "公共厕所(龙山县里耶古城景区北游客服务中心停车场)",
        "address": "湖南省湘西土家族苗族自治州龙山县里耶古城北游客服务中心东北侧200米",
        "tel": "",
        "category": "基础设施:公共设施:公共厕所",
        "type": 0,
        "location": {
            "lat": 28.800617,
            "lng": 109.311224
        },
        "ad_info": {
            "adcode": 433130,
            "province": "湖南省",
            "city": "湘西土家族苗族自治州",
            "district": "龙山县"
        }
    },
    {
        "id": "7578880440757879722",
        "title": "公共厕所",
        "address": "湖南省湘西土家族苗族自治州泸溪县临江路与屈原南路交叉口西南方向96米左右",
        "tel": "",
        "category": "基础设施:公共设施:公共厕所",
        "type": 0,
        "location": {
            "lat": 28.211,
            "lng": 110.217658
        },
        "ad_info": {
            "adcode": 433122,
            "province": "湖南省",
            "city": "湘西土家族苗族自治州",
            "district": "泸溪县"
        }
    },
    {
        "id": "1531124981641243896",
        "title": "公共厕所",
        "address": "湖南省湘西土家族苗族自治州龙山县G353与X001交叉口西南方向421米左右",
        "tel": "",
        "category": "基础设施:公共设施:公共厕所",
        "type": 0,
        "location": {
            "lat": 29.442585,
            "lng": 109.646225
        },
        "ad_info": {
            "adcode": 433130,
            "province": "湖南省",
            "city": "湘西土家族苗族自治州",
            "district": "龙山县"
        }
    },
    {
        "id": "17650142974514972695",
        "title": "公共厕所",
        "address": "湖南省湘西土家族苗族自治州龙山县S231里耶古城秦简博物馆外",
        "tel": "",
        "category": "基础设施:公共设施:公共厕所",
        "type": 0,
        "location": {
            "lat": 28.796581,
            "lng": 109.307286
        },
        "ad_info": {
            "adcode": 433130,
            "province": "湖南省",
            "city": "湘西土家族苗族自治州",
            "district": "龙山县"
        }
    },
    {
        "id": "15001399233225664521",
        "title": "公共厕所",
        "address": "湖南省湘西土家族苗族自治州龙山县五爱路与长沙路交叉口正东方向111米左右",
        "tel": "",
        "category": "基础设施:公共设施:公共厕所",
        "type": 0,
        "location": {
            "lat": 29.451416,
            "lng": 109.441764
        },
        "ad_info": {
            "adcode": 433130,
            "province": "湖南省",
            "city": "湘西土家族苗族自治州",
            "district": "龙山县"
        }
    },
    {
        "id": "17671339350917229166",
        "title": "公共厕所",
        "address": "湖南省湘西土家族苗族自治州古丈县古罗大道与金源路交叉口东北方向470米左右",
        "tel": "",
        "category": "基础设施:公共设施:公共厕所",
        "type": 0,
        "location": {
            "lat": 28.648479,
            "lng": 109.977414
        },
        "ad_info": {
            "adcode": 433126,
            "province": "湖南省",
            "city": "湘西土家族苗族自治州",
            "district": "古丈县"
        }
    },
    {
        "id": "3593338282564782162",
        "title": "公共厕所",
        "address": "湖南省湘西土家族苗族自治州龙山县光明路与龙凤路交叉口正南方向130米左右",
        "tel": "",
        "category": "基础设施:公共设施:公共厕所",
        "type": 0,
        "location": {
            "lat": 29.456371,
            "lng": 109.445071
        },
        "ad_info": {
            "adcode": 433130,
            "province": "湖南省",
            "city": "湘西土家族苗族自治州",
            "district": "龙山县"
        }
    },
    {
        "id": "10382375983887172545",
        "title": "县政府宾馆-洗手间",
        "address": "湖南省湘西土家族苗族自治州凤凰县南华路与桔园路交叉口东南方向169米左右",
        "tel": "",
        "category": "基础设施:公共设施:公共厕所",
        "type": 0,
        "location": {
            "lat": 27.948152,
            "lng": 109.59973
        },
        "ad_info": {
            "adcode": 433123,
            "province": "湖南省",
            "city": "湘西土家族苗族自治州",
            "district": "凤凰县"
        }
    },
    {
        "id": "8481784854064810276",
        "title": "凤凰服务区公共厕所",
        "address": "湖南省湘西土家族苗族自治州凤凰县一站",
        "tel": "",
        "category": "基础设施:公共设施:公共厕所",
        "type": 0,
        "location": {
            "lat": 28.033806,
            "lng": 109.6065
        },
        "ad_info": {
            "adcode": 433123,
            "province": "湖南省",
            "city": "湘西土家族苗族自治州",
            "district": "凤凰县"
        }
    },
    {
        "id": "7099678557504921257",
        "title": "将军井卫生间",
        "address": "湖南省湘西土家族苗族自治州花垣县G242与同心桥交叉口正南方向351米左右",
        "tel": "",
        "category": "基础设施:公共设施:公共厕所",
        "type": 0,
        "location": {
            "lat": 28.507815,
            "lng": 109.273574
        },
        "ad_info": {
            "adcode": 433124,
            "province": "湖南省",
            "city": "湘西土家族苗族自治州",
            "district": "花垣县"
        }
    },
    {
        "id": "12242384494667740367",
        "title": "泸溪服务区公共厕所",
        "address": "湖南省湘西土家族苗族自治州泸溪县杭瑞高速",
        "tel": "",
        "category": "基础设施:公共设施:公共厕所",
        "type": 0,
        "location": {
            "lat": 28.26365,
            "lng": 110.030618
        },
        "ad_info": {
            "adcode": 433122,
            "province": "湖南省",
            "city": "湘西土家族苗族自治州",
            "district": "泸溪县"
        }
    },
    {
        "id": "9603845761270980836",
        "title": "金龙村公共厕所",
        "address": "湖南省湘西土家族苗族自治州花垣县金龙苗寨风景区西南侧",
        "tel": "",
        "category": "基础设施:公共设施:公共厕所",
        "type": 0,
        "location": {
            "lat": 28.41092,
            "lng": 109.632036
        },
        "ad_info": {
            "adcode": 433124,
            "province": "湖南省",
            "city": "湘西土家族苗族自治州",
            "district": "花垣县"
        }
    },
    {
        "id": "411880900733545784",
        "title": "花垣服务区第一公共厕所",
        "address": "湖南省湘西土家族苗族自治州花垣县G65包茂高速东100米附近",
        "tel": "",
        "category": "基础设施:公共设施:公共厕所",
        "type": 0,
        "location": {
            "lat": 28.504069,
            "lng": 109.459336
        },
        "ad_info": {
            "adcode": 433124,
            "province": "湖南省",
            "city": "湘西土家族苗族自治州",
            "district": "花垣县"
        }
    },
    {
        "id": "16334672985686174454",
        "title": "吉首北服务区公共厕所",
        "address": "湖南省湘西土家族苗族自治州吉首市吉首北服务区与S99龙吉高速交叉口西200米",
        "tel": "",
        "category": "基础设施:公共设施:公共厕所",
        "type": 0,
        "location": {
            "lat": 28.445763,
            "lng": 109.821204
        },
        "ad_info": {
            "adcode": 433101,
            "province": "湖南省",
            "city": "湘西土家族苗族自治州",
            "district": "吉首市"
        }
    },
    {
        "id": "15934821436191721962",
        "title": "保靖服务区公共厕所",
        "address": "湖南省湘西土家族苗族自治州保靖县张花高速保靖服务区",
        "tel": "",
        "category": "基础设施:公共设施:公共厕所",
        "type": 0,
        "location": {
            "lat": 28.61965,
            "lng": 109.522738
        },
        "ad_info": {
            "adcode": 433125,
            "province": "湖南省",
            "city": "湘西土家族苗族自治州",
            "district": "保靖县"
        }
    },
    {
        "id": "12625671822902552430",
        "title": "花垣县麻栗场镇新科生态园停车场公共厕所",
        "address": "湖南省湘西土家族苗族自治州花垣县",
        "tel": "",
        "category": "基础设施:公共设施:公共厕所",
        "type": 0,
        "location": {
            "lat": 28.451053,
            "lng": 109.467615
        },
        "ad_info": {
            "adcode": 433124,
            "province": "湖南省",
            "city": "湘西土家族苗族自治州",
            "district": "花垣县"
        }
    },
    {
        "id": "4905212460944727670",
        "title": "花垣服务区第二公共厕所",
        "address": "湖南省湘西土家族苗族自治州花垣县G65包茂高速附近",
        "tel": "",
        "category": "基础设施:公共设施:公共厕所",
        "type": 0,
        "location": {
            "lat": 28.504741,
            "lng": 109.458785
        },
        "ad_info": {
            "adcode": 433124,
            "province": "湖南省",
            "city": "湘西土家族苗族自治州",
            "district": "花垣县"
        }
    },
    {
        "id": "16383656949815637430",
        "title": "芙蓉镇景区-公共厕所",
        "address": "湖南省湘西土家族苗族自治州永顺县芙蓉镇景区内(东侧)",
        "tel": "",
        "category": "基础设施:公共设施:公共厕所",
        "type": 0,
        "location": {
            "lat": 28.742402,
            "lng": 109.947547
        },
        "ad_info": {
            "adcode": 433127,
            "province": "湖南省",
            "city": "湘西土家族苗族自治州",
            "district": "永顺县"
        }
    },
    {
        "id": "6993796158893087365",
        "title": "南长城服务区公共厕所",
        "address": "湖南省湘西土家族苗族自治州凤凰县南长城互通与杭瑞高速交叉口正西方向1388米左右",
        "tel": "",
        "category": "基础设施:公共设施:公共厕所",
        "type": 0,
        "location": {
            "lat": 27.94724,
            "lng": 109.507904
        },
        "ad_info": {
            "adcode": 433123,
            "province": "湖南省",
            "city": "湘西土家族苗族自治州",
            "district": "凤凰县"
        }
    },
    {
        "id": "5850794863242086358",
        "title": "乾州古城-公共厕所",
        "address": "湖南省湘西土家族苗族自治州吉首市人民中路与荣光路交叉口西南方向151米左右",
        "tel": "",
        "category": "基础设施:公共设施:公共厕所",
        "type": 0,
        "location": {
            "lat": 28.255802,
            "lng": 109.698358
        },
        "ad_info": {
            "adcode": 433101,
            "province": "湖南省",
            "city": "湘西土家族苗族自治州",
            "district": "吉首市"
        }
    },
    {
        "id": "3050507523149063141",
        "title": "花垣县麻栗场镇新科生态园孔雀观赏园公共厕所",
        "address": "湖南省湘西土家族苗族自治州花垣县",
        "tel": "",
        "category": "基础设施:公共设施:公共厕所",
        "type": 0,
        "location": {
            "lat": 28.455169,
            "lng": 109.466002
        },
        "ad_info": {
            "adcode": 433124,
            "province": "湖南省",
            "city": "湘西土家族苗族自治州",
            "district": "花垣县"
        }
    },
    {
        "id": "3249118957877449018",
        "title": "泸溪服务区公共厕所",
        "address": "湖南省湘西土家族苗族自治州泸溪县杭瑞高速泸溪服务区",
        "tel": "",
        "category": "基础设施:公共设施:公共厕所",
        "type": 0,
        "location": {
            "lat": 28.265019,
            "lng": 110.032798
        },
        "ad_info": {
            "adcode": 433122,
            "province": "湖南省",
            "city": "湘西土家族苗族自治州",
            "district": "泸溪县"
        }
    },
    {
        "id": "2859087941991045956",
        "title": "龙山县洗车河古镇游客服务中心旅公共厕所",
        "address": "湖南省湘西土家族苗族自治州龙山县X011与Y029交叉口东南方向193米左右",
        "tel": "",
        "category": "基础设施:公共设施:公共厕所",
        "type": 0,
        "location": {
            "lat": 29.066411,
            "lng": 109.534361
        },
        "ad_info": {
            "adcode": 433130,
            "province": "湖南省",
            "city": "湘西土家族苗族自治州",
            "district": "龙山县"
        }
    },
    {
        "id": "13175071613415880653",
        "title": "花垣服务区公共厕所",
        "address": "湖南省湘西土家族苗族自治州花垣县包茂高速花垣服务区",
        "tel": "",
        "category": "基础设施:公共设施:公共厕所",
        "type": 0,
        "location": {
            "lat": 28.502513,
            "lng": 109.459188
        },
        "ad_info": {
            "adcode": 433124,
            "province": "湖南省",
            "city": "湘西土家族苗族自治州",
            "district": "花垣县"
        }
    },
    {
        "id": "8614428611598247658",
        "title": "农车服务区第二公共厕所",
        "address": "湖南省湘西土家族苗族自治州龙山县农车互通与龙吉高速交叉口正北方向1897米左右",
        "tel": "",
        "category": "基础设施:公共设施:公共厕所",
        "type": 0,
        "location": {
            "lat": 29.162536,
            "lng": 109.635709
        },
        "ad_info": {
            "adcode": 433130,
            "province": "湖南省",
            "city": "湘西土家族苗族自治州",
            "district": "龙山县"
        }
    },
    {
        "id": "15076748409840685481",
        "title": "公共厕所(迁陵镇通坝村)",
        "address": "湖南省湘西土家族苗族自治州保靖县G209与迁陵北路交叉口正西方向1051米左右",
        "tel": "",
        "category": "基础设施:公共设施:公共厕所",
        "type": 0,
        "location": {
            "lat": 28.760417,
            "lng": 109.683791
        },
        "ad_info": {
            "adcode": 433125,
            "province": "湖南省",
            "city": "湘西土家族苗族自治州",
            "district": "保靖县"
        }
    },
    {
        "id": "10970795345646960898",
        "title": "公共厕所",
        "address": "湖南省湘西土家族苗族自治州花垣县建设中路花垣县人民医院",
        "tel": "",
        "category": "基础设施:公共设施:公共厕所",
        "type": 0,
        "location": {
            "lat": 28.583304,
            "lng": 109.482795
        },
        "ad_info": {
            "adcode": 433124,
            "province": "湖南省",
            "city": "湘西土家族苗族自治州",
            "district": "花垣县"
        }
    },
    {
        "id": "12232609223122028729",
        "title": "公共厕所(陇木峒红石林)",
        "address": "湖南省湘西土家族苗族自治州保靖县陇木峒景区红石林景观园",
        "tel": "",
        "category": "基础设施:公共设施:公共厕所",
        "type": 0,
        "location": {
            "lat": 28.735273,
            "lng": 109.586982
        },
        "ad_info": {
            "adcode": 433125,
            "province": "湖南省",
            "city": "湘西土家族苗族自治州",
            "district": "保靖县"
        }
    },
    {
        "id": "12660841591495684343",
        "title": "公共厕所(游客中心)",
        "address": "湖南省湘西土家族苗族自治州永顺县Y030与Y035交叉口东北方向1083米左右",
        "tel": "",
        "category": "基础设施:公共设施:公共厕所",
        "type": 0,
        "location": {
            "lat": 28.996765,
            "lng": 109.911806
        },
        "ad_info": {
            "adcode": 433127,
            "province": "湖南省",
            "city": "湘西土家族苗族自治州",
            "district": "永顺县"
        }
    },
    {
        "id": "9323527930124876125",
        "title": "公共厕所(保靖县迁陵镇竹子坪社区)",
        "address": "湖南省湘西土家族苗族自治州保靖县森林公园地亩庙",
        "tel": "",
        "category": "基础设施:公共设施:公共厕所",
        "type": 0,
        "location": {
            "lat": 28.719765,
            "lng": 109.657052
        },
        "ad_info": {
            "adcode": 433125,
            "province": "湖南省",
            "city": "湘西土家族苗族自治州",
            "district": "保靖县"
        }
    },
    {
        "id": "5042423507674495599",
        "title": "公共厕所(谭溪镇新寨坪)",
        "address": "湖南省湘西土家族苗族自治州泸溪县泸溪山谷花间栖迟谷民宿南侧110米",
        "tel": "",
        "category": "基础设施:公共设施:公共厕所",
        "type": 0,
        "location": {
            "lat": 28.179009,
            "lng": 109.867124
        },
        "ad_info": {
            "adcode": 433122,
            "province": "湖南省",
            "city": "湘西土家族苗族自治州",
            "district": "泸溪县"
        }
    },
    {
        "id": "3341331654194914811",
        "title": "公共厕所(龙山县狮子头农庄)",
        "address": "湖南省湘西土家族苗族自治州龙山县狮子头农庄旅游厕所",
        "tel": "",
        "category": "基础设施:公共设施:公共厕所",
        "type": 0,
        "location": {
            "lat": 29.458835,
            "lng": 109.475241
        },
        "ad_info": {
            "adcode": 433130,
            "province": "湖南省",
            "city": "湘西土家族苗族自治州",
            "district": "龙山县"
        }
    },
    {
        "id": "8676342124620232832",
        "title": "公共厕所(游乐园售票处)",
        "address": "湖南省湘西土家族苗族自治州永顺县Y030与Y035交叉口东北方向1161米左右",
        "tel": "",
        "category": "基础设施:公共设施:公共厕所",
        "type": 0,
        "location": {
            "lat": 28.99863,
            "lng": 109.911367
        },
        "ad_info": {
            "adcode": 433127,
            "province": "湖南省",
            "city": "湘西土家族苗族自治州",
            "district": "永顺县"
        }
    },
    {
        "id": "13529440653753013880",
        "title": "公共厕所",
        "address": "湖南省湘西土家族苗族自治州保靖县吕洞山景区大峰冲村",
        "tel": "",
        "category": "基础设施:公共设施:公共厕所",
        "type": 0,
        "location": {
            "lat": 28.429791,
            "lng": 109.66475
        },
        "ad_info": {
            "adcode": 433125,
            "province": "湖南省",
            "city": "湘西土家族苗族自治州",
            "district": "保靖县"
        }
    },
    {
        "id": "11565027742221593486",
        "title": "公共厕所(龙山县五虎赶六羊景点)",
        "address": "湖南省湘西土家族苗族自治州龙山县",
        "tel": "",
        "category": "基础设施:公共设施:公共厕所",
        "type": 0,
        "location": {
            "lat": 29.188568,
            "lng": 109.470547
        },
        "ad_info": {
            "adcode": 433130,
            "province": "湖南省",
            "city": "湘西土家族苗族自治州",
            "district": "龙山县"
        }
    },
    {
        "id": "3020550434249811192",
        "title": "凤凰记忆农家船公共厕所",
        "address": "湖南省湘西土家族苗族自治州凤凰县田家弄与虹桥东路交叉口正西方向75米左右",
        "tel": "",
        "category": "基础设施:公共设施:公共厕所",
        "type": 0,
        "location": {
            "lat": 27.949335,
            "lng": 109.605818
        },
        "ad_info": {
            "adcode": 433123,
            "province": "湖南省",
            "city": "湘西土家族苗族自治州",
            "district": "凤凰县"
        }
    },
    {
        "id": "2257219670967525504",
        "title": "十八洞村新村部放映室公共厕所",
        "address": "湖南省湘西土家族苗族自治州花垣县十八洞思源餐厅南侧",
        "tel": "",
        "category": "基础设施:公共设施:公共厕所",
        "type": 0,
        "location": {
            "lat": 28.369941,
            "lng": 109.494659
        },
        "ad_info": {
            "adcode": 433124,
            "province": "湖南省",
            "city": "湘西土家族苗族自治州",
            "district": "花垣县"
        }
    },
    {
        "id": "11365908881850440866",
        "title": "公共厕所",
        "address": "湖南省湘西土家族苗族自治州泸溪县浦市镇高桥村村部楼旁",
        "tel": "",
        "category": "基础设施:公共设施:公共厕所",
        "type": 0,
        "location": {
            "lat": 28.032708,
            "lng": 110.120851
        },
        "ad_info": {
            "adcode": 433122,
            "province": "湖南省",
            "city": "湘西土家族苗族自治州",
            "district": "泸溪县"
        }
    },
    {
        "id": "7573719267820990035",
        "title": "公共厕所(大田村)",
        "address": "湖南省湘西土家族苗族自治州保靖县G209与迁陵南路交叉口东南方向1096米左右",
        "tel": "",
        "category": "基础设施:公共设施:公共厕所",
        "type": 0,
        "location": {
            "lat": 28.670138,
            "lng": 109.64698
        },
        "ad_info": {
            "adcode": 433125,
            "province": "湖南省",
            "city": "湘西土家族苗族自治州",
            "district": "保靖县"
        }
    },
    {
        "id": "6046366011079189226",
        "title": "公共厕所(迁陵镇陇木峒村)",
        "address": "湖南省湘西土家族苗族自治州保靖县陇木峒村研学停车场",
        "tel": "",
        "category": "基础设施:公共设施:公共厕所",
        "type": 0,
        "location": {
            "lat": 28.738524,
            "lng": 109.588133
        },
        "ad_info": {
            "adcode": 433125,
            "province": "湖南省",
            "city": "湘西土家族苗族自治州",
            "district": "保靖县"
        }
    },
    {
        "id": "9298039866981765126",
        "title": "公共厕所(周家湾)",
        "address": "湖南省湘西土家族苗族自治州永顺县030乡道",
        "tel": "",
        "category": "基础设施:公共设施:公共厕所",
        "type": 0,
        "location": {
            "lat": 28.991635,
            "lng": 109.977823
        },
        "ad_info": {
            "adcode": 433127,
            "province": "湖南省",
            "city": "湘西土家族苗族自治州",
            "district": "永顺县"
        }
    },
    {
        "id": "17940268266047413067",
        "title": "龙山县洛塔乡旅游公共厕所",
        "address": "湖南省湘西土家族苗族自治州龙山县",
        "tel": "",
        "category": "基础设施:公共设施:公共厕所",
        "type": 0,
        "location": {
            "lat": 29.177082,
            "lng": 109.480652
        },
        "ad_info": {
            "adcode": 433130,
            "province": "湖南省",
            "city": "湘西土家族苗族自治州",
            "district": "龙山县"
        }
    },
    {
        "id": "3859205129829198055",
        "title": "花垣县老航运公司公共厕所",
        "address": "湖南省湘西土家族苗族自治州花垣县新桥路与涧水坡路交叉口正北方向593米左右",
        "tel": "",
        "category": "基础设施:公共设施:公共厕所",
        "type": 0,
        "location": {
            "lat": 28.591002,
            "lng": 109.490983
        },
        "ad_info": {
            "adcode": 433124,
            "province": "湖南省",
            "city": "湘西土家族苗族自治州",
            "district": "花垣县"
        }
    },
    {
        "id": "15598589686770976841",
        "title": "公共厕所(保靖县迁陵镇杨家村)",
        "address": "湖南省湘西土家族苗族自治州保靖县迁陵镇杨家村党群服务中心",
        "tel": "",
        "category": "基础设施:公共设施:公共厕所",
        "type": 0,
        "location": {
            "lat": 28.697966,
            "lng": 109.740549
        },
        "ad_info": {
            "adcode": 433125,
            "province": "湖南省",
            "city": "湘西土家族苗族自治州",
            "district": "保靖县"
        }
    },
    {
        "id": "9254955108241609873",
        "title": "公共厕所(花垣县各鱼村)",
        "address": "湖南省湘西土家族苗族自治州花垣县包茂高速与花垣东互通交叉口正西方向988米左右",
        "tel": "",
        "category": "基础设施:公共设施:公共厕所",
        "type": 0,
        "location": {
            "lat": 28.467883,
            "lng": 109.479484
        },
        "ad_info": {
            "adcode": 433124,
            "province": "湖南省",
            "city": "湘西土家族苗族自治州",
            "district": "花垣县"
        }
    },
    {
        "id": "7461663315844843242",
        "title": "公共厕所(保靖县碗米坡镇拔茅村)",
        "address": "湖南省湘西土家族苗族自治州保靖县迁清公路停车场",
        "tel": "",
        "category": "基础设施:公共设施:公共厕所",
        "type": 0,
        "location": {
            "lat": 28.772056,
            "lng": 109.495873
        },
        "ad_info": {
            "adcode": 433125,
            "province": "湖南省",
            "city": "湘西土家族苗族自治州",
            "district": "保靖县"
        }
    },
    {
        "id": "3918261782589634981",
        "title": "无障碍公共厕所",
        "address": "湖南省湘西土家族苗族自治州保靖县S231与毛沟大桥交叉口西北方向783米左右",
        "tel": "",
        "category": "基础设施:公共设施:公共厕所",
        "type": 0,
        "location": {
            "lat": 28.600816,
            "lng": 109.37984
        },
        "ad_info": {
            "adcode": 433125,
            "province": "湖南省",
            "city": "湘西土家族苗族自治州",
            "district": "保靖县"
        }
    },
    {
        "id": "17455630964404734840",
        "title": "公共厕所",
        "address": "湖南省湘西土家族苗族自治州古丈县青竹山庄北侧",
        "tel": "",
        "category": "基础设施:公共设施:公共厕所",
        "type": 0,
        "location": {
            "lat": 28.729841,
            "lng": 109.936637
        },
        "ad_info": {
            "adcode": 433126,
            "province": "湖南省",
            "city": "湘西土家族苗族自治州",
            "district": "古丈县"
        }
    },
    {
        "id": "6818965922542055187",
        "title": "公共厕所(砂土村)",
        "address": "湖南省湘西土家族苗族自治州永顺县泽家镇砂土村",
        "tel": "",
        "category": "基础设施:公共设施:公共厕所",
        "type": 0,
        "location": {
            "lat": 28.878912,
            "lng": 109.764281
        },
        "ad_info": {
            "adcode": 433127,
            "province": "湖南省",
            "city": "湘西土家族苗族自治州",
            "district": "永顺县"
        }
    },
    {
        "id": "12548636274785718563",
        "title": "公共厕所(古丈县翁草白茶基地)",
        "address": "湖南省湘西土家族苗族自治州古丈县352国道",
        "tel": "",
        "category": "基础设施:公共设施:公共厕所",
        "type": 0,
        "location": {
            "lat": 28.563842,
            "lng": 109.872499
        },
        "ad_info": {
            "adcode": 433126,
            "province": "湖南省",
            "city": "湘西土家族苗族自治州",
            "district": "古丈县"
        }
    },
    {
        "id": "5390587710637430247",
        "title": "公共厕所",
        "address": "湖南省湘西土家族苗族自治州花垣县",
        "tel": "",
        "category": "基础设施:公共设施:公共厕所",
        "type": 0,
        "location": {
            "lat": 28.453194,
            "lng": 109.463049
        },
        "ad_info": {
            "adcode": 433124,
            "province": "湖南省",
            "city": "湘西土家族苗族自治州",
            "district": "花垣县"
        }
    },
    {
        "id": "9355443461389139002",
        "title": "公共厕所(府库)",
        "address": "湖南省湘西土家族苗族自治州保靖县府库村迁清公路旁",
        "tel": "",
        "category": "基础设施:公共设施:公共厕所",
        "type": 0,
        "location": {
            "lat": 28.714756,
            "lng": 109.588633
        },
        "ad_info": {
            "adcode": 433125,
            "province": "湖南省",
            "city": "湘西土家族苗族自治州",
            "district": "保靖县"
        }
    },
    {
        "id": "12107200047687485063",
        "title": "公共厕所(花垣县古苗河大峡谷景区游客服务中心)",
        "address": "湖南省湘西土家族苗族自治州花垣县G209与Y075交叉口东南方向1193米左右",
        "tel": "",
        "category": "基础设施:公共设施:公共厕所",
        "type": 0,
        "location": {
            "lat": 28.572264,
            "lng": 109.506179
        },
        "ad_info": {
            "adcode": 433124,
            "province": "湖南省",
            "city": "湘西土家族苗族自治州",
            "district": "花垣县"
        }
    },
    {
        "id": "11337027907415460899",
        "title": "花垣县金溶村游客服务中心公共厕所",
        "address": "湖南省湘西土家族苗族自治州花垣县花仙栖谷西侧",
        "tel": "",
        "category": "基础设施:公共设施:公共厕所",
        "type": 0,
        "location": {
            "lat": 28.469605,
            "lng": 109.426291
        },
        "ad_info": {
            "adcode": 433124,
            "province": "湖南省",
            "city": "湘西土家族苗族自治州",
            "district": "花垣县"
        }
    },
    {
        "id": "2000815300874272404",
        "title": "公共厕所(保靖县吕洞山景区圣山祭台)",
        "address": "湖南省湘西土家族苗族自治州保靖县吕洞山景区祭祀台",
        "tel": "",
        "category": "基础设施:公共设施:公共厕所",
        "type": 0,
        "location": {
            "lat": 28.468981,
            "lng": 109.687792
        },
        "ad_info": {
            "adcode": 433125,
            "province": "湖南省",
            "city": "湘西土家族苗族自治州",
            "district": "保靖县"
        }
    },
    {
        "id": "11211694538184530591",
        "title": "公共厕所(陇木峒荷花池)",
        "address": "湖南省湘西土家族苗族自治州保靖县陇木峒景区荷花池",
        "tel": "",
        "category": "基础设施:公共设施:公共厕所",
        "type": 0,
        "location": {
            "lat": 28.73277,
            "lng": 109.588291
        },
        "ad_info": {
            "adcode": 433125,
            "province": "湖南省",
            "city": "湘西土家族苗族自治州",
            "district": "保靖县"
        }
    },
    {
        "id": "2420995985765967736",
        "title": "公共厕所",
        "address": "湖南省湘西土家族苗族自治州泸溪县思源实验学校西南侧220米",
        "tel": "",
        "category": "基础设施:公共设施:公共厕所",
        "type": 0,
        "location": {
            "lat": 28.208171,
            "lng": 110.202658
        },
        "ad_info": {
            "adcode": 433122,
            "province": "湖南省",
            "city": "湘西土家族苗族自治州",
            "district": "泸溪县"
        }
    },
    {
        "id": "17717025885409473092",
        "title": "农车服务区公共厕所",
        "address": "湖南省湘西土家族苗族自治州龙山县龙吉高速附近",
        "tel": "",
        "category": "基础设施:公共设施:公共厕所",
        "type": 0,
        "location": {
            "lat": 29.163647,
            "lng": 109.636154
        },
        "ad_info": {
            "adcode": 433130,
            "province": "湖南省",
            "city": "湘西土家族苗族自治州",
            "district": "龙山县"
        }
    },
    {
        "id": "3696288881307407100",
        "title": "公共厕所(花垣县高速路口)",
        "address": "湖南省湘西土家族苗族自治州花垣县S10张花高速出口与创发路交叉口西140米",
        "tel": "",
        "category": "基础设施:公共设施:公共厕所",
        "type": 0,
        "location": {
            "lat": 28.579975,
            "lng": 109.443909
        },
        "ad_info": {
            "adcode": 433124,
            "province": "湖南省",
            "city": "湘西土家族苗族自治州",
            "district": "花垣县"
        }
    },
    {
        "id": "11501235065797704264",
        "title": "公共厕所(龙山县里耶古城绿源广场)",
        "address": "湖南省湘西土家族苗族自治州龙山县开福路与文星街交叉口东南方向412米左右",
        "tel": "",
        "category": "基础设施:公共设施:公共厕所",
        "type": 0,
        "location": {
            "lat": 28.779446,
            "lng": 109.296697
        },
        "ad_info": {
            "adcode": 433130,
            "province": "湖南省",
            "city": "湘西土家族苗族自治州",
            "district": "龙山县"
        }
    },
    {
        "id": "12520362099401727003",
        "title": "新市场公共厕所",
        "address": "湖南省湘西土家族苗族自治州凤凰县桔园路与老干路交叉口正东方向85米左右",
        "tel": "",
        "category": "基础设施:公共设施:公共厕所",
        "type": 0,
        "location": {
            "lat": 27.949787,
            "lng": 109.597657
        },
        "ad_info": {
            "adcode": 433123,
            "province": "湖南省",
            "city": "湘西土家族苗族自治州",
            "district": "凤凰县"
        }
    },
    {
        "id": "15083756643152329477",
        "title": "公共厕所",
        "address": "湖南省湘西土家族苗族自治州永顺县303省道",
        "tel": "",
        "category": "基础设施:公共设施:公共厕所",
        "type": 0,
        "location": {
            "lat": 29.051546,
            "lng": 110.067215
        },
        "ad_info": {
            "adcode": 433127,
            "province": "湖南省",
            "city": "湘西土家族苗族自治州",
            "district": "永顺县"
        }
    },
    {
        "id": "10478325210919807438",
        "title": "公共厕所",
        "address": "湖南省湘西土家族苗族自治州吉首市吉首东互通与杭瑞高速交叉口正西方向174米左右",
        "tel": "",
        "category": "基础设施:公共设施:公共厕所",
        "type": 0,
        "location": {
            "lat": 28.260647,
            "lng": 109.783467
        },
        "ad_info": {
            "adcode": 433101,
            "province": "湖南省",
            "city": "湘西土家族苗族自治州",
            "district": "吉首市"
        }
    },
    {
        "id": "12354353214958932305",
        "title": "全域旅游集散中心公共厕所",
        "address": "湖南省湘西土家族苗族自治州凤凰县G354与凤凰北路交叉口正南方向160米左右",
        "tel": "",
        "category": "基础设施:公共设施:公共厕所",
        "type": 0,
        "location": {
            "lat": 27.967978,
            "lng": 109.590265
        },
        "ad_info": {
            "adcode": 433123,
            "province": "湖南省",
            "city": "湘西土家族苗族自治州",
            "district": "凤凰县"
        }
    },
    {
        "id": "15445237149896493995",
        "title": "花垣县金溶花海观光农业园苗乡街旅游厕所",
        "address": "湖南省湘西土家族苗族自治州花垣县",
        "tel": "",
        "category": "基础设施:公共设施:公共厕所",
        "type": 0,
        "location": {
            "lat": 28.467437,
            "lng": 109.428656
        },
        "ad_info": {
            "adcode": 433124,
            "province": "湖南省",
            "city": "湘西土家族苗族自治州",
            "district": "花垣县"
        }
    },
    {
        "id": "1826115863614767365",
        "title": "花垣县兴农园社区公共厕所",
        "address": "湖南省湘西土家族苗族自治州花垣县大湘西牛羊交易市场北侧200米",
        "tel": "",
        "category": "基础设施:公共设施:公共厕所",
        "type": 0,
        "location": {
            "lat": 28.53155,
            "lng": 109.464739
        },
        "ad_info": {
            "adcode": 433124,
            "province": "湖南省",
            "city": "湘西土家族苗族自治州",
            "district": "花垣县"
        }
    },
    {
        "id": "1652194761980382917",
        "title": "公共厕所(龙山县乌龙山大峡谷民宿体验区)",
        "address": "湖南省湘西土家族苗族自治州龙山县里耶-乌龙山国家级风景名胜区东南侧90米",
        "tel": "",
        "category": "基础设施:公共设施:公共厕所",
        "type": 0,
        "location": {
            "lat": 29.204544,
            "lng": 109.309977
        },
        "ad_info": {
            "adcode": 433130,
            "province": "湖南省",
            "city": "湘西土家族苗族自治州",
            "district": "龙山县"
        }
    },
    {
        "id": "1897186440043723036",
        "title": "农车服务区公共厕所",
        "address": "湖南省湘西土家族苗族自治州龙山县农车互通与龙吉高速交叉口东北方向1812米左右",
        "tel": "",
        "category": "基础设施:公共设施:公共厕所",
        "type": 0,
        "location": {
            "lat": 29.161428,
            "lng": 109.63654
        },
        "ad_info": {
            "adcode": 433130,
            "province": "湖南省",
            "city": "湘西土家族苗族自治州",
            "district": "龙山县"
        }
    },
    {
        "id": "6275660195047907208",
        "title": "公共厕所(夯吉村)",
        "address": "湖南省湘西土家族苗族自治州保靖县吕洞山景区夯吉村风雨桥",
        "tel": "",
        "category": "基础设施:公共设施:公共厕所",
        "type": 0,
        "location": {
            "lat": 28.434943,
            "lng": 109.711698
        },
        "ad_info": {
            "adcode": 433125,
            "province": "湖南省",
            "city": "湘西土家族苗族自治州",
            "district": "保靖县"
        }
    },
    {
        "id": "10472991447296344591",
        "title": "公共厕所隔断门批发",
        "address": "湖南省湘西土家族苗族自治州龙山县天黄庙路一建公司门面12号",
        "tel": "",
        "category": "基础设施:公共设施:公共厕所",
        "type": 0,
        "location": {
            "lat": 29.441251,
            "lng": 109.449072
        },
        "ad_info": {
            "adcode": 433130,
            "province": "湖南省",
            "city": "湘西土家族苗族自治州",
            "district": "龙山县"
        }
    },
    {
        "id": "211695350548482650",
        "title": "花垣县石栏村旅游厕所",
        "address": "湖南省湘西土家族苗族自治州花垣县江坤鱼馆西北侧240米",
        "tel": "",
        "category": "基础设施:公共设施:公共厕所",
        "type": 0,
        "location": {
            "lat": 28.37668,
            "lng": 109.416173
        },
        "ad_info": {
            "adcode": 433124,
            "province": "湖南省",
            "city": "湘西土家族苗族自治州",
            "district": "花垣县"
        }
    },
    {
        "id": "1842385959816663305",
        "title": "回龙阁公共厕所",
        "address": "湖南省湘西土家族苗族自治州凤凰县喜鹊坡路与南华路交叉口东南460米",
        "tel": "",
        "category": "基础设施:公共设施:公共厕所",
        "type": 0,
        "location": {
            "lat": 27.949129,
            "lng": 109.604321
        },
        "ad_info": {
            "adcode": 433123,
            "province": "湖南省",
            "city": "湘西土家族苗族自治州",
            "district": "凤凰县"
        }
    },
    {
        "id": "5188394875302905822",
        "title": "公共厕所(沅水风光带铁山河大桥)",
        "address": "湖南省湘西土家族苗族自治州泸溪县株洲南路307号",
        "tel": "",
        "category": "基础设施:公共设施:公共厕所",
        "type": 0,
        "location": {
            "lat": 28.20701,
            "lng": 110.216818
        },
        "ad_info": {
            "adcode": 433122,
            "province": "湖南省",
            "city": "湘西土家族苗族自治州",
            "district": "泸溪县"
        }
    },
    {
        "id": "3485212672756983135",
        "title": "花垣县农业科技园区1楼右侧旅游洗手间",
        "address": "湖南省湘西土家族苗族自治州花垣县紫霞大道与031县道交叉口东南120米",
        "tel": "",
        "category": "基础设施:公共设施:公共厕所",
        "type": 0,
        "location": {
            "lat": 28.528299,
            "lng": 109.471344
        },
        "ad_info": {
            "adcode": 433124,
            "province": "湖南省",
            "city": "湘西土家族苗族自治州",
            "district": "花垣县"
        }
    },
    {
        "id": "1184092205046851464",
        "title": "公共厕所(保靖县葫芦镇国茶村)",
        "address": "湖南省湘西土家族苗族自治州保靖县026县道葫芦镇塘朗村村委会旁",
        "tel": "",
        "category": "基础设施:公共设施:公共厕所",
        "type": 0,
        "location": {
            "lat": 28.481617,
            "lng": 109.783479
        },
        "ad_info": {
            "adcode": 433125,
            "province": "湖南省",
            "city": "湘西土家族苗族自治州",
            "district": "保靖县"
        }
    },
    {
        "id": "9219596007205176178",
        "title": "公共厕所(龙山县里耶古城景区北游客服务中心)",
        "address": "湖南省湘西土家族苗族自治州龙山县里耶秦简博物馆东侧170米",
        "tel": "",
        "category": "基础设施:公共设施:公共厕所",
        "type": 0,
        "location": {
            "lat": 28.799076,
            "lng": 109.310242
        },
        "ad_info": {
            "adcode": 433130,
            "province": "湖南省",
            "city": "湘西土家族苗族自治州",
            "district": "龙山县"
        }
    },
    {
        "id": "7737027364014489933",
        "title": "公共厕所(古丈县红石林镇岩仁坪村)",
        "address": "湖南省湘西土家族苗族自治州古丈县051乡道",
        "tel": "",
        "category": "基础设施:公共设施:公共厕所",
        "type": 0,
        "location": {
            "lat": 28.729673,
            "lng": 109.891956
        },
        "ad_info": {
            "adcode": 433126,
            "province": "湖南省",
            "city": "湘西土家族苗族自治州",
            "district": "古丈县"
        }
    },
    {
        "id": "5987468616528344540",
        "title": "公共厕所(龙山县咱果乡桐花寨)",
        "address": "湖南省湘西土家族苗族自治州龙山县脉龙村",
        "tel": "",
        "category": "基础设施:公共设施:公共厕所",
        "type": 0,
        "location": {
            "lat": 29.049175,
            "lng": 109.378929
        },
        "ad_info": {
            "adcode": 433130,
            "province": "湖南省",
            "city": "湘西土家族苗族自治州",
            "district": "龙山县"
        }
    },
    {
        "id": "8580887529460606262",
        "title": "公共厕所(毛沟镇永和村)",
        "address": "湖南省湘西土家族苗族自治州保靖县毛沟镇政府",
        "tel": "",
        "category": "基础设施:公共设施:公共厕所",
        "type": 0,
        "location": {
            "lat": 28.601001,
            "lng": 109.379669
        },
        "ad_info": {
            "adcode": 433125,
            "province": "湖南省",
            "city": "湘西土家族苗族自治州",
            "district": "保靖县"
        }
    },
    {
        "id": "10125449468901824068",
        "title": "无障碍公共厕所",
        "address": "湖南省湘西土家族苗族自治州永顺县045乡道与S10张花高速入口交叉口北60米",
        "tel": "",
        "category": "基础设施:公共设施:公共厕所",
        "type": 0,
        "location": {
            "lat": 28.849558,
            "lng": 109.806064
        },
        "ad_info": {
            "adcode": 433127,
            "province": "湖南省",
            "city": "湘西土家族苗族自治州",
            "district": "永顺县"
        }
    },
    {
        "id": "16334812277609877334",
        "title": "花垣县金龙苗寨公共厕所",
        "address": "湖南省湘西土家族苗族自治州花垣县天边苗寨客栈东侧60米",
        "tel": "",
        "category": "基础设施:公共设施:公共厕所",
        "type": 0,
        "location": {
            "lat": 28.414515,
            "lng": 109.636031
        },
        "ad_info": {
            "adcode": 433124,
            "province": "湖南省",
            "city": "湘西土家族苗族自治州",
            "district": "花垣县"
        }
    },
    {
        "id": "6355749881239761040",
        "title": "吉首北服务区公共厕所",
        "address": "湖南省湘西土家族苗族自治州吉首市",
        "tel": "",
        "category": "基础设施:公共设施:公共厕所",
        "type": 0,
        "location": {
            "lat": 28.44702,
            "lng": 109.828417
        },
        "ad_info": {
            "adcode": 433101,
            "province": "湖南省",
            "city": "湘西土家族苗族自治州",
            "district": "吉首市"
        }
    },
    {
        "id": "11903035542942146160",
        "title": "公共厕所",
        "address": "湖南省湘西土家族苗族自治州凤凰县南华里二层A座",
        "tel": "",
        "category": "基础设施:公共设施:公共厕所",
        "type": 0,
        "location": {
            "lat": 27.947004,
            "lng": 109.599422
        },
        "ad_info": {
            "adcode": 433123,
            "province": "湖南省",
            "city": "湘西土家族苗族自治州",
            "district": "凤凰县"
        }
    },
    {
        "id": "6022853137776563177",
        "title": "公共厕所",
        "address": "湖南省湘西土家族苗族自治州吉首市建新路与沿江巷交叉口西南方向109米左右",
        "tel": "",
        "category": "基础设施:公共设施:公共厕所",
        "type": 0,
        "location": {
            "lat": 28.25509,
            "lng": 109.69315
        },
        "ad_info": {
            "adcode": 433101,
            "province": "湖南省",
            "city": "湘西土家族苗族自治州",
            "district": "吉首市"
        }
    },
    {
        "id": "12485567748149763808",
        "title": "公共厕所(岩门古堡景区)",
        "address": "湖南省湘西土家族苗族自治州泸溪县118乡道",
        "tel": "",
        "category": "基础设施:公共设施:公共厕所",
        "type": 0,
        "location": {
            "lat": 28.017885,
            "lng": 110.027116
        },
        "ad_info": {
            "adcode": 433122,
            "province": "湖南省",
            "city": "湘西土家族苗族自治州",
            "district": "泸溪县"
        }
    },
    {
        "id": "13000368455581402879",
        "title": "公共厕所",
        "address": "湖南省湘西土家族苗族自治州龙山县八面山景区西南侧250米",
        "tel": "",
        "category": "基础设施:公共设施:公共厕所",
        "type": 0,
        "location": {
            "lat": 28.832977,
            "lng": 109.256182
        },
        "ad_info": {
            "adcode": 433130,
            "province": "湖南省",
            "city": "湘西土家族苗族自治州",
            "district": "龙山县"
        }
    },
    {
        "id": "645484003146233255",
        "title": "公共厕所(龙山县茨岩塘镇甘露村红军兵工厂景点)",
        "address": "湖南省湘西土家族苗族自治州龙山县茨岩塘镇甘露村红军兵工厂景点",
        "tel": "",
        "category": "基础设施:公共设施:公共厕所",
        "type": 0,
        "location": {
            "lat": 29.412808,
            "lng": 109.633884
        },
        "ad_info": {
            "adcode": 433130,
            "province": "湖南省",
            "city": "湘西土家族苗族自治州",
            "district": "龙山县"
        }
    },
    {
        "id": "3909818238838239356",
        "title": "公共厕所(泸溪县浦市镇花园坪)",
        "address": "湖南省湘西土家族苗族自治州泸溪县X040与X041交叉口西北方向238米左右",
        "tel": "",
        "category": "基础设施:公共设施:公共厕所",
        "type": 0,
        "location": {
            "lat": 28.092412,
            "lng": 110.103993
        },
        "ad_info": {
            "adcode": 433122,
            "province": "湖南省",
            "city": "湘西土家族苗族自治州",
            "district": "泸溪县"
        }
    },
    {
        "id": "9608822911970937908",
        "title": "吴家弄公共厕所",
        "address": "湖南省湘西土家族苗族自治州凤凰县北边街与东正街交叉口正西方向75米",
        "tel": "",
        "category": "基础设施:公共设施:公共厕所",
        "type": 0,
        "location": {
            "lat": 27.947829,
            "lng": 109.604661
        },
        "ad_info": {
            "adcode": 433123,
            "province": "湖南省",
            "city": "湘西土家族苗族自治州",
            "district": "凤凰县"
        }
    },
    {
        "id": "5231031492197928752",
        "title": "公共厕所(龙山县城北)",
        "address": "湖南省湘西土家族苗族自治州龙山县城北路与建设路交叉口东北方向340米左右",
        "tel": "",
        "category": "基础设施:公共设施:公共厕所",
        "type": 0,
        "location": {
            "lat": 29.464899,
            "lng": 109.445879
        },
        "ad_info": {
            "adcode": 433130,
            "province": "湖南省",
            "city": "湘西土家族苗族自治州",
            "district": "龙山县"
        }
    },
    {
        "id": "12291085962020473424",
        "title": "公共厕所",
        "address": "湖南省湘西土家族苗族自治州永顺县芙蓉镇景区-中国界碑铜柱园东南侧220米",
        "tel": "",
        "category": "基础设施:公共设施:公共厕所",
        "type": 0,
        "location": {
            "lat": 28.741383,
            "lng": 109.947985
        },
        "ad_info": {
            "adcode": 433127,
            "province": "湖南省",
            "city": "湘西土家族苗族自治州",
            "district": "永顺县"
        }
    },
    {
        "id": "11263892293883443383",
        "title": "公共厕所",
        "address": "湖南省湘西土家族苗族自治州凤凰县南华里一层A座",
        "tel": "",
        "category": "基础设施:公共设施:公共厕所",
        "type": 0,
        "location": {
            "lat": 27.947304,
            "lng": 109.599009
        },
        "ad_info": {
            "adcode": 433123,
            "province": "湖南省",
            "city": "湘西土家族苗族自治州",
            "district": "凤凰县"
        }
    },
    {
        "id": "55187280912316207",
        "title": "芙蓉镇服务区公共厕所",
        "address": "湖南省湘西土家族苗族自治州永顺县S99龙吉高速与芙蓉镇服务区交叉口南100米",
        "tel": "",
        "category": "基础设施:公共设施:公共厕所",
        "type": 0,
        "location": {
            "lat": 28.73547,
            "lng": 109.95511
        },
        "ad_info": {
            "adcode": 433127,
            "province": "湖南省",
            "city": "湘西土家族苗族自治州",
            "district": "永顺县"
        }
    },
    {
        "id": "4995479646231587747",
        "title": "公共厕所(首八峒村)",
        "address": "湖南省湘西土家族苗族自治州保靖县迁清公路首八峒停车场",
        "tel": "",
        "category": "基础设施:公共设施:公共厕所",
        "type": 0,
        "location": {
            "lat": 28.82394,
            "lng": 109.496915
        },
        "ad_info": {
            "adcode": 433125,
            "province": "湖南省",
            "city": "湘西土家族苗族自治州",
            "district": "保靖县"
        }
    },
    {
        "id": "9552589703949878263",
        "title": "公共厕所(花垣县边城茶峒游客服务中心停车场)",
        "address": "湖南省湘西土家族苗族自治州花垣县边城茶洞旅客服务中心停车场旅游厕所",
        "tel": "",
        "category": "基础设施:公共设施:公共厕所",
        "type": 0,
        "location": {
            "lat": 28.496521,
            "lng": 109.27505
        },
        "ad_info": {
            "adcode": 433124,
            "province": "湖南省",
            "city": "湘西土家族苗族自治州",
            "district": "花垣县"
        }
    },
    {
        "id": "14155210961963124947",
        "title": "公共厕所(龙山县洛塔石林)",
        "address": "湖南省湘西土家族苗族自治州龙山县",
        "tel": "",
        "category": "基础设施:公共设施:公共厕所",
        "type": 0,
        "location": {
            "lat": 29.1718,
            "lng": 109.478442
        },
        "ad_info": {
            "adcode": 433130,
            "province": "湖南省",
            "city": "湘西土家族苗族自治州",
            "district": "龙山县"
        }
    },
    {
        "id": "8237705093818806761",
        "title": "花垣县农业园区后方旅游厕所",
        "address": "湖南省湘西土家族苗族自治州花垣县湖南联素农业科技院东南侧140米",
        "tel": "",
        "category": "基础设施:公共设施:公共厕所",
        "type": 0,
        "location": {
            "lat": 28.527804,
            "lng": 109.472218
        },
        "ad_info": {
            "adcode": 433124,
            "province": "湖南省",
            "city": "湘西土家族苗族自治州",
            "district": "花垣县"
        }
    },
    {
        "id": "1855114425643103545",
        "title": "公共厕所(吕洞山景区大峰冲停车场)",
        "address": "湖南省湘西土家族苗族自治州保靖县吕洞山大峰冲景区停车场",
        "tel": "",
        "category": "基础设施:公共设施:公共厕所",
        "type": 0,
        "location": {
            "lat": 28.430332,
            "lng": 109.66485
        },
        "ad_info": {
            "adcode": 433125,
            "province": "湖南省",
            "city": "湘西土家族苗族自治州",
            "district": "保靖县"
        }
    },
    {
        "id": "15065570767358319273",
        "title": "公共厕所",
        "address": "湖南省湘西土家族苗族自治州永顺县芙蓉镇老王村停车场旅游厕所",
        "tel": "",
        "category": "基础设施:公共设施:公共厕所",
        "type": 0,
        "location": {
            "lat": 28.738789,
            "lng": 109.953149
        },
        "ad_info": {
            "adcode": 433127,
            "province": "湖南省",
            "city": "湘西土家族苗族自治州",
            "district": "永顺县"
        }
    },
    {
        "id": "9330640397916163273",
        "title": "吉首北服务区公共厕所",
        "address": "湖南省湘西土家族苗族自治州吉首市S99龙吉高速与吉首北服务区交叉口南240米",
        "tel": "",
        "category": "基础设施:公共设施:公共厕所",
        "type": 0,
        "location": {
            "lat": 28.447246,
            "lng": 109.828052
        },
        "ad_info": {
            "adcode": 433101,
            "province": "湖南省",
            "city": "湘西土家族苗族自治州",
            "district": "吉首市"
        }
    },
    {
        "id": "6798671396574244834",
        "title": "公共厕所(十八洞村新村部)",
        "address": "湖南省湘西土家族苗族自治州花垣县双龙镇十八洞村村委会",
        "tel": "",
        "category": "基础设施:公共设施:公共厕所",
        "type": 0,
        "location": {
            "lat": 28.37026,
            "lng": 109.494279
        },
        "ad_info": {
            "adcode": 433124,
            "province": "湖南省",
            "city": "湘西土家族苗族自治州",
            "district": "花垣县"
        }
    },
    {
        "id": "4217718935064557469",
        "title": "公共厕所(龙山县茨岩塘镇红色景区)",
        "address": "湖南省湘西土家族苗族自治州龙山县湘鄂川黔革命根据地纪念馆东北侧70米",
        "tel": "",
        "category": "基础设施:公共设施:公共厕所",
        "type": 0,
        "location": {
            "lat": 29.411089,
            "lng": 109.596721
        },
        "ad_info": {
            "adcode": 433130,
            "province": "湖南省",
            "city": "湘西土家族苗族自治州",
            "district": "龙山县"
        }
    },
    {
        "id": "9272288596422057191",
        "title": "公共厕所",
        "address": "湖南省湘西土家族苗族自治州永顺县G352与张花高速交叉口正东方向284米左右",
        "tel": "",
        "category": "基础设施:公共设施:公共厕所",
        "type": 0,
        "location": {
            "lat": 28.987007,
            "lng": 110.108718
        },
        "ad_info": {
            "adcode": 433127,
            "province": "湖南省",
            "city": "湘西土家族苗族自治州",
            "district": "永顺县"
        }
    },
    {
        "id": "5165132372716032431",
        "title": "公共厕所(迁陵镇和平村)",
        "address": "湖南省湘西土家族苗族自治州保靖县和平村乐和山庄",
        "tel": "",
        "category": "基础设施:公共设施:公共厕所",
        "type": 0,
        "location": {
            "lat": 28.641941,
            "lng": 109.626484
        },
        "ad_info": {
            "adcode": 433125,
            "province": "湖南省",
            "city": "湘西土家族苗族自治州",
            "district": "保靖县"
        }
    },
    {
        "id": "1902339420910791231",
        "title": "公共厕所(吕洞山镇夯吉村)",
        "address": "湖南省湘西土家族苗族自治州保靖县吕洞山景区夯吉篮球场",
        "tel": "",
        "category": "基础设施:公共设施:公共厕所",
        "type": 0,
        "location": {
            "lat": 28.434755,
            "lng": 109.715653
        },
        "ad_info": {
            "adcode": 433125,
            "province": "湖南省",
            "city": "湘西土家族苗族自治州",
            "district": "保靖县"
        }
    },
    {
        "id": "6808478517926180849",
        "title": "公共厕所",
        "address": "湖南省湘西土家族苗族自治州永顺县S10(张花高速)",
        "tel": "",
        "category": "基础设施:公共设施:公共厕所",
        "type": 0,
        "location": {
            "lat": 28.987143,
            "lng": 110.108455
        },
        "ad_info": {
            "adcode": 433127,
            "province": "湖南省",
            "city": "湘西土家族苗族自治州",
            "district": "永顺县"
        }
    },
    {
        "id": "645484003146233255",
        "title": "公共厕所(龙山县茨岩塘镇甘露村红军兵工厂景点)",
        "address": "湖南省湘西土家族苗族自治州龙山县茨岩塘镇甘露村红军兵工厂景点",
        "tel": "",
        "category": "基础设施:公共设施:公共厕所",
        "type": 0,
        "location": {
            "lat": 29.412808,
            "lng": 109.633884
        },
        "ad_info": {
            "adcode": 433130,
            "province": "湖南省",
            "city": "湘西土家族苗族自治州",
            "district": "龙山县"
        }
    },
    {
        "id": "3909818238838239356",
        "title": "公共厕所(泸溪县浦市镇花园坪)",
        "address": "湖南省湘西土家族苗族自治州泸溪县X040与X041交叉口西北方向238米左右",
        "tel": "",
        "category": "基础设施:公共设施:公共厕所",
        "type": 0,
        "location": {
            "lat": 28.092412,
            "lng": 110.103993
        },
        "ad_info": {
            "adcode": 433122,
            "province": "湖南省",
            "city": "湘西土家族苗族自治州",
            "district": "泸溪县"
        }
    },
    {
        "id": "9608822911970937908",
        "title": "吴家弄公共厕所",
        "address": "湖南省湘西土家族苗族自治州凤凰县北边街与东正街交叉口正西方向75米",
        "tel": "",
        "category": "基础设施:公共设施:公共厕所",
        "type": 0,
        "location": {
            "lat": 27.947829,
            "lng": 109.604661
        },
        "ad_info": {
            "adcode": 433123,
            "province": "湖南省",
            "city": "湘西土家族苗族自治州",
            "district": "凤凰县"
        }
    },
    {
        "id": "5231031492197928752",
        "title": "公共厕所(龙山县城北)",
        "address": "湖南省湘西土家族苗族自治州龙山县城北路与建设路交叉口东北方向340米左右",
        "tel": "",
        "category": "基础设施:公共设施:公共厕所",
        "type": 0,
        "location": {
            "lat": 29.464899,
            "lng": 109.445879
        },
        "ad_info": {
            "adcode": 433130,
            "province": "湖南省",
            "city": "湘西土家族苗族自治州",
            "district": "龙山县"
        }
    },
    {
        "id": "12291085962020473424",
        "title": "公共厕所",
        "address": "湖南省湘西土家族苗族自治州永顺县芙蓉镇景区-中国界碑铜柱园东南侧220米",
        "tel": "",
        "category": "基础设施:公共设施:公共厕所",
        "type": 0,
        "location": {
            "lat": 28.741383,
            "lng": 109.947985
        },
        "ad_info": {
            "adcode": 433127,
            "province": "湖南省",
            "city": "湘西土家族苗族自治州",
            "district": "永顺县"
        }
    },
    {
        "id": "11263892293883443383",
        "title": "公共厕所",
        "address": "湖南省湘西土家族苗族自治州凤凰县南华里一层A座",
        "tel": "",
        "category": "基础设施:公共设施:公共厕所",
        "type": 0,
        "location": {
            "lat": 27.947304,
            "lng": 109.599009
        },
        "ad_info": {
            "adcode": 433123,
            "province": "湖南省",
            "city": "湘西土家族苗族自治州",
            "district": "凤凰县"
        }
    },
    {
        "id": "55187280912316207",
        "title": "芙蓉镇服务区公共厕所",
        "address": "湖南省湘西土家族苗族自治州永顺县S99龙吉高速与芙蓉镇服务区交叉口南100米",
        "tel": "",
        "category": "基础设施:公共设施:公共厕所",
        "type": 0,
        "location": {
            "lat": 28.73547,
            "lng": 109.95511
        },
        "ad_info": {
            "adcode": 433127,
            "province": "湖南省",
            "city": "湘西土家族苗族自治州",
            "district": "永顺县"
        }
    },
    {
        "id": "4995479646231587747",
        "title": "公共厕所(首八峒村)",
        "address": "湖南省湘西土家族苗族自治州保靖县迁清公路首八峒停车场",
        "tel": "",
        "category": "基础设施:公共设施:公共厕所",
        "type": 0,
        "location": {
            "lat": 28.82394,
            "lng": 109.496915
        },
        "ad_info": {
            "adcode": 433125,
            "province": "湖南省",
            "city": "湘西土家族苗族自治州",
            "district": "保靖县"
        }
    },
    {
        "id": "9552589703949878263",
        "title": "公共厕所(花垣县边城茶峒游客服务中心停车场)",
        "address": "湖南省湘西土家族苗族自治州花垣县边城茶洞旅客服务中心停车场旅游厕所",
        "tel": "",
        "category": "基础设施:公共设施:公共厕所",
        "type": 0,
        "location": {
            "lat": 28.496521,
            "lng": 109.27505
        },
        "ad_info": {
            "adcode": 433124,
            "province": "湖南省",
            "city": "湘西土家族苗族自治州",
            "district": "花垣县"
        }
    },
    {
        "id": "14155210961963124947",
        "title": "公共厕所(龙山县洛塔石林)",
        "address": "湖南省湘西土家族苗族自治州龙山县",
        "tel": "",
        "category": "基础设施:公共设施:公共厕所",
        "type": 0,
        "location": {
            "lat": 29.1718,
            "lng": 109.478442
        },
        "ad_info": {
            "adcode": 433130,
            "province": "湖南省",
            "city": "湘西土家族苗族自治州",
            "district": "龙山县"
        }
    },
    {
        "id": "8237705093818806761",
        "title": "花垣县农业园区后方旅游厕所",
        "address": "湖南省湘西土家族苗族自治州花垣县湖南联素农业科技院东南侧140米",
        "tel": "",
        "category": "基础设施:公共设施:公共厕所",
        "type": 0,
        "location": {
            "lat": 28.527804,
            "lng": 109.472218
        },
        "ad_info": {
            "adcode": 433124,
            "province": "湖南省",
            "city": "湘西土家族苗族自治州",
            "district": "花垣县"
        }
    },
    {
        "id": "1855114425643103545",
        "title": "公共厕所(吕洞山景区大峰冲停车场)",
        "address": "湖南省湘西土家族苗族自治州保靖县吕洞山大峰冲景区停车场",
        "tel": "",
        "category": "基础设施:公共设施:公共厕所",
        "type": 0,
        "location": {
            "lat": 28.430332,
            "lng": 109.66485
        },
        "ad_info": {
            "adcode": 433125,
            "province": "湖南省",
            "city": "湘西土家族苗族自治州",
            "district": "保靖县"
        }
    },
    {
        "id": "15065570767358319273",
        "title": "公共厕所",
        "address": "湖南省湘西土家族苗族自治州永顺县芙蓉镇老王村停车场旅游厕所",
        "tel": "",
        "category": "基础设施:公共设施:公共厕所",
        "type": 0,
        "location": {
            "lat": 28.738789,
            "lng": 109.953149
        },
        "ad_info": {
            "adcode": 433127,
            "province": "湖南省",
            "city": "湘西土家族苗族自治州",
            "district": "永顺县"
        }
    },
    {
        "id": "9330640397916163273",
        "title": "吉首北服务区公共厕所",
        "address": "湖南省湘西土家族苗族自治州吉首市S99龙吉高速与吉首北服务区交叉口南240米",
        "tel": "",
        "category": "基础设施:公共设施:公共厕所",
        "type": 0,
        "location": {
            "lat": 28.447246,
            "lng": 109.828052
        },
        "ad_info": {
            "adcode": 433101,
            "province": "湖南省",
            "city": "湘西土家族苗族自治州",
            "district": "吉首市"
        }
    },
    {
        "id": "6798671396574244834",
        "title": "公共厕所(十八洞村新村部)",
        "address": "湖南省湘西土家族苗族自治州花垣县双龙镇十八洞村村委会",
        "tel": "",
        "category": "基础设施:公共设施:公共厕所",
        "type": 0,
        "location": {
            "lat": 28.37026,
            "lng": 109.494279
        },
        "ad_info": {
            "adcode": 433124,
            "province": "湖南省",
            "city": "湘西土家族苗族自治州",
            "district": "花垣县"
        }
    },
    {
        "id": "4217718935064557469",
        "title": "公共厕所(龙山县茨岩塘镇红色景区)",
        "address": "湖南省湘西土家族苗族自治州龙山县湘鄂川黔革命根据地纪念馆东北侧70米",
        "tel": "",
        "category": "基础设施:公共设施:公共厕所",
        "type": 0,
        "location": {
            "lat": 29.411089,
            "lng": 109.596721
        },
        "ad_info": {
            "adcode": 433130,
            "province": "湖南省",
            "city": "湘西土家族苗族自治州",
            "district": "龙山县"
        }
    },
    {
        "id": "9272288596422057191",
        "title": "公共厕所",
        "address": "湖南省湘西土家族苗族自治州永顺县G352与张花高速交叉口正东方向284米左右",
        "tel": "",
        "category": "基础设施:公共设施:公共厕所",
        "type": 0,
        "location": {
            "lat": 28.987007,
            "lng": 110.108718
        },
        "ad_info": {
            "adcode": 433127,
            "province": "湖南省",
            "city": "湘西土家族苗族自治州",
            "district": "永顺县"
        }
    },
    {
        "id": "5165132372716032431",
        "title": "公共厕所(迁陵镇和平村)",
        "address": "湖南省湘西土家族苗族自治州保靖县和平村乐和山庄",
        "tel": "",
        "category": "基础设施:公共设施:公共厕所",
        "type": 0,
        "location": {
            "lat": 28.641941,
            "lng": 109.626484
        },
        "ad_info": {
            "adcode": 433125,
            "province": "湖南省",
            "city": "湘西土家族苗族自治州",
            "district": "保靖县"
        }
    },
    {
        "id": "1902339420910791231",
        "title": "公共厕所(吕洞山镇夯吉村)",
        "address": "湖南省湘西土家族苗族自治州保靖县吕洞山景区夯吉篮球场",
        "tel": "",
        "category": "基础设施:公共设施:公共厕所",
        "type": 0,
        "location": {
            "lat": 28.434755,
            "lng": 109.715653
        },
        "ad_info": {
            "adcode": 433125,
            "province": "湖南省",
            "city": "湘西土家族苗族自治州",
            "district": "保靖县"
        }
    },
    {
        "id": "6808478517926180849",
        "title": "公共厕所",
        "address": "湖南省湘西土家族苗族自治州永顺县S10(张花高速)",
        "tel": "",
        "category": "基础设施:公共设施:公共厕所",
        "type": 0,
        "location": {
            "lat": 28.987143,
            "lng": 110.108455
        },
        "ad_info": {
            "adcode": 433127,
            "province": "湖南省",
            "city": "湘西土家族苗族自治州",
            "district": "永顺县"
        }
    },
    {
        "id": "645484003146233255",
        "title": "公共厕所(龙山县茨岩塘镇甘露村红军兵工厂景点)",
        "address": "湖南省湘西土家族苗族自治州龙山县茨岩塘镇甘露村红军兵工厂景点",
        "tel": "",
        "category": "基础设施:公共设施:公共厕所",
        "type": 0,
        "location": {
            "lat": 29.412808,
            "lng": 109.633884
        },
        "ad_info": {
            "adcode": 433130,
            "province": "湖南省",
            "city": "湘西土家族苗族自治州",
            "district": "龙山县"
        }
    },
    {
        "id": "3909818238838239356",
        "title": "公共厕所(泸溪县浦市镇花园坪)",
        "address": "湖南省湘西土家族苗族自治州泸溪县X040与X041交叉口西北方向238米左右",
        "tel": "",
        "category": "基础设施:公共设施:公共厕所",
        "type": 0,
        "location": {
            "lat": 28.092412,
            "lng": 110.103993
        },
        "ad_info": {
            "adcode": 433122,
            "province": "湖南省",
            "city": "湘西土家族苗族自治州",
            "district": "泸溪县"
        }
    },
    {
        "id": "9608822911970937908",
        "title": "吴家弄公共厕所",
        "address": "湖南省湘西土家族苗族自治州凤凰县北边街与东正街交叉口正西方向75米",
        "tel": "",
        "category": "基础设施:公共设施:公共厕所",
        "type": 0,
        "location": {
            "lat": 27.947829,
            "lng": 109.604661
        },
        "ad_info": {
            "adcode": 433123,
            "province": "湖南省",
            "city": "湘西土家族苗族自治州",
            "district": "凤凰县"
        }
    },
    {
        "id": "5231031492197928752",
        "title": "公共厕所(龙山县城北)",
        "address": "湖南省湘西土家族苗族自治州龙山县城北路与建设路交叉口东北方向340米左右",
        "tel": "",
        "category": "基础设施:公共设施:公共厕所",
        "type": 0,
        "location": {
            "lat": 29.464899,
            "lng": 109.445879
        },
        "ad_info": {
            "adcode": 433130,
            "province": "湖南省",
            "city": "湘西土家族苗族自治州",
            "district": "龙山县"
        }
    },
    {
        "id": "12291085962020473424",
        "title": "公共厕所",
        "address": "湖南省湘西土家族苗族自治州永顺县芙蓉镇景区-中国界碑铜柱园东南侧220米",
        "tel": "",
        "category": "基础设施:公共设施:公共厕所",
        "type": 0,
        "location": {
            "lat": 28.741383,
            "lng": 109.947985
        },
        "ad_info": {
            "adcode": 433127,
            "province": "湖南省",
            "city": "湘西土家族苗族自治州",
            "district": "永顺县"
        }
    },
    {
        "id": "11263892293883443383",
        "title": "公共厕所",
        "address": "湖南省湘西土家族苗族自治州凤凰县南华里一层A座",
        "tel": "",
        "category": "基础设施:公共设施:公共厕所",
        "type": 0,
        "location": {
            "lat": 27.947304,
            "lng": 109.599009
        },
        "ad_info": {
            "adcode": 433123,
            "province": "湖南省",
            "city": "湘西土家族苗族自治州",
            "district": "凤凰县"
        }
    },
    {
        "id": "55187280912316207",
        "title": "芙蓉镇服务区公共厕所",
        "address": "湖南省湘西土家族苗族自治州永顺县S99龙吉高速与芙蓉镇服务区交叉口南100米",
        "tel": "",
        "category": "基础设施:公共设施:公共厕所",
        "type": 0,
        "location": {
            "lat": 28.73547,
            "lng": 109.95511
        },
        "ad_info": {
            "adcode": 433127,
            "province": "湖南省",
            "city": "湘西土家族苗族自治州",
            "district": "永顺县"
        }
    },
    {
        "id": "4995479646231587747",
        "title": "公共厕所(首八峒村)",
        "address": "湖南省湘西土家族苗族自治州保靖县迁清公路首八峒停车场",
        "tel": "",
        "category": "基础设施:公共设施:公共厕所",
        "type": 0,
        "location": {
            "lat": 28.82394,
            "lng": 109.496915
        },
        "ad_info": {
            "adcode": 433125,
            "province": "湖南省",
            "city": "湘西土家族苗族自治州",
            "district": "保靖县"
        }
    },
    {
        "id": "9552589703949878263",
        "title": "公共厕所(花垣县边城茶峒游客服务中心停车场)",
        "address": "湖南省湘西土家族苗族自治州花垣县边城茶洞旅客服务中心停车场旅游厕所",
        "tel": "",
        "category": "基础设施:公共设施:公共厕所",
        "type": 0,
        "location": {
            "lat": 28.496521,
            "lng": 109.27505
        },
        "ad_info": {
            "adcode": 433124,
            "province": "湖南省",
            "city": "湘西土家族苗族自治州",
            "district": "花垣县"
        }
    },
    {
        "id": "14155210961963124947",
        "title": "公共厕所(龙山县洛塔石林)",
        "address": "湖南省湘西土家族苗族自治州龙山县",
        "tel": "",
        "category": "基础设施:公共设施:公共厕所",
        "type": 0,
        "location": {
            "lat": 29.1718,
            "lng": 109.478442
        },
        "ad_info": {
            "adcode": 433130,
            "province": "湖南省",
            "city": "湘西土家族苗族自治州",
            "district": "龙山县"
        }
    },
    {
        "id": "8237705093818806761",
        "title": "花垣县农业园区后方旅游厕所",
        "address": "湖南省湘西土家族苗族自治州花垣县湖南联素农业科技院东南侧140米",
        "tel": "",
        "category": "基础设施:公共设施:公共厕所",
        "type": 0,
        "location": {
            "lat": 28.527804,
            "lng": 109.472218
        },
        "ad_info": {
            "adcode": 433124,
            "province": "湖南省",
            "city": "湘西土家族苗族自治州",
            "district": "花垣县"
        }
    },
    {
        "id": "1855114425643103545",
        "title": "公共厕所(吕洞山景区大峰冲停车场)",
        "address": "湖南省湘西土家族苗族自治州保靖县吕洞山大峰冲景区停车场",
        "tel": "",
        "category": "基础设施:公共设施:公共厕所",
        "type": 0,
        "location": {
            "lat": 28.430332,
            "lng": 109.66485
        },
        "ad_info": {
            "adcode": 433125,
            "province": "湖南省",
            "city": "湘西土家族苗族自治州",
            "district": "保靖县"
        }
    },
    {
        "id": "15065570767358319273",
        "title": "公共厕所",
        "address": "湖南省湘西土家族苗族自治州永顺县芙蓉镇老王村停车场旅游厕所",
        "tel": "",
        "category": "基础设施:公共设施:公共厕所",
        "type": 0,
        "location": {
            "lat": 28.738789,
            "lng": 109.953149
        },
        "ad_info": {
            "adcode": 433127,
            "province": "湖南省",
            "city": "湘西土家族苗族自治州",
            "district": "永顺县"
        }
    },
    {
        "id": "9330640397916163273",
        "title": "吉首北服务区公共厕所",
        "address": "湖南省湘西土家族苗族自治州吉首市S99龙吉高速与吉首北服务区交叉口南240米",
        "tel": "",
        "category": "基础设施:公共设施:公共厕所",
        "type": 0,
        "location": {
            "lat": 28.447246,
            "lng": 109.828052
        },
        "ad_info": {
            "adcode": 433101,
            "province": "湖南省",
            "city": "湘西土家族苗族自治州",
            "district": "吉首市"
        }
    },
    {
        "id": "6798671396574244834",
        "title": "公共厕所(十八洞村新村部)",
        "address": "湖南省湘西土家族苗族自治州花垣县双龙镇十八洞村村委会",
        "tel": "",
        "category": "基础设施:公共设施:公共厕所",
        "type": 0,
        "location": {
            "lat": 28.37026,
            "lng": 109.494279
        },
        "ad_info": {
            "adcode": 433124,
            "province": "湖南省",
            "city": "湘西土家族苗族自治州",
            "district": "花垣县"
        }
    },
    {
        "id": "4217718935064557469",
        "title": "公共厕所(龙山县茨岩塘镇红色景区)",
        "address": "湖南省湘西土家族苗族自治州龙山县湘鄂川黔革命根据地纪念馆东北侧70米",
        "tel": "",
        "category": "基础设施:公共设施:公共厕所",
        "type": 0,
        "location": {
            "lat": 29.411089,
            "lng": 109.596721
        },
        "ad_info": {
            "adcode": 433130,
            "province": "湖南省",
            "city": "湘西土家族苗族自治州",
            "district": "龙山县"
        }
    },
    {
        "id": "9272288596422057191",
        "title": "公共厕所",
        "address": "湖南省湘西土家族苗族自治州永顺县G352与张花高速交叉口正东方向284米左右",
        "tel": "",
        "category": "基础设施:公共设施:公共厕所",
        "type": 0,
        "location": {
            "lat": 28.987007,
            "lng": 110.108718
        },
        "ad_info": {
            "adcode": 433127,
            "province": "湖南省",
            "city": "湘西土家族苗族自治州",
            "district": "永顺县"
        }
    },
    {
        "id": "5165132372716032431",
        "title": "公共厕所(迁陵镇和平村)",
        "address": "湖南省湘西土家族苗族自治州保靖县和平村乐和山庄",
        "tel": "",
        "category": "基础设施:公共设施:公共厕所",
        "type": 0,
        "location": {
            "lat": 28.641941,
            "lng": 109.626484
        },
        "ad_info": {
            "adcode": 433125,
            "province": "湖南省",
            "city": "湘西土家族苗族自治州",
            "district": "保靖县"
        }
    },
    {
        "id": "1902339420910791231",
        "title": "公共厕所(吕洞山镇夯吉村)",
        "address": "湖南省湘西土家族苗族自治州保靖县吕洞山景区夯吉篮球场",
        "tel": "",
        "category": "基础设施:公共设施:公共厕所",
        "type": 0,
        "location": {
            "lat": 28.434755,
            "lng": 109.715653
        },
        "ad_info": {
            "adcode": 433125,
            "province": "湖南省",
            "city": "湘西土家族苗族自治州",
            "district": "保靖县"
        }
    },
    {
        "id": "6808478517926180849",
        "title": "公共厕所",
        "address": "湖南省湘西土家族苗族自治州永顺县S10(张花高速)",
        "tel": "",
        "category": "基础设施:公共设施:公共厕所",
        "type": 0,
        "location": {
            "lat": 28.987143,
            "lng": 110.108455
        },
        "ad_info": {
            "adcode": 433127,
            "province": "湖南省",
            "city": "湘西土家族苗族自治州",
            "district": "永顺县"
        }
    },
    {
        "id": "645484003146233255",
        "title": "公共厕所(龙山县茨岩塘镇甘露村红军兵工厂景点)",
        "address": "湖南省湘西土家族苗族自治州龙山县茨岩塘镇甘露村红军兵工厂景点",
        "tel": "",
        "category": "基础设施:公共设施:公共厕所",
        "type": 0,
        "location": {
            "lat": 29.412808,
            "lng": 109.633884
        },
        "ad_info": {
            "adcode": 433130,
            "province": "湖南省",
            "city": "湘西土家族苗族自治州",
            "district": "龙山县"
        }
    },
    {
        "id": "3909818238838239356",
        "title": "公共厕所(泸溪县浦市镇花园坪)",
        "address": "湖南省湘西土家族苗族自治州泸溪县X040与X041交叉口西北方向238米左右",
        "tel": "",
        "category": "基础设施:公共设施:公共厕所",
        "type": 0,
        "location": {
            "lat": 28.092412,
            "lng": 110.103993
        },
        "ad_info": {
            "adcode": 433122,
            "province": "湖南省",
            "city": "湘西土家族苗族自治州",
            "district": "泸溪县"
        }
    },
    {
        "id": "9608822911970937908",
        "title": "吴家弄公共厕所",
        "address": "湖南省湘西土家族苗族自治州凤凰县北边街与东正街交叉口正西方向75米",
        "tel": "",
        "category": "基础设施:公共设施:公共厕所",
        "type": 0,
        "location": {
            "lat": 27.947829,
            "lng": 109.604661
        },
        "ad_info": {
            "adcode": 433123,
            "province": "湖南省",
            "city": "湘西土家族苗族自治州",
            "district": "凤凰县"
        }
    },
    {
        "id": "5231031492197928752",
        "title": "公共厕所(龙山县城北)",
        "address": "湖南省湘西土家族苗族自治州龙山县城北路与建设路交叉口东北方向340米左右",
        "tel": "",
        "category": "基础设施:公共设施:公共厕所",
        "type": 0,
        "location": {
            "lat": 29.464899,
            "lng": 109.445879
        },
        "ad_info": {
            "adcode": 433130,
            "province": "湖南省",
            "city": "湘西土家族苗族自治州",
            "district": "龙山县"
        }
    },
    {
        "id": "12291085962020473424",
        "title": "公共厕所",
        "address": "湖南省湘西土家族苗族自治州永顺县芙蓉镇景区-中国界碑铜柱园东南侧220米",
        "tel": "",
        "category": "基础设施:公共设施:公共厕所",
        "type": 0,
        "location": {
            "lat": 28.741383,
            "lng": 109.947985
        },
        "ad_info": {
            "adcode": 433127,
            "province": "湖南省",
            "city": "湘西土家族苗族自治州",
            "district": "永顺县"
        }
    },
    {
        "id": "11263892293883443383",
        "title": "公共厕所",
        "address": "湖南省湘西土家族苗族自治州凤凰县南华里一层A座",
        "tel": "",
        "category": "基础设施:公共设施:公共厕所",
        "type": 0,
        "location": {
            "lat": 27.947304,
            "lng": 109.599009
        },
        "ad_info": {
            "adcode": 433123,
            "province": "湖南省",
            "city": "湘西土家族苗族自治州",
            "district": "凤凰县"
        }
    },
    {
        "id": "55187280912316207",
        "title": "芙蓉镇服务区公共厕所",
        "address": "湖南省湘西土家族苗族自治州永顺县S99龙吉高速与芙蓉镇服务区交叉口南100米",
        "tel": "",
        "category": "基础设施:公共设施:公共厕所",
        "type": 0,
        "location": {
            "lat": 28.73547,
            "lng": 109.95511
        },
        "ad_info": {
            "adcode": 433127,
            "province": "湖南省",
            "city": "湘西土家族苗族自治州",
            "district": "永顺县"
        }
    },
    {
        "id": "4995479646231587747",
        "title": "公共厕所(首八峒村)",
        "address": "湖南省湘西土家族苗族自治州保靖县迁清公路首八峒停车场",
        "tel": "",
        "category": "基础设施:公共设施:公共厕所",
        "type": 0,
        "location": {
            "lat": 28.82394,
            "lng": 109.496915
        },
        "ad_info": {
            "adcode": 433125,
            "province": "湖南省",
            "city": "湘西土家族苗族自治州",
            "district": "保靖县"
        }
    },
    {
        "id": "9552589703949878263",
        "title": "公共厕所(花垣县边城茶峒游客服务中心停车场)",
        "address": "湖南省湘西土家族苗族自治州花垣县边城茶洞旅客服务中心停车场旅游厕所",
        "tel": "",
        "category": "基础设施:公共设施:公共厕所",
        "type": 0,
        "location": {
            "lat": 28.496521,
            "lng": 109.27505
        },
        "ad_info": {
            "adcode": 433124,
            "province": "湖南省",
            "city": "湘西土家族苗族自治州",
            "district": "花垣县"
        }
    },
    {
        "id": "14155210961963124947",
        "title": "公共厕所(龙山县洛塔石林)",
        "address": "湖南省湘西土家族苗族自治州龙山县",
        "tel": "",
        "category": "基础设施:公共设施:公共厕所",
        "type": 0,
        "location": {
            "lat": 29.1718,
            "lng": 109.478442
        },
        "ad_info": {
            "adcode": 433130,
            "province": "湖南省",
            "city": "湘西土家族苗族自治州",
            "district": "龙山县"
        }
    },
    {
        "id": "8237705093818806761",
        "title": "花垣县农业园区后方旅游厕所",
        "address": "湖南省湘西土家族苗族自治州花垣县湖南联素农业科技院东南侧140米",
        "tel": "",
        "category": "基础设施:公共设施:公共厕所",
        "type": 0,
        "location": {
            "lat": 28.527804,
            "lng": 109.472218
        },
        "ad_info": {
            "adcode": 433124,
            "province": "湖南省",
            "city": "湘西土家族苗族自治州",
            "district": "花垣县"
        }
    },
    {
        "id": "1855114425643103545",
        "title": "公共厕所(吕洞山景区大峰冲停车场)",
        "address": "湖南省湘西土家族苗族自治州保靖县吕洞山大峰冲景区停车场",
        "tel": "",
        "category": "基础设施:公共设施:公共厕所",
        "type": 0,
        "location": {
            "lat": 28.430332,
            "lng": 109.66485
        },
        "ad_info": {
            "adcode": 433125,
            "province": "湖南省",
            "city": "湘西土家族苗族自治州",
            "district": "保靖县"
        }
    },
    {
        "id": "15065570767358319273",
        "title": "公共厕所",
        "address": "湖南省湘西土家族苗族自治州永顺县芙蓉镇老王村停车场旅游厕所",
        "tel": "",
        "category": "基础设施:公共设施:公共厕所",
        "type": 0,
        "location": {
            "lat": 28.738789,
            "lng": 109.953149
        },
        "ad_info": {
            "adcode": 433127,
            "province": "湖南省",
            "city": "湘西土家族苗族自治州",
            "district": "永顺县"
        }
    },
    {
        "id": "9330640397916163273",
        "title": "吉首北服务区公共厕所",
        "address": "湖南省湘西土家族苗族自治州吉首市S99龙吉高速与吉首北服务区交叉口南240米",
        "tel": "",
        "category": "基础设施:公共设施:公共厕所",
        "type": 0,
        "location": {
            "lat": 28.447246,
            "lng": 109.828052
        },
        "ad_info": {
            "adcode": 433101,
            "province": "湖南省",
            "city": "湘西土家族苗族自治州",
            "district": "吉首市"
        }
    },
    {
        "id": "6798671396574244834",
        "title": "公共厕所(十八洞村新村部)",
        "address": "湖南省湘西土家族苗族自治州花垣县双龙镇十八洞村村委会",
        "tel": "",
        "category": "基础设施:公共设施:公共厕所",
        "type": 0,
        "location": {
            "lat": 28.37026,
            "lng": 109.494279
        },
        "ad_info": {
            "adcode": 433124,
            "province": "湖南省",
            "city": "湘西土家族苗族自治州",
            "district": "花垣县"
        }
    },
    {
        "id": "4217718935064557469",
        "title": "公共厕所(龙山县茨岩塘镇红色景区)",
        "address": "湖南省湘西土家族苗族自治州龙山县湘鄂川黔革命根据地纪念馆东北侧70米",
        "tel": "",
        "category": "基础设施:公共设施:公共厕所",
        "type": 0,
        "location": {
            "lat": 29.411089,
            "lng": 109.596721
        },
        "ad_info": {
            "adcode": 433130,
            "province": "湖南省",
            "city": "湘西土家族苗族自治州",
            "district": "龙山县"
        }
    },
    {
        "id": "9272288596422057191",
        "title": "公共厕所",
        "address": "湖南省湘西土家族苗族自治州永顺县G352与张花高速交叉口正东方向284米左右",
        "tel": "",
        "category": "基础设施:公共设施:公共厕所",
        "type": 0,
        "location": {
            "lat": 28.987007,
            "lng": 110.108718
        },
        "ad_info": {
            "adcode": 433127,
            "province": "湖南省",
            "city": "湘西土家族苗族自治州",
            "district": "永顺县"
        }
    },
    {
        "id": "5165132372716032431",
        "title": "公共厕所(迁陵镇和平村)",
        "address": "湖南省湘西土家族苗族自治州保靖县和平村乐和山庄",
        "tel": "",
        "category": "基础设施:公共设施:公共厕所",
        "type": 0,
        "location": {
            "lat": 28.641941,
            "lng": 109.626484
        },
        "ad_info": {
            "adcode": 433125,
            "province": "湖南省",
            "city": "湘西土家族苗族自治州",
            "district": "保靖县"
        }
    },
    {
        "id": "1902339420910791231",
        "title": "公共厕所(吕洞山镇夯吉村)",
        "address": "湖南省湘西土家族苗族自治州保靖县吕洞山景区夯吉篮球场",
        "tel": "",
        "category": "基础设施:公共设施:公共厕所",
        "type": 0,
        "location": {
            "lat": 28.434755,
            "lng": 109.715653
        },
        "ad_info": {
            "adcode": 433125,
            "province": "湖南省",
            "city": "湘西土家族苗族自治州",
            "district": "保靖县"
        }
    },
    {
        "id": "6808478517926180849",
        "title": "公共厕所",
        "address": "湖南省湘西土家族苗族自治州永顺县S10(张花高速)",
        "tel": "",
        "category": "基础设施:公共设施:公共厕所",
        "type": 0,
        "location": {
            "lat": 28.987143,
            "lng": 110.108455
        },
        "ad_info": {
            "adcode": 433127,
            "province": "湖南省",
            "city": "湘西土家族苗族自治州",
            "district": "永顺县"
        }
    },
    {
        "id": "645484003146233255",
        "title": "公共厕所(龙山县茨岩塘镇甘露村红军兵工厂景点)",
        "address": "湖南省湘西土家族苗族自治州龙山县茨岩塘镇甘露村红军兵工厂景点",
        "tel": "",
        "category": "基础设施:公共设施:公共厕所",
        "type": 0,
        "location": {
            "lat": 29.412808,
            "lng": 109.633884
        },
        "ad_info": {
            "adcode": 433130,
            "province": "湖南省",
            "city": "湘西土家族苗族自治州",
            "district": "龙山县"
        }
    },
    {
        "id": "3909818238838239356",
        "title": "公共厕所(泸溪县浦市镇花园坪)",
        "address": "湖南省湘西土家族苗族自治州泸溪县X040与X041交叉口西北方向238米左右",
        "tel": "",
        "category": "基础设施:公共设施:公共厕所",
        "type": 0,
        "location": {
            "lat": 28.092412,
            "lng": 110.103993
        },
        "ad_info": {
            "adcode": 433122,
            "province": "湖南省",
            "city": "湘西土家族苗族自治州",
            "district": "泸溪县"
        }
    },
    {
        "id": "9608822911970937908",
        "title": "吴家弄公共厕所",
        "address": "湖南省湘西土家族苗族自治州凤凰县北边街与东正街交叉口正西方向75米",
        "tel": "",
        "category": "基础设施:公共设施:公共厕所",
        "type": 0,
        "location": {
            "lat": 27.947829,
            "lng": 109.604661
        },
        "ad_info": {
            "adcode": 433123,
            "province": "湖南省",
            "city": "湘西土家族苗族自治州",
            "district": "凤凰县"
        }
    },
    {
        "id": "5231031492197928752",
        "title": "公共厕所(龙山县城北)",
        "address": "湖南省湘西土家族苗族自治州龙山县城北路与建设路交叉口东北方向340米左右",
        "tel": "",
        "category": "基础设施:公共设施:公共厕所",
        "type": 0,
        "location": {
            "lat": 29.464899,
            "lng": 109.445879
        },
        "ad_info": {
            "adcode": 433130,
            "province": "湖南省",
            "city": "湘西土家族苗族自治州",
            "district": "龙山县"
        }
    },
    {
        "id": "12291085962020473424",
        "title": "公共厕所",
        "address": "湖南省湘西土家族苗族自治州永顺县芙蓉镇景区-中国界碑铜柱园东南侧220米",
        "tel": "",
        "category": "基础设施:公共设施:公共厕所",
        "type": 0,
        "location": {
            "lat": 28.741383,
            "lng": 109.947985
        },
        "ad_info": {
            "adcode": 433127,
            "province": "湖南省",
            "city": "湘西土家族苗族自治州",
            "district": "永顺县"
        }
    },
    {
        "id": "11263892293883443383",
        "title": "公共厕所",
        "address": "湖南省湘西土家族苗族自治州凤凰县南华里一层A座",
        "tel": "",
        "category": "基础设施:公共设施:公共厕所",
        "type": 0,
        "location": {
            "lat": 27.947304,
            "lng": 109.599009
        },
        "ad_info": {
            "adcode": 433123,
            "province": "湖南省",
            "city": "湘西土家族苗族自治州",
            "district": "凤凰县"
        }
    },
    {
        "id": "55187280912316207",
        "title": "芙蓉镇服务区公共厕所",
        "address": "湖南省湘西土家族苗族自治州永顺县S99龙吉高速与芙蓉镇服务区交叉口南100米",
        "tel": "",
        "category": "基础设施:公共设施:公共厕所",
        "type": 0,
        "location": {
            "lat": 28.73547,
            "lng": 109.95511
        },
        "ad_info": {
            "adcode": 433127,
            "province": "湖南省",
            "city": "湘西土家族苗族自治州",
            "district": "永顺县"
        }
    },
    {
        "id": "4995479646231587747",
        "title": "公共厕所(首八峒村)",
        "address": "湖南省湘西土家族苗族自治州保靖县迁清公路首八峒停车场",
        "tel": "",
        "category": "基础设施:公共设施:公共厕所",
        "type": 0,
        "location": {
            "lat": 28.82394,
            "lng": 109.496915
        },
        "ad_info": {
            "adcode": 433125,
            "province": "湖南省",
            "city": "湘西土家族苗族自治州",
            "district": "保靖县"
        }
    },
    {
        "id": "9552589703949878263",
        "title": "公共厕所(花垣县边城茶峒游客服务中心停车场)",
        "address": "湖南省湘西土家族苗族自治州花垣县边城茶洞旅客服务中心停车场旅游厕所",
        "tel": "",
        "category": "基础设施:公共设施:公共厕所",
        "type": 0,
        "location": {
            "lat": 28.496521,
            "lng": 109.27505
        },
        "ad_info": {
            "adcode": 433124,
            "province": "湖南省",
            "city": "湘西土家族苗族自治州",
            "district": "花垣县"
        }
    },
    {
        "id": "14155210961963124947",
        "title": "公共厕所(龙山县洛塔石林)",
        "address": "湖南省湘西土家族苗族自治州龙山县",
        "tel": "",
        "category": "基础设施:公共设施:公共厕所",
        "type": 0,
        "location": {
            "lat": 29.1718,
            "lng": 109.478442
        },
        "ad_info": {
            "adcode": 433130,
            "province": "湖南省",
            "city": "湘西土家族苗族自治州",
            "district": "龙山县"
        }
    },
    {
        "id": "8237705093818806761",
        "title": "花垣县农业园区后方旅游厕所",
        "address": "湖南省湘西土家族苗族自治州花垣县湖南联素农业科技院东南侧140米",
        "tel": "",
        "category": "基础设施:公共设施:公共厕所",
        "type": 0,
        "location": {
            "lat": 28.527804,
            "lng": 109.472218
        },
        "ad_info": {
            "adcode": 433124,
            "province": "湖南省",
            "city": "湘西土家族苗族自治州",
            "district": "花垣县"
        }
    },
    {
        "id": "1855114425643103545",
        "title": "公共厕所(吕洞山景区大峰冲停车场)",
        "address": "湖南省湘西土家族苗族自治州保靖县吕洞山大峰冲景区停车场",
        "tel": "",
        "category": "基础设施:公共设施:公共厕所",
        "type": 0,
        "location": {
            "lat": 28.430332,
            "lng": 109.66485
        },
        "ad_info": {
            "adcode": 433125,
            "province": "湖南省",
            "city": "湘西土家族苗族自治州",
            "district": "保靖县"
        }
    },
    {
        "id": "15065570767358319273",
        "title": "公共厕所",
        "address": "湖南省湘西土家族苗族自治州永顺县芙蓉镇老王村停车场旅游厕所",
        "tel": "",
        "category": "基础设施:公共设施:公共厕所",
        "type": 0,
        "location": {
            "lat": 28.738789,
            "lng": 109.953149
        },
        "ad_info": {
            "adcode": 433127,
            "province": "湖南省",
            "city": "湘西土家族苗族自治州",
            "district": "永顺县"
        }
    },
    {
        "id": "9330640397916163273",
        "title": "吉首北服务区公共厕所",
        "address": "湖南省湘西土家族苗族自治州吉首市S99龙吉高速与吉首北服务区交叉口南240米",
        "tel": "",
        "category": "基础设施:公共设施:公共厕所",
        "type": 0,
        "location": {
            "lat": 28.447246,
            "lng": 109.828052
        },
        "ad_info": {
            "adcode": 433101,
            "province": "湖南省",
            "city": "湘西土家族苗族自治州",
            "district": "吉首市"
        }
    },
    {
        "id": "6798671396574244834",
        "title": "公共厕所(十八洞村新村部)",
        "address": "湖南省湘西土家族苗族自治州花垣县双龙镇十八洞村村委会",
        "tel": "",
        "category": "基础设施:公共设施:公共厕所",
        "type": 0,
        "location": {
            "lat": 28.37026,
            "lng": 109.494279
        },
        "ad_info": {
            "adcode": 433124,
            "province": "湖南省",
            "city": "湘西土家族苗族自治州",
            "district": "花垣县"
        }
    },
    {
        "id": "4217718935064557469",
        "title": "公共厕所(龙山县茨岩塘镇红色景区)",
        "address": "湖南省湘西土家族苗族自治州龙山县湘鄂川黔革命根据地纪念馆东北侧70米",
        "tel": "",
        "category": "基础设施:公共设施:公共厕所",
        "type": 0,
        "location": {
            "lat": 29.411089,
            "lng": 109.596721
        },
        "ad_info": {
            "adcode": 433130,
            "province": "湖南省",
            "city": "湘西土家族苗族自治州",
            "district": "龙山县"
        }
    },
    {
        "id": "9272288596422057191",
        "title": "公共厕所",
        "address": "湖南省湘西土家族苗族自治州永顺县G352与张花高速交叉口正东方向284米左右",
        "tel": "",
        "category": "基础设施:公共设施:公共厕所",
        "type": 0,
        "location": {
            "lat": 28.987007,
            "lng": 110.108718
        },
        "ad_info": {
            "adcode": 433127,
            "province": "湖南省",
            "city": "湘西土家族苗族自治州",
            "district": "永顺县"
        }
    },
    {
        "id": "5165132372716032431",
        "title": "公共厕所(迁陵镇和平村)",
        "address": "湖南省湘西土家族苗族自治州保靖县和平村乐和山庄",
        "tel": "",
        "category": "基础设施:公共设施:公共厕所",
        "type": 0,
        "location": {
            "lat": 28.641941,
            "lng": 109.626484
        },
        "ad_info": {
            "adcode": 433125,
            "province": "湖南省",
            "city": "湘西土家族苗族自治州",
            "district": "保靖县"
        }
    },
    {
        "id": "1902339420910791231",
        "title": "公共厕所(吕洞山镇夯吉村)",
        "address": "湖南省湘西土家族苗族自治州保靖县吕洞山景区夯吉篮球场",
        "tel": "",
        "category": "基础设施:公共设施:公共厕所",
        "type": 0,
        "location": {
            "lat": 28.434755,
            "lng": 109.715653
        },
        "ad_info": {
            "adcode": 433125,
            "province": "湖南省",
            "city": "湘西土家族苗族自治州",
            "district": "保靖县"
        }
    },
    {
        "id": "6808478517926180849",
        "title": "公共厕所",
        "address": "湖南省湘西土家族苗族自治州永顺县S10(张花高速)",
        "tel": "",
        "category": "基础设施:公共设施:公共厕所",
        "type": 0,
        "location": {
            "lat": 28.987143,
            "lng": 110.108455
        },
        "ad_info": {
            "adcode": 433127,
            "province": "湖南省",
            "city": "湘西土家族苗族自治州",
            "district": "永顺县"
        }
    }
]