[
    {
        "id": "4557690144077156513",
        "title": "公共厕所",
        "address": "湖北省潜江市园林北路与横堤路交叉口西北方向29米左右",
        "tel": "",
        "category": "基础设施:公共设施:公共厕所",
        "type": 0,
        "location": {
            "lat": 30.418067,
            "lng": 112.894951
        },
        "ad_info": {
            "adcode": 429005,
            "province": "湖北省",
            "city": "",
            "district": "潜江市"
        }
    },
    {
        "id": "11502820533845853941",
        "title": "公共厕所",
        "address": "湖北省潜江市章华南路348号",
        "tel": "",
        "category": "基础设施:公共设施:公共厕所",
        "type": 0,
        "location": {
            "lat": 30.360226,
            "lng": 112.905043
        },
        "ad_info": {
            "adcode": 429005,
            "province": "湖北省",
            "city": "",
            "district": "潜江市"
        }
    },
    {
        "id": "7551091082745048304",
        "title": "公共厕所",
        "address": "湖北省潜江市东风路与建设街交叉口正南方向138米左右",
        "tel": "",
        "category": "基础设施:公共设施:公共厕所",
        "type": 0,
        "location": {
            "lat": 30.421362,
            "lng": 112.892433
        },
        "ad_info": {
            "adcode": 429005,
            "province": "湖北省",
            "city": "",
            "district": "潜江市"
        }
    },
    {
        "id": "5260843411349813882",
        "title": "公共厕所",
        "address": "湖北省潜江市县河街与横堤路交叉口正东方向97米左右",
        "tel": "",
        "category": "基础设施:公共设施:公共厕所",
        "type": 0,
        "location": {
            "lat": 30.415955,
            "lng": 112.901791
        },
        "ad_info": {
            "adcode": 429005,
            "province": "湖北省",
            "city": "",
            "district": "潜江市"
        }
    },
    {
        "id": "3204034725583967608",
        "title": "公共厕所",
        "address": "湖北省潜江市泰丰路与红梅路交叉口西北方向115米左右",
        "tel": "",
        "category": "基础设施:公共设施:公共厕所",
        "type": 0,
        "location": {
            "lat": 30.40207,
            "lng": 112.9078
        },
        "ad_info": {
            "adcode": 429005,
            "province": "湖北省",
            "city": "",
            "district": "潜江市"
        }
    },
    {
        "id": "3094136959446881998",
        "title": "公共厕所",
        "address": "湖北省潜江市城南巷与通用路东8街交叉口西北220米",
        "tel": "",
        "category": "基础设施:公共设施:公共厕所",
        "type": 0,
        "location": {
            "lat": 30.410648,
            "lng": 112.883907
        },
        "ad_info": {
            "adcode": 429005,
            "province": "湖北省",
            "city": "",
            "district": "潜江市"
        }
    },
    {
        "id": "18065207674530493149",
        "title": "公共厕所",
        "address": "湖北省潜江市园林街道办事处章华南路(广播电视大学旁)",
        "tel": "",
        "category": "基础设施:公共设施:公共厕所",
        "type": 0,
        "location": {
            "lat": 30.409846,
            "lng": 112.898191
        },
        "ad_info": {
            "adcode": 429005,
            "province": "湖北省",
            "city": "",
            "district": "潜江市"
        }
    },
    {
        "id": "15971186369350398516",
        "title": "公共厕所",
        "address": "湖北省潜江市共建路与小康路交叉口东南方向92米左右",
        "tel": "",
        "category": "基础设施:公共设施:公共厕所",
        "type": 0,
        "location": {
            "lat": 30.452026,
            "lng": 112.698628
        },
        "ad_info": {
            "adcode": 429005,
            "province": "湖北省",
            "city": "",
            "district": "潜江市"
        }
    },
    {
        "id": "13064503850102283445",
        "title": "公共厕所(喻王街)",
        "address": "湖北省潜江市喻王街与环保巷交叉口西北方向48米左右",
        "tel": "",
        "category": "基础设施:公共设施:公共厕所",
        "type": 0,
        "location": {
            "lat": 30.41282,
            "lng": 112.891862
        },
        "ad_info": {
            "adcode": 429005,
            "province": "湖北省",
            "city": "",
            "district": "潜江市"
        }
    },
    {
        "id": "2406131050285402134",
        "title": "公共厕所",
        "address": "湖北省潜江市东城大道与紫月路交叉口正北方向54米左右",
        "tel": "",
        "category": "基础设施:公共设施:公共厕所",
        "type": 0,
        "location": {
            "lat": 30.391218,
            "lng": 112.920371
        },
        "ad_info": {
            "adcode": 429005,
            "province": "湖北省",
            "city": "",
            "district": "潜江市"
        }
    },
    {
        "id": "7204678088138422426",
        "title": "公共厕所",
        "address": "湖北省潜江市吉氏巷与翰林路交叉口东南方向528米左右",
        "tel": "",
        "category": "基础设施:公共设施:公共厕所",
        "type": 0,
        "location": {
            "lat": 30.36357,
            "lng": 112.911569
        },
        "ad_info": {
            "adcode": 429005,
            "province": "湖北省",
            "city": "",
            "district": "潜江市"
        }
    },
    {
        "id": "9334313358631845174",
        "title": "公共厕所",
        "address": "湖北省潜江市马昌垸路32号",
        "tel": "",
        "category": "基础设施:公共设施:公共厕所",
        "type": 0,
        "location": {
            "lat": 30.429552,
            "lng": 112.894874
        },
        "ad_info": {
            "adcode": 429005,
            "province": "湖北省",
            "city": "",
            "district": "潜江市"
        }
    },
    {
        "id": "17693174167242571990",
        "title": "公共厕所",
        "address": "湖北省潜江市广南1路G8",
        "tel": "",
        "category": "基础设施:公共设施:公共厕所",
        "type": 0,
        "location": {
            "lat": 30.450193,
            "lng": 112.699087
        },
        "ad_info": {
            "adcode": 429005,
            "province": "湖北省",
            "city": "",
            "district": "潜江市"
        }
    },
    {
        "id": "17793467143931872705",
        "title": "公共厕所",
        "address": "湖北省潜江市潜阳西路232号",
        "tel": "",
        "category": "基础设施:公共设施:公共厕所",
        "type": 0,
        "location": {
            "lat": 30.41247,
            "lng": 112.803929
        },
        "ad_info": {
            "adcode": 429005,
            "province": "湖北省",
            "city": "",
            "district": "潜江市"
        }
    },
    {
        "id": "8738583377735094313",
        "title": "公共厕所",
        "address": "湖北省潜江市喻王街与章华南路辅路交叉口正南方向184米左右",
        "tel": "",
        "category": "基础设施:公共设施:公共厕所",
        "type": 0,
        "location": {
            "lat": 30.4081,
            "lng": 112.898076
        },
        "ad_info": {
            "adcode": 429005,
            "province": "湖北省",
            "city": "",
            "district": "潜江市"
        }
    },
    {
        "id": "11222430762054590530",
        "title": "公共厕所",
        "address": "湖北省潜江市城俊路与潜阳西路交叉口东南方向133米左右",
        "tel": "",
        "category": "基础设施:公共设施:公共厕所",
        "type": 0,
        "location": {
            "lat": 30.416253,
            "lng": 112.873804
        },
        "ad_info": {
            "adcode": 429005,
            "province": "湖北省",
            "city": "",
            "district": "潜江市"
        }
    },
    {
        "id": "7216684770296116245",
        "title": "公共厕所",
        "address": "湖北省潜江市东荆大道与保驾路交叉口西南方向50米左右",
        "tel": "",
        "category": "基础设施:公共设施:公共厕所",
        "type": 0,
        "location": {
            "lat": 30.406192,
            "lng": 112.877564
        },
        "ad_info": {
            "adcode": 429005,
            "province": "湖北省",
            "city": "",
            "district": "潜江市"
        }
    },
    {
        "id": "14423885177779318897",
        "title": "公共厕所",
        "address": "湖北省潜江市东岳路与园区路交叉口正西方向140米左右",
        "tel": "",
        "category": "基础设施:公共设施:公共厕所",
        "type": 0,
        "location": {
            "lat": 30.285992,
            "lng": 112.525765
        },
        "ad_info": {
            "adcode": 429005,
            "province": "湖北省",
            "city": "",
            "district": "潜江市"
        }
    },
    {
        "id": "18342069791533718529",
        "title": "公共厕所",
        "address": "湖北省潜江市东城大道与东风路交叉口正南方向74米左右",
        "tel": "",
        "category": "基础设施:公共设施:公共厕所",
        "type": 0,
        "location": {
            "lat": 30.414477,
            "lng": 112.913188
        },
        "ad_info": {
            "adcode": 429005,
            "province": "湖北省",
            "city": "",
            "district": "潜江市"
        }
    },
    {
        "id": "6898290510461487177",
        "title": "公共厕所",
        "address": "湖北省潜江市Y023与跃进桥交叉口西北方向47米左右",
        "tel": "",
        "category": "基础设施:公共设施:公共厕所",
        "type": 0,
        "location": {
            "lat": 30.235508,
            "lng": 112.891485
        },
        "ad_info": {
            "adcode": 429005,
            "province": "湖北省",
            "city": "",
            "district": "潜江市"
        }
    },
    {
        "id": "15086309835968904500",
        "title": "公共厕所",
        "address": "湖北省潜江市五七大道与工农路交叉口正南方向185米左右",
        "tel": "",
        "category": "基础设施:公共设施:公共厕所",
        "type": 0,
        "location": {
            "lat": 30.455743,
            "lng": 112.788131
        },
        "ad_info": {
            "adcode": 429005,
            "province": "湖北省",
            "city": "",
            "district": "潜江市"
        }
    },
    {
        "id": "8562397540685236986",
        "title": "公共厕所",
        "address": "湖北省潜江市汉沙路2号G1层",
        "tel": "",
        "category": "基础设施:公共设施:公共厕所",
        "type": 0,
        "location": {
            "lat": 30.412224,
            "lng": 112.794115
        },
        "ad_info": {
            "adcode": 429005,
            "province": "湖北省",
            "city": "",
            "district": "潜江市"
        }
    },
    {
        "id": "6801034632421005883",
        "title": "公共厕所",
        "address": "湖北省潜江市同心路与章华南路交叉口正东方向163米左右",
        "tel": "",
        "category": "基础设施:公共设施:公共厕所",
        "type": 0,
        "location": {
            "lat": 30.370096,
            "lng": 112.905078
        },
        "ad_info": {
            "adcode": 429005,
            "province": "湖北省",
            "city": "",
            "district": "潜江市"
        }
    },
    {
        "id": "4210229771949179848",
        "title": "公共厕所",
        "address": "湖北省潜江市华星小区东侧50米",
        "tel": "",
        "category": "基础设施:公共设施:公共厕所",
        "type": 0,
        "location": {
            "lat": 30.423098,
            "lng": 112.88188
        },
        "ad_info": {
            "adcode": 429005,
            "province": "湖北省",
            "city": "",
            "district": "潜江市"
        }
    },
    {
        "id": "9191314658673961821",
        "title": "公共厕所",
        "address": "湖北省潜江市西城市场路8号",
        "tel": "",
        "category": "基础设施:公共设施:公共厕所",
        "type": 0,
        "location": {
            "lat": 30.426435,
            "lng": 112.891736
        },
        "ad_info": {
            "adcode": 429005,
            "province": "湖北省",
            "city": "",
            "district": "潜江市"
        }
    },
    {
        "id": "9956319124677261342",
        "title": "公共厕所",
        "address": "湖北省潜江市神州租车(潜江站自助点)东北侧60米",
        "tel": "",
        "category": "基础设施:公共设施:公共厕所",
        "type": 0,
        "location": {
            "lat": 30.392286,
            "lng": 112.939978
        },
        "ad_info": {
            "adcode": 429005,
            "province": "湖北省",
            "city": "",
            "district": "潜江市"
        }
    },
    {
        "id": "3969755764009797631",
        "title": "公共厕所",
        "address": "湖北省潜江市五七大道与胜利路交叉口正南方向267米左右",
        "tel": "",
        "category": "基础设施:公共设施:公共厕所",
        "type": 0,
        "location": {
            "lat": 30.454899,
            "lng": 112.785877
        },
        "ad_info": {
            "adcode": 429005,
            "province": "湖北省",
            "city": "",
            "district": "潜江市"
        }
    },
    {
        "id": "13548303529413750732",
        "title": "公共厕所",
        "address": "湖北省潜江市健康路与振兴路交叉口正南方向105米左右",
        "tel": "",
        "category": "基础设施:公共设施:公共厕所",
        "type": 0,
        "location": {
            "lat": 30.458375,
            "lng": 112.785104
        },
        "ad_info": {
            "adcode": 429005,
            "province": "湖北省",
            "city": "",
            "district": "潜江市"
        }
    },
    {
        "id": "13361466137048081965",
        "title": "公共厕所",
        "address": "湖北省潜江市横堤路与潜阳东路交叉口正南方向93米左右",
        "tel": "",
        "category": "基础设施:公共设施:公共厕所",
        "type": 0,
        "location": {
            "lat": 30.412269,
            "lng": 112.907396
        },
        "ad_info": {
            "adcode": 429005,
            "province": "湖北省",
            "city": "",
            "district": "潜江市"
        }
    },
    {
        "id": "10932934296822374894",
        "title": "公共厕所",
        "address": "湖北省潜江市章华南路与红梅路交叉口正西方向105米左右",
        "tel": "",
        "category": "基础设施:公共设施:公共厕所",
        "type": 0,
        "location": {
            "lat": 30.400779,
            "lng": 112.898078
        },
        "ad_info": {
            "adcode": 429005,
            "province": "湖北省",
            "city": "",
            "district": "潜江市"
        }
    },
    {
        "id": "18124628894892209761",
        "title": "公共厕所",
        "address": "湖北省潜江市地宫路与安康路交叉口东南方向103米左右",
        "tel": "",
        "category": "基础设施:公共设施:公共厕所",
        "type": 0,
        "location": {
            "lat": 30.442718,
            "lng": 112.694916
        },
        "ad_info": {
            "adcode": 429005,
            "province": "湖北省",
            "city": "",
            "district": "潜江市"
        }
    },
    {
        "id": "3686587984729961822",
        "title": "公共厕所",
        "address": "湖北省潜江市红军路18号",
        "tel": "",
        "category": "基础设施:公共设施:公共厕所",
        "type": 0,
        "location": {
            "lat": 30.416281,
            "lng": 112.900699
        },
        "ad_info": {
            "adcode": 429005,
            "province": "湖北省",
            "city": "",
            "district": "潜江市"
        }
    },
    {
        "id": "16603054372856467107",
        "title": "公共厕所",
        "address": "湖北省潜江市西城路35号",
        "tel": "",
        "category": "基础设施:公共设施:公共厕所",
        "type": 0,
        "location": {
            "lat": 30.382741,
            "lng": 112.735479
        },
        "ad_info": {
            "adcode": 429005,
            "province": "湖北省",
            "city": "",
            "district": "潜江市"
        }
    },
    {
        "id": "5488760865709302302",
        "title": "公共厕所",
        "address": "湖北省潜江市东荆大道与育才路交叉口正北方向50米左右",
        "tel": "",
        "category": "基础设施:公共设施:公共厕所",
        "type": 0,
        "location": {
            "lat": 30.414477,
            "lng": 112.877891
        },
        "ad_info": {
            "adcode": 429005,
            "province": "湖北省",
            "city": "",
            "district": "潜江市"
        }
    },
    {
        "id": "13589860361938800743",
        "title": "公共厕所",
        "address": "湖北省潜江市少卿路与永兴路交叉口东南方向198米左右",
        "tel": "",
        "category": "基础设施:公共设施:公共厕所",
        "type": 0,
        "location": {
            "lat": 30.389778,
            "lng": 112.940457
        },
        "ad_info": {
            "adcode": 429005,
            "province": "湖北省",
            "city": "",
            "district": "潜江市"
        }
    },
    {
        "id": "12715137257109388756",
        "title": "公共厕所",
        "address": "湖北省潜江市潜熊路与育才路交叉口正南方向36米左右",
        "tel": "",
        "category": "基础设施:公共设施:公共厕所",
        "type": 0,
        "location": {
            "lat": 30.311746,
            "lng": 112.786391
        },
        "ad_info": {
            "adcode": 429005,
            "province": "湖北省",
            "city": "",
            "district": "潜江市"
        }
    },
    {
        "id": "15709447611233067803",
        "title": "公共厕所",
        "address": "湖北省潜江市师范路49号",
        "tel": "",
        "category": "基础设施:公共设施:公共厕所",
        "type": 0,
        "location": {
            "lat": 30.422482,
            "lng": 112.905037
        },
        "ad_info": {
            "adcode": 429005,
            "province": "湖北省",
            "city": "",
            "district": "潜江市"
        }
    },
    {
        "id": "15102837887883940526",
        "title": "公共厕所",
        "address": "湖北省潜江市建新路与建新路1号交叉口南140米",
        "tel": "",
        "category": "基础设施:公共设施:公共厕所",
        "type": 0,
        "location": {
            "lat": 30.458867,
            "lng": 112.737497
        },
        "ad_info": {
            "adcode": 429005,
            "province": "湖北省",
            "city": "",
            "district": "潜江市"
        }
    },
    {
        "id": "9386863723930226447",
        "title": "公共厕所",
        "address": "湖北省潜江市东荆大道与潜阳西路交叉口正东方向58米左右",
        "tel": "",
        "category": "基础设施:公共设施:公共厕所",
        "type": 0,
        "location": {
            "lat": 30.418426,
            "lng": 112.878788
        },
        "ad_info": {
            "adcode": 429005,
            "province": "湖北省",
            "city": "",
            "district": "潜江市"
        }
    },
    {
        "id": "16097057903861613771",
        "title": "公共厕所",
        "address": "湖北省潜江市友谊巷与陈家巷交叉口东北方向262米左右",
        "tel": "",
        "category": "基础设施:公共设施:公共厕所",
        "type": 0,
        "location": {
            "lat": 30.420946,
            "lng": 112.910575
        },
        "ad_info": {
            "adcode": 429005,
            "province": "湖北省",
            "city": "",
            "district": "潜江市"
        }
    },
    {
        "id": "7339457648880879718",
        "title": "公共厕所",
        "address": "湖北省潜江市育才小区西区5街与长渠东路交叉口西南方向83米左右",
        "tel": "",
        "category": "基础设施:公共设施:公共厕所",
        "type": 0,
        "location": {
            "lat": 30.415047,
            "lng": 112.884086
        },
        "ad_info": {
            "adcode": 429005,
            "province": "湖北省",
            "city": "",
            "district": "潜江市"
        }
    },
    {
        "id": "6081893078832103021",
        "title": "公共厕所",
        "address": "湖北省潜江市少卿路潜江站公交站场",
        "tel": "",
        "category": "基础设施:公共设施:公共厕所",
        "type": 0,
        "location": {
            "lat": 30.390093,
            "lng": 112.941871
        },
        "ad_info": {
            "adcode": 429005,
            "province": "湖北省",
            "city": "",
            "district": "潜江市"
        }
    },
    {
        "id": "1142576783474965324",
        "title": "公共厕所",
        "address": "湖北省潜江市保驾路与章华南路交叉口西南方向43米左右",
        "tel": "",
        "category": "基础设施:公共设施:公共厕所",
        "type": 0,
        "location": {
            "lat": 30.405092,
            "lng": 112.898495
        },
        "ad_info": {
            "adcode": 429005,
            "province": "湖北省",
            "city": "",
            "district": "潜江市"
        }
    },
    {
        "id": "2799241026308483047",
        "title": "公共厕所",
        "address": "湖北省潜江市曹禺路与荆河源路交叉口正北方向179米左右",
        "tel": "",
        "category": "基础设施:公共设施:公共厕所",
        "type": 0,
        "location": {
            "lat": 30.440288,
            "lng": 112.887438
        },
        "ad_info": {
            "adcode": 429005,
            "province": "湖北省",
            "city": "",
            "district": "潜江市"
        }
    },
    {
        "id": "10965504127681938436",
        "title": "公共厕所",
        "address": "湖北省潜江市广华大道与广高路交叉口正东方向170米左右",
        "tel": "",
        "category": "基础设施:公共设施:公共厕所",
        "type": 0,
        "location": {
            "lat": 30.442344,
            "lng": 112.698264
        },
        "ad_info": {
            "adcode": 429005,
            "province": "湖北省",
            "city": "",
            "district": "潜江市"
        }
    },
    {
        "id": "3738365903020621698",
        "title": "公共厕所",
        "address": "湖北省潜江市关厢门巷与堤街交叉口东北方向123米左右",
        "tel": "",
        "category": "基础设施:公共设施:公共厕所",
        "type": 0,
        "location": {
            "lat": 30.423242,
            "lng": 112.901084
        },
        "ad_info": {
            "adcode": 429005,
            "province": "湖北省",
            "city": "",
            "district": "潜江市"
        }
    },
    {
        "id": "4177850206376365567",
        "title": "公共厕所",
        "address": "湖北省潜江市章华南路62号",
        "tel": "",
        "category": "基础设施:公共设施:公共厕所",
        "type": 0,
        "location": {
            "lat": 30.384129,
            "lng": 112.900485
        },
        "ad_info": {
            "adcode": 429005,
            "province": "湖北省",
            "city": "",
            "district": "潜江市"
        }
    },
    {
        "id": "9684269077172302332",
        "title": "公共厕所",
        "address": "湖北省潜江市建设街潜江市文昌高级中学",
        "tel": "",
        "category": "基础设施:公共设施:公共厕所",
        "type": 0,
        "location": {
            "lat": 30.421788,
            "lng": 112.904086
        },
        "ad_info": {
            "adcode": 429005,
            "province": "湖北省",
            "city": "",
            "district": "潜江市"
        }
    },
    {
        "id": "4168307730055279242",
        "title": "公共厕所",
        "address": "湖北省潜江市东城大道与东风路交叉口西北方向103米左右",
        "tel": "",
        "category": "基础设施:公共设施:公共厕所",
        "type": 0,
        "location": {
            "lat": 30.415825,
            "lng": 112.912722
        },
        "ad_info": {
            "adcode": 429005,
            "province": "湖北省",
            "city": "",
            "district": "潜江市"
        }
    },
    {
        "id": "17209933512008815571",
        "title": "公共厕所",
        "address": "湖北省潜江市江汉路与西堤巷交叉口东北方向52米左右",
        "tel": "",
        "category": "基础设施:公共设施:公共厕所",
        "type": 0,
        "location": {
            "lat": 30.420773,
            "lng": 112.888947
        },
        "ad_info": {
            "adcode": 429005,
            "province": "湖北省",
            "city": "",
            "district": "潜江市"
        }
    },
    {
        "id": "11702834636984678297",
        "title": "公共厕所",
        "address": "湖北省潜江市章华南路与红梅路交叉口正东方向100米左右",
        "tel": "",
        "category": "基础设施:公共设施:公共厕所",
        "type": 0,
        "location": {
            "lat": 30.400366,
            "lng": 112.900162
        },
        "ad_info": {
            "adcode": 429005,
            "province": "湖北省",
            "city": "",
            "district": "潜江市"
        }
    },
    {
        "id": "13044673108340485398",
        "title": "公共厕所",
        "address": "湖北省潜江市后湖大道与金融巷交叉口东北方向36米左右",
        "tel": "",
        "category": "基础设施:公共设施:公共厕所",
        "type": 0,
        "location": {
            "lat": 30.397451,
            "lng": 112.724757
        },
        "ad_info": {
            "adcode": 429005,
            "province": "湖北省",
            "city": "",
            "district": "潜江市"
        }
    },
    {
        "id": "7889643563045019153",
        "title": "公共厕所",
        "address": "湖北省潜江市周矶办事处团结村卫生室西侧",
        "tel": "",
        "category": "基础设施:公共设施:公共厕所",
        "type": 0,
        "location": {
            "lat": 30.372168,
            "lng": 112.782752
        },
        "ad_info": {
            "adcode": 429005,
            "province": "湖北省",
            "city": "",
            "district": "潜江市"
        }
    },
    {
        "id": "4155964810373117840",
        "title": "公共厕所",
        "address": "湖北省潜江市东岳街与东镇路交叉口东北方向80米左右",
        "tel": "",
        "category": "基础设施:公共设施:公共厕所",
        "type": 0,
        "location": {
            "lat": 30.507265,
            "lng": 112.778326
        },
        "ad_info": {
            "adcode": 429005,
            "province": "湖北省",
            "city": "",
            "district": "潜江市"
        }
    },
    {
        "id": "5746977528822066517",
        "title": "公共厕所",
        "address": "湖北省潜江市地质路与安康路交叉口东南方向74米左右",
        "tel": "",
        "category": "基础设施:公共设施:公共厕所",
        "type": 0,
        "location": {
            "lat": 30.445091,
            "lng": 112.691394
        },
        "ad_info": {
            "adcode": 429005,
            "province": "湖北省",
            "city": "",
            "district": "潜江市"
        }
    },
    {
        "id": "16083982933331471397",
        "title": "公共厕所",
        "address": "湖北省潜江市五七大道与建设路交叉口正南方向226米左右",
        "tel": "",
        "category": "基础设施:公共设施:公共厕所",
        "type": 0,
        "location": {
            "lat": 30.455513,
            "lng": 112.74095
        },
        "ad_info": {
            "adcode": 429005,
            "province": "湖北省",
            "city": "",
            "district": "潜江市"
        }
    },
    {
        "id": "15376410360958877584",
        "title": "公共厕所",
        "address": "湖北省潜江市安居路与工农路交叉口东北方向455米左右",
        "tel": "",
        "category": "基础设施:公共设施:公共厕所",
        "type": 0,
        "location": {
            "lat": 30.455315,
            "lng": 112.749457
        },
        "ad_info": {
            "adcode": 429005,
            "province": "湖北省",
            "city": "",
            "district": "潜江市"
        }
    },
    {
        "id": "6936721456301137750",
        "title": "公共厕所",
        "address": "湖北省潜江市兴建路与滨河东路交叉口东北方向155米左右",
        "tel": "",
        "category": "基础设施:公共设施:公共厕所",
        "type": 0,
        "location": {
            "lat": 30.191258,
            "lng": 112.851352
        },
        "ad_info": {
            "adcode": 429005,
            "province": "湖北省",
            "city": "",
            "district": "潜江市"
        }
    },
    {
        "id": "6155022740173621952",
        "title": "公共厕所",
        "address": "湖北省潜江市喻王街与章华南路辅路交叉口正南方向159米左右",
        "tel": "",
        "category": "基础设施:公共设施:公共厕所",
        "type": 0,
        "location": {
            "lat": 30.408337,
            "lng": 112.897991
        },
        "ad_info": {
            "adcode": 429005,
            "province": "湖北省",
            "city": "",
            "district": "潜江市"
        }
    },
    {
        "id": "16340057560864152054",
        "title": "公共厕所",
        "address": "湖北省潜江市江汉路与运拖公路交叉口正北方向71米左右",
        "tel": "",
        "category": "基础设施:公共设施:公共厕所",
        "type": 0,
        "location": {
            "lat": 30.295758,
            "lng": 112.774103
        },
        "ad_info": {
            "adcode": 429005,
            "province": "湖北省",
            "city": "",
            "district": "潜江市"
        }
    },
    {
        "id": "12059866943044929156",
        "title": "公共厕所",
        "address": "湖北省潜江市潜阳东路70号",
        "tel": "",
        "category": "基础设施:公共设施:公共厕所",
        "type": 0,
        "location": {
            "lat": 30.416093,
            "lng": 112.916932
        },
        "ad_info": {
            "adcode": 429005,
            "province": "湖北省",
            "city": "",
            "district": "潜江市"
        }
    },
    {
        "id": "9359559765543149038",
        "title": "公共厕所",
        "address": "湖北省潜江市建设路与荆石路交叉口正南方向731米左右",
        "tel": "",
        "category": "基础设施:公共设施:公共厕所",
        "type": 0,
        "location": {
            "lat": 30.186792,
            "lng": 112.612738
        },
        "ad_info": {
            "adcode": 429005,
            "province": "湖北省",
            "city": "",
            "district": "潜江市"
        }
    },
    {
        "id": "17034151569720064335",
        "title": "公共厕所",
        "address": "湖北省潜江市振兴路4号G1-5",
        "tel": "",
        "category": "基础设施:公共设施:公共厕所",
        "type": 0,
        "location": {
            "lat": 30.461186,
            "lng": 112.783865
        },
        "ad_info": {
            "adcode": 429005,
            "province": "湖北省",
            "city": "",
            "district": "潜江市"
        }
    },
    {
        "id": "8746391692868008515",
        "title": "公共厕所",
        "address": "湖北省潜江市G234与安康路交叉口正南方向111米左右",
        "tel": "",
        "category": "基础设施:公共设施:公共厕所",
        "type": 0,
        "location": {
            "lat": 30.438049,
            "lng": 112.700006
        },
        "ad_info": {
            "adcode": 429005,
            "province": "湖北省",
            "city": "",
            "district": "潜江市"
        }
    },
    {
        "id": "10105124479136035290",
        "title": "公共厕所",
        "address": "湖北省潜江市棉原路与红梅路交叉口西北方向20米左右",
        "tel": "",
        "category": "基础设施:公共设施:公共厕所",
        "type": 0,
        "location": {
            "lat": 30.401184,
            "lng": 112.90579
        },
        "ad_info": {
            "adcode": 429005,
            "province": "湖北省",
            "city": "",
            "district": "潜江市"
        }
    },
    {
        "id": "15547585772523273928",
        "title": "公共厕所",
        "address": "湖北省潜江市G318与东城大道交叉口西南方向50米左右",
        "tel": "",
        "category": "基础设施:公共设施:公共厕所",
        "type": 0,
        "location": {
            "lat": 30.438335,
            "lng": 112.907847
        },
        "ad_info": {
            "adcode": 429005,
            "province": "湖北省",
            "city": "",
            "district": "潜江市"
        }
    },
    {
        "id": "10415112124504305179",
        "title": "公共厕所",
        "address": "湖北省潜江市Y184与五七大道交叉口正东方向249米左右",
        "tel": "",
        "category": "基础设施:公共设施:公共厕所",
        "type": 0,
        "location": {
            "lat": 30.455404,
            "lng": 112.84116
        },
        "ad_info": {
            "adcode": 429005,
            "province": "湖北省",
            "city": "",
            "district": "潜江市"
        }
    },
    {
        "id": "5308894820092779975",
        "title": "公共厕所",
        "address": "湖北省潜江市S351与腾飞路交叉口正东方向556米左右",
        "tel": "",
        "category": "基础设施:公共设施:公共厕所",
        "type": 0,
        "location": {
            "lat": 30.443967,
            "lng": 112.607063
        },
        "ad_info": {
            "adcode": 429005,
            "province": "湖北省",
            "city": "",
            "district": "潜江市"
        }
    },
    {
        "id": "279858637790290556",
        "title": "公共厕所",
        "address": "湖北省潜江市沿湖东路与沿湖北路交叉口西北方向465米左右",
        "tel": "",
        "category": "基础设施:公共设施:公共厕所",
        "type": 0,
        "location": {
            "lat": 30.378959,
            "lng": 112.908348
        },
        "ad_info": {
            "adcode": 429005,
            "province": "湖北省",
            "city": "",
            "district": "潜江市"
        }
    },
    {
        "id": "3726999853168713160",
        "title": "公共厕所",
        "address": "湖北省潜江市章华北路311号",
        "tel": "",
        "category": "基础设施:公共设施:公共厕所",
        "type": 0,
        "location": {
            "lat": 30.488099,
            "lng": 112.878957
        },
        "ad_info": {
            "adcode": 429005,
            "province": "湖北省",
            "city": "",
            "district": "潜江市"
        }
    },
    {
        "id": "3054444665800411797",
        "title": "公共厕所",
        "address": "湖北省潜江市G318与安远大道交叉口正西方向1098米左右",
        "tel": "",
        "category": "基础设施:公共设施:公共厕所",
        "type": 0,
        "location": {
            "lat": 30.412035,
            "lng": 112.780992
        },
        "ad_info": {
            "adcode": 429005,
            "province": "湖北省",
            "city": "",
            "district": "潜江市"
        }
    },
    {
        "id": "1451450645814527179",
        "title": "公共厕所",
        "address": "湖北省潜江市曹禺路与章华北路交叉口东北方向209米左右",
        "tel": "",
        "category": "基础设施:公共设施:公共厕所",
        "type": 0,
        "location": {
            "lat": 30.440856,
            "lng": 112.896908
        },
        "ad_info": {
            "adcode": 429005,
            "province": "湖北省",
            "city": "",
            "district": "潜江市"
        }
    },
    {
        "id": "8845451005448749713",
        "title": "公共厕所",
        "address": "湖北省潜江市希望路与广华大道交叉口正东方向106米左右",
        "tel": "",
        "category": "基础设施:公共设施:公共厕所",
        "type": 0,
        "location": {
            "lat": 30.45064,
            "lng": 112.697511
        },
        "ad_info": {
            "adcode": 429005,
            "province": "湖北省",
            "city": "",
            "district": "潜江市"
        }
    },
    {
        "id": "16802995294186412106",
        "title": "公共厕所",
        "address": "湖北省潜江市东城大道与联和路交叉口东北方向84米左右",
        "tel": "",
        "category": "基础设施:公共设施:公共厕所",
        "type": 0,
        "location": {
            "lat": 30.40577,
            "lng": 112.913201
        },
        "ad_info": {
            "adcode": 429005,
            "province": "湖北省",
            "city": "",
            "district": "潜江市"
        }
    },
    {
        "id": "13197636247352200502",
        "title": "公共厕所",
        "address": "湖北省潜江市G318与丫张线交叉口正东方向263米左右",
        "tel": "",
        "category": "基础设施:公共设施:公共厕所",
        "type": 0,
        "location": {
            "lat": 30.344756,
            "lng": 112.525272
        },
        "ad_info": {
            "adcode": 429005,
            "province": "湖北省",
            "city": "",
            "district": "潜江市"
        }
    },
    {
        "id": "2362210476312882575",
        "title": "公共厕所",
        "address": "湖北省潜江市G318与西城路交叉口西北方向109米左右",
        "tel": "",
        "category": "基础设施:公共设施:公共厕所",
        "type": 0,
        "location": {
            "lat": 30.405005,
            "lng": 112.731528
        },
        "ad_info": {
            "adcode": 429005,
            "province": "湖北省",
            "city": "",
            "district": "潜江市"
        }
    },
    {
        "id": "10338920741464162411",
        "title": "公共厕所",
        "address": "湖北省潜江市潜阳西路与长渠东路交叉口正北方向122米左右",
        "tel": "",
        "category": "基础设施:公共设施:公共厕所",
        "type": 0,
        "location": {
            "lat": 30.420812,
            "lng": 112.885313
        },
        "ad_info": {
            "adcode": 429005,
            "province": "湖北省",
            "city": "",
            "district": "潜江市"
        }
    },
    {
        "id": "14612262136463070303",
        "title": "公共厕所",
        "address": "湖北省潜江市五七大道与建新路交叉口东北方向139米左右",
        "tel": "",
        "category": "基础设施:公共设施:公共厕所",
        "type": 0,
        "location": {
            "lat": 30.457999,
            "lng": 112.738635
        },
        "ad_info": {
            "adcode": 429005,
            "province": "湖北省",
            "city": "",
            "district": "潜江市"
        }
    },
    {
        "id": "13724794231318433646",
        "title": "公共厕所",
        "address": "湖北省潜江市五七大道209号",
        "tel": "",
        "category": "基础设施:公共设施:公共厕所",
        "type": 0,
        "location": {
            "lat": 30.45834,
            "lng": 112.744368
        },
        "ad_info": {
            "adcode": 429005,
            "province": "湖北省",
            "city": "",
            "district": "潜江市"
        }
    },
    {
        "id": "16164317245439066412",
        "title": "公共厕所",
        "address": "湖北省潜江市安远大道与广泽大道交叉口正东方向106米左右",
        "tel": "",
        "category": "基础设施:公共设施:公共厕所",
        "type": 0,
        "location": {
            "lat": 30.456974,
            "lng": 112.79385
        },
        "ad_info": {
            "adcode": 429005,
            "province": "湖北省",
            "city": "",
            "district": "潜江市"
        }
    },
    {
        "id": "3977657333355438521",
        "title": "公共厕所",
        "address": "湖北省潜江市潜阳中路与车站巷交叉口正东方向38米左右",
        "tel": "",
        "category": "基础设施:公共设施:公共厕所",
        "type": 0,
        "location": {
            "lat": 30.411752,
            "lng": 112.897713
        },
        "ad_info": {
            "adcode": 429005,
            "province": "湖北省",
            "city": "",
            "district": "潜江市"
        }
    },
    {
        "id": "5791515984268593362",
        "title": "公共厕所",
        "address": "湖北省潜江市东城大道与东风路交叉口正北方向312米左右",
        "tel": "",
        "category": "基础设施:公共设施:公共厕所",
        "type": 0,
        "location": {
            "lat": 30.417924,
            "lng": 112.913113
        },
        "ad_info": {
            "adcode": 429005,
            "province": "湖北省",
            "city": "",
            "district": "潜江市"
        }
    },
    {
        "id": "7165554829571288795",
        "title": "公共厕所",
        "address": "湖北省潜江市广泽大道8号",
        "tel": "",
        "category": "基础设施:公共设施:公共厕所",
        "type": 0,
        "location": {
            "lat": 30.463423,
            "lng": 112.868782
        },
        "ad_info": {
            "adcode": 429005,
            "province": "湖北省",
            "city": "",
            "district": "潜江市"
        }
    },
    {
        "id": "7252273986478987868",
        "title": "公共厕所",
        "address": "湖北省潜江市五七大道与友谊路交叉口西北方向196米左右",
        "tel": "",
        "category": "基础设施:公共设施:公共厕所",
        "type": 0,
        "location": {
            "lat": 30.458927,
            "lng": 112.752728
        },
        "ad_info": {
            "adcode": 429005,
            "province": "湖北省",
            "city": "",
            "district": "潜江市"
        }
    },
    {
        "id": "4457179063036313779",
        "title": "公共厕所",
        "address": "湖北省潜江市积玉路与荆桥路交叉口正北方向198米左右",
        "tel": "",
        "category": "基础设施:公共设施:公共厕所",
        "type": 0,
        "location": {
            "lat": 30.453475,
            "lng": 112.595066
        },
        "ad_info": {
            "adcode": 429005,
            "province": "湖北省",
            "city": "",
            "district": "潜江市"
        }
    },
    {
        "id": "1295293507099569940",
        "title": "公共厕所",
        "address": "湖北省潜江市东岳街与东镇路交叉口西北方向167米左右",
        "tel": "",
        "category": "基础设施:公共设施:公共厕所",
        "type": 0,
        "location": {
            "lat": 30.508076,
            "lng": 112.776885
        },
        "ad_info": {
            "adcode": 429005,
            "province": "湖北省",
            "city": "",
            "district": "潜江市"
        }
    },
    {
        "id": "1182362645256498034",
        "title": "公共厕所",
        "address": "湖北省潜江市老荻线附近",
        "tel": "",
        "category": "基础设施:公共设施:公共厕所",
        "type": 0,
        "location": {
            "lat": 30.200491,
            "lng": 112.808915
        },
        "ad_info": {
            "adcode": 429005,
            "province": "湖北省",
            "city": "",
            "district": "潜江市"
        }
    },
    {
        "id": "18374128325915704772",
        "title": "公共厕所",
        "address": "湖北省潜江市G240与园区路交叉口东北方向80米左右",
        "tel": "",
        "category": "基础设施:公共设施:公共厕所",
        "type": 0,
        "location": {
            "lat": 30.19404,
            "lng": 112.90797
        },
        "ad_info": {
            "adcode": 429005,
            "province": "湖北省",
            "city": "",
            "district": "潜江市"
        }
    },
    {
        "id": "8981464807023389805",
        "title": "卫生间",
        "address": "湖北省潜江市打网铺路119号",
        "tel": "",
        "category": "基础设施:公共设施:公共厕所",
        "type": 0,
        "location": {
            "lat": 30.377535,
            "lng": 112.64134
        },
        "ad_info": {
            "adcode": 429005,
            "province": "湖北省",
            "city": "",
            "district": "潜江市"
        }
    },
    {
        "id": "12322552989059055502",
        "title": "公共厕所",
        "address": "湖北省潜江市G234与窑东线交叉口东南方向633米左右",
        "tel": "",
        "category": "基础设施:公共设施:公共厕所",
        "type": 0,
        "location": {
            "lat": 30.499823,
            "lng": 112.624626
        },
        "ad_info": {
            "adcode": 429005,
            "province": "湖北省",
            "city": "",
            "district": "潜江市"
        }
    },
    {
        "id": "6126281036017171883",
        "title": "公共厕所",
        "address": "湖北省潜江市西城路47号",
        "tel": "",
        "category": "基础设施:公共设施:公共厕所",
        "type": 0,
        "location": {
            "lat": 30.375157,
            "lng": 112.736204
        },
        "ad_info": {
            "adcode": 429005,
            "province": "湖北省",
            "city": "",
            "district": "潜江市"
        }
    },
    {
        "id": "2389885112575168910",
        "title": "公共厕所",
        "address": "湖北省潜江市保驾路与章华南路交叉口西南方向65米左右",
        "tel": "",
        "category": "基础设施:公共设施:公共厕所",
        "type": 0,
        "location": {
            "lat": 30.405054,
            "lng": 112.898182
        },
        "ad_info": {
            "adcode": 429005,
            "province": "湖北省",
            "city": "",
            "district": "潜江市"
        }
    },
    {
        "id": "13131518290849272331",
        "title": "潜江服务区公共厕所",
        "address": "湖北省潜江市潜江服务区与G50沪渝高速交叉口东北300米",
        "tel": "",
        "category": "基础设施:公共设施:公共厕所",
        "type": 0,
        "location": {
            "lat": 30.380234,
            "lng": 112.908772
        },
        "ad_info": {
            "adcode": 429005,
            "province": "湖北省",
            "city": "",
            "district": "潜江市"
        }
    },
    {
        "id": "10643178944322201416",
        "title": "女洗手间(常青藤城市广场)",
        "address": "湖北省潜江市章华南路2号常青藤城市广场F3层",
        "tel": "",
        "category": "基础设施:公共设施:公共厕所",
        "type": 0,
        "location": {
            "lat": 30.410069,
            "lng": 112.897622
        },
        "ad_info": {
            "adcode": 429005,
            "province": "湖北省",
            "city": "",
            "district": "潜江市"
        }
    },
    {
        "id": "3389690137985687933",
        "title": "公共厕所",
        "address": "湖北省潜江市向阳街1号g16",
        "tel": "",
        "category": "基础设施:公共设施:公共厕所",
        "type": 0,
        "location": {
            "lat": 30.455055,
            "lng": 112.753338
        },
        "ad_info": {
            "adcode": 429005,
            "province": "湖北省",
            "city": "",
            "district": "潜江市"
        }
    },
    {
        "id": "9981913104474439835",
        "title": "湖北潜江章华台古遗址章华台博物馆公共厕所",
        "address": "湖北省潜江市章华台路与龙徐线交叉口正北方向26米左右",
        "tel": "",
        "category": "基础设施:公共设施:公共厕所",
        "type": 0,
        "location": {
            "lat": 30.230683,
            "lng": 112.74189
        },
        "ad_info": {
            "adcode": 429005,
            "province": "湖北省",
            "city": "",
            "district": "潜江市"
        }
    },
    {
        "id": "15966130687789513724",
        "title": "无障碍公共厕所",
        "address": "湖北省潜江市建设街与红军路交叉口正南方向23米左右",
        "tel": "",
        "category": "基础设施:公共设施:公共厕所",
        "type": 0,
        "location": {
            "lat": 30.420739,
            "lng": 112.901537
        },
        "ad_info": {
            "adcode": 429005,
            "province": "湖北省",
            "city": "",
            "district": "潜江市"
        }
    },
    {
        "id": "5430742322580484941",
        "title": "湖北潜江梅苑公共厕所",
        "address": "湖北省潜江市梅苑古街与殷台路交叉口西北方向62米左右",
        "tel": "",
        "category": "基础设施:公共设施:公共厕所",
        "type": 0,
        "location": {
            "lat": 30.434144,
            "lng": 112.889692
        },
        "ad_info": {
            "adcode": 429005,
            "province": "湖北省",
            "city": "",
            "district": "潜江市"
        }
    },
    {
        "id": "11831738810575734288",
        "title": "交通公共厕所",
        "address": "湖北省潜江市积玉口镇太和小学西侧230米",
        "tel": "",
        "category": "基础设施:公共设施:公共厕所",
        "type": 0,
        "location": {
            "lat": 30.447329,
            "lng": 112.639285
        },
        "ad_info": {
            "adcode": 429005,
            "province": "湖北省",
            "city": "",
            "district": "潜江市"
        }
    },
    {
        "id": "5590601966563983849",
        "title": "潜江服务区第二公共厕所",
        "address": "湖北省潜江市G50沪渝高速与潜江服务区交叉口东320米",
        "tel": "",
        "category": "基础设施:公共设施:公共厕所",
        "type": 0,
        "location": {
            "lat": 30.378275,
            "lng": 112.909173
        },
        "ad_info": {
            "adcode": 429005,
            "province": "湖北省",
            "city": "",
            "district": "潜江市"
        }
    },
    {
        "id": "3602025119307644732",
        "title": "湖北潜江梅苑-公共厕所",
        "address": "湖北省潜江市殷台路与湖滨路交叉口西北方向247米左右",
        "tel": "",
        "category": "基础设施:公共设施:公共厕所",
        "type": 0,
        "location": {
            "lat": 30.434992,
            "lng": 112.886181
        },
        "ad_info": {
            "adcode": 429005,
            "province": "湖北省",
            "city": "",
            "district": "潜江市"
        }
    },
    {
        "id": "13506859591177348712",
        "title": "积玉口服务区公共厕所",
        "address": "湖北省潜江市积玉口服务区与S53枣石高速交叉口东南380米",
        "tel": "",
        "category": "基础设施:公共设施:公共厕所",
        "type": 0,
        "location": {
            "lat": 30.41231,
            "lng": 112.599753
        },
        "ad_info": {
            "adcode": 429005,
            "province": "湖北省",
            "city": "",
            "district": "潜江市"
        }
    },
    {
        "id": "18088281925552809789",
        "title": "积玉口服务区公共厕所",
        "address": "湖北省潜江市积玉口服务区与S53枣石高速交叉口南340米",
        "tel": "",
        "category": "基础设施:公共设施:公共厕所",
        "type": 0,
        "location": {
            "lat": 30.412275,
            "lng": 112.597037
        },
        "ad_info": {
            "adcode": 429005,
            "province": "湖北省",
            "city": "",
            "district": "潜江市"
        }
    },
    {
        "id": "3086780754398038764",
        "title": "潜江服务区第一公共厕所",
        "address": "湖北省潜江市沿湖东路与沿湖北路交叉口西北方向436米左右",
        "tel": "",
        "category": "基础设施:公共设施:公共厕所",
        "type": 0,
        "location": {
            "lat": 30.378607,
            "lng": 112.908321
        },
        "ad_info": {
            "adcode": 429005,
            "province": "湖北省",
            "city": "",
            "district": "潜江市"
        }
    },
    {
        "id": "17935821423152182800",
        "title": "潜江服务区第一公共厕所",
        "address": "湖北省潜江市G50沪渝高速与潜江服务区交叉口东280米",
        "tel": "",
        "category": "基础设施:公共设施:公共厕所",
        "type": 0,
        "location": {
            "lat": 30.37822,
            "lng": 112.908678
        },
        "ad_info": {
            "adcode": 429005,
            "province": "湖北省",
            "city": "",
            "district": "潜江市"
        }
    }
]