[
    {
        "id": "8144545280554923767",
        "title": "公共厕所",
        "address": "广东省潮州市湘桥区中山路与环城西路交叉口正东方向86米左右",
        "tel": "",
        "category": "基础设施:公共设施:公共厕所",
        "type": 0,
        "location": {
            "lat": 23.670694,
            "lng": 116.644897
        },
        "ad_info": {
            "adcode": 445102,
            "province": "广东省",
            "city": "潮州市",
            "district": "湘桥区"
        }
    },
    {
        "id": "8484755019285328875",
        "title": "公共厕所",
        "address": "广东省潮州市湘桥区新东路与新桥路交叉口正南方向158米左右",
        "tel": "",
        "category": "基础设施:公共设施:公共厕所",
        "type": 0,
        "location": {
            "lat": 23.6582,
            "lng": 116.62988
        },
        "ad_info": {
            "adcode": 445102,
            "province": "广东省",
            "city": "潮州市",
            "district": "湘桥区"
        }
    },
    {
        "id": "2511896842652398357",
        "title": "公共厕所",
        "address": "广东省潮州市湘桥区西新路西二巷与永护路交叉口西北方向120米",
        "tel": "",
        "category": "基础设施:公共设施:公共厕所",
        "type": 0,
        "location": {
            "lat": 23.660511,
            "lng": 116.637671
        },
        "ad_info": {
            "adcode": 445102,
            "province": "广东省",
            "city": "潮州市",
            "district": "湘桥区"
        }
    },
    {
        "id": "7809245332834294393",
        "title": "公共厕所",
        "address": "广东省潮州市湘桥区新春路5号",
        "tel": "",
        "category": "基础设施:公共设施:公共厕所",
        "type": 0,
        "location": {
            "lat": 23.656181,
            "lng": 116.624573
        },
        "ad_info": {
            "adcode": 445102,
            "province": "广东省",
            "city": "潮州市",
            "district": "湘桥区"
        }
    },
    {
        "id": "9076680319005749348",
        "title": "公共厕所",
        "address": "广东省潮州市湘桥区兴旺街与新东园南路交叉口西北方向110米左右",
        "tel": "",
        "category": "基础设施:公共设施:公共厕所",
        "type": 0,
        "location": {
            "lat": 23.663726,
            "lng": 116.628575
        },
        "ad_info": {
            "adcode": 445102,
            "province": "广东省",
            "city": "潮州市",
            "district": "湘桥区"
        }
    },
    {
        "id": "4426765009533560456",
        "title": "公共厕所",
        "address": "广东省潮州市湘桥区太平路661号",
        "tel": "",
        "category": "基础设施:公共设施:公共厕所",
        "type": 0,
        "location": {
            "lat": 23.65616,
            "lng": 116.647784
        },
        "ad_info": {
            "adcode": 445102,
            "province": "广东省",
            "city": "潮州市",
            "district": "湘桥区"
        }
    },
    {
        "id": "1662134574480530689",
        "title": "公共厕所",
        "address": "广东省潮州市湘桥区三利街与新桥路交叉口正东方向50米左右",
        "tel": "",
        "category": "基础设施:公共设施:公共厕所",
        "type": 0,
        "location": {
            "lat": 23.66247,
            "lng": 116.639248
        },
        "ad_info": {
            "adcode": 445102,
            "province": "广东省",
            "city": "潮州市",
            "district": "湘桥区"
        }
    },
    {
        "id": "16459003095477613901",
        "title": "公共厕所",
        "address": "广东省潮州市湘桥区兴宁巷与太平路交叉口西南方向30米左右",
        "tel": "",
        "category": "基础设施:公共设施:公共厕所",
        "type": 0,
        "location": {
            "lat": 23.660067,
            "lng": 116.649041
        },
        "ad_info": {
            "adcode": 445102,
            "province": "广东省",
            "city": "潮州市",
            "district": "湘桥区"
        }
    },
    {
        "id": "13573714032502822524",
        "title": "公共厕所",
        "address": "广东省潮州市湘桥区潮州大道中油BP(潮州枫春加油站)",
        "tel": "",
        "category": "基础设施:公共设施:公共厕所",
        "type": 0,
        "location": {
            "lat": 23.643564,
            "lng": 116.631824
        },
        "ad_info": {
            "adcode": 445102,
            "province": "广东省",
            "city": "潮州市",
            "district": "湘桥区"
        }
    },
    {
        "id": "12973794592704063857",
        "title": "公共厕所",
        "address": "广东省潮州市湘桥区安澄公路与宝塔路交叉口正东方向643米左右",
        "tel": "",
        "category": "基础设施:公共设施:公共厕所",
        "type": 0,
        "location": {
            "lat": 23.646135,
            "lng": 116.665799
        },
        "ad_info": {
            "adcode": 445102,
            "province": "广东省",
            "city": "潮州市",
            "district": "湘桥区"
        }
    },
    {
        "id": "14853691072661482696",
        "title": "公共厕所",
        "address": "广东省潮州市湘桥区绿榕北路亿丰超市(腾瑞凯悦名庭东南)",
        "tel": "",
        "category": "基础设施:公共设施:公共厕所",
        "type": 0,
        "location": {
            "lat": 23.666994,
            "lng": 116.619064
        },
        "ad_info": {
            "adcode": 445102,
            "province": "广东省",
            "city": "潮州市",
            "district": "湘桥区"
        }
    },
    {
        "id": "8329889323063010385",
        "title": "公共厕所",
        "address": "广东省潮州市湘桥区南较西路与枫春南路交叉口东南方向71米左右",
        "tel": "",
        "category": "基础设施:公共设施:公共厕所",
        "type": 0,
        "location": {
            "lat": 23.649841,
            "lng": 116.636833
        },
        "ad_info": {
            "adcode": 445102,
            "province": "广东省",
            "city": "潮州市",
            "district": "湘桥区"
        }
    },
    {
        "id": "7041811721571607102",
        "title": "公共厕所",
        "address": "广东省潮州市湘桥区大堀池路南100米",
        "tel": "",
        "category": "基础设施:公共设施:公共厕所",
        "type": 0,
        "location": {
            "lat": 23.661958,
            "lng": 116.601963
        },
        "ad_info": {
            "adcode": 445102,
            "province": "广东省",
            "city": "潮州市",
            "district": "湘桥区"
        }
    },
    {
        "id": "133874112926270172",
        "title": "公共厕所",
        "address": "广东省潮州市湘桥区兰花四街与春荣路交叉口东北方向67米左右",
        "tel": "",
        "category": "基础设施:公共设施:公共厕所",
        "type": 0,
        "location": {
            "lat": 23.677474,
            "lng": 116.634108
        },
        "ad_info": {
            "adcode": 445102,
            "province": "广东省",
            "city": "潮州市",
            "district": "湘桥区"
        }
    },
    {
        "id": "15572748471029642359",
        "title": "公共厕所",
        "address": "广东省潮州市湘桥区北山路与良玉路交叉口西北方向112米左右",
        "tel": "",
        "category": "基础设施:公共设施:公共厕所",
        "type": 0,
        "location": {
            "lat": 23.694938,
            "lng": 116.67095
        },
        "ad_info": {
            "adcode": 445102,
            "province": "广东省",
            "city": "潮州市",
            "district": "湘桥区"
        }
    },
    {
        "id": "9305926054666395494",
        "title": "公共厕所",
        "address": "广东省潮州市湘桥区仙河华侨大道与潮州东大道交叉口东北方向621米左右",
        "tel": "",
        "category": "基础设施:公共设施:公共厕所",
        "type": 0,
        "location": {
            "lat": 23.631799,
            "lng": 116.673715
        },
        "ad_info": {
            "adcode": 445102,
            "province": "广东省",
            "city": "潮州市",
            "district": "湘桥区"
        }
    },
    {
        "id": "18038814345404337171",
        "title": "公共厕所",
        "address": "广东省潮州市湘桥区S502与凤东路交叉口正西方向1796米左右",
        "tel": "",
        "category": "基础设施:公共设施:公共厕所",
        "type": 0,
        "location": {
            "lat": 23.611306,
            "lng": 116.75871
        },
        "ad_info": {
            "adcode": 445102,
            "province": "广东省",
            "city": "潮州市",
            "district": "湘桥区"
        }
    },
    {
        "id": "15982789776940263698",
        "title": "公共厕所",
        "address": "广东省潮州市湘桥区西陇大队前仲伯猪脚饭北侧220米",
        "tel": "",
        "category": "基础设施:公共设施:公共厕所",
        "type": 0,
        "location": {
            "lat": 23.594229,
            "lng": 116.780972
        },
        "ad_info": {
            "adcode": 445102,
            "province": "广东省",
            "city": "潮州市",
            "district": "湘桥区"
        }
    },
    {
        "id": "3170759111537691026",
        "title": "公共厕所",
        "address": "广东省潮州市湘桥区康厝公厅东南侧",
        "tel": "",
        "category": "基础设施:公共设施:公共厕所",
        "type": 0,
        "location": {
            "lat": 23.654434,
            "lng": 116.69338
        },
        "ad_info": {
            "adcode": 445102,
            "province": "广东省",
            "city": "潮州市",
            "district": "湘桥区"
        }
    },
    {
        "id": "18112429431185989507",
        "title": "公共厕所",
        "address": "广东省潮州市潮安区新园路与环园路交叉口西北方向193米左右",
        "tel": "",
        "category": "基础设施:公共设施:公共厕所",
        "type": 0,
        "location": {
            "lat": 23.661028,
            "lng": 116.571459
        },
        "ad_info": {
            "adcode": 445103,
            "province": "广东省",
            "city": "潮州市",
            "district": "潮安区"
        }
    },
    {
        "id": "6851686230099712153",
        "title": "公共厕所",
        "address": "广东省潮州市湘桥区三大巷与池南街交叉口正东方向33米左右",
        "tel": "",
        "category": "基础设施:公共设施:公共厕所",
        "type": 0,
        "location": {
            "lat": 23.658861,
            "lng": 116.645556
        },
        "ad_info": {
            "adcode": 445102,
            "province": "广东省",
            "city": "潮州市",
            "district": "湘桥区"
        }
    },
    {
        "id": "1146177130592818846",
        "title": "公共厕所",
        "address": "广东省潮州市湘桥区永护路与潮枫路交叉口正北方向48米左右",
        "tel": "",
        "category": "基础设施:公共设施:公共厕所",
        "type": 0,
        "location": {
            "lat": 23.665421,
            "lng": 116.636213
        },
        "ad_info": {
            "adcode": 445102,
            "province": "广东省",
            "city": "潮州市",
            "district": "湘桥区"
        }
    },
    {
        "id": "14613765850688967674",
        "title": "公共厕所",
        "address": "广东省潮州市湘桥区仙河华侨大道与潮州东大道交叉口正北方向499米左右",
        "tel": "",
        "category": "基础设施:公共设施:公共厕所",
        "type": 0,
        "location": {
            "lat": 23.631168,
            "lng": 116.67181
        },
        "ad_info": {
            "adcode": 445102,
            "province": "广东省",
            "city": "潮州市",
            "district": "湘桥区"
        }
    },
    {
        "id": "10859685176488984717",
        "title": "公共厕所",
        "address": "广东省潮州市湘桥区兴利北路与外环北路交叉口正北方向615米左右",
        "tel": "",
        "category": "基础设施:公共设施:公共厕所",
        "type": 0,
        "location": {
            "lat": 23.687436,
            "lng": 116.596687
        },
        "ad_info": {
            "adcode": 445102,
            "province": "广东省",
            "city": "潮州市",
            "district": "湘桥区"
        }
    },
    {
        "id": "385333168654405744",
        "title": "公共厕所",
        "address": "广东省潮州市潮安区社道路与鳗场路交叉口正北方向150米左右",
        "tel": "",
        "category": "基础设施:公共设施:公共厕所",
        "type": 0,
        "location": {
            "lat": 23.64659,
            "lng": 116.599712
        },
        "ad_info": {
            "adcode": 445103,
            "province": "广东省",
            "city": "潮州市",
            "district": "潮安区"
        }
    },
    {
        "id": "10076549280192304813",
        "title": "公共厕所",
        "address": "广东省潮州市湘桥区石丘头娘祠东北侧90米",
        "tel": "",
        "category": "基础设施:公共设施:公共厕所",
        "type": 0,
        "location": {
            "lat": 23.603248,
            "lng": 116.75866
        },
        "ad_info": {
            "adcode": 445102,
            "province": "广东省",
            "city": "潮州市",
            "district": "湘桥区"
        }
    },
    {
        "id": "2403380374613331827",
        "title": "公共厕所",
        "address": "广东省潮州市湘桥区云梯环村路与祠堂前路交叉口西北方向33米左右",
        "tel": "",
        "category": "基础设施:公共设施:公共厕所",
        "type": 0,
        "location": {
            "lat": 23.65689,
            "lng": 116.615331
        },
        "ad_info": {
            "adcode": 445102,
            "province": "广东省",
            "city": "潮州市",
            "district": "湘桥区"
        }
    },
    {
        "id": "5578836336124153640",
        "title": "公共厕所",
        "address": "广东省潮州市潮安区二涵路与前进石路交叉口正西方向205米左右",
        "tel": "",
        "category": "基础设施:公共设施:公共厕所",
        "type": 0,
        "location": {
            "lat": 23.642433,
            "lng": 116.598601
        },
        "ad_info": {
            "adcode": 445103,
            "province": "广东省",
            "city": "潮州市",
            "district": "潮安区"
        }
    },
    {
        "id": "6177921197184215953",
        "title": "公共厕所",
        "address": "广东省潮州市湘桥区南较西路与新南路交叉口正南方向195米左右",
        "tel": "",
        "category": "基础设施:公共设施:公共厕所",
        "type": 0,
        "location": {
            "lat": 23.647714,
            "lng": 116.635701
        },
        "ad_info": {
            "adcode": 445102,
            "province": "广东省",
            "city": "潮州市",
            "district": "湘桥区"
        }
    },
    {
        "id": "8550042340472275237",
        "title": "公共厕所",
        "address": "广东省潮州市湘桥区铺埔慈云学校东北侧150米",
        "tel": "",
        "category": "基础设施:公共设施:公共厕所",
        "type": 0,
        "location": {
            "lat": 23.626297,
            "lng": 116.763157
        },
        "ad_info": {
            "adcode": 445102,
            "province": "广东省",
            "city": "潮州市",
            "district": "湘桥区"
        }
    },
    {
        "id": "17776998635087264500",
        "title": "公共厕所",
        "address": "广东省潮州市湘桥区东兴北路与东兴南路交叉口东北方向164米左右",
        "tel": "",
        "category": "基础设施:公共设施:公共厕所",
        "type": 0,
        "location": {
            "lat": 23.663611,
            "lng": 116.65906
        },
        "ad_info": {
            "adcode": 445102,
            "province": "广东省",
            "city": "潮州市",
            "district": "湘桥区"
        }
    },
    {
        "id": "13872366024763451824",
        "title": "公共厕所",
        "address": "广东省潮州市潮安区中心三路与薛二中心路交叉口东北方向240米左右",
        "tel": "",
        "category": "基础设施:公共设施:公共厕所",
        "type": 0,
        "location": {
            "lat": 23.463419,
            "lng": 116.65765
        },
        "ad_info": {
            "adcode": 445103,
            "province": "广东省",
            "city": "潮州市",
            "district": "潮安区"
        }
    },
    {
        "id": "9786529630784559569",
        "title": "公共厕所",
        "address": "广东省潮州市湘桥区东铁路与田下十四巷交叉口西北方向460米左右",
        "tel": "",
        "category": "基础设施:公共设施:公共厕所",
        "type": 0,
        "location": {
            "lat": 23.587007,
            "lng": 116.786224
        },
        "ad_info": {
            "adcode": 445102,
            "province": "广东省",
            "city": "潮州市",
            "district": "湘桥区"
        }
    },
    {
        "id": "15007626594415045598",
        "title": "公共厕所",
        "address": "广东省潮州市潮安区S233与仙岩寺路交叉口正南方向1132米左右",
        "tel": "",
        "category": "基础设施:公共设施:公共厕所",
        "type": 0,
        "location": {
            "lat": 23.589116,
            "lng": 116.562183
        },
        "ad_info": {
            "adcode": 445103,
            "province": "广东省",
            "city": "潮州市",
            "district": "潮安区"
        }
    },
    {
        "id": "15247746338872212984",
        "title": "公共厕所",
        "address": "广东省潮州市潮安区G539与凤西路交叉口东南方向1547米左右",
        "tel": "",
        "category": "基础设施:公共设施:公共厕所",
        "type": 0,
        "location": {
            "lat": 23.606783,
            "lng": 116.543431
        },
        "ad_info": {
            "adcode": 445103,
            "province": "广东省",
            "city": "潮州市",
            "district": "潮安区"
        }
    },
    {
        "id": "7384841951840520425",
        "title": "公共厕所",
        "address": "广东省潮州市湘桥区一管区新学校片西宅区3号楼东北侧230米",
        "tel": "",
        "category": "基础设施:公共设施:公共厕所",
        "type": 0,
        "location": {
            "lat": 23.642538,
            "lng": 116.70872
        },
        "ad_info": {
            "adcode": 445102,
            "province": "广东省",
            "city": "潮州市",
            "district": "湘桥区"
        }
    },
    {
        "id": "16949814341463739134",
        "title": "公共厕所",
        "address": "广东省潮州市湘桥区潮州大道与莲云路交叉口东北方向56米左右",
        "tel": "",
        "category": "基础设施:公共设施:公共厕所",
        "type": 0,
        "location": {
            "lat": 23.670267,
            "lng": 116.612019
        },
        "ad_info": {
            "adcode": 445102,
            "province": "广东省",
            "city": "潮州市",
            "district": "湘桥区"
        }
    },
    {
        "id": "195411487465867942",
        "title": "公共厕所",
        "address": "广东省潮州市潮安区外马路与瓷兴路交叉口西南方向24米左右",
        "tel": "",
        "category": "基础设施:公共设施:公共厕所",
        "type": 0,
        "location": {
            "lat": 23.654294,
            "lng": 116.607689
        },
        "ad_info": {
            "adcode": 445103,
            "province": "广东省",
            "city": "潮州市",
            "district": "潮安区"
        }
    },
    {
        "id": "5725827719409060147",
        "title": "公共厕所",
        "address": "广东省潮州市湘桥区下津路与意东一路交叉口正北方向343米左右",
        "tel": "",
        "category": "基础设施:公共设施:公共厕所",
        "type": 0,
        "location": {
            "lat": 23.673994,
            "lng": 116.664414
        },
        "ad_info": {
            "adcode": 445102,
            "province": "广东省",
            "city": "潮州市",
            "district": "湘桥区"
        }
    },
    {
        "id": "13085682195080464270",
        "title": "公共厕所",
        "address": "广东省潮州市潮安区X078与Y301交叉口正东方向364米左右",
        "tel": "",
        "category": "基础设施:公共设施:公共厕所",
        "type": 0,
        "location": {
            "lat": 23.523736,
            "lng": 116.584087
        },
        "ad_info": {
            "adcode": 445103,
            "province": "广东省",
            "city": "潮州市",
            "district": "潮安区"
        }
    },
    {
        "id": "7916981340697937502",
        "title": "潮州西湖公共厕所",
        "address": "广东省潮州市湘桥区环城西路潮州市高级实验学校东门东北侧约90米",
        "tel": "",
        "category": "基础设施:公共设施:公共厕所",
        "type": 0,
        "location": {
            "lat": 23.667474,
            "lng": 116.641445
        },
        "ad_info": {
            "adcode": 445102,
            "province": "广东省",
            "city": "潮州市",
            "district": "湘桥区"
        }
    },
    {
        "id": "186686744187065549",
        "title": "公共厕所",
        "address": "广东省潮州市潮安区S233与宏和路交叉口西北方向57米左右",
        "tel": "",
        "category": "基础设施:公共设施:公共厕所",
        "type": 0,
        "location": {
            "lat": 23.503617,
            "lng": 116.635942
        },
        "ad_info": {
            "adcode": 445103,
            "province": "广东省",
            "city": "潮州市",
            "district": "潮安区"
        }
    },
    {
        "id": "6965203896069805895",
        "title": "公共厕所",
        "address": "广东省潮州市湘桥区开元路32号开元寺内",
        "tel": "",
        "category": "基础设施:公共设施:公共厕所",
        "type": 0,
        "location": {
            "lat": 23.662154,
            "lng": 116.65003
        },
        "ad_info": {
            "adcode": 445102,
            "province": "广东省",
            "city": "潮州市",
            "district": "湘桥区"
        }
    },
    {
        "id": "11973268270710886478",
        "title": "公共厕所",
        "address": "广东省潮州市潮安区枫三小学-枫三学校东北侧110米",
        "tel": "",
        "category": "基础设施:公共设施:公共厕所",
        "type": 0,
        "location": {
            "lat": 23.64808,
            "lng": 116.57503
        },
        "ad_info": {
            "adcode": 445103,
            "province": "广东省",
            "city": "潮州市",
            "district": "潮安区"
        }
    },
    {
        "id": "14777746875567623740",
        "title": "公共厕所",
        "address": "广东省潮州市潮安区新风路与长德路交叉口正西方向121米左右",
        "tel": "",
        "category": "基础设施:公共设施:公共厕所",
        "type": 0,
        "location": {
            "lat": 23.649394,
            "lng": 116.60797
        },
        "ad_info": {
            "adcode": 445103,
            "province": "广东省",
            "city": "潮州市",
            "district": "潮安区"
        }
    },
    {
        "id": "10865344637952591951",
        "title": "公共厕所",
        "address": "广东省潮州市潮安区人民公园内(西侧)",
        "tel": "",
        "category": "基础设施:公共设施:公共厕所",
        "type": 0,
        "location": {
            "lat": 23.465616,
            "lng": 116.672577
        },
        "ad_info": {
            "adcode": 445103,
            "province": "广东省",
            "city": "潮州市",
            "district": "潮安区"
        }
    },
    {
        "id": "15258516303047106210",
        "title": "公共厕所",
        "address": "广东省潮州市潮安区云步四甲村中路与四甲大巷竹围内交叉口北50米",
        "tel": "",
        "category": "基础设施:公共设施:公共厕所",
        "type": 0,
        "location": {
            "lat": 23.623898,
            "lng": 116.6211
        },
        "ad_info": {
            "adcode": 445103,
            "province": "广东省",
            "city": "潮州市",
            "district": "潮安区"
        }
    },
    {
        "id": "12786273538748103280",
        "title": "公共厕所",
        "address": "广东省潮州市潮安区池湖路61号",
        "tel": "",
        "category": "基础设施:公共设施:公共厕所",
        "type": 0,
        "location": {
            "lat": 23.645528,
            "lng": 116.62133
        },
        "ad_info": {
            "adcode": 445103,
            "province": "广东省",
            "city": "潮州市",
            "district": "潮安区"
        }
    },
    {
        "id": "13483770345488205610",
        "title": "公共厕所",
        "address": "广东省潮州市潮安区杨厝前路与池春街交叉口东南方向127米左右",
        "tel": "",
        "category": "基础设施:公共设施:公共厕所",
        "type": 0,
        "location": {
            "lat": 23.644362,
            "lng": 116.619412
        },
        "ad_info": {
            "adcode": 445103,
            "province": "广东省",
            "city": "潮州市",
            "district": "潮安区"
        }
    },
    {
        "id": "6664545405699247459",
        "title": "公共厕所",
        "address": "广东省潮州市潮安区S506与仙三迎宾路交叉口正北方向183米左右",
        "tel": "",
        "category": "基础设施:公共设施:公共厕所",
        "type": 0,
        "location": {
            "lat": 23.521981,
            "lng": 116.61131
        },
        "ad_info": {
            "adcode": 445103,
            "province": "广东省",
            "city": "潮州市",
            "district": "潮安区"
        }
    },
    {
        "id": "17923345216591671062",
        "title": "公共厕所",
        "address": "广东省潮州市潮安区凤凰镇下较路与355国道交叉口东南320米",
        "tel": "",
        "category": "基础设施:公共设施:公共厕所",
        "type": 0,
        "location": {
            "lat": 23.904819,
            "lng": 116.704218
        },
        "ad_info": {
            "adcode": 445103,
            "province": "广东省",
            "city": "潮州市",
            "district": "潮安区"
        }
    },
    {
        "id": "18035379989196559974",
        "title": "公共厕所",
        "address": "广东省潮州市湘桥区上东平路与下东平路交叉口东南方向65米左右",
        "tel": "",
        "category": "基础设施:公共设施:公共厕所",
        "type": 0,
        "location": {
            "lat": 23.661742,
            "lng": 116.6517
        },
        "ad_info": {
            "adcode": 445102,
            "province": "广东省",
            "city": "潮州市",
            "district": "湘桥区"
        }
    },
    {
        "id": "1299817303780794348",
        "title": "公共厕所",
        "address": "广东省潮州市潮安区龙湖中路与龙鹳路交叉口西南方向490米左右",
        "tel": "",
        "category": "基础设施:公共设施:公共厕所",
        "type": 0,
        "location": {
            "lat": 23.552524,
            "lng": 116.645398
        },
        "ad_info": {
            "adcode": 445103,
            "province": "广东省",
            "city": "潮州市",
            "district": "潮安区"
        }
    },
    {
        "id": "10663500786883450759",
        "title": "公共厕所",
        "address": "广东省潮州市潮安区人家前路与村前路交叉口正南方向42米左右",
        "tel": "",
        "category": "基础设施:公共设施:公共厕所",
        "type": 0,
        "location": {
            "lat": 23.64334,
            "lng": 116.604283
        },
        "ad_info": {
            "adcode": 445103,
            "province": "广东省",
            "city": "潮州市",
            "district": "潮安区"
        }
    },
    {
        "id": "8059084238977773520",
        "title": "人民广场公共厕所",
        "address": "广东省潮州市湘桥区潮州大道潮州人民广场(西南角)",
        "tel": "",
        "category": "基础设施:公共设施:公共厕所",
        "type": 0,
        "location": {
            "lat": 23.653293,
            "lng": 116.623899
        },
        "ad_info": {
            "adcode": 445102,
            "province": "广东省",
            "city": "潮州市",
            "district": "湘桥区"
        }
    },
    {
        "id": "18064907752713462279",
        "title": "公共厕所",
        "address": "广东省潮州市潮安区S233与古楼路交叉口西南方向353米左右",
        "tel": "",
        "category": "基础设施:公共设施:公共厕所",
        "type": 0,
        "location": {
            "lat": 23.543902,
            "lng": 116.617391
        },
        "ad_info": {
            "adcode": 445103,
            "province": "广东省",
            "city": "潮州市",
            "district": "潮安区"
        }
    },
    {
        "id": "4652229205013695351",
        "title": "公共厕所",
        "address": "广东省潮州市潮安区长美瓜园西路与长美瓜园二横路交叉口北200米",
        "tel": "",
        "category": "基础设施:公共设施:公共厕所",
        "type": 0,
        "location": {
            "lat": 23.653809,
            "lng": 116.589234
        },
        "ad_info": {
            "adcode": 445103,
            "province": "广东省",
            "city": "潮州市",
            "district": "潮安区"
        }
    },
    {
        "id": "11098683539655986773",
        "title": "公共厕所",
        "address": "广东省潮州市潮安区会园路与瓷兴路交叉口正东方向128米左右",
        "tel": "",
        "category": "基础设施:公共设施:公共厕所",
        "type": 0,
        "location": {
            "lat": 23.65386,
            "lng": 116.61166
        },
        "ad_info": {
            "adcode": 445103,
            "province": "广东省",
            "city": "潮州市",
            "district": "潮安区"
        }
    },
    {
        "id": "13163371118808697306",
        "title": "公共厕所",
        "address": "广东省潮州市湘桥区太平路与太昌路交叉口正东方向44米左右",
        "tel": "",
        "category": "基础设施:公共设施:公共厕所",
        "type": 0,
        "location": {
            "lat": 23.665751,
            "lng": 116.650962
        },
        "ad_info": {
            "adcode": 445102,
            "province": "广东省",
            "city": "潮州市",
            "district": "湘桥区"
        }
    },
    {
        "id": "8465911817426090927",
        "title": "公共厕所",
        "address": "广东省潮州市潮安区站前北路与站前大道交叉口西南方向294米左右",
        "tel": "",
        "category": "基础设施:公共设施:公共厕所",
        "type": 0,
        "location": {
            "lat": 23.541445,
            "lng": 116.587689
        },
        "ad_info": {
            "adcode": 445103,
            "province": "广东省",
            "city": "潮州市",
            "district": "潮安区"
        }
    },
    {
        "id": "2097992598835919593",
        "title": "无障碍公共厕所",
        "address": "广东省潮州市湘桥区上东平路与东门街交叉口正南方向39米左右",
        "tel": "",
        "category": "基础设施:公共设施:公共厕所",
        "type": 0,
        "location": {
            "lat": 23.662755,
            "lng": 116.651423
        },
        "ad_info": {
            "adcode": 445102,
            "province": "广东省",
            "city": "潮州市",
            "district": "湘桥区"
        }
    },
    {
        "id": "3730826295308198440",
        "title": "公共厕所",
        "address": "广东省潮州市湘桥区北美路与春荣路辅路交叉口西北方向130米左右",
        "tel": "",
        "category": "基础设施:公共设施:公共厕所",
        "type": 0,
        "location": {
            "lat": 23.677368,
            "lng": 116.644144
        },
        "ad_info": {
            "adcode": 445102,
            "province": "广东省",
            "city": "潮州市",
            "district": "湘桥区"
        }
    },
    {
        "id": "15833950691539834925",
        "title": "公共厕所",
        "address": "广东省潮州市湘桥区中园路与凤园路交叉口正南方向144米左右",
        "tel": "",
        "category": "基础设施:公共设施:公共厕所",
        "type": 0,
        "location": {
            "lat": 23.672527,
            "lng": 116.631503
        },
        "ad_info": {
            "adcode": 445102,
            "province": "广东省",
            "city": "潮州市",
            "district": "湘桥区"
        }
    },
    {
        "id": "7731178850674354012",
        "title": "公共厕所",
        "address": "广东省潮州市潮安区凤安路与古竹公路交叉口正东方向231米左右",
        "tel": "",
        "category": "基础设施:公共设施:公共厕所",
        "type": 0,
        "location": {
            "lat": 23.630888,
            "lng": 116.568308
        },
        "ad_info": {
            "adcode": 445103,
            "province": "广东省",
            "city": "潮州市",
            "district": "潮安区"
        }
    },
    {
        "id": "2465947220193116859",
        "title": "公共厕所",
        "address": "广东省潮州市潮安区如意路与枫凤路交叉口东北方向57米左右",
        "tel": "",
        "category": "基础设施:公共设施:公共厕所",
        "type": 0,
        "location": {
            "lat": 23.622299,
            "lng": 116.58676
        },
        "ad_info": {
            "adcode": 445103,
            "province": "广东省",
            "city": "潮州市",
            "district": "潮安区"
        }
    },
    {
        "id": "17797517344725353279",
        "title": "公共厕所",
        "address": "广东省潮州市湘桥区太平路568号",
        "tel": "",
        "category": "基础设施:公共设施:公共厕所",
        "type": 0,
        "location": {
            "lat": 23.659064,
            "lng": 116.648637
        },
        "ad_info": {
            "adcode": 445102,
            "province": "广东省",
            "city": "潮州市",
            "district": "湘桥区"
        }
    },
    {
        "id": "918475249629873543",
        "title": "公共厕所",
        "address": "广东省潮州市潮安区彩文路潮安人民公园(东北角)",
        "tel": "",
        "category": "基础设施:公共设施:公共厕所",
        "type": 0,
        "location": {
            "lat": 23.467585,
            "lng": 116.67527
        },
        "ad_info": {
            "adcode": 445103,
            "province": "广东省",
            "city": "潮州市",
            "district": "潮安区"
        }
    },
    {
        "id": "4302944385696796460",
        "title": "公共厕所",
        "address": "广东省潮州市潮安区乌南路与潮汕路交叉口正东方向213米左右",
        "tel": "",
        "category": "基础设施:公共设施:公共厕所",
        "type": 0,
        "location": {
            "lat": 23.609306,
            "lng": 116.603183
        },
        "ad_info": {
            "adcode": 445103,
            "province": "广东省",
            "city": "潮州市",
            "district": "潮安区"
        }
    },
    {
        "id": "1096814342399129658",
        "title": "公共厕所",
        "address": "广东省潮州市潮安区村后路北50米",
        "tel": "",
        "category": "基础设施:公共设施:公共厕所",
        "type": 0,
        "location": {
            "lat": 23.610772,
            "lng": 116.62607
        },
        "ad_info": {
            "adcode": 445103,
            "province": "广东省",
            "city": "潮州市",
            "district": "潮安区"
        }
    },
    {
        "id": "13381262129642064855",
        "title": "公共厕所",
        "address": "广东省潮州市潮安区站前大道与进站路交叉口正北方向821米左右",
        "tel": "",
        "category": "基础设施:公共设施:公共厕所",
        "type": 0,
        "location": {
            "lat": 23.553071,
            "lng": 116.589907
        },
        "ad_info": {
            "adcode": 445103,
            "province": "广东省",
            "city": "潮州市",
            "district": "潮安区"
        }
    },
    {
        "id": "13840997372150446078",
        "title": "公共厕所",
        "address": "广东省潮州市饶平县X086与Y536交叉口正东方向967米左右",
        "tel": "",
        "category": "基础设施:公共设施:公共厕所",
        "type": 0,
        "location": {
            "lat": 23.636676,
            "lng": 116.965833
        },
        "ad_info": {
            "adcode": 445122,
            "province": "广东省",
            "city": "潮州市",
            "district": "饶平县"
        }
    },
    {
        "id": "2091691185179135441",
        "title": "公共厕所",
        "address": "广东省潮州市饶平县G228与Y536交叉口正南方向784米左右",
        "tel": "",
        "category": "基础设施:公共设施:公共厕所",
        "type": 0,
        "location": {
            "lat": 23.642266,
            "lng": 116.992221
        },
        "ad_info": {
            "adcode": 445122,
            "province": "广东省",
            "city": "潮州市",
            "district": "饶平县"
        }
    },
    {
        "id": "17150872718867968866",
        "title": "公共厕所",
        "address": "广东省潮州市饶平县浮滨观茶亭南侧120米",
        "tel": "",
        "category": "基础设施:公共设施:公共厕所",
        "type": 0,
        "location": {
            "lat": 23.801984,
            "lng": 116.785301
        },
        "ad_info": {
            "adcode": 445122,
            "province": "广东省",
            "city": "潮州市",
            "district": "饶平县"
        }
    },
    {
        "id": "13080423329037388111",
        "title": "公共厕所",
        "address": "广东省潮州市饶平县惠泽路与沿河南路交叉口正北方向58米左右",
        "tel": "",
        "category": "基础设施:公共设施:公共厕所",
        "type": 0,
        "location": {
            "lat": 23.674078,
            "lng": 116.993304
        },
        "ad_info": {
            "adcode": 445122,
            "province": "广东省",
            "city": "潮州市",
            "district": "饶平县"
        }
    },
    {
        "id": "4572164353604843151",
        "title": "公共厕所",
        "address": "广东省潮州市潮安区小叮当幼儿园(长美长孚路东)",
        "tel": "",
        "category": "基础设施:公共设施:公共厕所",
        "type": 0,
        "location": {
            "lat": 23.669257,
            "lng": 116.588029
        },
        "ad_info": {
            "adcode": 445103,
            "province": "广东省",
            "city": "潮州市",
            "district": "潮安区"
        }
    },
    {
        "id": "3597662591710988405",
        "title": "公共厕所",
        "address": "广东省潮州市潮安区新安大道与新潮汕公路交叉口东南方向212米左右",
        "tel": "",
        "category": "基础设施:公共设施:公共厕所",
        "type": 0,
        "location": {
            "lat": 23.440502,
            "lng": 116.680858
        },
        "ad_info": {
            "adcode": 445103,
            "province": "广东省",
            "city": "潮州市",
            "district": "潮安区"
        }
    },
    {
        "id": "4104174174731636539",
        "title": "公共厕所",
        "address": "广东省潮州市潮安区奕龙路与礼阳郑奕龙路交叉口正东方向737米左右",
        "tel": "",
        "category": "基础设施:公共设施:公共厕所",
        "type": 0,
        "location": {
            "lat": 23.524126,
            "lng": 116.684816
        },
        "ad_info": {
            "adcode": 445103,
            "province": "广东省",
            "city": "潮州市",
            "district": "潮安区"
        }
    },
    {
        "id": "8675042684666556327",
        "title": "公共厕所",
        "address": "广东省潮州市饶平县X087与下浮山大道交叉口西北方向492米左右",
        "tel": "",
        "category": "基础设施:公共设施:公共厕所",
        "type": 0,
        "location": {
            "lat": 23.6821,
            "lng": 116.933523
        },
        "ad_info": {
            "adcode": 445122,
            "province": "广东省",
            "city": "潮州市",
            "district": "饶平县"
        }
    },
    {
        "id": "1135069802952235416",
        "title": "公共厕所",
        "address": "广东省潮州市饶平县潮州助农取款点(农行)东侧170米",
        "tel": "",
        "category": "基础设施:公共设施:公共厕所",
        "type": 0,
        "location": {
            "lat": 23.669982,
            "lng": 116.90113
        },
        "ad_info": {
            "adcode": 445122,
            "province": "广东省",
            "city": "潮州市",
            "district": "饶平县"
        }
    },
    {
        "id": "13818995373092603359",
        "title": "北堤村公共厕所",
        "address": "广东省潮州市湘桥区仙美小学西北侧280米",
        "tel": "",
        "category": "基础设施:公共设施:公共厕所",
        "type": 0,
        "location": {
            "lat": 23.601056,
            "lng": 116.707343
        },
        "ad_info": {
            "adcode": 445102,
            "province": "广东省",
            "city": "潮州市",
            "district": "湘桥区"
        }
    },
    {
        "id": "2206701874098632406",
        "title": "公共厕所",
        "address": "广东省潮州市潮安区大霞路与潮汕路交叉口正北方向278米左右",
        "tel": "",
        "category": "基础设施:公共设施:公共厕所",
        "type": 0,
        "location": {
            "lat": 23.441043,
            "lng": 116.682912
        },
        "ad_info": {
            "adcode": 445103,
            "province": "广东省",
            "city": "潮州市",
            "district": "潮安区"
        }
    },
    {
        "id": "15379921442021663082",
        "title": "公共厕所",
        "address": "广东省潮州市饶平县塘南小学西侧210米",
        "tel": "",
        "category": "基础设施:公共设施:公共厕所",
        "type": 0,
        "location": {
            "lat": 23.70382,
            "lng": 116.945285
        },
        "ad_info": {
            "adcode": 445122,
            "province": "广东省",
            "city": "潮州市",
            "district": "饶平县"
        }
    },
    {
        "id": "18429090092944563711",
        "title": "公共厕所",
        "address": "广东省潮州市潮安区亩三一横与谢厝东前大路交叉口正西方向101米左右",
        "tel": "",
        "category": "基础设施:公共设施:公共厕所",
        "type": 0,
        "location": {
            "lat": 23.629589,
            "lng": 116.612165
        },
        "ad_info": {
            "adcode": 445103,
            "province": "广东省",
            "city": "潮州市",
            "district": "潮安区"
        }
    },
    {
        "id": "10731542836666549378",
        "title": "公共厕所",
        "address": "广东省潮州市潮安区亨利路与新安大道交叉口东南方向159米左右",
        "tel": "",
        "category": "基础设施:公共设施:公共厕所",
        "type": 0,
        "location": {
            "lat": 23.448416,
            "lng": 116.683728
        },
        "ad_info": {
            "adcode": 445103,
            "province": "广东省",
            "city": "潮州市",
            "district": "潮安区"
        }
    },
    {
        "id": "12620933807065179382",
        "title": "公共厕所",
        "address": "广东省潮州市潮安区东青路与古水路交叉口东南方向570米左右",
        "tel": "",
        "category": "基础设施:公共设施:公共厕所",
        "type": 0,
        "location": {
            "lat": 23.669668,
            "lng": 116.572041
        },
        "ad_info": {
            "adcode": 445103,
            "province": "广东省",
            "city": "潮州市",
            "district": "潮安区"
        }
    },
    {
        "id": "8998614165209400467",
        "title": "公共厕所",
        "address": "广东省潮州市潮安区S233与大吴村村南路交叉口西南方向61米左右",
        "tel": "",
        "category": "基础设施:公共设施:公共厕所",
        "type": 0,
        "location": {
            "lat": 23.55327,
            "lng": 116.613084
        },
        "ad_info": {
            "adcode": 445103,
            "province": "广东省",
            "city": "潮州市",
            "district": "潮安区"
        }
    },
    {
        "id": "15172865738492617162",
        "title": "公共厕所",
        "address": "广东省潮州市潮安区龙湖中路与龙鹳路交叉口正北方向354米左右",
        "tel": "",
        "category": "基础设施:公共设施:公共厕所",
        "type": 0,
        "location": {
            "lat": 23.559587,
            "lng": 116.645987
        },
        "ad_info": {
            "adcode": 445103,
            "province": "广东省",
            "city": "潮州市",
            "district": "潮安区"
        }
    },
    {
        "id": "7830622135843685992",
        "title": "公共厕所",
        "address": "广东省潮州市潮安区东青路与古水路交叉口正南方向185米左右",
        "tel": "",
        "category": "基础设施:公共设施:公共厕所",
        "type": 0,
        "location": {
            "lat": 23.670928,
            "lng": 116.567562
        },
        "ad_info": {
            "adcode": 445103,
            "province": "广东省",
            "city": "潮州市",
            "district": "潮安区"
        }
    },
    {
        "id": "1345672277369786119",
        "title": "潮州西湖公共厕所",
        "address": "广东省潮州市湘桥区北园路与环城北路交叉口西北方向169米左右",
        "tel": "",
        "category": "基础设施:公共设施:公共厕所",
        "type": 0,
        "location": {
            "lat": 23.6741,
            "lng": 116.64401
        },
        "ad_info": {
            "adcode": 445102,
            "province": "广东省",
            "city": "潮州市",
            "district": "湘桥区"
        }
    },
    {
        "id": "1898102715505665982",
        "title": "公共厕所",
        "address": "广东省潮州市湘桥区太平路663号牌坊街内",
        "tel": "",
        "category": "基础设施:公共设施:公共厕所",
        "type": 0,
        "location": {
            "lat": 23.667703,
            "lng": 116.650513
        },
        "ad_info": {
            "adcode": 445102,
            "province": "广东省",
            "city": "潮州市",
            "district": "湘桥区"
        }
    },
    {
        "id": "903700159679638401",
        "title": "公共厕所",
        "address": "广东省潮州市饶平县S222与镇区路交叉口东南方向580米左右",
        "tel": "",
        "category": "基础设施:公共设施:公共厕所",
        "type": 0,
        "location": {
            "lat": 23.894842,
            "lng": 116.870804
        },
        "ad_info": {
            "adcode": 445122,
            "province": "广东省",
            "city": "潮州市",
            "district": "饶平县"
        }
    },
    {
        "id": "13905523968456860999",
        "title": "公共厕所",
        "address": "广东省潮州市饶平县宏光饭店西南侧",
        "tel": "",
        "category": "基础设施:公共设施:公共厕所",
        "type": 0,
        "location": {
            "lat": 23.580591,
            "lng": 117.092105
        },
        "ad_info": {
            "adcode": 445122,
            "province": "广东省",
            "city": "潮州市",
            "district": "饶平县"
        }
    },
    {
        "id": "14751775041105391963",
        "title": "公共厕所",
        "address": "广东省潮州市潮安区枫三村综合文化活动中心东北侧210米",
        "tel": "",
        "category": "基础设施:公共设施:公共厕所",
        "type": 0,
        "location": {
            "lat": 23.649406,
            "lng": 116.57543
        },
        "ad_info": {
            "adcode": 445103,
            "province": "广东省",
            "city": "潮州市",
            "district": "潮安区"
        }
    },
    {
        "id": "1889450332230209921",
        "title": "公共厕所",
        "address": "广东省潮州市饶平县X084与溪墘路交叉口正东方向117米左右",
        "tel": "",
        "category": "基础设施:公共设施:公共厕所",
        "type": 0,
        "location": {
            "lat": 23.669092,
            "lng": 116.916405
        },
        "ad_info": {
            "adcode": 445122,
            "province": "广东省",
            "city": "潮州市",
            "district": "饶平县"
        }
    },
    {
        "id": "15361660394021759249",
        "title": "公共厕所",
        "address": "广东省潮州市饶平县中国石油加油站(潮州钱东)北侧230米",
        "tel": "",
        "category": "基础设施:公共设施:公共厕所",
        "type": 0,
        "location": {
            "lat": 23.664595,
            "lng": 116.911155
        },
        "ad_info": {
            "adcode": 445122,
            "province": "广东省",
            "city": "潮州市",
            "district": "饶平县"
        }
    },
    {
        "id": "15442807875895807701",
        "title": "公共厕所",
        "address": "广东省潮州市饶平县农村党员干部现代远程教育终端接收站点(南门)附近",
        "tel": "",
        "category": "基础设施:公共设施:公共厕所",
        "type": 0,
        "location": {
            "lat": 24.044933,
            "lng": 116.943347
        },
        "ad_info": {
            "adcode": 445122,
            "province": "广东省",
            "city": "潮州市",
            "district": "饶平县"
        }
    },
    {
        "id": "8842548414767263808",
        "title": "公共厕所",
        "address": "广东省潮州市湘桥区大新乡北路与潮州大道交叉口西南方向84米左右",
        "tel": "",
        "category": "基础设施:公共设施:公共厕所",
        "type": 0,
        "location": {
            "lat": 23.675665,
            "lng": 116.607055
        },
        "ad_info": {
            "adcode": 445102,
            "province": "广东省",
            "city": "潮州市",
            "district": "湘桥区"
        }
    },
    {
        "id": "5129883944945735755",
        "title": "公共厕所",
        "address": "广东省潮州市潮安区长美四房西路与鳗场路交叉口西南方向919米左右",
        "tel": "",
        "category": "基础设施:公共设施:公共厕所",
        "type": 0,
        "location": {
            "lat": 23.649406,
            "lng": 116.57407
        },
        "ad_info": {
            "adcode": 445103,
            "province": "广东省",
            "city": "潮州市",
            "district": "潮安区"
        }
    },
    {
        "id": "8749385274521499362",
        "title": "公共厕所",
        "address": "广东省潮州市饶平县杰信制网渔具有限公司西南侧250米",
        "tel": "",
        "category": "基础设施:公共设施:公共厕所",
        "type": 0,
        "location": {
            "lat": 23.683832,
            "lng": 116.903866
        },
        "ad_info": {
            "adcode": 445122,
            "province": "广东省",
            "city": "潮州市",
            "district": "饶平县"
        }
    },
    {
        "id": "135072889506187971",
        "title": "潮州服务区公共厕所",
        "address": "广东省潮州市湘桥区潮州服务区(加油站附近)",
        "tel": "",
        "category": "基础设施:公共设施:公共厕所",
        "type": 0,
        "location": {
            "lat": 23.608495,
            "lng": 116.740459
        },
        "ad_info": {
            "adcode": 445102,
            "province": "广东省",
            "city": "潮州市",
            "district": "湘桥区"
        }
    },
    {
        "id": "8817657114828683482",
        "title": "公共厕所",
        "address": "广东省潮州市潮安区潮安大道与金里路交叉口正北方向64米左右",
        "tel": "",
        "category": "基础设施:公共设施:公共厕所",
        "type": 0,
        "location": {
            "lat": 23.460923,
            "lng": 116.677511
        },
        "ad_info": {
            "adcode": 445103,
            "province": "广东省",
            "city": "潮州市",
            "district": "潮安区"
        }
    },
    {
        "id": "10738610800236272443",
        "title": "公共厕所",
        "address": "广东省潮州市潮安区X088与骊一村洪厝路交叉口正东方向184米",
        "tel": "",
        "category": "基础设施:公共设施:公共厕所",
        "type": 0,
        "location": {
            "lat": 23.486673,
            "lng": 116.665587
        },
        "ad_info": {
            "adcode": 445103,
            "province": "广东省",
            "city": "潮州市",
            "district": "潮安区"
        }
    },
    {
        "id": "18252683999186500573",
        "title": "公共厕所",
        "address": "广东省潮州市潮安区S506与仙三迎宾路交叉口东北方向288米左右",
        "tel": "",
        "category": "基础设施:公共设施:公共厕所",
        "type": 0,
        "location": {
            "lat": 23.522632,
            "lng": 116.612171
        },
        "ad_info": {
            "adcode": 445103,
            "province": "广东省",
            "city": "潮州市",
            "district": "潮安区"
        }
    },
    {
        "id": "17042662650602248351",
        "title": "公共厕所",
        "address": "广东省潮州市潮安区池春街与福新二街交叉口正南方向163米左右",
        "tel": "",
        "category": "基础设施:公共设施:公共厕所",
        "type": 0,
        "location": {
            "lat": 23.647827,
            "lng": 116.6223
        },
        "ad_info": {
            "adcode": 445103,
            "province": "广东省",
            "city": "潮州市",
            "district": "潮安区"
        }
    },
    {
        "id": "17786074792141196481",
        "title": "公共厕所",
        "address": "广东省潮州市湘桥区下津路与意东一路交叉口正东方向26米左右",
        "tel": "",
        "category": "基础设施:公共设施:公共厕所",
        "type": 0,
        "location": {
            "lat": 23.671158,
            "lng": 116.663543
        },
        "ad_info": {
            "adcode": 445102,
            "province": "广东省",
            "city": "潮州市",
            "district": "湘桥区"
        }
    },
    {
        "id": "390976778026968649",
        "title": "公共厕所",
        "address": "广东省潮州市潮安区Y319与福兴路交叉口东北方向151米左右",
        "tel": "",
        "category": "基础设施:公共设施:公共厕所",
        "type": 0,
        "location": {
            "lat": 23.54704,
            "lng": 116.670359
        },
        "ad_info": {
            "adcode": 445103,
            "province": "广东省",
            "city": "潮州市",
            "district": "潮安区"
        }
    },
    {
        "id": "6833064409906048544",
        "title": "公共厕所",
        "address": "广东省潮州市潮安区兴工北路与振工西路交叉口西南方向355米左右",
        "tel": "",
        "category": "基础设施:公共设施:公共厕所",
        "type": 0,
        "location": {
            "lat": 23.670465,
            "lng": 116.592518
        },
        "ad_info": {
            "adcode": 445103,
            "province": "广东省",
            "city": "潮州市",
            "district": "潮安区"
        }
    },
    {
        "id": "3944488343522067007",
        "title": "公共厕所",
        "address": "广东省潮州市潮安区Y276与开明路交叉口正西方向542米左右",
        "tel": "",
        "category": "基础设施:公共设施:公共厕所",
        "type": 0,
        "location": {
            "lat": 23.581494,
            "lng": 116.600332
        },
        "ad_info": {
            "adcode": 445103,
            "province": "广东省",
            "city": "潮州市",
            "district": "潮安区"
        }
    },
    {
        "id": "15105205005218689427",
        "title": "潮州服务区第二公共厕所",
        "address": "广东省潮州市湘桥区S231与Y242交叉口正东方向1149米左右",
        "tel": "",
        "category": "基础设施:公共设施:公共厕所",
        "type": 0,
        "location": {
            "lat": 23.608391,
            "lng": 116.74283
        },
        "ad_info": {
            "adcode": 445102,
            "province": "广东省",
            "city": "潮州市",
            "district": "湘桥区"
        }
    },
    {
        "id": "16370892609499028787",
        "title": "旅游厕所",
        "address": "广东省潮州市潮安区彩里路与新安大道交叉口西北方向133米左右",
        "tel": "",
        "category": "基础设施:公共设施:公共厕所",
        "type": 0,
        "location": {
            "lat": 23.500809,
            "lng": 116.651085
        },
        "ad_info": {
            "adcode": 445103,
            "province": "广东省",
            "city": "潮州市",
            "district": "潮安区"
        }
    },
    {
        "id": "10879524806712270494",
        "title": "公共厕所",
        "address": "广东省潮州市潮安区环乡路与趣春路交叉口正南方向980米左右",
        "tel": "",
        "category": "基础设施:公共设施:公共厕所",
        "type": 0,
        "location": {
            "lat": 23.595917,
            "lng": 116.609075
        },
        "ad_info": {
            "adcode": 445103,
            "province": "广东省",
            "city": "潮州市",
            "district": "潮安区"
        }
    },
    {
        "id": "8540027045066238944",
        "title": "公共厕所",
        "address": "广东省潮州市潮安区潮汕路",
        "tel": "",
        "category": "基础设施:公共设施:公共厕所",
        "type": 0,
        "location": {
            "lat": 23.607034,
            "lng": 116.598806
        },
        "ad_info": {
            "adcode": 445103,
            "province": "广东省",
            "city": "潮州市",
            "district": "潮安区"
        }
    },
    {
        "id": "8358597823836242923",
        "title": "麦当劳(潮州新桥东分店)-洗手间",
        "address": "广东省潮州市湘桥区新桥东路南片1,3,5号商铺首,二层",
        "tel": "",
        "category": "基础设施:公共设施:公共厕所",
        "type": 0,
        "location": {
            "lat": 23.662813,
            "lng": 116.643165
        },
        "ad_info": {
            "adcode": 445102,
            "province": "广东省",
            "city": "潮州市",
            "district": "湘桥区"
        }
    },
    {
        "id": "2263455016261507635",
        "title": "公共厕所",
        "address": "广东省潮州市饶平县丁未路与中山路交叉口西北方向159米左右",
        "tel": "",
        "category": "基础设施:公共设施:公共厕所",
        "type": 0,
        "location": {
            "lat": 23.670411,
            "lng": 116.999119
        },
        "ad_info": {
            "adcode": 445122,
            "province": "广东省",
            "city": "潮州市",
            "district": "饶平县"
        }
    },
    {
        "id": "14108313033697592684",
        "title": "潮州服务区第二公共厕所",
        "address": "广东省潮州市湘桥区S231与Y242交叉口正东方向1126米左右",
        "tel": "",
        "category": "基础设施:公共设施:公共厕所",
        "type": 0,
        "location": {
            "lat": 23.608999,
            "lng": 116.742698
        },
        "ad_info": {
            "adcode": 445102,
            "province": "广东省",
            "city": "潮州市",
            "district": "湘桥区"
        }
    },
    {
        "id": "3838337882430536797",
        "title": "白塔公共厕所",
        "address": "广东省潮州市潮安区白塔田埔路与白塔田墘路交叉口西南方向103米左右",
        "tel": "",
        "category": "基础设施:公共设施:公共厕所",
        "type": 0,
        "location": {
            "lat": 23.631468,
            "lng": 116.59814
        },
        "ad_info": {
            "adcode": 445103,
            "province": "广东省",
            "city": "潮州市",
            "district": "潮安区"
        }
    },
    {
        "id": "4558290465380273298",
        "title": "公共厕所",
        "address": "广东省潮州市饶平县丁未路与环城路交叉口正北方向78米左右",
        "tel": "",
        "category": "基础设施:公共设施:公共厕所",
        "type": 0,
        "location": {
            "lat": 23.672988,
            "lng": 116.998982
        },
        "ad_info": {
            "adcode": 445122,
            "province": "广东省",
            "city": "潮州市",
            "district": "饶平县"
        }
    },
    {
        "id": "6517504219584798927",
        "title": "旅游公共厕所",
        "address": "广东省潮州市潮安区S231中国石化广东潮州潮安文祠加油站",
        "tel": "",
        "category": "基础设施:公共设施:公共厕所",
        "type": 0,
        "location": {
            "lat": 23.746471,
            "lng": 116.681835
        },
        "ad_info": {
            "adcode": 445103,
            "province": "广东省",
            "city": "潮州市",
            "district": "潮安区"
        }
    },
    {
        "id": "6968815444941944352",
        "title": "小葫芦村半坑公共厕所",
        "address": "广东省潮州市潮安区登塘镇小葫芦村半坑",
        "tel": "",
        "category": "基础设施:公共设施:公共厕所",
        "type": 0,
        "location": {
            "lat": 23.749761,
            "lng": 116.413157
        },
        "ad_info": {
            "adcode": 445103,
            "province": "广东省",
            "city": "潮州市",
            "district": "潮安区"
        }
    },
    {
        "id": "9445298638110880185",
        "title": "无障碍公共厕所",
        "address": "广东省潮州市潮安区石桥头路与长德路交叉口正南方向154米左右",
        "tel": "",
        "category": "基础设施:公共设施:公共厕所",
        "type": 0,
        "location": {
            "lat": 23.650181,
            "lng": 116.60276
        },
        "ad_info": {
            "adcode": 445103,
            "province": "广东省",
            "city": "潮州市",
            "district": "潮安区"
        }
    },
    {
        "id": "3285774703192405754",
        "title": "公共厕所",
        "address": "广东省潮州市湘桥区中横路与松荫片区巷交叉口东北方向1122米左右",
        "tel": "",
        "category": "基础设施:公共设施:公共厕所",
        "type": 0,
        "location": {
            "lat": 23.595882,
            "lng": 116.693638
        },
        "ad_info": {
            "adcode": 445102,
            "province": "广东省",
            "city": "潮州市",
            "district": "湘桥区"
        }
    },
    {
        "id": "17845392816062144174",
        "title": "公共厕所",
        "address": "广东省潮州市潮安区鳗场路(南)二横与鳗场路交叉口东南220米",
        "tel": "",
        "category": "基础设施:公共设施:公共厕所",
        "type": 0,
        "location": {
            "lat": 23.642972,
            "lng": 116.594705
        },
        "ad_info": {
            "adcode": 445103,
            "province": "广东省",
            "city": "潮州市",
            "district": "潮安区"
        }
    },
    {
        "id": "2847244645145735028",
        "title": "公共厕所",
        "address": "广东省潮州市湘桥区东兴南路与卧石路交叉口正东方向35米左右",
        "tel": "",
        "category": "基础设施:公共设施:公共厕所",
        "type": 0,
        "location": {
            "lat": 23.660522,
            "lng": 116.658492
        },
        "ad_info": {
            "adcode": 445102,
            "province": "广东省",
            "city": "潮州市",
            "district": "湘桥区"
        }
    },
    {
        "id": "11131460714101712324",
        "title": "公共厕所",
        "address": "广东省潮州市潮安区Y309与东直路交叉口正东方向153米左右",
        "tel": "",
        "category": "基础设施:公共设施:公共厕所",
        "type": 0,
        "location": {
            "lat": 23.60511,
            "lng": 116.663644
        },
        "ad_info": {
            "adcode": 445103,
            "province": "广东省",
            "city": "潮州市",
            "district": "潮安区"
        }
    },
    {
        "id": "11605021857425892634",
        "title": "公共厕所",
        "address": "广东省潮州市湘桥区南春路361号",
        "tel": "",
        "category": "基础设施:公共设施:公共厕所",
        "type": 0,
        "location": {
            "lat": 23.649301,
            "lng": 116.641342
        },
        "ad_info": {
            "adcode": 445102,
            "province": "广东省",
            "city": "潮州市",
            "district": "湘桥区"
        }
    },
    {
        "id": "8850946311902693130",
        "title": "公共厕所",
        "address": "广东省潮州市湘桥区南堤路韩景园",
        "tel": "",
        "category": "基础设施:公共设施:公共厕所",
        "type": 0,
        "location": {
            "lat": 23.654002,
            "lng": 116.647098
        },
        "ad_info": {
            "adcode": 445102,
            "province": "广东省",
            "city": "潮州市",
            "district": "湘桥区"
        }
    },
    {
        "id": "3285324619932421204",
        "title": "公共厕所",
        "address": "广东省潮州市湘桥区六亩小学东南侧120米",
        "tel": "",
        "category": "基础设施:公共设施:公共厕所",
        "type": 0,
        "location": {
            "lat": 23.656825,
            "lng": 116.700703
        },
        "ad_info": {
            "adcode": 445102,
            "province": "广东省",
            "city": "潮州市",
            "district": "湘桥区"
        }
    },
    {
        "id": "1129425342027871716",
        "title": "公共厕所",
        "address": "广东省潮州市潮安区长美四房西路与鳗场路交叉口西南方向870米左右",
        "tel": "",
        "category": "基础设施:公共设施:公共厕所",
        "type": 0,
        "location": {
            "lat": 23.649419,
            "lng": 116.574641
        },
        "ad_info": {
            "adcode": 445103,
            "province": "广东省",
            "city": "潮州市",
            "district": "潮安区"
        }
    },
    {
        "id": "1633365817484972011",
        "title": "公共厕所",
        "address": "广东省潮州市潮安区枫四雅惠购物东侧",
        "tel": "",
        "category": "基础设施:公共设施:公共厕所",
        "type": 0,
        "location": {
            "lat": 23.650946,
            "lng": 116.5786
        },
        "ad_info": {
            "adcode": 445103,
            "province": "广东省",
            "city": "潮州市",
            "district": "潮安区"
        }
    },
    {
        "id": "16494892671747738332",
        "title": "公共厕所",
        "address": "广东省潮州市潮安区东门东兴路与振东三路交叉口正南方向131米左右",
        "tel": "",
        "category": "基础设施:公共设施:公共厕所",
        "type": 0,
        "location": {
            "lat": 23.623013,
            "lng": 116.574117
        },
        "ad_info": {
            "adcode": 445103,
            "province": "广东省",
            "city": "潮州市",
            "district": "潮安区"
        }
    },
    {
        "id": "14396841937806628632",
        "title": "公共厕所",
        "address": "广东省潮州市潮安区古板头新渠路与龙秋下路交叉口西南方向28米左右",
        "tel": "",
        "category": "基础设施:公共设施:公共厕所",
        "type": 0,
        "location": {
            "lat": 23.636004,
            "lng": 116.609521
        },
        "ad_info": {
            "adcode": 445103,
            "province": "广东省",
            "city": "潮州市",
            "district": "潮安区"
        }
    },
    {
        "id": "11919837921448794902",
        "title": "旅游公共厕所",
        "address": "广东省潮州市湘桥区头社路与莲云路交叉口东北方向16米左右",
        "tel": "",
        "category": "基础设施:公共设施:公共厕所",
        "type": 0,
        "location": {
            "lat": 23.669433,
            "lng": 116.609912
        },
        "ad_info": {
            "adcode": 445102,
            "province": "广东省",
            "city": "潮州市",
            "district": "湘桥区"
        }
    },
    {
        "id": "3623811402482666051",
        "title": "公共厕所",
        "address": "广东省潮州市湘桥区南较西路与新春路交叉口正南方向206米左右",
        "tel": "",
        "category": "基础设施:公共设施:公共厕所",
        "type": 0,
        "location": {
            "lat": 23.646301,
            "lng": 116.633247
        },
        "ad_info": {
            "adcode": 445102,
            "province": "广东省",
            "city": "潮州市",
            "district": "湘桥区"
        }
    },
    {
        "id": "6726784533123781532",
        "title": "公共厕所",
        "address": "广东省潮州市潮安区古水路与福枫路交叉口正西方向172米左右",
        "tel": "",
        "category": "基础设施:公共设施:公共厕所",
        "type": 0,
        "location": {
            "lat": 23.668464,
            "lng": 116.577303
        },
        "ad_info": {
            "adcode": 445103,
            "province": "广东省",
            "city": "潮州市",
            "district": "潮安区"
        }
    },
    {
        "id": "2384089683712273724",
        "title": "公共厕所",
        "address": "广东省潮州市潮安区三涵路与潮汕路辅路交叉口西南方向27米左右",
        "tel": "",
        "category": "基础设施:公共设施:公共厕所",
        "type": 0,
        "location": {
            "lat": 23.639831,
            "lng": 116.606266
        },
        "ad_info": {
            "adcode": 445103,
            "province": "广东省",
            "city": "潮州市",
            "district": "潮安区"
        }
    },
    {
        "id": "3275478040970498565",
        "title": "公共厕所",
        "address": "广东省潮州市潮安区大堀池路与长美长孚路交叉口正西方向215米左右",
        "tel": "",
        "category": "基础设施:公共设施:公共厕所",
        "type": 0,
        "location": {
            "lat": 23.665202,
            "lng": 116.586509
        },
        "ad_info": {
            "adcode": 445103,
            "province": "广东省",
            "city": "潮州市",
            "district": "潮安区"
        }
    },
    {
        "id": "6655019547741736101",
        "title": "公共厕所",
        "address": "广东省潮州市饶平县丁未路与环城路交叉口东北方向295米左右",
        "tel": "",
        "category": "基础设施:公共设施:公共厕所",
        "type": 0,
        "location": {
            "lat": 23.673819,
            "lng": 117.001105
        },
        "ad_info": {
            "adcode": 445122,
            "province": "广东省",
            "city": "潮州市",
            "district": "饶平县"
        }
    },
    {
        "id": "17845625043206552686",
        "title": "公共厕所",
        "address": "广东省潮州市潮安区三元塔东南侧",
        "tel": "",
        "category": "基础设施:公共设施:公共厕所",
        "type": 0,
        "location": {
            "lat": 23.590388,
            "lng": 116.688237
        },
        "ad_info": {
            "adcode": 445103,
            "province": "广东省",
            "city": "潮州市",
            "district": "潮安区"
        }
    },
    {
        "id": "5524036100417052818",
        "title": "公共厕所",
        "address": "广东省潮州市潮安区东青路与外环北路交叉口正东方向921米左右",
        "tel": "",
        "category": "基础设施:公共设施:公共厕所",
        "type": 0,
        "location": {
            "lat": 23.686801,
            "lng": 116.572429
        },
        "ad_info": {
            "adcode": 445103,
            "province": "广东省",
            "city": "潮州市",
            "district": "潮安区"
        }
    },
    {
        "id": "15923477704661524574",
        "title": "公共厕所",
        "address": "广东省潮州市湘桥区S502与凤东路交叉口正西方向1663米左右",
        "tel": "",
        "category": "基础设施:公共设施:公共厕所",
        "type": 0,
        "location": {
            "lat": 23.613388,
            "lng": 116.759373
        },
        "ad_info": {
            "adcode": 445102,
            "province": "广东省",
            "city": "潮州市",
            "district": "湘桥区"
        }
    },
    {
        "id": "3240584487358698688",
        "title": "女洗手间",
        "address": "广东省潮州市潮安区东陇小学东侧140米",
        "tel": "",
        "category": "基础设施:公共设施:公共厕所",
        "type": 0,
        "location": {
            "lat": 23.568721,
            "lng": 116.596188
        },
        "ad_info": {
            "adcode": 445103,
            "province": "广东省",
            "city": "潮州市",
            "district": "潮安区"
        }
    },
    {
        "id": "14539669155160808338",
        "title": "公共厕所",
        "address": "广东省潮州市潮安区艺能幼儿园(堤头村道西)",
        "tel": "",
        "category": "基础设施:公共设施:公共厕所",
        "type": 0,
        "location": {
            "lat": 23.631414,
            "lng": 116.620332
        },
        "ad_info": {
            "adcode": 445103,
            "province": "广东省",
            "city": "潮州市",
            "district": "潮安区"
        }
    },
    {
        "id": "9412891887694798115",
        "title": "公共厕所",
        "address": "广东省潮州市饶平县王氏祖祠东侧100米",
        "tel": "",
        "category": "基础设施:公共设施:公共厕所",
        "type": 0,
        "location": {
            "lat": 23.773956,
            "lng": 116.90533
        },
        "ad_info": {
            "adcode": 445122,
            "province": "广东省",
            "city": "潮州市",
            "district": "饶平县"
        }
    },
    {
        "id": "10009082597284802522",
        "title": "公共厕所",
        "address": "广东省潮州市饶平县粤平自选(福佳商场北)",
        "tel": "",
        "category": "基础设施:公共设施:公共厕所",
        "type": 0,
        "location": {
            "lat": 23.669005,
            "lng": 117.004856
        },
        "ad_info": {
            "adcode": 445122,
            "province": "广东省",
            "city": "潮州市",
            "district": "饶平县"
        }
    },
    {
        "id": "9148725136017184205",
        "title": "公共厕所",
        "address": "广东省潮州市湘桥区南堤路与潮州大道交叉口东北方向270米左右",
        "tel": "",
        "category": "基础设施:公共设施:公共厕所",
        "type": 0,
        "location": {
            "lat": 23.643857,
            "lng": 116.634489
        },
        "ad_info": {
            "adcode": 445102,
            "province": "广东省",
            "city": "潮州市",
            "district": "湘桥区"
        }
    },
    {
        "id": "10277688467259267482",
        "title": "公共厕所",
        "address": "广东省潮州市潮安区池湖安南官路与池湖路交叉口东北方向92米左右",
        "tel": "",
        "category": "基础设施:公共设施:公共厕所",
        "type": 0,
        "location": {
            "lat": 23.639078,
            "lng": 116.626452
        },
        "ad_info": {
            "adcode": 445103,
            "province": "广东省",
            "city": "潮州市",
            "district": "潮安区"
        }
    },
    {
        "id": "662290569388016824",
        "title": "公共厕所",
        "address": "广东省潮州市湘桥区开元路a幢-25号",
        "tel": "",
        "category": "基础设施:公共设施:公共厕所",
        "type": 0,
        "location": {
            "lat": 23.662199,
            "lng": 116.64793
        },
        "ad_info": {
            "adcode": 445102,
            "province": "广东省",
            "city": "潮州市",
            "district": "湘桥区"
        }
    },
    {
        "id": "6722645285456251590",
        "title": "公共厕所",
        "address": "广东省潮州市潮安区X072与甬莞高速交叉口西南方向1067米左右",
        "tel": "",
        "category": "基础设施:公共设施:公共厕所",
        "type": 0,
        "location": {
            "lat": 23.740252,
            "lng": 116.643175
        },
        "ad_info": {
            "adcode": 445103,
            "province": "广东省",
            "city": "潮州市",
            "district": "潮安区"
        }
    },
    {
        "id": "17461913843148613802",
        "title": "无障碍公共厕所",
        "address": "广东省潮州市湘桥区新桥路与西新路交叉口东北方向169米左右",
        "tel": "",
        "category": "基础设施:公共设施:公共厕所",
        "type": 0,
        "location": {
            "lat": 23.663321,
            "lng": 116.641342
        },
        "ad_info": {
            "adcode": 445102,
            "province": "广东省",
            "city": "潮州市",
            "district": "湘桥区"
        }
    },
    {
        "id": "651574593181006982",
        "title": "公共厕所",
        "address": "广东省潮州市湘桥区卫星一路与卫星二路交叉口正北方向19米左右",
        "tel": "",
        "category": "基础设施:公共设施:公共厕所",
        "type": 0,
        "location": {
            "lat": 23.667301,
            "lng": 116.651657
        },
        "ad_info": {
            "adcode": 445102,
            "province": "广东省",
            "city": "潮州市",
            "district": "湘桥区"
        }
    },
    {
        "id": "1118650094395909787",
        "title": "公共厕所",
        "address": "广东省潮州市潮安区潮漳高速",
        "tel": "",
        "category": "基础设施:公共设施:公共厕所",
        "type": 0,
        "location": {
            "lat": 23.709178,
            "lng": 116.547294
        },
        "ad_info": {
            "adcode": 445103,
            "province": "广东省",
            "city": "潮州市",
            "district": "潮安区"
        }
    },
    {
        "id": "630153424458964088",
        "title": "潮州西湖公共厕所",
        "address": "广东省潮州市湘桥区环城西路潮州西湖(东南角)",
        "tel": "",
        "category": "基础设施:公共设施:公共厕所",
        "type": 0,
        "location": {
            "lat": 23.670392,
            "lng": 116.642763
        },
        "ad_info": {
            "adcode": 445102,
            "province": "广东省",
            "city": "潮州市",
            "district": "湘桥区"
        }
    },
    {
        "id": "12389085397396498693",
        "title": "公共厕所",
        "address": "广东省潮州市湘桥区太平路663号牌坊街内",
        "tel": "",
        "category": "基础设施:公共设施:公共厕所",
        "type": 0,
        "location": {
            "lat": 23.660401,
            "lng": 116.647006
        },
        "ad_info": {
            "adcode": 445102,
            "province": "广东省",
            "city": "潮州市",
            "district": "湘桥区"
        }
    },
    {
        "id": "4900127622107607856",
        "title": "公共厕所",
        "address": "广东省潮州市潮安区南区二横与南区直路交叉口正东方向289米左右",
        "tel": "",
        "category": "基础设施:公共设施:公共厕所",
        "type": 0,
        "location": {
            "lat": 23.630524,
            "lng": 116.610244
        },
        "ad_info": {
            "adcode": 445103,
            "province": "广东省",
            "city": "潮州市",
            "district": "潮安区"
        }
    },
    {
        "id": "9610288059836126404",
        "title": "公共厕所",
        "address": "广东省潮州市潮安区城南路与安南路交叉口西北方向57米左右",
        "tel": "",
        "category": "基础设施:公共设施:公共厕所",
        "type": 0,
        "location": {
            "lat": 23.459933,
            "lng": 116.681866
        },
        "ad_info": {
            "adcode": 445103,
            "province": "广东省",
            "city": "潮州市",
            "district": "潮安区"
        }
    },
    {
        "id": "12383190714587163588",
        "title": "公共厕所",
        "address": "广东省潮州市潮安区塘东村卫生站西南侧270米",
        "tel": "",
        "category": "基础设施:公共设施:公共厕所",
        "type": 0,
        "location": {
            "lat": 23.58036,
            "lng": 116.627216
        },
        "ad_info": {
            "adcode": 445103,
            "province": "广东省",
            "city": "潮州市",
            "district": "潮安区"
        }
    },
    {
        "id": "16474285231391288048",
        "title": "公共厕所",
        "address": "广东省潮州市饶平县G355与Y445交叉口东北方向568米左右",
        "tel": "",
        "category": "基础设施:公共设施:公共厕所",
        "type": 0,
        "location": {
            "lat": 23.974751,
            "lng": 116.828276
        },
        "ad_info": {
            "adcode": 445122,
            "province": "广东省",
            "city": "潮州市",
            "district": "饶平县"
        }
    },
    {
        "id": "16351669480615363706",
        "title": "公共厕所",
        "address": "广东省潮州市潮安区池湖一村东路与福新二街交叉口西南方向297米左右",
        "tel": "",
        "category": "基础设施:公共设施:公共厕所",
        "type": 0,
        "location": {
            "lat": 23.646517,
            "lng": 116.621393
        },
        "ad_info": {
            "adcode": 445103,
            "province": "广东省",
            "city": "潮州市",
            "district": "潮安区"
        }
    },
    {
        "id": "6800022632227263066",
        "title": "旅游公共厕所",
        "address": "广东省潮州市饶平县G228与X081交叉口正北方向303米左右",
        "tel": "",
        "category": "基础设施:公共设施:公共厕所",
        "type": 0,
        "location": {
            "lat": 23.665555,
            "lng": 117.051926
        },
        "ad_info": {
            "adcode": 445122,
            "province": "广东省",
            "city": "潮州市",
            "district": "饶平县"
        }
    },
    {
        "id": "16967370589309274539",
        "title": "公共厕所",
        "address": "广东省潮州市湘桥区金山中学宿舍(北马路东)",
        "tel": "",
        "category": "基础设施:公共设施:公共厕所",
        "type": 0,
        "location": {
            "lat": 23.672605,
            "lng": 116.648681
        },
        "ad_info": {
            "adcode": 445102,
            "province": "广东省",
            "city": "潮州市",
            "district": "湘桥区"
        }
    },
    {
        "id": "4948436795706442068",
        "title": "公共厕所",
        "address": "广东省潮州市潮安区S233与龙鹳路交叉口东北方向471米左右",
        "tel": "",
        "category": "基础设施:公共设施:公共厕所",
        "type": 0,
        "location": {
            "lat": 23.547505,
            "lng": 116.62456
        },
        "ad_info": {
            "adcode": 445103,
            "province": "广东省",
            "city": "潮州市",
            "district": "潮安区"
        }
    },
    {
        "id": "6252868598753725400",
        "title": "公共厕所",
        "address": "广东省潮州市潮安区东直路与振煌路交叉口西南方向377米左右",
        "tel": "",
        "category": "基础设施:公共设施:公共厕所",
        "type": 0,
        "location": {
            "lat": 23.58466,
            "lng": 116.67053
        },
        "ad_info": {
            "adcode": 445103,
            "province": "广东省",
            "city": "潮州市",
            "district": "潮安区"
        }
    },
    {
        "id": "756162174905222654",
        "title": "旅游公共厕所",
        "address": "广东省潮州市饶平县樟园山庄东侧120米",
        "tel": "",
        "category": "基础设施:公共设施:公共厕所",
        "type": 0,
        "location": {
            "lat": 23.70592,
            "lng": 116.864828
        },
        "ad_info": {
            "adcode": 445122,
            "province": "广东省",
            "city": "潮州市",
            "district": "饶平县"
        }
    },
    {
        "id": "11445199076714217439",
        "title": "公共厕所",
        "address": "广东省潮州市湘桥区灰荣村古寨西侧150米",
        "tel": "",
        "category": "基础设施:公共设施:公共厕所",
        "type": 0,
        "location": {
            "lat": 23.610452,
            "lng": 116.756265
        },
        "ad_info": {
            "adcode": 445102,
            "province": "广东省",
            "city": "潮州市",
            "district": "湘桥区"
        }
    },
    {
        "id": "10255213214140613832",
        "title": "公共厕所",
        "address": "广东省潮州市湘桥区东兴南路与卧石路交叉口东北方向80米左右",
        "tel": "",
        "category": "基础设施:公共设施:公共厕所",
        "type": 0,
        "location": {
            "lat": 23.660995,
            "lng": 116.658647
        },
        "ad_info": {
            "adcode": 445102,
            "province": "广东省",
            "city": "潮州市",
            "district": "湘桥区"
        }
    },
    {
        "id": "6267308514941660617",
        "title": "公共厕所",
        "address": "广东省潮州市潮安区凤塘镇池樟公路洪巷村北侧(顺源加油站内)",
        "tel": "",
        "category": "基础设施:公共设施:公共厕所",
        "type": 0,
        "location": {
            "lat": 23.618457,
            "lng": 116.534429
        },
        "ad_info": {
            "adcode": 445103,
            "province": "广东省",
            "city": "潮州市",
            "district": "潮安区"
        }
    },
    {
        "id": "13913133886919410698",
        "title": "公共厕所",
        "address": "广东省潮州市湘桥区Y249与凤东路交叉口东南方向1197米左右",
        "tel": "",
        "category": "基础设施:公共设施:公共厕所",
        "type": 0,
        "location": {
            "lat": 23.654775,
            "lng": 116.724506
        },
        "ad_info": {
            "adcode": 445102,
            "province": "广东省",
            "city": "潮州市",
            "district": "湘桥区"
        }
    },
    {
        "id": "16376169592643609990",
        "title": "公共厕所",
        "address": "广东省潮州市潮安区下阁洲南路与下阁洲西路交叉口东北方向445米左右",
        "tel": "",
        "category": "基础设施:公共设施:公共厕所",
        "type": 0,
        "location": {
            "lat": 23.572779,
            "lng": 116.645746
        },
        "ad_info": {
            "adcode": 445103,
            "province": "广东省",
            "city": "潮州市",
            "district": "潮安区"
        }
    },
    {
        "id": "11695525414081377419",
        "title": "公共厕所",
        "address": "广东省潮州市饶平县钱东镇万山红农场绿岛旅游区绿泉酒店1楼",
        "tel": "",
        "category": "基础设施:公共设施:公共厕所",
        "type": 0,
        "location": {
            "lat": 23.696677,
            "lng": 116.869759
        },
        "ad_info": {
            "adcode": 445122,
            "province": "广东省",
            "city": "潮州市",
            "district": "饶平县"
        }
    },
    {
        "id": "15399137809153361628",
        "title": "公共厕所",
        "address": "广东省潮州市饶平县X086与进站路交叉口正南方向797米左右",
        "tel": "",
        "category": "基础设施:公共设施:公共厕所",
        "type": 0,
        "location": {
            "lat": 23.674281,
            "lng": 116.922784
        },
        "ad_info": {
            "adcode": 445122,
            "province": "广东省",
            "city": "潮州市",
            "district": "饶平县"
        }
    },
    {
        "id": "17231081733094018104",
        "title": "公共厕所",
        "address": "广东省潮州市饶平县324国道与502省道交叉口东北480米",
        "tel": "",
        "category": "基础设施:公共设施:公共厕所",
        "type": 0,
        "location": {
            "lat": 23.671264,
            "lng": 117.067531
        },
        "ad_info": {
            "adcode": 445122,
            "province": "广东省",
            "city": "潮州市",
            "district": "饶平县"
        }
    },
    {
        "id": "10013389556798443444",
        "title": "旅游公共厕所",
        "address": "广东省潮州市潮安区石湖避暑山庄西侧260米",
        "tel": "",
        "category": "基础设施:公共设施:公共厕所",
        "type": 0,
        "location": {
            "lat": 23.943871,
            "lng": 116.661807
        },
        "ad_info": {
            "adcode": 445103,
            "province": "广东省",
            "city": "潮州市",
            "district": "潮安区"
        }
    },
    {
        "id": "14789623028884333539",
        "title": "公共厕所",
        "address": "广东省潮州市潮安区陈克坤门诊室北侧80米",
        "tel": "",
        "category": "基础设施:公共设施:公共厕所",
        "type": 0,
        "location": {
            "lat": 23.669419,
            "lng": 116.566669
        },
        "ad_info": {
            "adcode": 445103,
            "province": "广东省",
            "city": "潮州市",
            "district": "潮安区"
        }
    },
    {
        "id": "5952608821050497108",
        "title": "公共厕所",
        "address": "广东省潮州市饶平县顶宫新路与黄冈大道交叉口东北方向71米左右",
        "tel": "",
        "category": "基础设施:公共设施:公共厕所",
        "type": 0,
        "location": {
            "lat": 23.67485,
            "lng": 117.00823
        },
        "ad_info": {
            "adcode": 445122,
            "province": "广东省",
            "city": "潮州市",
            "district": "饶平县"
        }
    },
    {
        "id": "1141337308296545299",
        "title": "公共厕所",
        "address": "广东省潮州市湘桥区塘边华侨学校东南侧230米",
        "tel": "",
        "category": "基础设施:公共设施:公共厕所",
        "type": 0,
        "location": {
            "lat": 23.630663,
            "lng": 116.674699
        },
        "ad_info": {
            "adcode": 445102,
            "province": "广东省",
            "city": "潮州市",
            "district": "湘桥区"
        }
    },
    {
        "id": "18073745498561386502",
        "title": "公共厕所",
        "address": "广东省潮州市湘桥区云梯环村路与泰安路交叉口东南180米",
        "tel": "",
        "category": "基础设施:公共设施:公共厕所",
        "type": 0,
        "location": {
            "lat": 23.660835,
            "lng": 116.614212
        },
        "ad_info": {
            "adcode": 445102,
            "province": "广东省",
            "city": "潮州市",
            "district": "湘桥区"
        }
    },
    {
        "id": "5319560694690590188",
        "title": "公共厕所",
        "address": "广东省潮州市湘桥区下寺新园(南堤路北)",
        "tel": "",
        "category": "基础设施:公共设施:公共厕所",
        "type": 0,
        "location": {
            "lat": 23.646296,
            "lng": 116.636351
        },
        "ad_info": {
            "adcode": 445102,
            "province": "广东省",
            "city": "潮州市",
            "district": "湘桥区"
        }
    },
    {
        "id": "18080074534338628821",
        "title": "公共厕所",
        "address": "广东省潮州市湘桥区老四家纺东侧230米",
        "tel": "",
        "category": "基础设施:公共设施:公共厕所",
        "type": 0,
        "location": {
            "lat": 23.64206,
            "lng": 116.709691
        },
        "ad_info": {
            "adcode": 445102,
            "province": "广东省",
            "city": "潮州市",
            "district": "湘桥区"
        }
    },
    {
        "id": "1428928563473811482",
        "title": "公共厕所",
        "address": "广东省潮州市饶平县X087与下浮山大道交叉口正南方向398米左右",
        "tel": "",
        "category": "基础设施:公共设施:公共厕所",
        "type": 0,
        "location": {
            "lat": 23.674579,
            "lng": 116.934654
        },
        "ad_info": {
            "adcode": 445122,
            "province": "广东省",
            "city": "潮州市",
            "district": "饶平县"
        }
    },
    {
        "id": "17072268789901744996",
        "title": "公共厕所",
        "address": "广东省潮州市湘桥区东兴南路与东山路交叉口正东方向224米左右",
        "tel": "",
        "category": "基础设施:公共设施:公共厕所",
        "type": 0,
        "location": {
            "lat": 23.651491,
            "lng": 116.660578
        },
        "ad_info": {
            "adcode": 445102,
            "province": "广东省",
            "city": "潮州市",
            "district": "湘桥区"
        }
    },
    {
        "id": "3430086588258369960",
        "title": "公共厕所",
        "address": "广东省潮州市饶平县紫云学校北侧140米",
        "tel": "",
        "category": "基础设施:公共设施:公共厕所",
        "type": 0,
        "location": {
            "lat": 23.67121,
            "lng": 116.920366
        },
        "ad_info": {
            "adcode": 445122,
            "province": "广东省",
            "city": "潮州市",
            "district": "饶平县"
        }
    },
    {
        "id": "5353579726299686994",
        "title": "公共厕所",
        "address": "广东省潮州市饶平县大衙路与环城路交叉口西南方向141米左右",
        "tel": "",
        "category": "基础设施:公共设施:公共厕所",
        "type": 0,
        "location": {
            "lat": 23.671092,
            "lng": 117.00386
        },
        "ad_info": {
            "adcode": 445122,
            "province": "广东省",
            "city": "潮州市",
            "district": "饶平县"
        }
    },
    {
        "id": "16211146744122770054",
        "title": "公共厕所",
        "address": "广东省潮州市潮安区塔下桥东路与金和路交叉口正西方向676米左右",
        "tel": "",
        "category": "基础设施:公共设施:公共厕所",
        "type": 0,
        "location": {
            "lat": 23.513928,
            "lng": 116.603723
        },
        "ad_info": {
            "adcode": 445103,
            "province": "广东省",
            "city": "潮州市",
            "district": "潮安区"
        }
    },
    {
        "id": "6914906148197827648",
        "title": "公共厕所",
        "address": "广东省潮州市潮安区大堀池路与长美长孚路交叉口正东方向127米左右",
        "tel": "",
        "category": "基础设施:公共设施:公共厕所",
        "type": 0,
        "location": {
            "lat": 23.664461,
            "lng": 116.58977
        },
        "ad_info": {
            "adcode": 445103,
            "province": "广东省",
            "city": "潮州市",
            "district": "潮安区"
        }
    },
    {
        "id": "11347522681357793196",
        "title": "无障碍公共厕所",
        "address": "广东省潮州市湘桥区开元路与新桥路交叉口西南方向64米左右",
        "tel": "",
        "category": "基础设施:公共设施:公共厕所",
        "type": 0,
        "location": {
            "lat": 23.662746,
            "lng": 116.642812
        },
        "ad_info": {
            "adcode": 445102,
            "province": "广东省",
            "city": "潮州市",
            "district": "湘桥区"
        }
    },
    {
        "id": "1105069946345399203",
        "title": "公共厕所",
        "address": "广东省潮州市潮安区Y266与玉湖路交叉口东南方向743米左右",
        "tel": "",
        "category": "基础设施:公共设施:公共厕所",
        "type": 0,
        "location": {
            "lat": 23.608846,
            "lng": 116.569604
        },
        "ad_info": {
            "adcode": 445103,
            "province": "广东省",
            "city": "潮州市",
            "district": "潮安区"
        }
    },
    {
        "id": "6190022916490308619",
        "title": "公共厕所",
        "address": "广东省潮州市湘桥区铺埔慈云学校北侧150米",
        "tel": "",
        "category": "基础设施:公共设施:公共厕所",
        "type": 0,
        "location": {
            "lat": 23.626274,
            "lng": 116.762103
        },
        "ad_info": {
            "adcode": 445102,
            "province": "广东省",
            "city": "潮州市",
            "district": "湘桥区"
        }
    },
    {
        "id": "6594996345098848754",
        "title": "公共厕所",
        "address": "广东省潮州市潮安区外马路与必胜路交叉口东南方向86米左右",
        "tel": "",
        "category": "基础设施:公共设施:公共厕所",
        "type": 0,
        "location": {
            "lat": 23.655089,
            "lng": 116.606992
        },
        "ad_info": {
            "adcode": 445103,
            "province": "广东省",
            "city": "潮州市",
            "district": "潮安区"
        }
    },
    {
        "id": "18109765103253514590",
        "title": "上寨村应急厕所",
        "address": "广东省潮州市饶平县",
        "tel": "",
        "category": "基础设施:公共设施:公共厕所",
        "type": 0,
        "location": {
            "lat": 23.693803,
            "lng": 117.047311
        },
        "ad_info": {
            "adcode": 445122,
            "province": "广东省",
            "city": "潮州市",
            "district": "饶平县"
        }
    },
    {
        "id": "1050949896260948194",
        "title": "古笃村公共厕所1",
        "address": "广东省潮州市饶平县G15",
        "tel": "",
        "category": "基础设施:公共设施:公共厕所",
        "type": 0,
        "location": {
            "lat": 23.704341,
            "lng": 117.031993
        },
        "ad_info": {
            "adcode": 445122,
            "province": "广东省",
            "city": "潮州市",
            "district": "饶平县"
        }
    },
    {
        "id": "8078073704409644537",
        "title": "上寨村公共厕所",
        "address": "广东省潮州市饶平县",
        "tel": "",
        "category": "基础设施:公共设施:公共厕所",
        "type": 0,
        "location": {
            "lat": 23.694045,
            "lng": 117.050776
        },
        "ad_info": {
            "adcode": 445122,
            "province": "广东省",
            "city": "潮州市",
            "district": "饶平县"
        }
    },
    {
        "id": "3152015608705209845",
        "title": "公共厕所",
        "address": "广东省潮州市潮安区锦辉门诊北侧",
        "tel": "",
        "category": "基础设施:公共设施:公共厕所",
        "type": 0,
        "location": {
            "lat": 23.527407,
            "lng": 116.567668
        },
        "ad_info": {
            "adcode": 445103,
            "province": "广东省",
            "city": "潮州市",
            "district": "潮安区"
        }
    },
    {
        "id": "11676625777418762052",
        "title": "公共厕所",
        "address": "广东省潮州市潮安区彩塘镇坽头小学西侧140米",
        "tel": "",
        "category": "基础设施:公共设施:公共厕所",
        "type": 0,
        "location": {
            "lat": 23.506087,
            "lng": 116.661527
        },
        "ad_info": {
            "adcode": 445103,
            "province": "广东省",
            "city": "潮州市",
            "district": "潮安区"
        }
    },
    {
        "id": "7500784838867870086",
        "title": "仙岩沟下公共厕所",
        "address": "广东省潮州市湘桥区仙岩村沟下",
        "tel": "",
        "category": "基础设施:公共设施:公共厕所",
        "type": 0,
        "location": {
            "lat": 23.622026,
            "lng": 116.790555
        },
        "ad_info": {
            "adcode": 445102,
            "province": "广东省",
            "city": "潮州市",
            "district": "湘桥区"
        }
    },
    {
        "id": "1047659102997174602",
        "title": "新陂村公共厕所",
        "address": "广东省潮州市饶平县",
        "tel": "",
        "category": "基础设施:公共设施:公共厕所",
        "type": 0,
        "location": {
            "lat": 23.720518,
            "lng": 117.045012
        },
        "ad_info": {
            "adcode": 445122,
            "province": "广东省",
            "city": "潮州市",
            "district": "饶平县"
        }
    },
    {
        "id": "2856188399827805296",
        "title": "旅游公共厕所",
        "address": "广东省潮州市饶平县大岭山",
        "tel": "",
        "category": "基础设施:公共设施:公共厕所",
        "type": 0,
        "location": {
            "lat": 23.722682,
            "lng": 116.924485
        },
        "ad_info": {
            "adcode": 445122,
            "province": "广东省",
            "city": "潮州市",
            "district": "饶平县"
        }
    },
    {
        "id": "1307257580254101475",
        "title": "公共厕所",
        "address": "广东省潮州市潮安区新安大道与凤岐潮兴路交叉口西100米",
        "tel": "",
        "category": "基础设施:公共设施:公共厕所",
        "type": 0,
        "location": {
            "lat": 23.454778,
            "lng": 116.686247
        },
        "ad_info": {
            "adcode": 445103,
            "province": "广东省",
            "city": "潮州市",
            "district": "潮安区"
        }
    },
    {
        "id": "12509803936801499112",
        "title": "灯塔村公共厕所",
        "address": "广东省潮州市饶平县灯塔村公共厕所",
        "tel": "",
        "category": "基础设施:公共设施:公共厕所",
        "type": 0,
        "location": {
            "lat": 23.804762,
            "lng": 116.898219
        },
        "ad_info": {
            "adcode": 445122,
            "province": "广东省",
            "city": "潮州市",
            "district": "饶平县"
        }
    },
    {
        "id": "6122314080065478975",
        "title": "公共厕所",
        "address": "广东省潮州市潮安区仙桥环村北路与仙桥环村西路交叉口西北方向214米左右",
        "tel": "",
        "category": "基础设施:公共设施:公共厕所",
        "type": 0,
        "location": {
            "lat": 23.482925,
            "lng": 116.6838
        },
        "ad_info": {
            "adcode": 445103,
            "province": "广东省",
            "city": "潮州市",
            "district": "潮安区"
        }
    },
    {
        "id": "13051850794589678673",
        "title": "公共厕所",
        "address": "广东省潮州市湘桥区大新乡中路与潮州大道交叉口西南方向216米左右",
        "tel": "",
        "category": "基础设施:公共设施:公共厕所",
        "type": 0,
        "location": {
            "lat": 23.673925,
            "lng": 116.606606
        },
        "ad_info": {
            "adcode": 445102,
            "province": "广东省",
            "city": "潮州市",
            "district": "湘桥区"
        }
    },
    {
        "id": "3430086588258369960",
        "title": "公共厕所",
        "address": "广东省潮州市饶平县紫云学校北侧140米",
        "tel": "",
        "category": "基础设施:公共设施:公共厕所",
        "type": 0,
        "location": {
            "lat": 23.67121,
            "lng": 116.920366
        },
        "ad_info": {
            "adcode": 445122,
            "province": "广东省",
            "city": "潮州市",
            "district": "饶平县"
        }
    },
    {
        "id": "5353579726299686994",
        "title": "公共厕所",
        "address": "广东省潮州市饶平县大衙路与环城路交叉口西南方向141米左右",
        "tel": "",
        "category": "基础设施:公共设施:公共厕所",
        "type": 0,
        "location": {
            "lat": 23.671092,
            "lng": 117.00386
        },
        "ad_info": {
            "adcode": 445122,
            "province": "广东省",
            "city": "潮州市",
            "district": "饶平县"
        }
    },
    {
        "id": "16211146744122770054",
        "title": "公共厕所",
        "address": "广东省潮州市潮安区塔下桥东路与金和路交叉口正西方向676米左右",
        "tel": "",
        "category": "基础设施:公共设施:公共厕所",
        "type": 0,
        "location": {
            "lat": 23.513928,
            "lng": 116.603723
        },
        "ad_info": {
            "adcode": 445103,
            "province": "广东省",
            "city": "潮州市",
            "district": "潮安区"
        }
    },
    {
        "id": "6914906148197827648",
        "title": "公共厕所",
        "address": "广东省潮州市潮安区大堀池路与长美长孚路交叉口正东方向127米左右",
        "tel": "",
        "category": "基础设施:公共设施:公共厕所",
        "type": 0,
        "location": {
            "lat": 23.664461,
            "lng": 116.58977
        },
        "ad_info": {
            "adcode": 445103,
            "province": "广东省",
            "city": "潮州市",
            "district": "潮安区"
        }
    },
    {
        "id": "11347522681357793196",
        "title": "无障碍公共厕所",
        "address": "广东省潮州市湘桥区开元路与新桥路交叉口西南方向64米左右",
        "tel": "",
        "category": "基础设施:公共设施:公共厕所",
        "type": 0,
        "location": {
            "lat": 23.662746,
            "lng": 116.642812
        },
        "ad_info": {
            "adcode": 445102,
            "province": "广东省",
            "city": "潮州市",
            "district": "湘桥区"
        }
    },
    {
        "id": "1105069946345399203",
        "title": "公共厕所",
        "address": "广东省潮州市潮安区Y266与玉湖路交叉口东南方向743米左右",
        "tel": "",
        "category": "基础设施:公共设施:公共厕所",
        "type": 0,
        "location": {
            "lat": 23.608846,
            "lng": 116.569604
        },
        "ad_info": {
            "adcode": 445103,
            "province": "广东省",
            "city": "潮州市",
            "district": "潮安区"
        }
    },
    {
        "id": "6190022916490308619",
        "title": "公共厕所",
        "address": "广东省潮州市湘桥区铺埔慈云学校北侧150米",
        "tel": "",
        "category": "基础设施:公共设施:公共厕所",
        "type": 0,
        "location": {
            "lat": 23.626274,
            "lng": 116.762103
        },
        "ad_info": {
            "adcode": 445102,
            "province": "广东省",
            "city": "潮州市",
            "district": "湘桥区"
        }
    },
    {
        "id": "6594996345098848754",
        "title": "公共厕所",
        "address": "广东省潮州市潮安区外马路与必胜路交叉口东南方向86米左右",
        "tel": "",
        "category": "基础设施:公共设施:公共厕所",
        "type": 0,
        "location": {
            "lat": 23.655089,
            "lng": 116.606992
        },
        "ad_info": {
            "adcode": 445103,
            "province": "广东省",
            "city": "潮州市",
            "district": "潮安区"
        }
    },
    {
        "id": "18109765103253514590",
        "title": "上寨村应急厕所",
        "address": "广东省潮州市饶平县",
        "tel": "",
        "category": "基础设施:公共设施:公共厕所",
        "type": 0,
        "location": {
            "lat": 23.693803,
            "lng": 117.047311
        },
        "ad_info": {
            "adcode": 445122,
            "province": "广东省",
            "city": "潮州市",
            "district": "饶平县"
        }
    },
    {
        "id": "1050949896260948194",
        "title": "古笃村公共厕所1",
        "address": "广东省潮州市饶平县G15",
        "tel": "",
        "category": "基础设施:公共设施:公共厕所",
        "type": 0,
        "location": {
            "lat": 23.704341,
            "lng": 117.031993
        },
        "ad_info": {
            "adcode": 445122,
            "province": "广东省",
            "city": "潮州市",
            "district": "饶平县"
        }
    },
    {
        "id": "8078073704409644537",
        "title": "上寨村公共厕所",
        "address": "广东省潮州市饶平县",
        "tel": "",
        "category": "基础设施:公共设施:公共厕所",
        "type": 0,
        "location": {
            "lat": 23.694045,
            "lng": 117.050776
        },
        "ad_info": {
            "adcode": 445122,
            "province": "广东省",
            "city": "潮州市",
            "district": "饶平县"
        }
    },
    {
        "id": "3152015608705209845",
        "title": "公共厕所",
        "address": "广东省潮州市潮安区锦辉门诊北侧",
        "tel": "",
        "category": "基础设施:公共设施:公共厕所",
        "type": 0,
        "location": {
            "lat": 23.527407,
            "lng": 116.567668
        },
        "ad_info": {
            "adcode": 445103,
            "province": "广东省",
            "city": "潮州市",
            "district": "潮安区"
        }
    },
    {
        "id": "11676625777418762052",
        "title": "公共厕所",
        "address": "广东省潮州市潮安区彩塘镇坽头小学西侧140米",
        "tel": "",
        "category": "基础设施:公共设施:公共厕所",
        "type": 0,
        "location": {
            "lat": 23.506087,
            "lng": 116.661527
        },
        "ad_info": {
            "adcode": 445103,
            "province": "广东省",
            "city": "潮州市",
            "district": "潮安区"
        }
    },
    {
        "id": "7500784838867870086",
        "title": "仙岩沟下公共厕所",
        "address": "广东省潮州市湘桥区仙岩村沟下",
        "tel": "",
        "category": "基础设施:公共设施:公共厕所",
        "type": 0,
        "location": {
            "lat": 23.622026,
            "lng": 116.790555
        },
        "ad_info": {
            "adcode": 445102,
            "province": "广东省",
            "city": "潮州市",
            "district": "湘桥区"
        }
    },
    {
        "id": "1047659102997174602",
        "title": "新陂村公共厕所",
        "address": "广东省潮州市饶平县",
        "tel": "",
        "category": "基础设施:公共设施:公共厕所",
        "type": 0,
        "location": {
            "lat": 23.720518,
            "lng": 117.045012
        },
        "ad_info": {
            "adcode": 445122,
            "province": "广东省",
            "city": "潮州市",
            "district": "饶平县"
        }
    },
    {
        "id": "2856188399827805296",
        "title": "旅游公共厕所",
        "address": "广东省潮州市饶平县大岭山",
        "tel": "",
        "category": "基础设施:公共设施:公共厕所",
        "type": 0,
        "location": {
            "lat": 23.722682,
            "lng": 116.924485
        },
        "ad_info": {
            "adcode": 445122,
            "province": "广东省",
            "city": "潮州市",
            "district": "饶平县"
        }
    },
    {
        "id": "1307257580254101475",
        "title": "公共厕所",
        "address": "广东省潮州市潮安区新安大道与凤岐潮兴路交叉口西100米",
        "tel": "",
        "category": "基础设施:公共设施:公共厕所",
        "type": 0,
        "location": {
            "lat": 23.454778,
            "lng": 116.686247
        },
        "ad_info": {
            "adcode": 445103,
            "province": "广东省",
            "city": "潮州市",
            "district": "潮安区"
        }
    },
    {
        "id": "12509803936801499112",
        "title": "灯塔村公共厕所",
        "address": "广东省潮州市饶平县灯塔村公共厕所",
        "tel": "",
        "category": "基础设施:公共设施:公共厕所",
        "type": 0,
        "location": {
            "lat": 23.804762,
            "lng": 116.898219
        },
        "ad_info": {
            "adcode": 445122,
            "province": "广东省",
            "city": "潮州市",
            "district": "饶平县"
        }
    },
    {
        "id": "6122314080065478975",
        "title": "公共厕所",
        "address": "广东省潮州市潮安区仙桥环村北路与仙桥环村西路交叉口西北方向214米左右",
        "tel": "",
        "category": "基础设施:公共设施:公共厕所",
        "type": 0,
        "location": {
            "lat": 23.482925,
            "lng": 116.6838
        },
        "ad_info": {
            "adcode": 445103,
            "province": "广东省",
            "city": "潮州市",
            "district": "潮安区"
        }
    },
    {
        "id": "13051850794589678673",
        "title": "公共厕所",
        "address": "广东省潮州市湘桥区大新乡中路与潮州大道交叉口西南方向216米左右",
        "tel": "",
        "category": "基础设施:公共设施:公共厕所",
        "type": 0,
        "location": {
            "lat": 23.673925,
            "lng": 116.606606
        },
        "ad_info": {
            "adcode": 445102,
            "province": "广东省",
            "city": "潮州市",
            "district": "湘桥区"
        }
    },
    {
        "id": "3430086588258369960",
        "title": "公共厕所",
        "address": "广东省潮州市饶平县紫云学校北侧140米",
        "tel": "",
        "category": "基础设施:公共设施:公共厕所",
        "type": 0,
        "location": {
            "lat": 23.67121,
            "lng": 116.920366
        },
        "ad_info": {
            "adcode": 445122,
            "province": "广东省",
            "city": "潮州市",
            "district": "饶平县"
        }
    },
    {
        "id": "5353579726299686994",
        "title": "公共厕所",
        "address": "广东省潮州市饶平县大衙路与环城路交叉口西南方向141米左右",
        "tel": "",
        "category": "基础设施:公共设施:公共厕所",
        "type": 0,
        "location": {
            "lat": 23.671092,
            "lng": 117.00386
        },
        "ad_info": {
            "adcode": 445122,
            "province": "广东省",
            "city": "潮州市",
            "district": "饶平县"
        }
    },
    {
        "id": "16211146744122770054",
        "title": "公共厕所",
        "address": "广东省潮州市潮安区塔下桥东路与金和路交叉口正西方向676米左右",
        "tel": "",
        "category": "基础设施:公共设施:公共厕所",
        "type": 0,
        "location": {
            "lat": 23.513928,
            "lng": 116.603723
        },
        "ad_info": {
            "adcode": 445103,
            "province": "广东省",
            "city": "潮州市",
            "district": "潮安区"
        }
    },
    {
        "id": "6914906148197827648",
        "title": "公共厕所",
        "address": "广东省潮州市潮安区大堀池路与长美长孚路交叉口正东方向127米左右",
        "tel": "",
        "category": "基础设施:公共设施:公共厕所",
        "type": 0,
        "location": {
            "lat": 23.664461,
            "lng": 116.58977
        },
        "ad_info": {
            "adcode": 445103,
            "province": "广东省",
            "city": "潮州市",
            "district": "潮安区"
        }
    },
    {
        "id": "11347522681357793196",
        "title": "无障碍公共厕所",
        "address": "广东省潮州市湘桥区开元路与新桥路交叉口西南方向64米左右",
        "tel": "",
        "category": "基础设施:公共设施:公共厕所",
        "type": 0,
        "location": {
            "lat": 23.662746,
            "lng": 116.642812
        },
        "ad_info": {
            "adcode": 445102,
            "province": "广东省",
            "city": "潮州市",
            "district": "湘桥区"
        }
    },
    {
        "id": "1105069946345399203",
        "title": "公共厕所",
        "address": "广东省潮州市潮安区Y266与玉湖路交叉口东南方向743米左右",
        "tel": "",
        "category": "基础设施:公共设施:公共厕所",
        "type": 0,
        "location": {
            "lat": 23.608846,
            "lng": 116.569604
        },
        "ad_info": {
            "adcode": 445103,
            "province": "广东省",
            "city": "潮州市",
            "district": "潮安区"
        }
    },
    {
        "id": "6190022916490308619",
        "title": "公共厕所",
        "address": "广东省潮州市湘桥区铺埔慈云学校北侧150米",
        "tel": "",
        "category": "基础设施:公共设施:公共厕所",
        "type": 0,
        "location": {
            "lat": 23.626274,
            "lng": 116.762103
        },
        "ad_info": {
            "adcode": 445102,
            "province": "广东省",
            "city": "潮州市",
            "district": "湘桥区"
        }
    },
    {
        "id": "6594996345098848754",
        "title": "公共厕所",
        "address": "广东省潮州市潮安区外马路与必胜路交叉口东南方向86米左右",
        "tel": "",
        "category": "基础设施:公共设施:公共厕所",
        "type": 0,
        "location": {
            "lat": 23.655089,
            "lng": 116.606992
        },
        "ad_info": {
            "adcode": 445103,
            "province": "广东省",
            "city": "潮州市",
            "district": "潮安区"
        }
    },
    {
        "id": "18109765103253514590",
        "title": "上寨村应急厕所",
        "address": "广东省潮州市饶平县",
        "tel": "",
        "category": "基础设施:公共设施:公共厕所",
        "type": 0,
        "location": {
            "lat": 23.693803,
            "lng": 117.047311
        },
        "ad_info": {
            "adcode": 445122,
            "province": "广东省",
            "city": "潮州市",
            "district": "饶平县"
        }
    },
    {
        "id": "1050949896260948194",
        "title": "古笃村公共厕所1",
        "address": "广东省潮州市饶平县G15",
        "tel": "",
        "category": "基础设施:公共设施:公共厕所",
        "type": 0,
        "location": {
            "lat": 23.704341,
            "lng": 117.031993
        },
        "ad_info": {
            "adcode": 445122,
            "province": "广东省",
            "city": "潮州市",
            "district": "饶平县"
        }
    },
    {
        "id": "8078073704409644537",
        "title": "上寨村公共厕所",
        "address": "广东省潮州市饶平县",
        "tel": "",
        "category": "基础设施:公共设施:公共厕所",
        "type": 0,
        "location": {
            "lat": 23.694045,
            "lng": 117.050776
        },
        "ad_info": {
            "adcode": 445122,
            "province": "广东省",
            "city": "潮州市",
            "district": "饶平县"
        }
    },
    {
        "id": "3152015608705209845",
        "title": "公共厕所",
        "address": "广东省潮州市潮安区锦辉门诊北侧",
        "tel": "",
        "category": "基础设施:公共设施:公共厕所",
        "type": 0,
        "location": {
            "lat": 23.527407,
            "lng": 116.567668
        },
        "ad_info": {
            "adcode": 445103,
            "province": "广东省",
            "city": "潮州市",
            "district": "潮安区"
        }
    },
    {
        "id": "11676625777418762052",
        "title": "公共厕所",
        "address": "广东省潮州市潮安区彩塘镇坽头小学西侧140米",
        "tel": "",
        "category": "基础设施:公共设施:公共厕所",
        "type": 0,
        "location": {
            "lat": 23.506087,
            "lng": 116.661527
        },
        "ad_info": {
            "adcode": 445103,
            "province": "广东省",
            "city": "潮州市",
            "district": "潮安区"
        }
    },
    {
        "id": "7500784838867870086",
        "title": "仙岩沟下公共厕所",
        "address": "广东省潮州市湘桥区仙岩村沟下",
        "tel": "",
        "category": "基础设施:公共设施:公共厕所",
        "type": 0,
        "location": {
            "lat": 23.622026,
            "lng": 116.790555
        },
        "ad_info": {
            "adcode": 445102,
            "province": "广东省",
            "city": "潮州市",
            "district": "湘桥区"
        }
    },
    {
        "id": "1047659102997174602",
        "title": "新陂村公共厕所",
        "address": "广东省潮州市饶平县",
        "tel": "",
        "category": "基础设施:公共设施:公共厕所",
        "type": 0,
        "location": {
            "lat": 23.720518,
            "lng": 117.045012
        },
        "ad_info": {
            "adcode": 445122,
            "province": "广东省",
            "city": "潮州市",
            "district": "饶平县"
        }
    },
    {
        "id": "2856188399827805296",
        "title": "旅游公共厕所",
        "address": "广东省潮州市饶平县大岭山",
        "tel": "",
        "category": "基础设施:公共设施:公共厕所",
        "type": 0,
        "location": {
            "lat": 23.722682,
            "lng": 116.924485
        },
        "ad_info": {
            "adcode": 445122,
            "province": "广东省",
            "city": "潮州市",
            "district": "饶平县"
        }
    },
    {
        "id": "1307257580254101475",
        "title": "公共厕所",
        "address": "广东省潮州市潮安区新安大道与凤岐潮兴路交叉口西100米",
        "tel": "",
        "category": "基础设施:公共设施:公共厕所",
        "type": 0,
        "location": {
            "lat": 23.454778,
            "lng": 116.686247
        },
        "ad_info": {
            "adcode": 445103,
            "province": "广东省",
            "city": "潮州市",
            "district": "潮安区"
        }
    },
    {
        "id": "12509803936801499112",
        "title": "灯塔村公共厕所",
        "address": "广东省潮州市饶平县灯塔村公共厕所",
        "tel": "",
        "category": "基础设施:公共设施:公共厕所",
        "type": 0,
        "location": {
            "lat": 23.804762,
            "lng": 116.898219
        },
        "ad_info": {
            "adcode": 445122,
            "province": "广东省",
            "city": "潮州市",
            "district": "饶平县"
        }
    },
    {
        "id": "6122314080065478975",
        "title": "公共厕所",
        "address": "广东省潮州市潮安区仙桥环村北路与仙桥环村西路交叉口西北方向214米左右",
        "tel": "",
        "category": "基础设施:公共设施:公共厕所",
        "type": 0,
        "location": {
            "lat": 23.482925,
            "lng": 116.6838
        },
        "ad_info": {
            "adcode": 445103,
            "province": "广东省",
            "city": "潮州市",
            "district": "潮安区"
        }
    },
    {
        "id": "13051850794589678673",
        "title": "公共厕所",
        "address": "广东省潮州市湘桥区大新乡中路与潮州大道交叉口西南方向216米左右",
        "tel": "",
        "category": "基础设施:公共设施:公共厕所",
        "type": 0,
        "location": {
            "lat": 23.673925,
            "lng": 116.606606
        },
        "ad_info": {
            "adcode": 445102,
            "province": "广东省",
            "city": "潮州市",
            "district": "湘桥区"
        }
    },
    {
        "id": "3430086588258369960",
        "title": "公共厕所",
        "address": "广东省潮州市饶平县紫云学校北侧140米",
        "tel": "",
        "category": "基础设施:公共设施:公共厕所",
        "type": 0,
        "location": {
            "lat": 23.67121,
            "lng": 116.920366
        },
        "ad_info": {
            "adcode": 445122,
            "province": "广东省",
            "city": "潮州市",
            "district": "饶平县"
        }
    },
    {
        "id": "5353579726299686994",
        "title": "公共厕所",
        "address": "广东省潮州市饶平县大衙路与环城路交叉口西南方向141米左右",
        "tel": "",
        "category": "基础设施:公共设施:公共厕所",
        "type": 0,
        "location": {
            "lat": 23.671092,
            "lng": 117.00386
        },
        "ad_info": {
            "adcode": 445122,
            "province": "广东省",
            "city": "潮州市",
            "district": "饶平县"
        }
    },
    {
        "id": "16211146744122770054",
        "title": "公共厕所",
        "address": "广东省潮州市潮安区塔下桥东路与金和路交叉口正西方向676米左右",
        "tel": "",
        "category": "基础设施:公共设施:公共厕所",
        "type": 0,
        "location": {
            "lat": 23.513928,
            "lng": 116.603723
        },
        "ad_info": {
            "adcode": 445103,
            "province": "广东省",
            "city": "潮州市",
            "district": "潮安区"
        }
    },
    {
        "id": "6914906148197827648",
        "title": "公共厕所",
        "address": "广东省潮州市潮安区大堀池路与长美长孚路交叉口正东方向127米左右",
        "tel": "",
        "category": "基础设施:公共设施:公共厕所",
        "type": 0,
        "location": {
            "lat": 23.664461,
            "lng": 116.58977
        },
        "ad_info": {
            "adcode": 445103,
            "province": "广东省",
            "city": "潮州市",
            "district": "潮安区"
        }
    },
    {
        "id": "11347522681357793196",
        "title": "无障碍公共厕所",
        "address": "广东省潮州市湘桥区开元路与新桥路交叉口西南方向64米左右",
        "tel": "",
        "category": "基础设施:公共设施:公共厕所",
        "type": 0,
        "location": {
            "lat": 23.662746,
            "lng": 116.642812
        },
        "ad_info": {
            "adcode": 445102,
            "province": "广东省",
            "city": "潮州市",
            "district": "湘桥区"
        }
    },
    {
        "id": "1105069946345399203",
        "title": "公共厕所",
        "address": "广东省潮州市潮安区Y266与玉湖路交叉口东南方向743米左右",
        "tel": "",
        "category": "基础设施:公共设施:公共厕所",
        "type": 0,
        "location": {
            "lat": 23.608846,
            "lng": 116.569604
        },
        "ad_info": {
            "adcode": 445103,
            "province": "广东省",
            "city": "潮州市",
            "district": "潮安区"
        }
    },
    {
        "id": "6190022916490308619",
        "title": "公共厕所",
        "address": "广东省潮州市湘桥区铺埔慈云学校北侧150米",
        "tel": "",
        "category": "基础设施:公共设施:公共厕所",
        "type": 0,
        "location": {
            "lat": 23.626274,
            "lng": 116.762103
        },
        "ad_info": {
            "adcode": 445102,
            "province": "广东省",
            "city": "潮州市",
            "district": "湘桥区"
        }
    },
    {
        "id": "6594996345098848754",
        "title": "公共厕所",
        "address": "广东省潮州市潮安区外马路与必胜路交叉口东南方向86米左右",
        "tel": "",
        "category": "基础设施:公共设施:公共厕所",
        "type": 0,
        "location": {
            "lat": 23.655089,
            "lng": 116.606992
        },
        "ad_info": {
            "adcode": 445103,
            "province": "广东省",
            "city": "潮州市",
            "district": "潮安区"
        }
    },
    {
        "id": "18109765103253514590",
        "title": "上寨村应急厕所",
        "address": "广东省潮州市饶平县",
        "tel": "",
        "category": "基础设施:公共设施:公共厕所",
        "type": 0,
        "location": {
            "lat": 23.693803,
            "lng": 117.047311
        },
        "ad_info": {
            "adcode": 445122,
            "province": "广东省",
            "city": "潮州市",
            "district": "饶平县"
        }
    },
    {
        "id": "1050949896260948194",
        "title": "古笃村公共厕所1",
        "address": "广东省潮州市饶平县G15",
        "tel": "",
        "category": "基础设施:公共设施:公共厕所",
        "type": 0,
        "location": {
            "lat": 23.704341,
            "lng": 117.031993
        },
        "ad_info": {
            "adcode": 445122,
            "province": "广东省",
            "city": "潮州市",
            "district": "饶平县"
        }
    },
    {
        "id": "8078073704409644537",
        "title": "上寨村公共厕所",
        "address": "广东省潮州市饶平县",
        "tel": "",
        "category": "基础设施:公共设施:公共厕所",
        "type": 0,
        "location": {
            "lat": 23.694045,
            "lng": 117.050776
        },
        "ad_info": {
            "adcode": 445122,
            "province": "广东省",
            "city": "潮州市",
            "district": "饶平县"
        }
    },
    {
        "id": "3152015608705209845",
        "title": "公共厕所",
        "address": "广东省潮州市潮安区锦辉门诊北侧",
        "tel": "",
        "category": "基础设施:公共设施:公共厕所",
        "type": 0,
        "location": {
            "lat": 23.527407,
            "lng": 116.567668
        },
        "ad_info": {
            "adcode": 445103,
            "province": "广东省",
            "city": "潮州市",
            "district": "潮安区"
        }
    },
    {
        "id": "11676625777418762052",
        "title": "公共厕所",
        "address": "广东省潮州市潮安区彩塘镇坽头小学西侧140米",
        "tel": "",
        "category": "基础设施:公共设施:公共厕所",
        "type": 0,
        "location": {
            "lat": 23.506087,
            "lng": 116.661527
        },
        "ad_info": {
            "adcode": 445103,
            "province": "广东省",
            "city": "潮州市",
            "district": "潮安区"
        }
    },
    {
        "id": "7500784838867870086",
        "title": "仙岩沟下公共厕所",
        "address": "广东省潮州市湘桥区仙岩村沟下",
        "tel": "",
        "category": "基础设施:公共设施:公共厕所",
        "type": 0,
        "location": {
            "lat": 23.622026,
            "lng": 116.790555
        },
        "ad_info": {
            "adcode": 445102,
            "province": "广东省",
            "city": "潮州市",
            "district": "湘桥区"
        }
    },
    {
        "id": "1047659102997174602",
        "title": "新陂村公共厕所",
        "address": "广东省潮州市饶平县",
        "tel": "",
        "category": "基础设施:公共设施:公共厕所",
        "type": 0,
        "location": {
            "lat": 23.720518,
            "lng": 117.045012
        },
        "ad_info": {
            "adcode": 445122,
            "province": "广东省",
            "city": "潮州市",
            "district": "饶平县"
        }
    },
    {
        "id": "2856188399827805296",
        "title": "旅游公共厕所",
        "address": "广东省潮州市饶平县大岭山",
        "tel": "",
        "category": "基础设施:公共设施:公共厕所",
        "type": 0,
        "location": {
            "lat": 23.722682,
            "lng": 116.924485
        },
        "ad_info": {
            "adcode": 445122,
            "province": "广东省",
            "city": "潮州市",
            "district": "饶平县"
        }
    },
    {
        "id": "1307257580254101475",
        "title": "公共厕所",
        "address": "广东省潮州市潮安区新安大道与凤岐潮兴路交叉口西100米",
        "tel": "",
        "category": "基础设施:公共设施:公共厕所",
        "type": 0,
        "location": {
            "lat": 23.454778,
            "lng": 116.686247
        },
        "ad_info": {
            "adcode": 445103,
            "province": "广东省",
            "city": "潮州市",
            "district": "潮安区"
        }
    },
    {
        "id": "12509803936801499112",
        "title": "灯塔村公共厕所",
        "address": "广东省潮州市饶平县灯塔村公共厕所",
        "tel": "",
        "category": "基础设施:公共设施:公共厕所",
        "type": 0,
        "location": {
            "lat": 23.804762,
            "lng": 116.898219
        },
        "ad_info": {
            "adcode": 445122,
            "province": "广东省",
            "city": "潮州市",
            "district": "饶平县"
        }
    },
    {
        "id": "6122314080065478975",
        "title": "公共厕所",
        "address": "广东省潮州市潮安区仙桥环村北路与仙桥环村西路交叉口西北方向214米左右",
        "tel": "",
        "category": "基础设施:公共设施:公共厕所",
        "type": 0,
        "location": {
            "lat": 23.482925,
            "lng": 116.6838
        },
        "ad_info": {
            "adcode": 445103,
            "province": "广东省",
            "city": "潮州市",
            "district": "潮安区"
        }
    },
    {
        "id": "13051850794589678673",
        "title": "公共厕所",
        "address": "广东省潮州市湘桥区大新乡中路与潮州大道交叉口西南方向216米左右",
        "tel": "",
        "category": "基础设施:公共设施:公共厕所",
        "type": 0,
        "location": {
            "lat": 23.673925,
            "lng": 116.606606
        },
        "ad_info": {
            "adcode": 445102,
            "province": "广东省",
            "city": "潮州市",
            "district": "湘桥区"
        }
    },
    {
        "id": "3430086588258369960",
        "title": "公共厕所",
        "address": "广东省潮州市饶平县紫云学校北侧140米",
        "tel": "",
        "category": "基础设施:公共设施:公共厕所",
        "type": 0,
        "location": {
            "lat": 23.67121,
            "lng": 116.920366
        },
        "ad_info": {
            "adcode": 445122,
            "province": "广东省",
            "city": "潮州市",
            "district": "饶平县"
        }
    },
    {
        "id": "5353579726299686994",
        "title": "公共厕所",
        "address": "广东省潮州市饶平县大衙路与环城路交叉口西南方向141米左右",
        "tel": "",
        "category": "基础设施:公共设施:公共厕所",
        "type": 0,
        "location": {
            "lat": 23.671092,
            "lng": 117.00386
        },
        "ad_info": {
            "adcode": 445122,
            "province": "广东省",
            "city": "潮州市",
            "district": "饶平县"
        }
    },
    {
        "id": "16211146744122770054",
        "title": "公共厕所",
        "address": "广东省潮州市潮安区塔下桥东路与金和路交叉口正西方向676米左右",
        "tel": "",
        "category": "基础设施:公共设施:公共厕所",
        "type": 0,
        "location": {
            "lat": 23.513928,
            "lng": 116.603723
        },
        "ad_info": {
            "adcode": 445103,
            "province": "广东省",
            "city": "潮州市",
            "district": "潮安区"
        }
    },
    {
        "id": "6914906148197827648",
        "title": "公共厕所",
        "address": "广东省潮州市潮安区大堀池路与长美长孚路交叉口正东方向127米左右",
        "tel": "",
        "category": "基础设施:公共设施:公共厕所",
        "type": 0,
        "location": {
            "lat": 23.664461,
            "lng": 116.58977
        },
        "ad_info": {
            "adcode": 445103,
            "province": "广东省",
            "city": "潮州市",
            "district": "潮安区"
        }
    },
    {
        "id": "11347522681357793196",
        "title": "无障碍公共厕所",
        "address": "广东省潮州市湘桥区开元路与新桥路交叉口西南方向64米左右",
        "tel": "",
        "category": "基础设施:公共设施:公共厕所",
        "type": 0,
        "location": {
            "lat": 23.662746,
            "lng": 116.642812
        },
        "ad_info": {
            "adcode": 445102,
            "province": "广东省",
            "city": "潮州市",
            "district": "湘桥区"
        }
    },
    {
        "id": "1105069946345399203",
        "title": "公共厕所",
        "address": "广东省潮州市潮安区Y266与玉湖路交叉口东南方向743米左右",
        "tel": "",
        "category": "基础设施:公共设施:公共厕所",
        "type": 0,
        "location": {
            "lat": 23.608846,
            "lng": 116.569604
        },
        "ad_info": {
            "adcode": 445103,
            "province": "广东省",
            "city": "潮州市",
            "district": "潮安区"
        }
    },
    {
        "id": "6190022916490308619",
        "title": "公共厕所",
        "address": "广东省潮州市湘桥区铺埔慈云学校北侧150米",
        "tel": "",
        "category": "基础设施:公共设施:公共厕所",
        "type": 0,
        "location": {
            "lat": 23.626274,
            "lng": 116.762103
        },
        "ad_info": {
            "adcode": 445102,
            "province": "广东省",
            "city": "潮州市",
            "district": "湘桥区"
        }
    },
    {
        "id": "6594996345098848754",
        "title": "公共厕所",
        "address": "广东省潮州市潮安区外马路与必胜路交叉口东南方向86米左右",
        "tel": "",
        "category": "基础设施:公共设施:公共厕所",
        "type": 0,
        "location": {
            "lat": 23.655089,
            "lng": 116.606992
        },
        "ad_info": {
            "adcode": 445103,
            "province": "广东省",
            "city": "潮州市",
            "district": "潮安区"
        }
    },
    {
        "id": "18109765103253514590",
        "title": "上寨村应急厕所",
        "address": "广东省潮州市饶平县",
        "tel": "",
        "category": "基础设施:公共设施:公共厕所",
        "type": 0,
        "location": {
            "lat": 23.693803,
            "lng": 117.047311
        },
        "ad_info": {
            "adcode": 445122,
            "province": "广东省",
            "city": "潮州市",
            "district": "饶平县"
        }
    },
    {
        "id": "1050949896260948194",
        "title": "古笃村公共厕所1",
        "address": "广东省潮州市饶平县G15",
        "tel": "",
        "category": "基础设施:公共设施:公共厕所",
        "type": 0,
        "location": {
            "lat": 23.704341,
            "lng": 117.031993
        },
        "ad_info": {
            "adcode": 445122,
            "province": "广东省",
            "city": "潮州市",
            "district": "饶平县"
        }
    },
    {
        "id": "8078073704409644537",
        "title": "上寨村公共厕所",
        "address": "广东省潮州市饶平县",
        "tel": "",
        "category": "基础设施:公共设施:公共厕所",
        "type": 0,
        "location": {
            "lat": 23.694045,
            "lng": 117.050776
        },
        "ad_info": {
            "adcode": 445122,
            "province": "广东省",
            "city": "潮州市",
            "district": "饶平县"
        }
    },
    {
        "id": "3152015608705209845",
        "title": "公共厕所",
        "address": "广东省潮州市潮安区锦辉门诊北侧",
        "tel": "",
        "category": "基础设施:公共设施:公共厕所",
        "type": 0,
        "location": {
            "lat": 23.527407,
            "lng": 116.567668
        },
        "ad_info": {
            "adcode": 445103,
            "province": "广东省",
            "city": "潮州市",
            "district": "潮安区"
        }
    },
    {
        "id": "11676625777418762052",
        "title": "公共厕所",
        "address": "广东省潮州市潮安区彩塘镇坽头小学西侧140米",
        "tel": "",
        "category": "基础设施:公共设施:公共厕所",
        "type": 0,
        "location": {
            "lat": 23.506087,
            "lng": 116.661527
        },
        "ad_info": {
            "adcode": 445103,
            "province": "广东省",
            "city": "潮州市",
            "district": "潮安区"
        }
    },
    {
        "id": "7500784838867870086",
        "title": "仙岩沟下公共厕所",
        "address": "广东省潮州市湘桥区仙岩村沟下",
        "tel": "",
        "category": "基础设施:公共设施:公共厕所",
        "type": 0,
        "location": {
            "lat": 23.622026,
            "lng": 116.790555
        },
        "ad_info": {
            "adcode": 445102,
            "province": "广东省",
            "city": "潮州市",
            "district": "湘桥区"
        }
    },
    {
        "id": "1047659102997174602",
        "title": "新陂村公共厕所",
        "address": "广东省潮州市饶平县",
        "tel": "",
        "category": "基础设施:公共设施:公共厕所",
        "type": 0,
        "location": {
            "lat": 23.720518,
            "lng": 117.045012
        },
        "ad_info": {
            "adcode": 445122,
            "province": "广东省",
            "city": "潮州市",
            "district": "饶平县"
        }
    },
    {
        "id": "2856188399827805296",
        "title": "旅游公共厕所",
        "address": "广东省潮州市饶平县大岭山",
        "tel": "",
        "category": "基础设施:公共设施:公共厕所",
        "type": 0,
        "location": {
            "lat": 23.722682,
            "lng": 116.924485
        },
        "ad_info": {
            "adcode": 445122,
            "province": "广东省",
            "city": "潮州市",
            "district": "饶平县"
        }
    },
    {
        "id": "1307257580254101475",
        "title": "公共厕所",
        "address": "广东省潮州市潮安区新安大道与凤岐潮兴路交叉口西100米",
        "tel": "",
        "category": "基础设施:公共设施:公共厕所",
        "type": 0,
        "location": {
            "lat": 23.454778,
            "lng": 116.686247
        },
        "ad_info": {
            "adcode": 445103,
            "province": "广东省",
            "city": "潮州市",
            "district": "潮安区"
        }
    },
    {
        "id": "12509803936801499112",
        "title": "灯塔村公共厕所",
        "address": "广东省潮州市饶平县灯塔村公共厕所",
        "tel": "",
        "category": "基础设施:公共设施:公共厕所",
        "type": 0,
        "location": {
            "lat": 23.804762,
            "lng": 116.898219
        },
        "ad_info": {
            "adcode": 445122,
            "province": "广东省",
            "city": "潮州市",
            "district": "饶平县"
        }
    },
    {
        "id": "6122314080065478975",
        "title": "公共厕所",
        "address": "广东省潮州市潮安区仙桥环村北路与仙桥环村西路交叉口西北方向214米左右",
        "tel": "",
        "category": "基础设施:公共设施:公共厕所",
        "type": 0,
        "location": {
            "lat": 23.482925,
            "lng": 116.6838
        },
        "ad_info": {
            "adcode": 445103,
            "province": "广东省",
            "city": "潮州市",
            "district": "潮安区"
        }
    },
    {
        "id": "13051850794589678673",
        "title": "公共厕所",
        "address": "广东省潮州市湘桥区大新乡中路与潮州大道交叉口西南方向216米左右",
        "tel": "",
        "category": "基础设施:公共设施:公共厕所",
        "type": 0,
        "location": {
            "lat": 23.673925,
            "lng": 116.606606
        },
        "ad_info": {
            "adcode": 445102,
            "province": "广东省",
            "city": "潮州市",
            "district": "湘桥区"
        }
    },
    {
        "id": "3430086588258369960",
        "title": "公共厕所",
        "address": "广东省潮州市饶平县紫云学校北侧140米",
        "tel": "",
        "category": "基础设施:公共设施:公共厕所",
        "type": 0,
        "location": {
            "lat": 23.67121,
            "lng": 116.920366
        },
        "ad_info": {
            "adcode": 445122,
            "province": "广东省",
            "city": "潮州市",
            "district": "饶平县"
        }
    },
    {
        "id": "5353579726299686994",
        "title": "公共厕所",
        "address": "广东省潮州市饶平县大衙路与环城路交叉口西南方向141米左右",
        "tel": "",
        "category": "基础设施:公共设施:公共厕所",
        "type": 0,
        "location": {
            "lat": 23.671092,
            "lng": 117.00386
        },
        "ad_info": {
            "adcode": 445122,
            "province": "广东省",
            "city": "潮州市",
            "district": "饶平县"
        }
    },
    {
        "id": "16211146744122770054",
        "title": "公共厕所",
        "address": "广东省潮州市潮安区塔下桥东路与金和路交叉口正西方向676米左右",
        "tel": "",
        "category": "基础设施:公共设施:公共厕所",
        "type": 0,
        "location": {
            "lat": 23.513928,
            "lng": 116.603723
        },
        "ad_info": {
            "adcode": 445103,
            "province": "广东省",
            "city": "潮州市",
            "district": "潮安区"
        }
    },
    {
        "id": "6914906148197827648",
        "title": "公共厕所",
        "address": "广东省潮州市潮安区大堀池路与长美长孚路交叉口正东方向127米左右",
        "tel": "",
        "category": "基础设施:公共设施:公共厕所",
        "type": 0,
        "location": {
            "lat": 23.664461,
            "lng": 116.58977
        },
        "ad_info": {
            "adcode": 445103,
            "province": "广东省",
            "city": "潮州市",
            "district": "潮安区"
        }
    },
    {
        "id": "11347522681357793196",
        "title": "无障碍公共厕所",
        "address": "广东省潮州市湘桥区开元路与新桥路交叉口西南方向64米左右",
        "tel": "",
        "category": "基础设施:公共设施:公共厕所",
        "type": 0,
        "location": {
            "lat": 23.662746,
            "lng": 116.642812
        },
        "ad_info": {
            "adcode": 445102,
            "province": "广东省",
            "city": "潮州市",
            "district": "湘桥区"
        }
    },
    {
        "id": "1105069946345399203",
        "title": "公共厕所",
        "address": "广东省潮州市潮安区Y266与玉湖路交叉口东南方向743米左右",
        "tel": "",
        "category": "基础设施:公共设施:公共厕所",
        "type": 0,
        "location": {
            "lat": 23.608846,
            "lng": 116.569604
        },
        "ad_info": {
            "adcode": 445103,
            "province": "广东省",
            "city": "潮州市",
            "district": "潮安区"
        }
    },
    {
        "id": "6190022916490308619",
        "title": "公共厕所",
        "address": "广东省潮州市湘桥区铺埔慈云学校北侧150米",
        "tel": "",
        "category": "基础设施:公共设施:公共厕所",
        "type": 0,
        "location": {
            "lat": 23.626274,
            "lng": 116.762103
        },
        "ad_info": {
            "adcode": 445102,
            "province": "广东省",
            "city": "潮州市",
            "district": "湘桥区"
        }
    },
    {
        "id": "6594996345098848754",
        "title": "公共厕所",
        "address": "广东省潮州市潮安区外马路与必胜路交叉口东南方向86米左右",
        "tel": "",
        "category": "基础设施:公共设施:公共厕所",
        "type": 0,
        "location": {
            "lat": 23.655089,
            "lng": 116.606992
        },
        "ad_info": {
            "adcode": 445103,
            "province": "广东省",
            "city": "潮州市",
            "district": "潮安区"
        }
    },
    {
        "id": "18109765103253514590",
        "title": "上寨村应急厕所",
        "address": "广东省潮州市饶平县",
        "tel": "",
        "category": "基础设施:公共设施:公共厕所",
        "type": 0,
        "location": {
            "lat": 23.693803,
            "lng": 117.047311
        },
        "ad_info": {
            "adcode": 445122,
            "province": "广东省",
            "city": "潮州市",
            "district": "饶平县"
        }
    },
    {
        "id": "1050949896260948194",
        "title": "古笃村公共厕所1",
        "address": "广东省潮州市饶平县G15",
        "tel": "",
        "category": "基础设施:公共设施:公共厕所",
        "type": 0,
        "location": {
            "lat": 23.704341,
            "lng": 117.031993
        },
        "ad_info": {
            "adcode": 445122,
            "province": "广东省",
            "city": "潮州市",
            "district": "饶平县"
        }
    },
    {
        "id": "8078073704409644537",
        "title": "上寨村公共厕所",
        "address": "广东省潮州市饶平县",
        "tel": "",
        "category": "基础设施:公共设施:公共厕所",
        "type": 0,
        "location": {
            "lat": 23.694045,
            "lng": 117.050776
        },
        "ad_info": {
            "adcode": 445122,
            "province": "广东省",
            "city": "潮州市",
            "district": "饶平县"
        }
    },
    {
        "id": "3152015608705209845",
        "title": "公共厕所",
        "address": "广东省潮州市潮安区锦辉门诊北侧",
        "tel": "",
        "category": "基础设施:公共设施:公共厕所",
        "type": 0,
        "location": {
            "lat": 23.527407,
            "lng": 116.567668
        },
        "ad_info": {
            "adcode": 445103,
            "province": "广东省",
            "city": "潮州市",
            "district": "潮安区"
        }
    },
    {
        "id": "11676625777418762052",
        "title": "公共厕所",
        "address": "广东省潮州市潮安区彩塘镇坽头小学西侧140米",
        "tel": "",
        "category": "基础设施:公共设施:公共厕所",
        "type": 0,
        "location": {
            "lat": 23.506087,
            "lng": 116.661527
        },
        "ad_info": {
            "adcode": 445103,
            "province": "广东省",
            "city": "潮州市",
            "district": "潮安区"
        }
    },
    {
        "id": "7500784838867870086",
        "title": "仙岩沟下公共厕所",
        "address": "广东省潮州市湘桥区仙岩村沟下",
        "tel": "",
        "category": "基础设施:公共设施:公共厕所",
        "type": 0,
        "location": {
            "lat": 23.622026,
            "lng": 116.790555
        },
        "ad_info": {
            "adcode": 445102,
            "province": "广东省",
            "city": "潮州市",
            "district": "湘桥区"
        }
    },
    {
        "id": "1047659102997174602",
        "title": "新陂村公共厕所",
        "address": "广东省潮州市饶平县",
        "tel": "",
        "category": "基础设施:公共设施:公共厕所",
        "type": 0,
        "location": {
            "lat": 23.720518,
            "lng": 117.045012
        },
        "ad_info": {
            "adcode": 445122,
            "province": "广东省",
            "city": "潮州市",
            "district": "饶平县"
        }
    },
    {
        "id": "2856188399827805296",
        "title": "旅游公共厕所",
        "address": "广东省潮州市饶平县大岭山",
        "tel": "",
        "category": "基础设施:公共设施:公共厕所",
        "type": 0,
        "location": {
            "lat": 23.722682,
            "lng": 116.924485
        },
        "ad_info": {
            "adcode": 445122,
            "province": "广东省",
            "city": "潮州市",
            "district": "饶平县"
        }
    },
    {
        "id": "1307257580254101475",
        "title": "公共厕所",
        "address": "广东省潮州市潮安区新安大道与凤岐潮兴路交叉口西100米",
        "tel": "",
        "category": "基础设施:公共设施:公共厕所",
        "type": 0,
        "location": {
            "lat": 23.454778,
            "lng": 116.686247
        },
        "ad_info": {
            "adcode": 445103,
            "province": "广东省",
            "city": "潮州市",
            "district": "潮安区"
        }
    },
    {
        "id": "12509803936801499112",
        "title": "灯塔村公共厕所",
        "address": "广东省潮州市饶平县灯塔村公共厕所",
        "tel": "",
        "category": "基础设施:公共设施:公共厕所",
        "type": 0,
        "location": {
            "lat": 23.804762,
            "lng": 116.898219
        },
        "ad_info": {
            "adcode": 445122,
            "province": "广东省",
            "city": "潮州市",
            "district": "饶平县"
        }
    },
    {
        "id": "6122314080065478975",
        "title": "公共厕所",
        "address": "广东省潮州市潮安区仙桥环村北路与仙桥环村西路交叉口西北方向214米左右",
        "tel": "",
        "category": "基础设施:公共设施:公共厕所",
        "type": 0,
        "location": {
            "lat": 23.482925,
            "lng": 116.6838
        },
        "ad_info": {
            "adcode": 445103,
            "province": "广东省",
            "city": "潮州市",
            "district": "潮安区"
        }
    },
    {
        "id": "13051850794589678673",
        "title": "公共厕所",
        "address": "广东省潮州市湘桥区大新乡中路与潮州大道交叉口西南方向216米左右",
        "tel": "",
        "category": "基础设施:公共设施:公共厕所",
        "type": 0,
        "location": {
            "lat": 23.673925,
            "lng": 116.606606
        },
        "ad_info": {
            "adcode": 445102,
            "province": "广东省",
            "city": "潮州市",
            "district": "湘桥区"
        }
    },
    {
        "id": "3430086588258369960",
        "title": "公共厕所",
        "address": "广东省潮州市饶平县紫云学校北侧140米",
        "tel": "",
        "category": "基础设施:公共设施:公共厕所",
        "type": 0,
        "location": {
            "lat": 23.67121,
            "lng": 116.920366
        },
        "ad_info": {
            "adcode": 445122,
            "province": "广东省",
            "city": "潮州市",
            "district": "饶平县"
        }
    },
    {
        "id": "5353579726299686994",
        "title": "公共厕所",
        "address": "广东省潮州市饶平县大衙路与环城路交叉口西南方向141米左右",
        "tel": "",
        "category": "基础设施:公共设施:公共厕所",
        "type": 0,
        "location": {
            "lat": 23.671092,
            "lng": 117.00386
        },
        "ad_info": {
            "adcode": 445122,
            "province": "广东省",
            "city": "潮州市",
            "district": "饶平县"
        }
    },
    {
        "id": "16211146744122770054",
        "title": "公共厕所",
        "address": "广东省潮州市潮安区塔下桥东路与金和路交叉口正西方向676米左右",
        "tel": "",
        "category": "基础设施:公共设施:公共厕所",
        "type": 0,
        "location": {
            "lat": 23.513928,
            "lng": 116.603723
        },
        "ad_info": {
            "adcode": 445103,
            "province": "广东省",
            "city": "潮州市",
            "district": "潮安区"
        }
    },
    {
        "id": "6914906148197827648",
        "title": "公共厕所",
        "address": "广东省潮州市潮安区大堀池路与长美长孚路交叉口正东方向127米左右",
        "tel": "",
        "category": "基础设施:公共设施:公共厕所",
        "type": 0,
        "location": {
            "lat": 23.664461,
            "lng": 116.58977
        },
        "ad_info": {
            "adcode": 445103,
            "province": "广东省",
            "city": "潮州市",
            "district": "潮安区"
        }
    },
    {
        "id": "11347522681357793196",
        "title": "无障碍公共厕所",
        "address": "广东省潮州市湘桥区开元路与新桥路交叉口西南方向64米左右",
        "tel": "",
        "category": "基础设施:公共设施:公共厕所",
        "type": 0,
        "location": {
            "lat": 23.662746,
            "lng": 116.642812
        },
        "ad_info": {
            "adcode": 445102,
            "province": "广东省",
            "city": "潮州市",
            "district": "湘桥区"
        }
    },
    {
        "id": "1105069946345399203",
        "title": "公共厕所",
        "address": "广东省潮州市潮安区Y266与玉湖路交叉口东南方向743米左右",
        "tel": "",
        "category": "基础设施:公共设施:公共厕所",
        "type": 0,
        "location": {
            "lat": 23.608846,
            "lng": 116.569604
        },
        "ad_info": {
            "adcode": 445103,
            "province": "广东省",
            "city": "潮州市",
            "district": "潮安区"
        }
    },
    {
        "id": "6190022916490308619",
        "title": "公共厕所",
        "address": "广东省潮州市湘桥区铺埔慈云学校北侧150米",
        "tel": "",
        "category": "基础设施:公共设施:公共厕所",
        "type": 0,
        "location": {
            "lat": 23.626274,
            "lng": 116.762103
        },
        "ad_info": {
            "adcode": 445102,
            "province": "广东省",
            "city": "潮州市",
            "district": "湘桥区"
        }
    },
    {
        "id": "6594996345098848754",
        "title": "公共厕所",
        "address": "广东省潮州市潮安区外马路与必胜路交叉口东南方向86米左右",
        "tel": "",
        "category": "基础设施:公共设施:公共厕所",
        "type": 0,
        "location": {
            "lat": 23.655089,
            "lng": 116.606992
        },
        "ad_info": {
            "adcode": 445103,
            "province": "广东省",
            "city": "潮州市",
            "district": "潮安区"
        }
    },
    {
        "id": "18109765103253514590",
        "title": "上寨村应急厕所",
        "address": "广东省潮州市饶平县",
        "tel": "",
        "category": "基础设施:公共设施:公共厕所",
        "type": 0,
        "location": {
            "lat": 23.693803,
            "lng": 117.047311
        },
        "ad_info": {
            "adcode": 445122,
            "province": "广东省",
            "city": "潮州市",
            "district": "饶平县"
        }
    },
    {
        "id": "1050949896260948194",
        "title": "古笃村公共厕所1",
        "address": "广东省潮州市饶平县G15",
        "tel": "",
        "category": "基础设施:公共设施:公共厕所",
        "type": 0,
        "location": {
            "lat": 23.704341,
            "lng": 117.031993
        },
        "ad_info": {
            "adcode": 445122,
            "province": "广东省",
            "city": "潮州市",
            "district": "饶平县"
        }
    },
    {
        "id": "8078073704409644537",
        "title": "上寨村公共厕所",
        "address": "广东省潮州市饶平县",
        "tel": "",
        "category": "基础设施:公共设施:公共厕所",
        "type": 0,
        "location": {
            "lat": 23.694045,
            "lng": 117.050776
        },
        "ad_info": {
            "adcode": 445122,
            "province": "广东省",
            "city": "潮州市",
            "district": "饶平县"
        }
    },
    {
        "id": "3152015608705209845",
        "title": "公共厕所",
        "address": "广东省潮州市潮安区锦辉门诊北侧",
        "tel": "",
        "category": "基础设施:公共设施:公共厕所",
        "type": 0,
        "location": {
            "lat": 23.527407,
            "lng": 116.567668
        },
        "ad_info": {
            "adcode": 445103,
            "province": "广东省",
            "city": "潮州市",
            "district": "潮安区"
        }
    },
    {
        "id": "11676625777418762052",
        "title": "公共厕所",
        "address": "广东省潮州市潮安区彩塘镇坽头小学西侧140米",
        "tel": "",
        "category": "基础设施:公共设施:公共厕所",
        "type": 0,
        "location": {
            "lat": 23.506087,
            "lng": 116.661527
        },
        "ad_info": {
            "adcode": 445103,
            "province": "广东省",
            "city": "潮州市",
            "district": "潮安区"
        }
    },
    {
        "id": "7500784838867870086",
        "title": "仙岩沟下公共厕所",
        "address": "广东省潮州市湘桥区仙岩村沟下",
        "tel": "",
        "category": "基础设施:公共设施:公共厕所",
        "type": 0,
        "location": {
            "lat": 23.622026,
            "lng": 116.790555
        },
        "ad_info": {
            "adcode": 445102,
            "province": "广东省",
            "city": "潮州市",
            "district": "湘桥区"
        }
    },
    {
        "id": "1047659102997174602",
        "title": "新陂村公共厕所",
        "address": "广东省潮州市饶平县",
        "tel": "",
        "category": "基础设施:公共设施:公共厕所",
        "type": 0,
        "location": {
            "lat": 23.720518,
            "lng": 117.045012
        },
        "ad_info": {
            "adcode": 445122,
            "province": "广东省",
            "city": "潮州市",
            "district": "饶平县"
        }
    },
    {
        "id": "2856188399827805296",
        "title": "旅游公共厕所",
        "address": "广东省潮州市饶平县大岭山",
        "tel": "",
        "category": "基础设施:公共设施:公共厕所",
        "type": 0,
        "location": {
            "lat": 23.722682,
            "lng": 116.924485
        },
        "ad_info": {
            "adcode": 445122,
            "province": "广东省",
            "city": "潮州市",
            "district": "饶平县"
        }
    },
    {
        "id": "1307257580254101475",
        "title": "公共厕所",
        "address": "广东省潮州市潮安区新安大道与凤岐潮兴路交叉口西100米",
        "tel": "",
        "category": "基础设施:公共设施:公共厕所",
        "type": 0,
        "location": {
            "lat": 23.454778,
            "lng": 116.686247
        },
        "ad_info": {
            "adcode": 445103,
            "province": "广东省",
            "city": "潮州市",
            "district": "潮安区"
        }
    },
    {
        "id": "12509803936801499112",
        "title": "灯塔村公共厕所",
        "address": "广东省潮州市饶平县灯塔村公共厕所",
        "tel": "",
        "category": "基础设施:公共设施:公共厕所",
        "type": 0,
        "location": {
            "lat": 23.804762,
            "lng": 116.898219
        },
        "ad_info": {
            "adcode": 445122,
            "province": "广东省",
            "city": "潮州市",
            "district": "饶平县"
        }
    },
    {
        "id": "6122314080065478975",
        "title": "公共厕所",
        "address": "广东省潮州市潮安区仙桥环村北路与仙桥环村西路交叉口西北方向214米左右",
        "tel": "",
        "category": "基础设施:公共设施:公共厕所",
        "type": 0,
        "location": {
            "lat": 23.482925,
            "lng": 116.6838
        },
        "ad_info": {
            "adcode": 445103,
            "province": "广东省",
            "city": "潮州市",
            "district": "潮安区"
        }
    },
    {
        "id": "13051850794589678673",
        "title": "公共厕所",
        "address": "广东省潮州市湘桥区大新乡中路与潮州大道交叉口西南方向216米左右",
        "tel": "",
        "category": "基础设施:公共设施:公共厕所",
        "type": 0,
        "location": {
            "lat": 23.673925,
            "lng": 116.606606
        },
        "ad_info": {
            "adcode": 445102,
            "province": "广东省",
            "city": "潮州市",
            "district": "湘桥区"
        }
    },
    {
        "id": "3430086588258369960",
        "title": "公共厕所",
        "address": "广东省潮州市饶平县紫云学校北侧140米",
        "tel": "",
        "category": "基础设施:公共设施:公共厕所",
        "type": 0,
        "location": {
            "lat": 23.67121,
            "lng": 116.920366
        },
        "ad_info": {
            "adcode": 445122,
            "province": "广东省",
            "city": "潮州市",
            "district": "饶平县"
        }
    },
    {
        "id": "5353579726299686994",
        "title": "公共厕所",
        "address": "广东省潮州市饶平县大衙路与环城路交叉口西南方向141米左右",
        "tel": "",
        "category": "基础设施:公共设施:公共厕所",
        "type": 0,
        "location": {
            "lat": 23.671092,
            "lng": 117.00386
        },
        "ad_info": {
            "adcode": 445122,
            "province": "广东省",
            "city": "潮州市",
            "district": "饶平县"
        }
    },
    {
        "id": "16211146744122770054",
        "title": "公共厕所",
        "address": "广东省潮州市潮安区塔下桥东路与金和路交叉口正西方向676米左右",
        "tel": "",
        "category": "基础设施:公共设施:公共厕所",
        "type": 0,
        "location": {
            "lat": 23.513928,
            "lng": 116.603723
        },
        "ad_info": {
            "adcode": 445103,
            "province": "广东省",
            "city": "潮州市",
            "district": "潮安区"
        }
    },
    {
        "id": "6914906148197827648",
        "title": "公共厕所",
        "address": "广东省潮州市潮安区大堀池路与长美长孚路交叉口正东方向127米左右",
        "tel": "",
        "category": "基础设施:公共设施:公共厕所",
        "type": 0,
        "location": {
            "lat": 23.664461,
            "lng": 116.58977
        },
        "ad_info": {
            "adcode": 445103,
            "province": "广东省",
            "city": "潮州市",
            "district": "潮安区"
        }
    },
    {
        "id": "11347522681357793196",
        "title": "无障碍公共厕所",
        "address": "广东省潮州市湘桥区开元路与新桥路交叉口西南方向64米左右",
        "tel": "",
        "category": "基础设施:公共设施:公共厕所",
        "type": 0,
        "location": {
            "lat": 23.662746,
            "lng": 116.642812
        },
        "ad_info": {
            "adcode": 445102,
            "province": "广东省",
            "city": "潮州市",
            "district": "湘桥区"
        }
    },
    {
        "id": "1105069946345399203",
        "title": "公共厕所",
        "address": "广东省潮州市潮安区Y266与玉湖路交叉口东南方向743米左右",
        "tel": "",
        "category": "基础设施:公共设施:公共厕所",
        "type": 0,
        "location": {
            "lat": 23.608846,
            "lng": 116.569604
        },
        "ad_info": {
            "adcode": 445103,
            "province": "广东省",
            "city": "潮州市",
            "district": "潮安区"
        }
    },
    {
        "id": "6190022916490308619",
        "title": "公共厕所",
        "address": "广东省潮州市湘桥区铺埔慈云学校北侧150米",
        "tel": "",
        "category": "基础设施:公共设施:公共厕所",
        "type": 0,
        "location": {
            "lat": 23.626274,
            "lng": 116.762103
        },
        "ad_info": {
            "adcode": 445102,
            "province": "广东省",
            "city": "潮州市",
            "district": "湘桥区"
        }
    },
    {
        "id": "6594996345098848754",
        "title": "公共厕所",
        "address": "广东省潮州市潮安区外马路与必胜路交叉口东南方向86米左右",
        "tel": "",
        "category": "基础设施:公共设施:公共厕所",
        "type": 0,
        "location": {
            "lat": 23.655089,
            "lng": 116.606992
        },
        "ad_info": {
            "adcode": 445103,
            "province": "广东省",
            "city": "潮州市",
            "district": "潮安区"
        }
    },
    {
        "id": "18109765103253514590",
        "title": "上寨村应急厕所",
        "address": "广东省潮州市饶平县",
        "tel": "",
        "category": "基础设施:公共设施:公共厕所",
        "type": 0,
        "location": {
            "lat": 23.693803,
            "lng": 117.047311
        },
        "ad_info": {
            "adcode": 445122,
            "province": "广东省",
            "city": "潮州市",
            "district": "饶平县"
        }
    },
    {
        "id": "1050949896260948194",
        "title": "古笃村公共厕所1",
        "address": "广东省潮州市饶平县G15",
        "tel": "",
        "category": "基础设施:公共设施:公共厕所",
        "type": 0,
        "location": {
            "lat": 23.704341,
            "lng": 117.031993
        },
        "ad_info": {
            "adcode": 445122,
            "province": "广东省",
            "city": "潮州市",
            "district": "饶平县"
        }
    },
    {
        "id": "8078073704409644537",
        "title": "上寨村公共厕所",
        "address": "广东省潮州市饶平县",
        "tel": "",
        "category": "基础设施:公共设施:公共厕所",
        "type": 0,
        "location": {
            "lat": 23.694045,
            "lng": 117.050776
        },
        "ad_info": {
            "adcode": 445122,
            "province": "广东省",
            "city": "潮州市",
            "district": "饶平县"
        }
    },
    {
        "id": "3152015608705209845",
        "title": "公共厕所",
        "address": "广东省潮州市潮安区锦辉门诊北侧",
        "tel": "",
        "category": "基础设施:公共设施:公共厕所",
        "type": 0,
        "location": {
            "lat": 23.527407,
            "lng": 116.567668
        },
        "ad_info": {
            "adcode": 445103,
            "province": "广东省",
            "city": "潮州市",
            "district": "潮安区"
        }
    },
    {
        "id": "11676625777418762052",
        "title": "公共厕所",
        "address": "广东省潮州市潮安区彩塘镇坽头小学西侧140米",
        "tel": "",
        "category": "基础设施:公共设施:公共厕所",
        "type": 0,
        "location": {
            "lat": 23.506087,
            "lng": 116.661527
        },
        "ad_info": {
            "adcode": 445103,
            "province": "广东省",
            "city": "潮州市",
            "district": "潮安区"
        }
    },
    {
        "id": "7500784838867870086",
        "title": "仙岩沟下公共厕所",
        "address": "广东省潮州市湘桥区仙岩村沟下",
        "tel": "",
        "category": "基础设施:公共设施:公共厕所",
        "type": 0,
        "location": {
            "lat": 23.622026,
            "lng": 116.790555
        },
        "ad_info": {
            "adcode": 445102,
            "province": "广东省",
            "city": "潮州市",
            "district": "湘桥区"
        }
    },
    {
        "id": "1047659102997174602",
        "title": "新陂村公共厕所",
        "address": "广东省潮州市饶平县",
        "tel": "",
        "category": "基础设施:公共设施:公共厕所",
        "type": 0,
        "location": {
            "lat": 23.720518,
            "lng": 117.045012
        },
        "ad_info": {
            "adcode": 445122,
            "province": "广东省",
            "city": "潮州市",
            "district": "饶平县"
        }
    },
    {
        "id": "2856188399827805296",
        "title": "旅游公共厕所",
        "address": "广东省潮州市饶平县大岭山",
        "tel": "",
        "category": "基础设施:公共设施:公共厕所",
        "type": 0,
        "location": {
            "lat": 23.722682,
            "lng": 116.924485
        },
        "ad_info": {
            "adcode": 445122,
            "province": "广东省",
            "city": "潮州市",
            "district": "饶平县"
        }
    },
    {
        "id": "1307257580254101475",
        "title": "公共厕所",
        "address": "广东省潮州市潮安区新安大道与凤岐潮兴路交叉口西100米",
        "tel": "",
        "category": "基础设施:公共设施:公共厕所",
        "type": 0,
        "location": {
            "lat": 23.454778,
            "lng": 116.686247
        },
        "ad_info": {
            "adcode": 445103,
            "province": "广东省",
            "city": "潮州市",
            "district": "潮安区"
        }
    },
    {
        "id": "12509803936801499112",
        "title": "灯塔村公共厕所",
        "address": "广东省潮州市饶平县灯塔村公共厕所",
        "tel": "",
        "category": "基础设施:公共设施:公共厕所",
        "type": 0,
        "location": {
            "lat": 23.804762,
            "lng": 116.898219
        },
        "ad_info": {
            "adcode": 445122,
            "province": "广东省",
            "city": "潮州市",
            "district": "饶平县"
        }
    },
    {
        "id": "6122314080065478975",
        "title": "公共厕所",
        "address": "广东省潮州市潮安区仙桥环村北路与仙桥环村西路交叉口西北方向214米左右",
        "tel": "",
        "category": "基础设施:公共设施:公共厕所",
        "type": 0,
        "location": {
            "lat": 23.482925,
            "lng": 116.6838
        },
        "ad_info": {
            "adcode": 445103,
            "province": "广东省",
            "city": "潮州市",
            "district": "潮安区"
        }
    },
    {
        "id": "13051850794589678673",
        "title": "公共厕所",
        "address": "广东省潮州市湘桥区大新乡中路与潮州大道交叉口西南方向216米左右",
        "tel": "",
        "category": "基础设施:公共设施:公共厕所",
        "type": 0,
        "location": {
            "lat": 23.673925,
            "lng": 116.606606
        },
        "ad_info": {
            "adcode": 445102,
            "province": "广东省",
            "city": "潮州市",
            "district": "湘桥区"
        }
    },
    {
        "id": "3430086588258369960",
        "title": "公共厕所",
        "address": "广东省潮州市饶平县紫云学校北侧140米",
        "tel": "",
        "category": "基础设施:公共设施:公共厕所",
        "type": 0,
        "location": {
            "lat": 23.67121,
            "lng": 116.920366
        },
        "ad_info": {
            "adcode": 445122,
            "province": "广东省",
            "city": "潮州市",
            "district": "饶平县"
        }
    },
    {
        "id": "5353579726299686994",
        "title": "公共厕所",
        "address": "广东省潮州市饶平县大衙路与环城路交叉口西南方向141米左右",
        "tel": "",
        "category": "基础设施:公共设施:公共厕所",
        "type": 0,
        "location": {
            "lat": 23.671092,
            "lng": 117.00386
        },
        "ad_info": {
            "adcode": 445122,
            "province": "广东省",
            "city": "潮州市",
            "district": "饶平县"
        }
    },
    {
        "id": "16211146744122770054",
        "title": "公共厕所",
        "address": "广东省潮州市潮安区塔下桥东路与金和路交叉口正西方向676米左右",
        "tel": "",
        "category": "基础设施:公共设施:公共厕所",
        "type": 0,
        "location": {
            "lat": 23.513928,
            "lng": 116.603723
        },
        "ad_info": {
            "adcode": 445103,
            "province": "广东省",
            "city": "潮州市",
            "district": "潮安区"
        }
    },
    {
        "id": "6914906148197827648",
        "title": "公共厕所",
        "address": "广东省潮州市潮安区大堀池路与长美长孚路交叉口正东方向127米左右",
        "tel": "",
        "category": "基础设施:公共设施:公共厕所",
        "type": 0,
        "location": {
            "lat": 23.664461,
            "lng": 116.58977
        },
        "ad_info": {
            "adcode": 445103,
            "province": "广东省",
            "city": "潮州市",
            "district": "潮安区"
        }
    },
    {
        "id": "11347522681357793196",
        "title": "无障碍公共厕所",
        "address": "广东省潮州市湘桥区开元路与新桥路交叉口西南方向64米左右",
        "tel": "",
        "category": "基础设施:公共设施:公共厕所",
        "type": 0,
        "location": {
            "lat": 23.662746,
            "lng": 116.642812
        },
        "ad_info": {
            "adcode": 445102,
            "province": "广东省",
            "city": "潮州市",
            "district": "湘桥区"
        }
    },
    {
        "id": "1105069946345399203",
        "title": "公共厕所",
        "address": "广东省潮州市潮安区Y266与玉湖路交叉口东南方向743米左右",
        "tel": "",
        "category": "基础设施:公共设施:公共厕所",
        "type": 0,
        "location": {
            "lat": 23.608846,
            "lng": 116.569604
        },
        "ad_info": {
            "adcode": 445103,
            "province": "广东省",
            "city": "潮州市",
            "district": "潮安区"
        }
    },
    {
        "id": "6190022916490308619",
        "title": "公共厕所",
        "address": "广东省潮州市湘桥区铺埔慈云学校北侧150米",
        "tel": "",
        "category": "基础设施:公共设施:公共厕所",
        "type": 0,
        "location": {
            "lat": 23.626274,
            "lng": 116.762103
        },
        "ad_info": {
            "adcode": 445102,
            "province": "广东省",
            "city": "潮州市",
            "district": "湘桥区"
        }
    },
    {
        "id": "6594996345098848754",
        "title": "公共厕所",
        "address": "广东省潮州市潮安区外马路与必胜路交叉口东南方向86米左右",
        "tel": "",
        "category": "基础设施:公共设施:公共厕所",
        "type": 0,
        "location": {
            "lat": 23.655089,
            "lng": 116.606992
        },
        "ad_info": {
            "adcode": 445103,
            "province": "广东省",
            "city": "潮州市",
            "district": "潮安区"
        }
    },
    {
        "id": "18109765103253514590",
        "title": "上寨村应急厕所",
        "address": "广东省潮州市饶平县",
        "tel": "",
        "category": "基础设施:公共设施:公共厕所",
        "type": 0,
        "location": {
            "lat": 23.693803,
            "lng": 117.047311
        },
        "ad_info": {
            "adcode": 445122,
            "province": "广东省",
            "city": "潮州市",
            "district": "饶平县"
        }
    },
    {
        "id": "1050949896260948194",
        "title": "古笃村公共厕所1",
        "address": "广东省潮州市饶平县G15",
        "tel": "",
        "category": "基础设施:公共设施:公共厕所",
        "type": 0,
        "location": {
            "lat": 23.704341,
            "lng": 117.031993
        },
        "ad_info": {
            "adcode": 445122,
            "province": "广东省",
            "city": "潮州市",
            "district": "饶平县"
        }
    },
    {
        "id": "8078073704409644537",
        "title": "上寨村公共厕所",
        "address": "广东省潮州市饶平县",
        "tel": "",
        "category": "基础设施:公共设施:公共厕所",
        "type": 0,
        "location": {
            "lat": 23.694045,
            "lng": 117.050776
        },
        "ad_info": {
            "adcode": 445122,
            "province": "广东省",
            "city": "潮州市",
            "district": "饶平县"
        }
    },
    {
        "id": "3152015608705209845",
        "title": "公共厕所",
        "address": "广东省潮州市潮安区锦辉门诊北侧",
        "tel": "",
        "category": "基础设施:公共设施:公共厕所",
        "type": 0,
        "location": {
            "lat": 23.527407,
            "lng": 116.567668
        },
        "ad_info": {
            "adcode": 445103,
            "province": "广东省",
            "city": "潮州市",
            "district": "潮安区"
        }
    },
    {
        "id": "11676625777418762052",
        "title": "公共厕所",
        "address": "广东省潮州市潮安区彩塘镇坽头小学西侧140米",
        "tel": "",
        "category": "基础设施:公共设施:公共厕所",
        "type": 0,
        "location": {
            "lat": 23.506087,
            "lng": 116.661527
        },
        "ad_info": {
            "adcode": 445103,
            "province": "广东省",
            "city": "潮州市",
            "district": "潮安区"
        }
    },
    {
        "id": "7500784838867870086",
        "title": "仙岩沟下公共厕所",
        "address": "广东省潮州市湘桥区仙岩村沟下",
        "tel": "",
        "category": "基础设施:公共设施:公共厕所",
        "type": 0,
        "location": {
            "lat": 23.622026,
            "lng": 116.790555
        },
        "ad_info": {
            "adcode": 445102,
            "province": "广东省",
            "city": "潮州市",
            "district": "湘桥区"
        }
    },
    {
        "id": "1047659102997174602",
        "title": "新陂村公共厕所",
        "address": "广东省潮州市饶平县",
        "tel": "",
        "category": "基础设施:公共设施:公共厕所",
        "type": 0,
        "location": {
            "lat": 23.720518,
            "lng": 117.045012
        },
        "ad_info": {
            "adcode": 445122,
            "province": "广东省",
            "city": "潮州市",
            "district": "饶平县"
        }
    },
    {
        "id": "2856188399827805296",
        "title": "旅游公共厕所",
        "address": "广东省潮州市饶平县大岭山",
        "tel": "",
        "category": "基础设施:公共设施:公共厕所",
        "type": 0,
        "location": {
            "lat": 23.722682,
            "lng": 116.924485
        },
        "ad_info": {
            "adcode": 445122,
            "province": "广东省",
            "city": "潮州市",
            "district": "饶平县"
        }
    },
    {
        "id": "1307257580254101475",
        "title": "公共厕所",
        "address": "广东省潮州市潮安区新安大道与凤岐潮兴路交叉口西100米",
        "tel": "",
        "category": "基础设施:公共设施:公共厕所",
        "type": 0,
        "location": {
            "lat": 23.454778,
            "lng": 116.686247
        },
        "ad_info": {
            "adcode": 445103,
            "province": "广东省",
            "city": "潮州市",
            "district": "潮安区"
        }
    },
    {
        "id": "12509803936801499112",
        "title": "灯塔村公共厕所",
        "address": "广东省潮州市饶平县灯塔村公共厕所",
        "tel": "",
        "category": "基础设施:公共设施:公共厕所",
        "type": 0,
        "location": {
            "lat": 23.804762,
            "lng": 116.898219
        },
        "ad_info": {
            "adcode": 445122,
            "province": "广东省",
            "city": "潮州市",
            "district": "饶平县"
        }
    },
    {
        "id": "6122314080065478975",
        "title": "公共厕所",
        "address": "广东省潮州市潮安区仙桥环村北路与仙桥环村西路交叉口西北方向214米左右",
        "tel": "",
        "category": "基础设施:公共设施:公共厕所",
        "type": 0,
        "location": {
            "lat": 23.482925,
            "lng": 116.6838
        },
        "ad_info": {
            "adcode": 445103,
            "province": "广东省",
            "city": "潮州市",
            "district": "潮安区"
        }
    },
    {
        "id": "13051850794589678673",
        "title": "公共厕所",
        "address": "广东省潮州市湘桥区大新乡中路与潮州大道交叉口西南方向216米左右",
        "tel": "",
        "category": "基础设施:公共设施:公共厕所",
        "type": 0,
        "location": {
            "lat": 23.673925,
            "lng": 116.606606
        },
        "ad_info": {
            "adcode": 445102,
            "province": "广东省",
            "city": "潮州市",
            "district": "湘桥区"
        }
    },
    {
        "id": "3430086588258369960",
        "title": "公共厕所",
        "address": "广东省潮州市饶平县紫云学校北侧140米",
        "tel": "",
        "category": "基础设施:公共设施:公共厕所",
        "type": 0,
        "location": {
            "lat": 23.67121,
            "lng": 116.920366
        },
        "ad_info": {
            "adcode": 445122,
            "province": "广东省",
            "city": "潮州市",
            "district": "饶平县"
        }
    },
    {
        "id": "5353579726299686994",
        "title": "公共厕所",
        "address": "广东省潮州市饶平县大衙路与环城路交叉口西南方向141米左右",
        "tel": "",
        "category": "基础设施:公共设施:公共厕所",
        "type": 0,
        "location": {
            "lat": 23.671092,
            "lng": 117.00386
        },
        "ad_info": {
            "adcode": 445122,
            "province": "广东省",
            "city": "潮州市",
            "district": "饶平县"
        }
    },
    {
        "id": "16211146744122770054",
        "title": "公共厕所",
        "address": "广东省潮州市潮安区塔下桥东路与金和路交叉口正西方向676米左右",
        "tel": "",
        "category": "基础设施:公共设施:公共厕所",
        "type": 0,
        "location": {
            "lat": 23.513928,
            "lng": 116.603723
        },
        "ad_info": {
            "adcode": 445103,
            "province": "广东省",
            "city": "潮州市",
            "district": "潮安区"
        }
    },
    {
        "id": "6914906148197827648",
        "title": "公共厕所",
        "address": "广东省潮州市潮安区大堀池路与长美长孚路交叉口正东方向127米左右",
        "tel": "",
        "category": "基础设施:公共设施:公共厕所",
        "type": 0,
        "location": {
            "lat": 23.664461,
            "lng": 116.58977
        },
        "ad_info": {
            "adcode": 445103,
            "province": "广东省",
            "city": "潮州市",
            "district": "潮安区"
        }
    },
    {
        "id": "11347522681357793196",
        "title": "无障碍公共厕所",
        "address": "广东省潮州市湘桥区开元路与新桥路交叉口西南方向64米左右",
        "tel": "",
        "category": "基础设施:公共设施:公共厕所",
        "type": 0,
        "location": {
            "lat": 23.662746,
            "lng": 116.642812
        },
        "ad_info": {
            "adcode": 445102,
            "province": "广东省",
            "city": "潮州市",
            "district": "湘桥区"
        }
    },
    {
        "id": "1105069946345399203",
        "title": "公共厕所",
        "address": "广东省潮州市潮安区Y266与玉湖路交叉口东南方向743米左右",
        "tel": "",
        "category": "基础设施:公共设施:公共厕所",
        "type": 0,
        "location": {
            "lat": 23.608846,
            "lng": 116.569604
        },
        "ad_info": {
            "adcode": 445103,
            "province": "广东省",
            "city": "潮州市",
            "district": "潮安区"
        }
    },
    {
        "id": "6190022916490308619",
        "title": "公共厕所",
        "address": "广东省潮州市湘桥区铺埔慈云学校北侧150米",
        "tel": "",
        "category": "基础设施:公共设施:公共厕所",
        "type": 0,
        "location": {
            "lat": 23.626274,
            "lng": 116.762103
        },
        "ad_info": {
            "adcode": 445102,
            "province": "广东省",
            "city": "潮州市",
            "district": "湘桥区"
        }
    },
    {
        "id": "6594996345098848754",
        "title": "公共厕所",
        "address": "广东省潮州市潮安区外马路与必胜路交叉口东南方向86米左右",
        "tel": "",
        "category": "基础设施:公共设施:公共厕所",
        "type": 0,
        "location": {
            "lat": 23.655089,
            "lng": 116.606992
        },
        "ad_info": {
            "adcode": 445103,
            "province": "广东省",
            "city": "潮州市",
            "district": "潮安区"
        }
    },
    {
        "id": "18109765103253514590",
        "title": "上寨村应急厕所",
        "address": "广东省潮州市饶平县",
        "tel": "",
        "category": "基础设施:公共设施:公共厕所",
        "type": 0,
        "location": {
            "lat": 23.693803,
            "lng": 117.047311
        },
        "ad_info": {
            "adcode": 445122,
            "province": "广东省",
            "city": "潮州市",
            "district": "饶平县"
        }
    },
    {
        "id": "1050949896260948194",
        "title": "古笃村公共厕所1",
        "address": "广东省潮州市饶平县G15",
        "tel": "",
        "category": "基础设施:公共设施:公共厕所",
        "type": 0,
        "location": {
            "lat": 23.704341,
            "lng": 117.031993
        },
        "ad_info": {
            "adcode": 445122,
            "province": "广东省",
            "city": "潮州市",
            "district": "饶平县"
        }
    },
    {
        "id": "8078073704409644537",
        "title": "上寨村公共厕所",
        "address": "广东省潮州市饶平县",
        "tel": "",
        "category": "基础设施:公共设施:公共厕所",
        "type": 0,
        "location": {
            "lat": 23.694045,
            "lng": 117.050776
        },
        "ad_info": {
            "adcode": 445122,
            "province": "广东省",
            "city": "潮州市",
            "district": "饶平县"
        }
    },
    {
        "id": "3152015608705209845",
        "title": "公共厕所",
        "address": "广东省潮州市潮安区锦辉门诊北侧",
        "tel": "",
        "category": "基础设施:公共设施:公共厕所",
        "type": 0,
        "location": {
            "lat": 23.527407,
            "lng": 116.567668
        },
        "ad_info": {
            "adcode": 445103,
            "province": "广东省",
            "city": "潮州市",
            "district": "潮安区"
        }
    },
    {
        "id": "11676625777418762052",
        "title": "公共厕所",
        "address": "广东省潮州市潮安区彩塘镇坽头小学西侧140米",
        "tel": "",
        "category": "基础设施:公共设施:公共厕所",
        "type": 0,
        "location": {
            "lat": 23.506087,
            "lng": 116.661527
        },
        "ad_info": {
            "adcode": 445103,
            "province": "广东省",
            "city": "潮州市",
            "district": "潮安区"
        }
    },
    {
        "id": "7500784838867870086",
        "title": "仙岩沟下公共厕所",
        "address": "广东省潮州市湘桥区仙岩村沟下",
        "tel": "",
        "category": "基础设施:公共设施:公共厕所",
        "type": 0,
        "location": {
            "lat": 23.622026,
            "lng": 116.790555
        },
        "ad_info": {
            "adcode": 445102,
            "province": "广东省",
            "city": "潮州市",
            "district": "湘桥区"
        }
    },
    {
        "id": "1047659102997174602",
        "title": "新陂村公共厕所",
        "address": "广东省潮州市饶平县",
        "tel": "",
        "category": "基础设施:公共设施:公共厕所",
        "type": 0,
        "location": {
            "lat": 23.720518,
            "lng": 117.045012
        },
        "ad_info": {
            "adcode": 445122,
            "province": "广东省",
            "city": "潮州市",
            "district": "饶平县"
        }
    },
    {
        "id": "2856188399827805296",
        "title": "旅游公共厕所",
        "address": "广东省潮州市饶平县大岭山",
        "tel": "",
        "category": "基础设施:公共设施:公共厕所",
        "type": 0,
        "location": {
            "lat": 23.722682,
            "lng": 116.924485
        },
        "ad_info": {
            "adcode": 445122,
            "province": "广东省",
            "city": "潮州市",
            "district": "饶平县"
        }
    },
    {
        "id": "1307257580254101475",
        "title": "公共厕所",
        "address": "广东省潮州市潮安区新安大道与凤岐潮兴路交叉口西100米",
        "tel": "",
        "category": "基础设施:公共设施:公共厕所",
        "type": 0,
        "location": {
            "lat": 23.454778,
            "lng": 116.686247
        },
        "ad_info": {
            "adcode": 445103,
            "province": "广东省",
            "city": "潮州市",
            "district": "潮安区"
        }
    },
    {
        "id": "12509803936801499112",
        "title": "灯塔村公共厕所",
        "address": "广东省潮州市饶平县灯塔村公共厕所",
        "tel": "",
        "category": "基础设施:公共设施:公共厕所",
        "type": 0,
        "location": {
            "lat": 23.804762,
            "lng": 116.898219
        },
        "ad_info": {
            "adcode": 445122,
            "province": "广东省",
            "city": "潮州市",
            "district": "饶平县"
        }
    },
    {
        "id": "6122314080065478975",
        "title": "公共厕所",
        "address": "广东省潮州市潮安区仙桥环村北路与仙桥环村西路交叉口西北方向214米左右",
        "tel": "",
        "category": "基础设施:公共设施:公共厕所",
        "type": 0,
        "location": {
            "lat": 23.482925,
            "lng": 116.6838
        },
        "ad_info": {
            "adcode": 445103,
            "province": "广东省",
            "city": "潮州市",
            "district": "潮安区"
        }
    },
    {
        "id": "13051850794589678673",
        "title": "公共厕所",
        "address": "广东省潮州市湘桥区大新乡中路与潮州大道交叉口西南方向216米左右",
        "tel": "",
        "category": "基础设施:公共设施:公共厕所",
        "type": 0,
        "location": {
            "lat": 23.673925,
            "lng": 116.606606
        },
        "ad_info": {
            "adcode": 445102,
            "province": "广东省",
            "city": "潮州市",
            "district": "湘桥区"
        }
    },
    {
        "id": "3430086588258369960",
        "title": "公共厕所",
        "address": "广东省潮州市饶平县紫云学校北侧140米",
        "tel": "",
        "category": "基础设施:公共设施:公共厕所",
        "type": 0,
        "location": {
            "lat": 23.67121,
            "lng": 116.920366
        },
        "ad_info": {
            "adcode": 445122,
            "province": "广东省",
            "city": "潮州市",
            "district": "饶平县"
        }
    },
    {
        "id": "5353579726299686994",
        "title": "公共厕所",
        "address": "广东省潮州市饶平县大衙路与环城路交叉口西南方向141米左右",
        "tel": "",
        "category": "基础设施:公共设施:公共厕所",
        "type": 0,
        "location": {
            "lat": 23.671092,
            "lng": 117.00386
        },
        "ad_info": {
            "adcode": 445122,
            "province": "广东省",
            "city": "潮州市",
            "district": "饶平县"
        }
    },
    {
        "id": "16211146744122770054",
        "title": "公共厕所",
        "address": "广东省潮州市潮安区塔下桥东路与金和路交叉口正西方向676米左右",
        "tel": "",
        "category": "基础设施:公共设施:公共厕所",
        "type": 0,
        "location": {
            "lat": 23.513928,
            "lng": 116.603723
        },
        "ad_info": {
            "adcode": 445103,
            "province": "广东省",
            "city": "潮州市",
            "district": "潮安区"
        }
    },
    {
        "id": "6914906148197827648",
        "title": "公共厕所",
        "address": "广东省潮州市潮安区大堀池路与长美长孚路交叉口正东方向127米左右",
        "tel": "",
        "category": "基础设施:公共设施:公共厕所",
        "type": 0,
        "location": {
            "lat": 23.664461,
            "lng": 116.58977
        },
        "ad_info": {
            "adcode": 445103,
            "province": "广东省",
            "city": "潮州市",
            "district": "潮安区"
        }
    },
    {
        "id": "11347522681357793196",
        "title": "无障碍公共厕所",
        "address": "广东省潮州市湘桥区开元路与新桥路交叉口西南方向64米左右",
        "tel": "",
        "category": "基础设施:公共设施:公共厕所",
        "type": 0,
        "location": {
            "lat": 23.662746,
            "lng": 116.642812
        },
        "ad_info": {
            "adcode": 445102,
            "province": "广东省",
            "city": "潮州市",
            "district": "湘桥区"
        }
    },
    {
        "id": "1105069946345399203",
        "title": "公共厕所",
        "address": "广东省潮州市潮安区Y266与玉湖路交叉口东南方向743米左右",
        "tel": "",
        "category": "基础设施:公共设施:公共厕所",
        "type": 0,
        "location": {
            "lat": 23.608846,
            "lng": 116.569604
        },
        "ad_info": {
            "adcode": 445103,
            "province": "广东省",
            "city": "潮州市",
            "district": "潮安区"
        }
    },
    {
        "id": "6190022916490308619",
        "title": "公共厕所",
        "address": "广东省潮州市湘桥区铺埔慈云学校北侧150米",
        "tel": "",
        "category": "基础设施:公共设施:公共厕所",
        "type": 0,
        "location": {
            "lat": 23.626274,
            "lng": 116.762103
        },
        "ad_info": {
            "adcode": 445102,
            "province": "广东省",
            "city": "潮州市",
            "district": "湘桥区"
        }
    },
    {
        "id": "6594996345098848754",
        "title": "公共厕所",
        "address": "广东省潮州市潮安区外马路与必胜路交叉口东南方向86米左右",
        "tel": "",
        "category": "基础设施:公共设施:公共厕所",
        "type": 0,
        "location": {
            "lat": 23.655089,
            "lng": 116.606992
        },
        "ad_info": {
            "adcode": 445103,
            "province": "广东省",
            "city": "潮州市",
            "district": "潮安区"
        }
    },
    {
        "id": "18109765103253514590",
        "title": "上寨村应急厕所",
        "address": "广东省潮州市饶平县",
        "tel": "",
        "category": "基础设施:公共设施:公共厕所",
        "type": 0,
        "location": {
            "lat": 23.693803,
            "lng": 117.047311
        },
        "ad_info": {
            "adcode": 445122,
            "province": "广东省",
            "city": "潮州市",
            "district": "饶平县"
        }
    },
    {
        "id": "1050949896260948194",
        "title": "古笃村公共厕所1",
        "address": "广东省潮州市饶平县G15",
        "tel": "",
        "category": "基础设施:公共设施:公共厕所",
        "type": 0,
        "location": {
            "lat": 23.704341,
            "lng": 117.031993
        },
        "ad_info": {
            "adcode": 445122,
            "province": "广东省",
            "city": "潮州市",
            "district": "饶平县"
        }
    },
    {
        "id": "8078073704409644537",
        "title": "上寨村公共厕所",
        "address": "广东省潮州市饶平县",
        "tel": "",
        "category": "基础设施:公共设施:公共厕所",
        "type": 0,
        "location": {
            "lat": 23.694045,
            "lng": 117.050776
        },
        "ad_info": {
            "adcode": 445122,
            "province": "广东省",
            "city": "潮州市",
            "district": "饶平县"
        }
    },
    {
        "id": "3152015608705209845",
        "title": "公共厕所",
        "address": "广东省潮州市潮安区锦辉门诊北侧",
        "tel": "",
        "category": "基础设施:公共设施:公共厕所",
        "type": 0,
        "location": {
            "lat": 23.527407,
            "lng": 116.567668
        },
        "ad_info": {
            "adcode": 445103,
            "province": "广东省",
            "city": "潮州市",
            "district": "潮安区"
        }
    },
    {
        "id": "11676625777418762052",
        "title": "公共厕所",
        "address": "广东省潮州市潮安区彩塘镇坽头小学西侧140米",
        "tel": "",
        "category": "基础设施:公共设施:公共厕所",
        "type": 0,
        "location": {
            "lat": 23.506087,
            "lng": 116.661527
        },
        "ad_info": {
            "adcode": 445103,
            "province": "广东省",
            "city": "潮州市",
            "district": "潮安区"
        }
    },
    {
        "id": "7500784838867870086",
        "title": "仙岩沟下公共厕所",
        "address": "广东省潮州市湘桥区仙岩村沟下",
        "tel": "",
        "category": "基础设施:公共设施:公共厕所",
        "type": 0,
        "location": {
            "lat": 23.622026,
            "lng": 116.790555
        },
        "ad_info": {
            "adcode": 445102,
            "province": "广东省",
            "city": "潮州市",
            "district": "湘桥区"
        }
    },
    {
        "id": "1047659102997174602",
        "title": "新陂村公共厕所",
        "address": "广东省潮州市饶平县",
        "tel": "",
        "category": "基础设施:公共设施:公共厕所",
        "type": 0,
        "location": {
            "lat": 23.720518,
            "lng": 117.045012
        },
        "ad_info": {
            "adcode": 445122,
            "province": "广东省",
            "city": "潮州市",
            "district": "饶平县"
        }
    },
    {
        "id": "2856188399827805296",
        "title": "旅游公共厕所",
        "address": "广东省潮州市饶平县大岭山",
        "tel": "",
        "category": "基础设施:公共设施:公共厕所",
        "type": 0,
        "location": {
            "lat": 23.722682,
            "lng": 116.924485
        },
        "ad_info": {
            "adcode": 445122,
            "province": "广东省",
            "city": "潮州市",
            "district": "饶平县"
        }
    },
    {
        "id": "1307257580254101475",
        "title": "公共厕所",
        "address": "广东省潮州市潮安区新安大道与凤岐潮兴路交叉口西100米",
        "tel": "",
        "category": "基础设施:公共设施:公共厕所",
        "type": 0,
        "location": {
            "lat": 23.454778,
            "lng": 116.686247
        },
        "ad_info": {
            "adcode": 445103,
            "province": "广东省",
            "city": "潮州市",
            "district": "潮安区"
        }
    },
    {
        "id": "12509803936801499112",
        "title": "灯塔村公共厕所",
        "address": "广东省潮州市饶平县灯塔村公共厕所",
        "tel": "",
        "category": "基础设施:公共设施:公共厕所",
        "type": 0,
        "location": {
            "lat": 23.804762,
            "lng": 116.898219
        },
        "ad_info": {
            "adcode": 445122,
            "province": "广东省",
            "city": "潮州市",
            "district": "饶平县"
        }
    },
    {
        "id": "6122314080065478975",
        "title": "公共厕所",
        "address": "广东省潮州市潮安区仙桥环村北路与仙桥环村西路交叉口西北方向214米左右",
        "tel": "",
        "category": "基础设施:公共设施:公共厕所",
        "type": 0,
        "location": {
            "lat": 23.482925,
            "lng": 116.6838
        },
        "ad_info": {
            "adcode": 445103,
            "province": "广东省",
            "city": "潮州市",
            "district": "潮安区"
        }
    },
    {
        "id": "13051850794589678673",
        "title": "公共厕所",
        "address": "广东省潮州市湘桥区大新乡中路与潮州大道交叉口西南方向216米左右",
        "tel": "",
        "category": "基础设施:公共设施:公共厕所",
        "type": 0,
        "location": {
            "lat": 23.673925,
            "lng": 116.606606
        },
        "ad_info": {
            "adcode": 445102,
            "province": "广东省",
            "city": "潮州市",
            "district": "湘桥区"
        }
    },
    {
        "id": "3430086588258369960",
        "title": "公共厕所",
        "address": "广东省潮州市饶平县紫云学校北侧140米",
        "tel": "",
        "category": "基础设施:公共设施:公共厕所",
        "type": 0,
        "location": {
            "lat": 23.67121,
            "lng": 116.920366
        },
        "ad_info": {
            "adcode": 445122,
            "province": "广东省",
            "city": "潮州市",
            "district": "饶平县"
        }
    },
    {
        "id": "5353579726299686994",
        "title": "公共厕所",
        "address": "广东省潮州市饶平县大衙路与环城路交叉口西南方向141米左右",
        "tel": "",
        "category": "基础设施:公共设施:公共厕所",
        "type": 0,
        "location": {
            "lat": 23.671092,
            "lng": 117.00386
        },
        "ad_info": {
            "adcode": 445122,
            "province": "广东省",
            "city": "潮州市",
            "district": "饶平县"
        }
    },
    {
        "id": "16211146744122770054",
        "title": "公共厕所",
        "address": "广东省潮州市潮安区塔下桥东路与金和路交叉口正西方向676米左右",
        "tel": "",
        "category": "基础设施:公共设施:公共厕所",
        "type": 0,
        "location": {
            "lat": 23.513928,
            "lng": 116.603723
        },
        "ad_info": {
            "adcode": 445103,
            "province": "广东省",
            "city": "潮州市",
            "district": "潮安区"
        }
    },
    {
        "id": "6914906148197827648",
        "title": "公共厕所",
        "address": "广东省潮州市潮安区大堀池路与长美长孚路交叉口正东方向127米左右",
        "tel": "",
        "category": "基础设施:公共设施:公共厕所",
        "type": 0,
        "location": {
            "lat": 23.664461,
            "lng": 116.58977
        },
        "ad_info": {
            "adcode": 445103,
            "province": "广东省",
            "city": "潮州市",
            "district": "潮安区"
        }
    },
    {
        "id": "11347522681357793196",
        "title": "无障碍公共厕所",
        "address": "广东省潮州市湘桥区开元路与新桥路交叉口西南方向64米左右",
        "tel": "",
        "category": "基础设施:公共设施:公共厕所",
        "type": 0,
        "location": {
            "lat": 23.662746,
            "lng": 116.642812
        },
        "ad_info": {
            "adcode": 445102,
            "province": "广东省",
            "city": "潮州市",
            "district": "湘桥区"
        }
    },
    {
        "id": "1105069946345399203",
        "title": "公共厕所",
        "address": "广东省潮州市潮安区Y266与玉湖路交叉口东南方向743米左右",
        "tel": "",
        "category": "基础设施:公共设施:公共厕所",
        "type": 0,
        "location": {
            "lat": 23.608846,
            "lng": 116.569604
        },
        "ad_info": {
            "adcode": 445103,
            "province": "广东省",
            "city": "潮州市",
            "district": "潮安区"
        }
    },
    {
        "id": "6190022916490308619",
        "title": "公共厕所",
        "address": "广东省潮州市湘桥区铺埔慈云学校北侧150米",
        "tel": "",
        "category": "基础设施:公共设施:公共厕所",
        "type": 0,
        "location": {
            "lat": 23.626274,
            "lng": 116.762103
        },
        "ad_info": {
            "adcode": 445102,
            "province": "广东省",
            "city": "潮州市",
            "district": "湘桥区"
        }
    },
    {
        "id": "6594996345098848754",
        "title": "公共厕所",
        "address": "广东省潮州市潮安区外马路与必胜路交叉口东南方向86米左右",
        "tel": "",
        "category": "基础设施:公共设施:公共厕所",
        "type": 0,
        "location": {
            "lat": 23.655089,
            "lng": 116.606992
        },
        "ad_info": {
            "adcode": 445103,
            "province": "广东省",
            "city": "潮州市",
            "district": "潮安区"
        }
    },
    {
        "id": "18109765103253514590",
        "title": "上寨村应急厕所",
        "address": "广东省潮州市饶平县",
        "tel": "",
        "category": "基础设施:公共设施:公共厕所",
        "type": 0,
        "location": {
            "lat": 23.693803,
            "lng": 117.047311
        },
        "ad_info": {
            "adcode": 445122,
            "province": "广东省",
            "city": "潮州市",
            "district": "饶平县"
        }
    },
    {
        "id": "1050949896260948194",
        "title": "古笃村公共厕所1",
        "address": "广东省潮州市饶平县G15",
        "tel": "",
        "category": "基础设施:公共设施:公共厕所",
        "type": 0,
        "location": {
            "lat": 23.704341,
            "lng": 117.031993
        },
        "ad_info": {
            "adcode": 445122,
            "province": "广东省",
            "city": "潮州市",
            "district": "饶平县"
        }
    },
    {
        "id": "8078073704409644537",
        "title": "上寨村公共厕所",
        "address": "广东省潮州市饶平县",
        "tel": "",
        "category": "基础设施:公共设施:公共厕所",
        "type": 0,
        "location": {
            "lat": 23.694045,
            "lng": 117.050776
        },
        "ad_info": {
            "adcode": 445122,
            "province": "广东省",
            "city": "潮州市",
            "district": "饶平县"
        }
    },
    {
        "id": "3152015608705209845",
        "title": "公共厕所",
        "address": "广东省潮州市潮安区锦辉门诊北侧",
        "tel": "",
        "category": "基础设施:公共设施:公共厕所",
        "type": 0,
        "location": {
            "lat": 23.527407,
            "lng": 116.567668
        },
        "ad_info": {
            "adcode": 445103,
            "province": "广东省",
            "city": "潮州市",
            "district": "潮安区"
        }
    },
    {
        "id": "11676625777418762052",
        "title": "公共厕所",
        "address": "广东省潮州市潮安区彩塘镇坽头小学西侧140米",
        "tel": "",
        "category": "基础设施:公共设施:公共厕所",
        "type": 0,
        "location": {
            "lat": 23.506087,
            "lng": 116.661527
        },
        "ad_info": {
            "adcode": 445103,
            "province": "广东省",
            "city": "潮州市",
            "district": "潮安区"
        }
    },
    {
        "id": "7500784838867870086",
        "title": "仙岩沟下公共厕所",
        "address": "广东省潮州市湘桥区仙岩村沟下",
        "tel": "",
        "category": "基础设施:公共设施:公共厕所",
        "type": 0,
        "location": {
            "lat": 23.622026,
            "lng": 116.790555
        },
        "ad_info": {
            "adcode": 445102,
            "province": "广东省",
            "city": "潮州市",
            "district": "湘桥区"
        }
    },
    {
        "id": "1047659102997174602",
        "title": "新陂村公共厕所",
        "address": "广东省潮州市饶平县",
        "tel": "",
        "category": "基础设施:公共设施:公共厕所",
        "type": 0,
        "location": {
            "lat": 23.720518,
            "lng": 117.045012
        },
        "ad_info": {
            "adcode": 445122,
            "province": "广东省",
            "city": "潮州市",
            "district": "饶平县"
        }
    },
    {
        "id": "2856188399827805296",
        "title": "旅游公共厕所",
        "address": "广东省潮州市饶平县大岭山",
        "tel": "",
        "category": "基础设施:公共设施:公共厕所",
        "type": 0,
        "location": {
            "lat": 23.722682,
            "lng": 116.924485
        },
        "ad_info": {
            "adcode": 445122,
            "province": "广东省",
            "city": "潮州市",
            "district": "饶平县"
        }
    },
    {
        "id": "1307257580254101475",
        "title": "公共厕所",
        "address": "广东省潮州市潮安区新安大道与凤岐潮兴路交叉口西100米",
        "tel": "",
        "category": "基础设施:公共设施:公共厕所",
        "type": 0,
        "location": {
            "lat": 23.454778,
            "lng": 116.686247
        },
        "ad_info": {
            "adcode": 445103,
            "province": "广东省",
            "city": "潮州市",
            "district": "潮安区"
        }
    },
    {
        "id": "12509803936801499112",
        "title": "灯塔村公共厕所",
        "address": "广东省潮州市饶平县灯塔村公共厕所",
        "tel": "",
        "category": "基础设施:公共设施:公共厕所",
        "type": 0,
        "location": {
            "lat": 23.804762,
            "lng": 116.898219
        },
        "ad_info": {
            "adcode": 445122,
            "province": "广东省",
            "city": "潮州市",
            "district": "饶平县"
        }
    },
    {
        "id": "6122314080065478975",
        "title": "公共厕所",
        "address": "广东省潮州市潮安区仙桥环村北路与仙桥环村西路交叉口西北方向214米左右",
        "tel": "",
        "category": "基础设施:公共设施:公共厕所",
        "type": 0,
        "location": {
            "lat": 23.482925,
            "lng": 116.6838
        },
        "ad_info": {
            "adcode": 445103,
            "province": "广东省",
            "city": "潮州市",
            "district": "潮安区"
        }
    },
    {
        "id": "13051850794589678673",
        "title": "公共厕所",
        "address": "广东省潮州市湘桥区大新乡中路与潮州大道交叉口西南方向216米左右",
        "tel": "",
        "category": "基础设施:公共设施:公共厕所",
        "type": 0,
        "location": {
            "lat": 23.673925,
            "lng": 116.606606
        },
        "ad_info": {
            "adcode": 445102,
            "province": "广东省",
            "city": "潮州市",
            "district": "湘桥区"
        }
    },
    {
        "id": "3430086588258369960",
        "title": "公共厕所",
        "address": "广东省潮州市饶平县紫云学校北侧140米",
        "tel": "",
        "category": "基础设施:公共设施:公共厕所",
        "type": 0,
        "location": {
            "lat": 23.67121,
            "lng": 116.920366
        },
        "ad_info": {
            "adcode": 445122,
            "province": "广东省",
            "city": "潮州市",
            "district": "饶平县"
        }
    },
    {
        "id": "5353579726299686994",
        "title": "公共厕所",
        "address": "广东省潮州市饶平县大衙路与环城路交叉口西南方向141米左右",
        "tel": "",
        "category": "基础设施:公共设施:公共厕所",
        "type": 0,
        "location": {
            "lat": 23.671092,
            "lng": 117.00386
        },
        "ad_info": {
            "adcode": 445122,
            "province": "广东省",
            "city": "潮州市",
            "district": "饶平县"
        }
    },
    {
        "id": "16211146744122770054",
        "title": "公共厕所",
        "address": "广东省潮州市潮安区塔下桥东路与金和路交叉口正西方向676米左右",
        "tel": "",
        "category": "基础设施:公共设施:公共厕所",
        "type": 0,
        "location": {
            "lat": 23.513928,
            "lng": 116.603723
        },
        "ad_info": {
            "adcode": 445103,
            "province": "广东省",
            "city": "潮州市",
            "district": "潮安区"
        }
    },
    {
        "id": "6914906148197827648",
        "title": "公共厕所",
        "address": "广东省潮州市潮安区大堀池路与长美长孚路交叉口正东方向127米左右",
        "tel": "",
        "category": "基础设施:公共设施:公共厕所",
        "type": 0,
        "location": {
            "lat": 23.664461,
            "lng": 116.58977
        },
        "ad_info": {
            "adcode": 445103,
            "province": "广东省",
            "city": "潮州市",
            "district": "潮安区"
        }
    },
    {
        "id": "11347522681357793196",
        "title": "无障碍公共厕所",
        "address": "广东省潮州市湘桥区开元路与新桥路交叉口西南方向64米左右",
        "tel": "",
        "category": "基础设施:公共设施:公共厕所",
        "type": 0,
        "location": {
            "lat": 23.662746,
            "lng": 116.642812
        },
        "ad_info": {
            "adcode": 445102,
            "province": "广东省",
            "city": "潮州市",
            "district": "湘桥区"
        }
    },
    {
        "id": "1105069946345399203",
        "title": "公共厕所",
        "address": "广东省潮州市潮安区Y266与玉湖路交叉口东南方向743米左右",
        "tel": "",
        "category": "基础设施:公共设施:公共厕所",
        "type": 0,
        "location": {
            "lat": 23.608846,
            "lng": 116.569604
        },
        "ad_info": {
            "adcode": 445103,
            "province": "广东省",
            "city": "潮州市",
            "district": "潮安区"
        }
    },
    {
        "id": "6190022916490308619",
        "title": "公共厕所",
        "address": "广东省潮州市湘桥区铺埔慈云学校北侧150米",
        "tel": "",
        "category": "基础设施:公共设施:公共厕所",
        "type": 0,
        "location": {
            "lat": 23.626274,
            "lng": 116.762103
        },
        "ad_info": {
            "adcode": 445102,
            "province": "广东省",
            "city": "潮州市",
            "district": "湘桥区"
        }
    },
    {
        "id": "6594996345098848754",
        "title": "公共厕所",
        "address": "广东省潮州市潮安区外马路与必胜路交叉口东南方向86米左右",
        "tel": "",
        "category": "基础设施:公共设施:公共厕所",
        "type": 0,
        "location": {
            "lat": 23.655089,
            "lng": 116.606992
        },
        "ad_info": {
            "adcode": 445103,
            "province": "广东省",
            "city": "潮州市",
            "district": "潮安区"
        }
    },
    {
        "id": "18109765103253514590",
        "title": "上寨村应急厕所",
        "address": "广东省潮州市饶平县",
        "tel": "",
        "category": "基础设施:公共设施:公共厕所",
        "type": 0,
        "location": {
            "lat": 23.693803,
            "lng": 117.047311
        },
        "ad_info": {
            "adcode": 445122,
            "province": "广东省",
            "city": "潮州市",
            "district": "饶平县"
        }
    },
    {
        "id": "1050949896260948194",
        "title": "古笃村公共厕所1",
        "address": "广东省潮州市饶平县G15",
        "tel": "",
        "category": "基础设施:公共设施:公共厕所",
        "type": 0,
        "location": {
            "lat": 23.704341,
            "lng": 117.031993
        },
        "ad_info": {
            "adcode": 445122,
            "province": "广东省",
            "city": "潮州市",
            "district": "饶平县"
        }
    },
    {
        "id": "8078073704409644537",
        "title": "上寨村公共厕所",
        "address": "广东省潮州市饶平县",
        "tel": "",
        "category": "基础设施:公共设施:公共厕所",
        "type": 0,
        "location": {
            "lat": 23.694045,
            "lng": 117.050776
        },
        "ad_info": {
            "adcode": 445122,
            "province": "广东省",
            "city": "潮州市",
            "district": "饶平县"
        }
    },
    {
        "id": "3152015608705209845",
        "title": "公共厕所",
        "address": "广东省潮州市潮安区锦辉门诊北侧",
        "tel": "",
        "category": "基础设施:公共设施:公共厕所",
        "type": 0,
        "location": {
            "lat": 23.527407,
            "lng": 116.567668
        },
        "ad_info": {
            "adcode": 445103,
            "province": "广东省",
            "city": "潮州市",
            "district": "潮安区"
        }
    },
    {
        "id": "11676625777418762052",
        "title": "公共厕所",
        "address": "广东省潮州市潮安区彩塘镇坽头小学西侧140米",
        "tel": "",
        "category": "基础设施:公共设施:公共厕所",
        "type": 0,
        "location": {
            "lat": 23.506087,
            "lng": 116.661527
        },
        "ad_info": {
            "adcode": 445103,
            "province": "广东省",
            "city": "潮州市",
            "district": "潮安区"
        }
    },
    {
        "id": "7500784838867870086",
        "title": "仙岩沟下公共厕所",
        "address": "广东省潮州市湘桥区仙岩村沟下",
        "tel": "",
        "category": "基础设施:公共设施:公共厕所",
        "type": 0,
        "location": {
            "lat": 23.622026,
            "lng": 116.790555
        },
        "ad_info": {
            "adcode": 445102,
            "province": "广东省",
            "city": "潮州市",
            "district": "湘桥区"
        }
    },
    {
        "id": "1047659102997174602",
        "title": "新陂村公共厕所",
        "address": "广东省潮州市饶平县",
        "tel": "",
        "category": "基础设施:公共设施:公共厕所",
        "type": 0,
        "location": {
            "lat": 23.720518,
            "lng": 117.045012
        },
        "ad_info": {
            "adcode": 445122,
            "province": "广东省",
            "city": "潮州市",
            "district": "饶平县"
        }
    },
    {
        "id": "2856188399827805296",
        "title": "旅游公共厕所",
        "address": "广东省潮州市饶平县大岭山",
        "tel": "",
        "category": "基础设施:公共设施:公共厕所",
        "type": 0,
        "location": {
            "lat": 23.722682,
            "lng": 116.924485
        },
        "ad_info": {
            "adcode": 445122,
            "province": "广东省",
            "city": "潮州市",
            "district": "饶平县"
        }
    },
    {
        "id": "1307257580254101475",
        "title": "公共厕所",
        "address": "广东省潮州市潮安区新安大道与凤岐潮兴路交叉口西100米",
        "tel": "",
        "category": "基础设施:公共设施:公共厕所",
        "type": 0,
        "location": {
            "lat": 23.454778,
            "lng": 116.686247
        },
        "ad_info": {
            "adcode": 445103,
            "province": "广东省",
            "city": "潮州市",
            "district": "潮安区"
        }
    },
    {
        "id": "12509803936801499112",
        "title": "灯塔村公共厕所",
        "address": "广东省潮州市饶平县灯塔村公共厕所",
        "tel": "",
        "category": "基础设施:公共设施:公共厕所",
        "type": 0,
        "location": {
            "lat": 23.804762,
            "lng": 116.898219
        },
        "ad_info": {
            "adcode": 445122,
            "province": "广东省",
            "city": "潮州市",
            "district": "饶平县"
        }
    },
    {
        "id": "6122314080065478975",
        "title": "公共厕所",
        "address": "广东省潮州市潮安区仙桥环村北路与仙桥环村西路交叉口西北方向214米左右",
        "tel": "",
        "category": "基础设施:公共设施:公共厕所",
        "type": 0,
        "location": {
            "lat": 23.482925,
            "lng": 116.6838
        },
        "ad_info": {
            "adcode": 445103,
            "province": "广东省",
            "city": "潮州市",
            "district": "潮安区"
        }
    },
    {
        "id": "13051850794589678673",
        "title": "公共厕所",
        "address": "广东省潮州市湘桥区大新乡中路与潮州大道交叉口西南方向216米左右",
        "tel": "",
        "category": "基础设施:公共设施:公共厕所",
        "type": 0,
        "location": {
            "lat": 23.673925,
            "lng": 116.606606
        },
        "ad_info": {
            "adcode": 445102,
            "province": "广东省",
            "city": "潮州市",
            "district": "湘桥区"
        }
    }
]