[
    {
        "id": "1099129705723218584",
        "title": "厕所",
        "address": "海南省澄迈县沃克公园8832栋(南二环路北)",
        "tel": "",
        "category": "基础设施:公共设施:公共厕所",
        "type": 0,
        "location": {
            "lat": 19.941733,
            "lng": 110.122306
        },
        "ad_info": {
            "adcode": 469023,
            "province": "海南省",
            "city": "",
            "district": "澄迈县"
        }
    },
    {
        "id": "4454508893635975913",
        "title": "公共厕所",
        "address": "海南省澄迈县市场西街与立新路交叉口正东方向63米左右",
        "tel": "",
        "category": "基础设施:公共设施:公共厕所",
        "type": 0,
        "location": {
            "lat": 19.73481,
            "lng": 110.008461
        },
        "ad_info": {
            "adcode": 469023,
            "province": "海南省",
            "city": "",
            "district": "澄迈县"
        }
    },
    {
        "id": "4363270640315050986",
        "title": "公共厕所",
        "address": "海南省澄迈县南一环路与美伦路交叉口正东方向196米左右",
        "tel": "",
        "category": "基础设施:公共设施:公共厕所",
        "type": 0,
        "location": {
            "lat": 19.946702,
            "lng": 110.126584
        },
        "ad_info": {
            "adcode": 469023,
            "province": "海南省",
            "city": "",
            "district": "澄迈县"
        }
    },
    {
        "id": "11082611681091758985",
        "title": "公共厕所",
        "address": "海南省澄迈县福兴西路与福美路交叉口正南方向96米左右",
        "tel": "",
        "category": "基础设施:公共设施:公共厕所",
        "type": 0,
        "location": {
            "lat": 19.835362,
            "lng": 109.927158
        },
        "ad_info": {
            "adcode": 469023,
            "province": "海南省",
            "city": "",
            "district": "澄迈县"
        }
    },
    {
        "id": "2475118450120102653",
        "title": "公共厕所",
        "address": "海南省澄迈县富力红树湾医院北侧140米",
        "tel": "",
        "category": "基础设施:公共设施:公共厕所",
        "type": 0,
        "location": {
            "lat": 19.889829,
            "lng": 109.998141
        },
        "ad_info": {
            "adcode": 469023,
            "province": "海南省",
            "city": "",
            "district": "澄迈县"
        }
    },
    {
        "id": "2517065312350784798",
        "title": "公共厕所",
        "address": "海南省澄迈县华盛巷与文化北路交叉口东北方向23米左右",
        "tel": "",
        "category": "基础设施:公共设施:公共厕所",
        "type": 0,
        "location": {
            "lat": 19.743546,
            "lng": 110.007513
        },
        "ad_info": {
            "adcode": 469023,
            "province": "海南省",
            "city": "",
            "district": "澄迈县"
        }
    },
    {
        "id": "12541013137209494207",
        "title": "公共厕所",
        "address": "海南省澄迈县永康路与江北路交叉口西北方向48米左右",
        "tel": "",
        "category": "基础设施:公共设施:公共厕所",
        "type": 0,
        "location": {
            "lat": 19.744158,
            "lng": 110.197179
        },
        "ad_info": {
            "adcode": 469023,
            "province": "海南省",
            "city": "",
            "district": "澄迈县"
        }
    },
    {
        "id": "3848795094531569216",
        "title": "公共厕所",
        "address": "海南省澄迈县中山东路与新兴路交叉口南60米",
        "tel": "",
        "category": "基础设施:公共设施:公共厕所",
        "type": 0,
        "location": {
            "lat": 19.729244,
            "lng": 110.011359
        },
        "ad_info": {
            "adcode": 469023,
            "province": "海南省",
            "city": "",
            "district": "澄迈县"
        }
    },
    {
        "id": "3270626962728652447",
        "title": "公共厕所",
        "address": "海南省澄迈县S303与中学路交叉口西北方向218米左右",
        "tel": "",
        "category": "基础设施:公共设施:公共厕所",
        "type": 0,
        "location": {
            "lat": 19.537826,
            "lng": 110.052262
        },
        "ad_info": {
            "adcode": 469023,
            "province": "海南省",
            "city": "",
            "district": "澄迈县"
        }
    },
    {
        "id": "14358863555115675237",
        "title": "公共厕所",
        "address": "海南省澄迈县椰岛大道与金马一横路交叉口正西方向90米左右",
        "tel": "",
        "category": "基础设施:公共设施:公共厕所",
        "type": 0,
        "location": {
            "lat": 19.751792,
            "lng": 110.008838
        },
        "ad_info": {
            "adcode": 469023,
            "province": "海南省",
            "city": "",
            "district": "澄迈县"
        }
    },
    {
        "id": "3896028950601858623",
        "title": "公共厕所",
        "address": "海南省澄迈县文明北路与绿园路交叉口正北方向238米左右",
        "tel": "",
        "category": "基础设施:公共设施:公共厕所",
        "type": 0,
        "location": {
            "lat": 19.747864,
            "lng": 110.003917
        },
        "ad_info": {
            "adcode": 469023,
            "province": "海南省",
            "city": "",
            "district": "澄迈县"
        }
    },
    {
        "id": "6198876184780419862",
        "title": "公共厕所",
        "address": "海南省澄迈县商贸路与文化北路交叉口正北方向64米左右",
        "tel": "",
        "category": "基础设施:公共设施:公共厕所",
        "type": 0,
        "location": {
            "lat": 19.73244,
            "lng": 110.011446
        },
        "ad_info": {
            "adcode": 469023,
            "province": "海南省",
            "city": "",
            "district": "澄迈县"
        }
    },
    {
        "id": "6502069669678443721",
        "title": "公共厕所",
        "address": "海南省澄迈县文化北路与陆通路交叉口东南方向46米左右",
        "tel": "",
        "category": "基础设施:公共设施:公共厕所",
        "type": 0,
        "location": {
            "lat": 19.736277,
            "lng": 110.010177
        },
        "ad_info": {
            "adcode": 469023,
            "province": "海南省",
            "city": "",
            "district": "澄迈县"
        }
    },
    {
        "id": "6008194560134995726",
        "title": "公共厕所",
        "address": "海南省澄迈县站前路老城镇站站前广场",
        "tel": "",
        "category": "基础设施:公共设施:公共厕所",
        "type": 0,
        "location": {
            "lat": 19.933982,
            "lng": 110.117838
        },
        "ad_info": {
            "adcode": 469023,
            "province": "海南省",
            "city": "",
            "district": "澄迈县"
        }
    },
    {
        "id": "1631001203856256182",
        "title": "公共厕所",
        "address": "海南省澄迈县文化南路与文化路交叉口正南方向74米左右",
        "tel": "",
        "category": "基础设施:公共设施:公共厕所",
        "type": 0,
        "location": {
            "lat": 19.723789,
            "lng": 110.011927
        },
        "ad_info": {
            "adcode": 469023,
            "province": "海南省",
            "city": "",
            "district": "澄迈县"
        }
    },
    {
        "id": "8758779528077167286",
        "title": "公共厕所",
        "address": "海南省澄迈县X260与东兴路交叉口东南方向439米左右",
        "tel": "",
        "category": "基础设施:公共设施:公共厕所",
        "type": 0,
        "location": {
            "lat": 19.790171,
            "lng": 110.174993
        },
        "ad_info": {
            "adcode": 469023,
            "province": "海南省",
            "city": "",
            "district": "澄迈县"
        }
    },
    {
        "id": "12706381199805794174",
        "title": "公共厕所",
        "address": "海南省澄迈县向阳路与解放东路交叉口西北方向71米左右",
        "tel": "",
        "category": "基础设施:公共设施:公共厕所",
        "type": 0,
        "location": {
            "lat": 19.731926,
            "lng": 110.013474
        },
        "ad_info": {
            "adcode": 469023,
            "province": "海南省",
            "city": "",
            "district": "澄迈县"
        }
    },
    {
        "id": "15058956767395428395",
        "title": "公共厕所",
        "address": "海南省澄迈县海榆西线与盈滨路交叉口西南方向325米左右",
        "tel": "",
        "category": "基础设施:公共设施:公共厕所",
        "type": 0,
        "location": {
            "lat": 19.972639,
            "lng": 110.142053
        },
        "ad_info": {
            "adcode": 469023,
            "province": "海南省",
            "city": "",
            "district": "澄迈县"
        }
    },
    {
        "id": "4445443378825573611",
        "title": "公共厕所",
        "address": "海南省澄迈县环岛旅游公路与金马大道交叉口正北方向228米左右",
        "tel": "",
        "category": "基础设施:公共设施:公共厕所",
        "type": 0,
        "location": {
            "lat": 19.922176,
            "lng": 110.040388
        },
        "ad_info": {
            "adcode": 469023,
            "province": "海南省",
            "city": "",
            "district": "澄迈县"
        }
    },
    {
        "id": "722292818567796465",
        "title": "公共厕所",
        "address": "海南省澄迈县财来便利店东南侧",
        "tel": "",
        "category": "基础设施:公共设施:公共厕所",
        "type": 0,
        "location": {
            "lat": 19.484888,
            "lng": 109.821997
        },
        "ad_info": {
            "adcode": 469023,
            "province": "海南省",
            "city": "",
            "district": "澄迈县"
        }
    },
    {
        "id": "5411840346659373846",
        "title": "公共厕所",
        "address": "海南省澄迈县思源路与海榆西线交叉口正南方向467米左右",
        "tel": "",
        "category": "基础设施:公共设施:公共厕所",
        "type": 0,
        "location": {
            "lat": 19.783708,
            "lng": 110.022302
        },
        "ad_info": {
            "adcode": 469023,
            "province": "海南省",
            "city": "",
            "district": "澄迈县"
        }
    },
    {
        "id": "10151629370844389192",
        "title": "公共厕所",
        "address": "海南省澄迈县金马三横东路与金马三横西路交叉口正西方向190米左右",
        "tel": "",
        "category": "基础设施:公共设施:公共厕所",
        "type": 0,
        "location": {
            "lat": 19.762447,
            "lng": 110.005308
        },
        "ad_info": {
            "adcode": 469023,
            "province": "海南省",
            "city": "",
            "district": "澄迈县"
        }
    },
    {
        "id": "1588460023889324265",
        "title": "公共厕所",
        "address": "海南省澄迈县文明北路与绿园路交叉口东南方向60米左右",
        "tel": "",
        "category": "基础设施:公共设施:公共厕所",
        "type": 0,
        "location": {
            "lat": 19.745468,
            "lng": 110.003966
        },
        "ad_info": {
            "adcode": 469023,
            "province": "海南省",
            "city": "",
            "district": "澄迈县"
        }
    },
    {
        "id": "5392522569735375641",
        "title": "公共厕所",
        "address": "海南省澄迈县南海大道与南站出口路交叉口西北方向88米左右",
        "tel": "",
        "category": "基础设施:公共设施:公共厕所",
        "type": 0,
        "location": {
            "lat": 19.974234,
            "lng": 110.144448
        },
        "ad_info": {
            "adcode": 469023,
            "province": "海南省",
            "city": "",
            "district": "澄迈县"
        }
    },
    {
        "id": "17825374632662107162",
        "title": "公共厕所",
        "address": "海南省澄迈县人民西路与环城西路交叉口正东方向36米左右",
        "tel": "",
        "category": "基础设施:公共设施:公共厕所",
        "type": 0,
        "location": {
            "lat": 19.73185,
            "lng": 110.004023
        },
        "ad_info": {
            "adcode": 469023,
            "province": "海南省",
            "city": "",
            "district": "澄迈县"
        }
    },
    {
        "id": "13465714642470006064",
        "title": "公共厕所",
        "address": "海南省澄迈县人民西路与环城西路交叉口正西方向56米左右",
        "tel": "",
        "category": "基础设施:公共设施:公共厕所",
        "type": 0,
        "location": {
            "lat": 19.731845,
            "lng": 110.003139
        },
        "ad_info": {
            "adcode": 469023,
            "province": "海南省",
            "city": "",
            "district": "澄迈县"
        }
    },
    {
        "id": "40583172848353108",
        "title": "公共厕所",
        "address": "海南省澄迈县海榆西线与金美路交叉口正南方向419米左右",
        "tel": "",
        "category": "基础设施:公共设施:公共厕所",
        "type": 0,
        "location": {
            "lat": 19.778609,
            "lng": 110.010568
        },
        "ad_info": {
            "adcode": 469023,
            "province": "海南省",
            "city": "",
            "district": "澄迈县"
        }
    },
    {
        "id": "16745471539842519291",
        "title": "公共厕所",
        "address": "海南省澄迈县文明北路与金外滩一路交叉口正西方向115米左右",
        "tel": "",
        "category": "基础设施:公共设施:公共厕所",
        "type": 0,
        "location": {
            "lat": 19.750743,
            "lng": 110.0037
        },
        "ad_info": {
            "adcode": 469023,
            "province": "海南省",
            "city": "",
            "district": "澄迈县"
        }
    },
    {
        "id": "2572917732751539504",
        "title": "公共厕所",
        "address": "海南省澄迈县沿桥东路与沿江中路交叉口东北方向33米左右",
        "tel": "",
        "category": "基础设施:公共设施:公共厕所",
        "type": 0,
        "location": {
            "lat": 19.725405,
            "lng": 110.005161
        },
        "ad_info": {
            "adcode": 469023,
            "province": "海南省",
            "city": "",
            "district": "澄迈县"
        }
    },
    {
        "id": "15919775688772128870",
        "title": "公共厕所",
        "address": "海南省澄迈县政府东路与政府一横路交叉口正南方向57米",
        "tel": "",
        "category": "基础设施:公共设施:公共厕所",
        "type": 0,
        "location": {
            "lat": 19.908303,
            "lng": 110.127548
        },
        "ad_info": {
            "adcode": 469023,
            "province": "海南省",
            "city": "",
            "district": "澄迈县"
        }
    },
    {
        "id": "723244161714735231",
        "title": "公共厕所",
        "address": "海南省澄迈县金马三横西路与金马西路交叉口西南方向24米左右",
        "tel": "",
        "category": "基础设施:公共设施:公共厕所",
        "type": 0,
        "location": {
            "lat": 19.761716,
            "lng": 110.001112
        },
        "ad_info": {
            "adcode": 469023,
            "province": "海南省",
            "city": "",
            "district": "澄迈县"
        }
    },
    {
        "id": "8692553293019619497",
        "title": "公共厕所",
        "address": "海南省澄迈县环岛旅游公路与金马大道交叉口正北方向96米左右",
        "tel": "",
        "category": "基础设施:公共设施:公共厕所",
        "type": 0,
        "location": {
            "lat": 19.920957,
            "lng": 110.041002
        },
        "ad_info": {
            "adcode": 469023,
            "province": "海南省",
            "city": "",
            "district": "澄迈县"
        }
    },
    {
        "id": "12638495447442615613",
        "title": "公共厕所",
        "address": "海南省澄迈县华成路与文化北路交叉口东北方向133米左右",
        "tel": "",
        "category": "基础设施:公共设施:公共厕所",
        "type": 0,
        "location": {
            "lat": 19.745129,
            "lng": 110.007827
        },
        "ad_info": {
            "adcode": 469023,
            "province": "海南省",
            "city": "",
            "district": "澄迈县"
        }
    },
    {
        "id": "17699664683186127974",
        "title": "公共厕所",
        "address": "海南省澄迈县S303与后坡路交叉口东南方向45米左右",
        "tel": "",
        "category": "基础设施:公共设施:公共厕所",
        "type": 0,
        "location": {
            "lat": 19.534776,
            "lng": 110.06129
        },
        "ad_info": {
            "adcode": 469023,
            "province": "海南省",
            "city": "",
            "district": "澄迈县"
        }
    },
    {
        "id": "9945301221524054362",
        "title": "盈滨村公共厕所",
        "address": "海南省澄迈县老城镇盈滨村盈滨路公交站后方",
        "tel": "",
        "category": "基础设施:公共设施:公共厕所",
        "type": 0,
        "location": {
            "lat": 19.988245,
            "lng": 110.128089
        },
        "ad_info": {
            "adcode": 469023,
            "province": "海南省",
            "city": "",
            "district": "澄迈县"
        }
    },
    {
        "id": "53608742655842401",
        "title": "新兴港(道伦村)公共厕所",
        "address": "海南省澄迈县桥头镇新兴港宣传文化室隔壁",
        "tel": "",
        "category": "基础设施:公共设施:公共厕所",
        "type": 0,
        "location": {
            "lat": 19.973824,
            "lng": 109.894376
        },
        "ad_info": {
            "adcode": 469023,
            "province": "海南省",
            "city": "",
            "district": "澄迈县"
        }
    },
    {
        "id": "5844129956016468721",
        "title": "文兵村公共厕所",
        "address": "海南省澄迈县桥头镇文兵村路口内50米",
        "tel": "",
        "category": "基础设施:公共设施:公共厕所",
        "type": 0,
        "location": {
            "lat": 19.97989,
            "lng": 109.916907
        },
        "ad_info": {
            "adcode": 469023,
            "province": "海南省",
            "city": "",
            "district": "澄迈县"
        }
    },
    {
        "id": "8989308901049391901",
        "title": "公共洗手间",
        "address": "海南省澄迈县鲁能海蓝福源西1区北侧240米",
        "tel": "",
        "category": "基础设施:公共设施:公共厕所",
        "type": 0,
        "location": {
            "lat": 19.985136,
            "lng": 110.103237
        },
        "ad_info": {
            "adcode": 469023,
            "province": "海南省",
            "city": "",
            "district": "澄迈县"
        }
    },
    {
        "id": "15543867134600948191",
        "title": "金山寺公共厕所",
        "address": "海南省澄迈县公园路与金湖路交叉口正北方向149米左右",
        "tel": "",
        "category": "基础设施:公共设施:公共厕所",
        "type": 0,
        "location": {
            "lat": 19.740757,
            "lng": 110.012886
        },
        "ad_info": {
            "adcode": 469023,
            "province": "海南省",
            "city": "",
            "district": "澄迈县"
        }
    },
    {
        "id": "6451844839575236375",
        "title": "西海岸大酒店-洗手间",
        "address": "海南省澄迈县老城开发区盈滨半岛西海岸大酒店附近",
        "tel": "",
        "category": "基础设施:公共设施:公共厕所",
        "type": 0,
        "location": {
            "lat": 19.984859,
            "lng": 110.10664
        },
        "ad_info": {
            "adcode": 469023,
            "province": "海南省",
            "city": "",
            "district": "澄迈县"
        }
    },
    {
        "id": "7578916483200254051",
        "title": "公共厕所工作间",
        "address": "海南省澄迈县椰岛大道与金马四横东路交叉口正西方向119米左右",
        "tel": "",
        "category": "基础设施:公共设施:公共厕所",
        "type": 0,
        "location": {
            "lat": 19.766076,
            "lng": 110.01109
        },
        "ad_info": {
            "adcode": 469023,
            "province": "海南省",
            "city": "",
            "district": "澄迈县"
        }
    },
    {
        "id": "2232199893102655405",
        "title": "沙土村公共厕所",
        "address": "海南省澄迈县桥头镇桥头地瓜产业服务中心后方",
        "tel": "",
        "category": "基础设施:公共设施:公共厕所",
        "type": 0,
        "location": {
            "lat": 19.942429,
            "lng": 109.959181
        },
        "ad_info": {
            "adcode": 469023,
            "province": "海南省",
            "city": "",
            "district": "澄迈县"
        }
    },
    {
        "id": "1704103985225171734",
        "title": "福山服务区公共厕所",
        "address": "海南省澄迈县福山服务区与G98海南环岛高速交叉口西南100米",
        "tel": "",
        "category": "基础设施:公共设施:公共厕所",
        "type": 0,
        "location": {
            "lat": 19.872043,
            "lng": 109.920448
        },
        "ad_info": {
            "adcode": 469023,
            "province": "海南省",
            "city": "",
            "district": "澄迈县"
        }
    },
    {
        "id": "14188720418689552888",
        "title": "福山服务区公共厕所",
        "address": "海南省澄迈县福山服务区与G98海南环岛高速交叉口东北80米",
        "tel": "",
        "category": "基础设施:公共设施:公共厕所",
        "type": 0,
        "location": {
            "lat": 19.873514,
            "lng": 109.925423
        },
        "ad_info": {
            "adcode": 469023,
            "province": "海南省",
            "city": "",
            "district": "澄迈县"
        }
    },
    {
        "id": "5254421921424376079",
        "title": "红坎岭陶艺园公共厕所",
        "address": "海南省澄迈县桥头镇第桥沙路红坎岭陶艺园内50米",
        "tel": "",
        "category": "基础设施:公共设施:公共厕所",
        "type": 0,
        "location": {
            "lat": 19.951718,
            "lng": 109.94603
        },
        "ad_info": {
            "adcode": 469023,
            "province": "海南省",
            "city": "",
            "district": "澄迈县"
        }
    },
    {
        "id": "11842677912858854657",
        "title": "无障碍公共厕所",
        "address": "海南省澄迈县华中路与华达路交叉口正西方向90米左右",
        "tel": "",
        "category": "基础设施:公共设施:公共厕所",
        "type": 0,
        "location": {
            "lat": 19.856815,
            "lng": 110.037737
        },
        "ad_info": {
            "adcode": 469023,
            "province": "海南省",
            "city": "",
            "district": "澄迈县"
        }
    },
    {
        "id": "12011547790067195764",
        "title": "公共厕所",
        "address": "海南省澄迈县罗驿实验学校东侧70米",
        "tel": "",
        "category": "基础设施:公共设施:公共厕所",
        "type": 0,
        "location": {
            "lat": 19.896876,
            "lng": 110.119517
        },
        "ad_info": {
            "adcode": 469023,
            "province": "海南省",
            "city": "",
            "district": "澄迈县"
        }
    },
    {
        "id": "10839193139385317786",
        "title": "公共厕所",
        "address": "海南省澄迈县环岛旅游公路与红坎岭停车区交叉口西100米",
        "tel": "",
        "category": "基础设施:公共设施:公共厕所",
        "type": 0,
        "location": {
            "lat": 19.952207,
            "lng": 109.944138
        },
        "ad_info": {
            "adcode": 469023,
            "province": "海南省",
            "city": "",
            "district": "澄迈县"
        }
    },
    {
        "id": "16599656504413025634",
        "title": "公共厕所",
        "address": "海南省澄迈县雷公岛停车区与海南环岛旅游公路交叉口西北60米",
        "tel": "",
        "category": "基础设施:公共设施:公共厕所",
        "type": 0,
        "location": {
            "lat": 19.981978,
            "lng": 109.896574
        },
        "ad_info": {
            "adcode": 469023,
            "province": "海南省",
            "city": "",
            "district": "澄迈县"
        }
    },
    {
        "id": "4901688917669740336",
        "title": "澄江路公共厕所",
        "address": "海南省澄迈县南海大道与澄江南路交叉口正北方向71米左右",
        "tel": "",
        "category": "基础设施:公共设施:公共厕所",
        "type": 0,
        "location": {
            "lat": 19.953653,
            "lng": 110.127678
        },
        "ad_info": {
            "adcode": 469023,
            "province": "海南省",
            "city": "",
            "district": "澄迈县"
        }
    }
]