[
    {
        "id": "10710683174891040207",
        "title": "公厕",
        "address": "道咩卑利士街与万安巷交叉口正东方向20米",
        "tel": "",
        "category": "基础设施:公共设施:公共厕所",
        "type": 0,
        "location": {
            "lat": 22.201478,
            "lng": 113.549403
        },
        "ad_info": {
            "adcode": 820100,
            "province": "澳门特别行政区",
            "city": "澳门半岛",
            "district": "澳门半岛"
        }
    },
    {
        "id": "8279224778767763248",
        "title": "公共厕所",
        "address": "东望洋斜巷西南方向160米",
        "tel": "",
        "category": "基础设施:公共设施:公共厕所",
        "type": 0,
        "location": {
            "lat": 22.192169,
            "lng": 113.550349
        },
        "ad_info": {
            "adcode": 820100,
            "province": "澳门特别行政区",
            "city": "澳门半岛",
            "district": "澳门半岛"
        }
    },
    {
        "id": "4316604525253093759",
        "title": "公共厕所",
        "address": "半岛新马路126东南方向50米",
        "tel": "",
        "category": "基础设施:公共设施:公共厕所",
        "type": 0,
        "location": {
            "lat": 22.190141,
            "lng": 113.545503
        },
        "ad_info": {
            "adcode": 820100,
            "province": "澳门特别行政区",
            "city": "澳门半岛",
            "district": "澳门半岛"
        }
    },
    {
        "id": "13910325329797794003",
        "title": "公共厕所",
        "address": "何贤绅士大马路与关闸广场交叉口东南方向53米左右",
        "tel": "",
        "category": "基础设施:公共设施:公共厕所",
        "type": 0,
        "location": {
            "lat": 22.212675,
            "lng": 113.552804
        },
        "ad_info": {
            "adcode": 820100,
            "province": "澳门特别行政区",
            "city": "澳门半岛",
            "district": "澳门半岛"
        }
    },
    {
        "id": "16201601424183174628",
        "title": "公共厕所",
        "address": "哥英布拉街24正南方向20米",
        "tel": "",
        "category": "基础设施:公共设施:公共厕所",
        "type": 0,
        "location": {
            "lat": 22.153585,
            "lng": 113.562874
        },
        "ad_info": {
            "adcode": 820200,
            "province": "澳门特别行政区",
            "city": "氹仔岛",
            "district": "氹仔岛"
        }
    },
    {
        "id": "6219367110441457890",
        "title": "公共厕所",
        "address": "沙嘉都喇贾罢丽街与塔石街交叉口正南方向31米",
        "tel": "",
        "category": "基础设施:公共设施:公共厕所",
        "type": 0,
        "location": {
            "lat": 22.195875,
            "lng": 113.552039
        },
        "ad_info": {
            "adcode": 820100,
            "province": "澳门特别行政区",
            "city": "澳门半岛",
            "district": "澳门半岛"
        }
    },
    {
        "id": "13069452277868824675",
        "title": "公共厕所",
        "address": "庇山耶街与草堆街交叉口东北方向34米",
        "tel": "",
        "category": "基础设施:公共设施:公共厕所",
        "type": 0,
        "location": {
            "lat": 22.193449,
            "lng": 113.544541
        },
        "ad_info": {
            "adcode": 820100,
            "province": "澳门特别行政区",
            "city": "澳门半岛",
            "district": "澳门半岛"
        }
    },
    {
        "id": "12074020597478489232",
        "title": "公共厕所",
        "address": "河边新街与西湾湖景大马路交叉口东南方向24米",
        "tel": "",
        "category": "基础设施:公共设施:公共厕所",
        "type": 0,
        "location": {
            "lat": 22.183834,
            "lng": 113.53596
        },
        "ad_info": {
            "adcode": 820100,
            "province": "澳门特别行政区",
            "city": "澳门半岛",
            "district": "澳门半岛"
        }
    },
    {
        "id": "16374616228417937506",
        "title": "公共厕所",
        "address": "友谊大马路555号正东方向80米",
        "tel": "",
        "category": "基础设施:公共设施:公共厕所",
        "type": 0,
        "location": {
            "lat": 22.188359,
            "lng": 113.554634
        },
        "ad_info": {
            "adcode": 820100,
            "province": "澳门特别行政区",
            "city": "澳门半岛",
            "district": "澳门半岛"
        }
    },
    {
        "id": "13481899296015351610",
        "title": "公共厕所",
        "address": "庇山耶街与丁香围交叉口西北方向13米",
        "tel": "",
        "category": "基础设施:公共设施:公共厕所",
        "type": 0,
        "location": {
            "lat": 22.192935,
            "lng": 113.543776
        },
        "ad_info": {
            "adcode": 820100,
            "province": "澳门特别行政区",
            "city": "澳门半岛",
            "district": "澳门半岛"
        }
    },
    {
        "id": "2489317824567502037",
        "title": "公共厕所",
        "address": "业兴大厦第6座312",
        "tel": "",
        "category": "基础设施:公共设施:公共厕所",
        "type": 0,
        "location": {
            "lat": 22.126879,
            "lng": 113.569271
        },
        "ad_info": {
            "adcode": 820300,
            "province": "澳门特别行政区",
            "city": "路环岛",
            "district": "路环岛"
        }
    },
    {
        "id": "1883915561427711792",
        "title": "公共厕所",
        "address": "博士大马路2东南方向180米",
        "tel": "",
        "category": "基础设施:公共设施:公共厕所",
        "type": 0,
        "location": {
            "lat": 22.152653,
            "lng": 113.566888
        },
        "ad_info": {
            "adcode": 820200,
            "province": "澳门特别行政区",
            "city": "氹仔岛",
            "district": "氹仔岛"
        }
    },
    {
        "id": "3058688328029313710",
        "title": "公共厕所",
        "address": "市场街与永乐街交叉口西北40米",
        "tel": "",
        "category": "基础设施:公共设施:公共厕所",
        "type": 0,
        "location": {
            "lat": 22.207995,
            "lng": 113.557019
        },
        "ad_info": {
            "adcode": 820100,
            "province": "澳门特别行政区",
            "city": "澳门半岛",
            "district": "澳门半岛"
        }
    },
    {
        "id": "17271338003654297771",
        "title": "公共厕所",
        "address": "青洲上街与青洲河边马路交叉口正东方向116米",
        "tel": "",
        "category": "基础设施:公共设施:公共厕所",
        "type": 0,
        "location": {
            "lat": 22.206792,
            "lng": 113.542652
        },
        "ad_info": {
            "adcode": 820100,
            "province": "澳门特别行政区",
            "city": "澳门半岛",
            "district": "澳门半岛"
        }
    },
    {
        "id": "4010778467311526351",
        "title": "公共厕所",
        "address": "西坟马路2-A",
        "tel": "",
        "category": "基础设施:公共设施:公共厕所",
        "type": 0,
        "location": {
            "lat": 22.195237,
            "lng": 113.550609
        },
        "ad_info": {
            "adcode": 820100,
            "province": "澳门特别行政区",
            "city": "澳门半岛",
            "district": "澳门半岛"
        }
    },
    {
        "id": "6566554778012812161",
        "title": "公共厕所",
        "address": "渔翁街与马揸度博士大马路交叉口西40米",
        "tel": "",
        "category": "基础设施:公共设施:公共厕所",
        "type": 0,
        "location": {
            "lat": 22.201548,
            "lng": 113.565413
        },
        "ad_info": {
            "adcode": 820100,
            "province": "澳门特别行政区",
            "city": "澳门半岛",
            "district": "澳门半岛"
        }
    },
    {
        "id": "15777942913064847522",
        "title": "公共厕所",
        "address": "西湾湖景大马路与孙逸仙大马路交叉口西140米",
        "tel": "",
        "category": "基础设施:公共设施:公共厕所",
        "type": 0,
        "location": {
            "lat": 22.176867,
            "lng": 113.537248
        },
        "ad_info": {
            "adcode": 820100,
            "province": "澳门特别行政区",
            "city": "澳门半岛",
            "district": "澳门半岛"
        }
    },
    {
        "id": "98364652203730625",
        "title": "公共厕所",
        "address": "竹湾马路圣方济各街东北方向110米",
        "tel": "",
        "category": "基础设施:公共设施:公共厕所",
        "type": 0,
        "location": {
            "lat": 22.116157,
            "lng": 113.561078
        },
        "ad_info": {
            "adcode": 820300,
            "province": "澳门特别行政区",
            "city": "路环岛",
            "district": "路环岛"
        }
    },
    {
        "id": "8286622807430108569",
        "title": "公共厕所",
        "address": "濠江路与琴海东路交叉口正东方向581米左右",
        "tel": "",
        "category": "基础设施:公共设施:公共厕所",
        "type": 0,
        "location": {
            "lat": 22.132778,
            "lng": 113.557277
        },
        "ad_info": {
            "adcode": 820300,
            "province": "澳门特别行政区",
            "city": "路环岛",
            "district": "路环岛"
        }
    },
    {
        "id": "6263411590572137338",
        "title": "公共厕所",
        "address": "永宁广场142正北方向30米",
        "tel": "",
        "category": "基础设施:公共设施:公共厕所",
        "type": 0,
        "location": {
            "lat": 22.210603,
            "lng": 113.558111
        },
        "ad_info": {
            "adcode": 820100,
            "province": "澳门特别行政区",
            "city": "澳门半岛",
            "district": "澳门半岛"
        }
    },
    {
        "id": "14685437514535092778",
        "title": "公共厕所",
        "address": "义字街2正西方向20米",
        "tel": "",
        "category": "基础设施:公共设施:公共厕所",
        "type": 0,
        "location": {
            "lat": 22.201217,
            "lng": 113.549764
        },
        "ad_info": {
            "adcode": 820100,
            "province": "澳门特别行政区",
            "city": "澳门半岛",
            "district": "澳门半岛"
        }
    },
    {
        "id": "7497450747131218544",
        "title": "公共厕所",
        "address": "孙逸仙大马路西北方向140米",
        "tel": "",
        "category": "基础设施:公共设施:公共厕所",
        "type": 0,
        "location": {
            "lat": 22.190075,
            "lng": 113.560922
        },
        "ad_info": {
            "adcode": 820100,
            "province": "澳门特别行政区",
            "city": "澳门半岛",
            "district": "澳门半岛"
        }
    },
    {
        "id": "10606155297560566221",
        "title": "公共厕所",
        "address": "何贤绅士大马路圣德兰学校对面西南方向70米",
        "tel": "",
        "category": "基础设施:公共设施:公共厕所",
        "type": 0,
        "location": {
            "lat": 22.207927,
            "lng": 113.546074
        },
        "ad_info": {
            "adcode": 820100,
            "province": "澳门特别行政区",
            "city": "澳门半岛",
            "district": "澳门半岛"
        }
    },
    {
        "id": "4897603200625689763",
        "title": "公共厕所",
        "address": "肥利喇亚美打大马路113东北方向190米",
        "tel": "",
        "category": "基础设施:公共设施:公共厕所",
        "type": 0,
        "location": {
            "lat": 22.200405,
            "lng": 113.555596
        },
        "ad_info": {
            "adcode": 820100,
            "province": "澳门特别行政区",
            "city": "澳门半岛",
            "district": "澳门半岛"
        }
    },
    {
        "id": "17376423064533159112",
        "title": "公共厕所",
        "address": "柯维纳马路142东南方向150米",
        "tel": "",
        "category": "基础设施:公共设施:公共厕所",
        "type": 0,
        "location": {
            "lat": 22.153013,
            "lng": 113.557646
        },
        "ad_info": {
            "adcode": 820200,
            "province": "澳门特别行政区",
            "city": "氹仔岛",
            "district": "氹仔岛"
        }
    },
    {
        "id": "4106581421264911030",
        "title": "公共厕所",
        "address": "官也街34西南方向20米",
        "tel": "",
        "category": "基础设施:公共设施:公共厕所",
        "type": 0,
        "location": {
            "lat": 22.151109,
            "lng": 113.561534
        },
        "ad_info": {
            "adcode": 820200,
            "province": "澳门特别行政区",
            "city": "氹仔岛",
            "district": "氹仔岛"
        }
    },
    {
        "id": "13874072058902891365",
        "title": "公共厕所",
        "address": "妈阁庙前地1号东南方向70米",
        "tel": "",
        "category": "基础设施:公共设施:公共厕所",
        "type": 0,
        "location": {
            "lat": 22.182702,
            "lng": 113.536088
        },
        "ad_info": {
            "adcode": 820100,
            "province": "澳门特别行政区",
            "city": "澳门半岛",
            "district": "澳门半岛"
        }
    },
    {
        "id": "7902896280416631815",
        "title": "公共厕所",
        "address": "火船头街11号东南方向180米",
        "tel": "",
        "category": "基础设施:公共设施:公共厕所",
        "type": 0,
        "location": {
            "lat": 22.1905,
            "lng": 113.541225
        },
        "ad_info": {
            "adcode": 820100,
            "province": "澳门特别行政区",
            "city": "澳门半岛",
            "district": "澳门半岛"
        }
    },
    {
        "id": "17106978852504157463",
        "title": "公共厕所",
        "address": "李加禄街5-A东南方向20米",
        "tel": "",
        "category": "基础设施:公共设施:公共厕所",
        "type": 0,
        "location": {
            "lat": 22.188061,
            "lng": 113.539754
        },
        "ad_info": {
            "adcode": 820100,
            "province": "澳门特别行政区",
            "city": "澳门半岛",
            "district": "澳门半岛"
        }
    },
    {
        "id": "10136728601203876092",
        "title": "公共厕所",
        "address": "黑沙龙爪角海滨路东北方向100米",
        "tel": "",
        "category": "基础设施:公共设施:公共厕所",
        "type": 0,
        "location": {
            "lat": 22.112885,
            "lng": 113.578298
        },
        "ad_info": {
            "adcode": 820300,
            "province": "澳门特别行政区",
            "city": "路环岛",
            "district": "路环岛"
        }
    },
    {
        "id": "10472035126661279003",
        "title": "公共厕所",
        "address": "营地街市市政综合大楼",
        "tel": "",
        "category": "基础设施:公共设施:公共厕所",
        "type": 0,
        "location": {
            "lat": 22.19179,
            "lng": 113.545171
        },
        "ad_info": {
            "adcode": 820100,
            "province": "澳门特别行政区",
            "city": "澳门半岛",
            "district": "澳门半岛"
        }
    },
    {
        "id": "15998618552455426760",
        "title": "公共厕所(西望洋花园)",
        "address": "民国大马路6号正西方向170米",
        "tel": "",
        "category": "基础设施:公共设施:公共厕所",
        "type": 0,
        "location": {
            "lat": 22.182097,
            "lng": 113.538361
        },
        "ad_info": {
            "adcode": 820100,
            "province": "澳门特别行政区",
            "city": "澳门半岛",
            "district": "澳门半岛"
        }
    },
    {
        "id": "14739133324677837105",
        "title": "公共厕所",
        "address": "苏沙医生街(台山街市市政综合大楼)",
        "tel": "",
        "category": "基础设施:公共设施:公共厕所",
        "type": 0,
        "location": {
            "lat": 22.207639,
            "lng": 113.550812
        },
        "ad_info": {
            "adcode": 820100,
            "province": "澳门特别行政区",
            "city": "澳门半岛",
            "district": "澳门半岛"
        }
    },
    {
        "id": "80246914522838653",
        "title": "公共厕所",
        "address": "荷兰园大马路95号正南方向20米",
        "tel": "",
        "category": "基础设施:公共设施:公共厕所",
        "type": 0,
        "location": {
            "lat": 22.195565,
            "lng": 113.55242
        },
        "ad_info": {
            "adcode": 820100,
            "province": "澳门特别行政区",
            "city": "澳门半岛",
            "district": "澳门半岛"
        }
    },
    {
        "id": "4695046494805897045",
        "title": "公共厕所",
        "address": "林茂海边大马路与船澳街交叉口西北方向17米",
        "tel": "",
        "category": "基础设施:公共设施:公共厕所",
        "type": 0,
        "location": {
            "lat": 22.202057,
            "lng": 113.545969
        },
        "ad_info": {
            "adcode": 820100,
            "province": "澳门特别行政区",
            "city": "澳门半岛",
            "district": "澳门半岛"
        }
    },
    {
        "id": "1092183729486718480",
        "title": "公共厕所",
        "address": "海港前地东北方向90米",
        "tel": "",
        "category": "基础设施:公共设施:公共厕所",
        "type": 0,
        "location": {
            "lat": 22.195411,
            "lng": 113.564958
        },
        "ad_info": {
            "adcode": 820100,
            "province": "澳门特别行政区",
            "city": "澳门半岛",
            "district": "澳门半岛"
        }
    },
    {
        "id": "11289605538354272292",
        "title": "公共厕所",
        "address": "乡村马路北50米",
        "tel": "",
        "category": "基础设施:公共设施:公共厕所",
        "type": 0,
        "location": {
            "lat": 22.109279,
            "lng": 113.556459
        },
        "ad_info": {
            "adcode": 820300,
            "province": "澳门特别行政区",
            "city": "路环岛",
            "district": "路环岛"
        }
    },
    {
        "id": "1982418040042595387",
        "title": "公共厕所",
        "address": "柯打苏沙街37正南方向10米",
        "tel": "",
        "category": "基础设施:公共设施:公共厕所",
        "type": 0,
        "location": {
            "lat": 22.150392,
            "lng": 113.562454
        },
        "ad_info": {
            "adcode": 820200,
            "province": "澳门特别行政区",
            "city": "氹仔岛",
            "district": "氹仔岛"
        }
    },
    {
        "id": "14967433187751093607",
        "title": "公共厕所",
        "address": "嘉乐庇总督马路与光复街交叉口东北140米",
        "tel": "",
        "category": "基础设施:公共设施:公共厕所",
        "type": 0,
        "location": {
            "lat": 22.152886,
            "lng": 113.566916
        },
        "ad_info": {
            "adcode": 820200,
            "province": "澳门特别行政区",
            "city": "氹仔岛",
            "district": "氹仔岛"
        }
    },
    {
        "id": "16334857236951109106",
        "title": "公共厕所",
        "address": "高可宁绅士街13西北方向140米",
        "tel": "",
        "category": "基础设施:公共设施:公共厕所",
        "type": 0,
        "location": {
            "lat": 22.184216,
            "lng": 113.539721
        },
        "ad_info": {
            "adcode": 820100,
            "province": "澳门特别行政区",
            "city": "澳门半岛",
            "district": "澳门半岛"
        }
    },
    {
        "id": "12864471610960600958",
        "title": "公共厕所",
        "address": "渔翁街辅路与黑沙环海边巷交叉口南120米",
        "tel": "",
        "category": "基础设施:公共设施:公共厕所",
        "type": 0,
        "location": {
            "lat": 22.20028,
            "lng": 113.561668
        },
        "ad_info": {
            "adcode": 820100,
            "province": "澳门特别行政区",
            "city": "澳门半岛",
            "district": "澳门半岛"
        }
    },
    {
        "id": "3725313209317360057",
        "title": "公共厕所",
        "address": "沙梨头北街132号",
        "tel": "",
        "category": "基础设施:公共设施:公共厕所",
        "type": 0,
        "location": {
            "lat": 22.20609,
            "lng": 113.547305
        },
        "ad_info": {
            "adcode": 820100,
            "province": "澳门特别行政区",
            "city": "澳门半岛",
            "district": "澳门半岛"
        }
    },
    {
        "id": "4032435602276741369",
        "title": "公共厕所",
        "address": "石斜坡45-47号附近",
        "tel": "",
        "category": "基础设施:公共设施:公共厕所",
        "type": 0,
        "location": {
            "lat": 22.202068,
            "lng": 113.556526
        },
        "ad_info": {
            "adcode": 820100,
            "province": "澳门特别行政区",
            "city": "澳门半岛",
            "district": "澳门半岛"
        }
    },
    {
        "id": "6775057187509834743",
        "title": "公共厕所",
        "address": "佑汉新村第八街165正南方向30米",
        "tel": "",
        "category": "基础设施:公共设施:公共厕所",
        "type": 0,
        "location": {
            "lat": 22.20933,
            "lng": 113.555879
        },
        "ad_info": {
            "adcode": 820100,
            "province": "澳门特别行政区",
            "city": "澳门半岛",
            "district": "澳门半岛"
        }
    },
    {
        "id": "12395803399998821122",
        "title": "澳门三角花园公共厕所",
        "address": "黑沙环马路4西南方向20米",
        "tel": "",
        "category": "基础设施:公共设施:公共厕所",
        "type": 0,
        "location": {
            "lat": 22.207641,
            "lng": 113.553521
        },
        "ad_info": {
            "adcode": 820100,
            "province": "澳门特别行政区",
            "city": "澳门半岛",
            "district": "澳门半岛"
        }
    },
    {
        "id": "18048022551787246002",
        "title": "公共厕所",
        "address": "伟龙马路与北安圆形地交叉口正东方向438米",
        "tel": "",
        "category": "基础设施:公共设施:公共厕所",
        "type": 0,
        "location": {
            "lat": 22.159501,
            "lng": 113.582532
        },
        "ad_info": {
            "adcode": 820200,
            "province": "澳门特别行政区",
            "city": "氹仔岛",
            "district": "氹仔岛"
        }
    },
    {
        "id": "12058171663418514603",
        "title": "望厦山市政公园-公共厕所",
        "address": "望厦炮台斜坡附近",
        "tel": "",
        "category": "基础设施:公共设施:公共厕所",
        "type": 0,
        "location": {
            "lat": 22.204131,
            "lng": 113.553594
        },
        "ad_info": {
            "adcode": 820100,
            "province": "澳门特别行政区",
            "city": "澳门半岛",
            "district": "澳门半岛"
        }
    },
    {
        "id": "7832396656422139180",
        "title": "澳门银河酒店(Galaxy Hotel)-洗手间",
        "address": "银河综合度假城澳门大仓酒店附近",
        "tel": "",
        "category": "基础设施:公共设施:公共厕所",
        "type": 0,
        "location": {
            "lat": 22.146628,
            "lng": 113.557313
        },
        "ad_info": {
            "adcode": 820300,
            "province": "澳门特别行政区",
            "city": "路环岛",
            "district": "路环岛"
        }
    },
    {
        "id": "16716820173265995573",
        "title": "麦当劳(新城巿店)洗手间",
        "address": "半岛台山李宝椿街",
        "tel": "",
        "category": "基础设施:公共设施:公共厕所",
        "type": 0,
        "location": {
            "lat": 22.209235,
            "lng": 113.552098
        },
        "ad_info": {
            "adcode": 820100,
            "province": "澳门特别行政区",
            "city": "澳门半岛",
            "district": "澳门半岛"
        }
    },
    {
        "id": "11480619016477519022",
        "title": "公共厕所",
        "address": "市政分园对落正西方向90米",
        "tel": "",
        "category": "基础设施:公共设施:公共厕所",
        "type": 0,
        "location": {
            "lat": 22.150965,
            "lng": 113.564041
        },
        "ad_info": {
            "adcode": 820200,
            "province": "澳门特别行政区",
            "city": "氹仔岛",
            "district": "氹仔岛"
        }
    },
    {
        "id": "14210608114220069301",
        "title": "公共厕所",
        "address": "沙栏仔街12正北方向10米",
        "tel": "",
        "category": "基础设施:公共设施:公共厕所",
        "type": 0,
        "location": {
            "lat": 22.195975,
            "lng": 113.542784
        },
        "ad_info": {
            "adcode": 820100,
            "province": "澳门特别行政区",
            "city": "澳门半岛",
            "district": "澳门半岛"
        }
    },
    {
        "id": "14153219676739023216",
        "title": "公共厕所",
        "address": "镜湖马路33西北方向30米",
        "tel": "",
        "category": "基础设施:公共设施:公共厕所",
        "type": 0,
        "location": {
            "lat": 22.196819,
            "lng": 113.547485
        },
        "ad_info": {
            "adcode": 820100,
            "province": "澳门特别行政区",
            "city": "澳门半岛",
            "district": "澳门半岛"
        }
    },
    {
        "id": "13151987854844550541",
        "title": "麦当劳(水坑尾街店)-洗手间",
        "address": "半岛水坑尾街135-147号",
        "tel": "",
        "category": "基础设施:公共设施:公共厕所",
        "type": 0,
        "location": {
            "lat": 22.191116,
            "lng": 113.548561
        },
        "ad_info": {
            "adcode": 820100,
            "province": "澳门特别行政区",
            "city": "澳门半岛",
            "district": "澳门半岛"
        }
    },
    {
        "id": "4540264195367372728",
        "title": "官也街女厕",
        "address": "施督宪正街17号",
        "tel": "",
        "category": "基础设施:公共设施:公共厕所",
        "type": 0,
        "location": {
            "lat": 22.150269,
            "lng": 113.562659
        },
        "ad_info": {
            "adcode": 820200,
            "province": "澳门特别行政区",
            "city": "氹仔岛",
            "district": "氹仔岛"
        }
    },
    {
        "id": "10014255493924340116",
        "title": "公共厕所",
        "address": "苏沙医生街(台山街市市政综合大楼)",
        "tel": "",
        "category": "基础设施:公共设施:公共厕所",
        "type": 0,
        "location": {
            "lat": 22.20835,
            "lng": 113.55085
        },
        "ad_info": {
            "adcode": 820100,
            "province": "澳门特别行政区",
            "city": "澳门半岛",
            "district": "澳门半岛"
        }
    },
    {
        "id": "11842325329486531619",
        "title": "男洗手间(澳门国际机场)",
        "address": "伟龙马路澳门国际机场F2层",
        "tel": "",
        "category": "基础设施:公共设施:公共厕所",
        "type": 0,
        "location": {
            "lat": 22.155353,
            "lng": 113.580218
        },
        "ad_info": {
            "adcode": 820200,
            "province": "澳门特别行政区",
            "city": "氹仔岛",
            "district": "氹仔岛"
        }
    },
    {
        "id": "17489562647207016661",
        "title": "公共厕所",
        "address": "水塘马路与罗理基博士大马路交叉口东北20米",
        "tel": "",
        "category": "基础设施:公共设施:公共厕所",
        "type": 0,
        "location": {
            "lat": 22.195485,
            "lng": 113.560055
        },
        "ad_info": {
            "adcode": 820100,
            "province": "澳门特别行政区",
            "city": "澳门半岛",
            "district": "澳门半岛"
        }
    },
    {
        "id": "5025547007445195503",
        "title": "公共厕所",
        "address": "竹湾马路与法令司士古街交叉口北180米",
        "tel": "",
        "category": "基础设施:公共设施:公共厕所",
        "type": 0,
        "location": {
            "lat": 22.111238,
            "lng": 113.567937
        },
        "ad_info": {
            "adcode": 820300,
            "province": "澳门特别行政区",
            "city": "路环岛",
            "district": "路环岛"
        }
    },
    {
        "id": "3062644724949411373",
        "title": "公共厕所",
        "address": "新黑沙马路东50米",
        "tel": "",
        "category": "基础设施:公共设施:公共厕所",
        "type": 0,
        "location": {
            "lat": 22.116063,
            "lng": 113.574834
        },
        "ad_info": {
            "adcode": 820300,
            "province": "澳门特别行政区",
            "city": "路环岛",
            "district": "路环岛"
        }
    },
    {
        "id": "17711571917741918230",
        "title": "公共厕所",
        "address": "士多乌拜斯大马路",
        "tel": "",
        "category": "基础设施:公共设施:公共厕所",
        "type": 0,
        "location": {
            "lat": 22.197543,
            "lng": 113.555713
        },
        "ad_info": {
            "adcode": 820100,
            "province": "澳门特别行政区",
            "city": "澳门半岛",
            "district": "澳门半岛"
        }
    },
    {
        "id": "15352169714530204373",
        "title": "公共厕所",
        "address": "黑沙环第二街36正东方向30米",
        "tel": "",
        "category": "基础设施:公共设施:公共厕所",
        "type": 0,
        "location": {
            "lat": 22.206489,
            "lng": 113.555202
        },
        "ad_info": {
            "adcode": 820100,
            "province": "澳门特别行政区",
            "city": "澳门半岛",
            "district": "澳门半岛"
        }
    },
    {
        "id": "13734644784613008080",
        "title": "澳门渔人码头公共厕所",
        "address": "孙逸仙大马路与蒙地卡罗前地交叉口东100米",
        "tel": "",
        "category": "基础设施:公共设施:公共厕所",
        "type": 0,
        "location": {
            "lat": 22.189644,
            "lng": 113.56086
        },
        "ad_info": {
            "adcode": 820100,
            "province": "澳门特别行政区",
            "city": "澳门半岛",
            "district": "澳门半岛"
        }
    },
    {
        "id": "171969244539898542",
        "title": "男洗手间(澳门国际机场)",
        "address": "伟龙马路澳门国际机场F2层",
        "tel": "",
        "category": "基础设施:公共设施:公共厕所",
        "type": 0,
        "location": {
            "lat": 22.154378,
            "lng": 113.578819
        },
        "ad_info": {
            "adcode": 820200,
            "province": "澳门特别行政区",
            "city": "氹仔岛",
            "district": "氹仔岛"
        }
    },
    {
        "id": "9530693191825841880",
        "title": "麦当劳(高士德大马路)洗手间",
        "address": "高地乌街与高士德大马路交叉口北20米",
        "tel": "",
        "category": "基础设施:公共设施:公共厕所",
        "type": 0,
        "location": {
            "lat": 22.199637,
            "lng": 113.552762
        },
        "ad_info": {
            "adcode": 820100,
            "province": "澳门特别行政区",
            "city": "澳门半岛",
            "district": "澳门半岛"
        }
    },
    {
        "id": "13230299011807765045",
        "title": "女洗手间(澳门国际机场)",
        "address": "伟龙马路澳门国际机场F2层",
        "tel": "",
        "category": "基础设施:公共设施:公共厕所",
        "type": 0,
        "location": {
            "lat": 22.155841,
            "lng": 113.580002
        },
        "ad_info": {
            "adcode": 820200,
            "province": "澳门特别行政区",
            "city": "氹仔岛",
            "district": "氹仔岛"
        }
    },
    {
        "id": "10716410430700398455",
        "title": "螺丝山公园公共厕所",
        "address": "与亚马喇马路螺丝山公园附近",
        "tel": "",
        "category": "基础设施:公共设施:公共厕所",
        "type": 0,
        "location": {
            "lat": 22.200884,
            "lng": 113.55777
        },
        "ad_info": {
            "adcode": 820100,
            "province": "澳门特别行政区",
            "city": "澳门半岛",
            "district": "澳门半岛"
        }
    },
    {
        "id": "17073615668058667433",
        "title": "皇家金堡酒店-洗手间",
        "address": "博士大马路与马六甲街交叉口北100米",
        "tel": "",
        "category": "基础设施:公共设施:公共厕所",
        "type": 0,
        "location": {
            "lat": 22.194688,
            "lng": 113.557747
        },
        "ad_info": {
            "adcode": 820100,
            "province": "澳门特别行政区",
            "city": "澳门半岛",
            "district": "澳门半岛"
        }
    },
    {
        "id": "9372482363954679820",
        "title": "大炮台公共厕所",
        "address": "大三巴巷7附近",
        "tel": "",
        "category": "基础设施:公共设施:公共厕所",
        "type": 0,
        "location": {
            "lat": 22.194111,
            "lng": 113.546313
        },
        "ad_info": {
            "adcode": 820100,
            "province": "澳门特别行政区",
            "city": "澳门半岛",
            "district": "澳门半岛"
        }
    },
    {
        "id": "7597709499197766293",
        "title": "女洗手间(澳门国际机场)",
        "address": "伟龙马路澳门国际机场F2层",
        "tel": "",
        "category": "基础设施:公共设施:公共厕所",
        "type": 0,
        "location": {
            "lat": 22.155314,
            "lng": 113.580203
        },
        "ad_info": {
            "adcode": 820200,
            "province": "澳门特别行政区",
            "city": "氹仔岛",
            "district": "氹仔岛"
        }
    },
    {
        "id": "12417181997070706101",
        "title": "女洗手间(澳门国际机场)",
        "address": "伟龙马路澳门国际机场F1层",
        "tel": "",
        "category": "基础设施:公共设施:公共厕所",
        "type": 0,
        "location": {
            "lat": 22.154485,
            "lng": 113.579
        },
        "ad_info": {
            "adcode": 820200,
            "province": "澳门特别行政区",
            "city": "氹仔岛",
            "district": "氹仔岛"
        }
    },
    {
        "id": "16843198410838177361",
        "title": "女洗手间(澳门国际机场)",
        "address": "伟龙马路澳门国际机场F2层",
        "tel": "",
        "category": "基础设施:公共设施:公共厕所",
        "type": 0,
        "location": {
            "lat": 22.15442,
            "lng": 113.578887
        },
        "ad_info": {
            "adcode": 820200,
            "province": "澳门特别行政区",
            "city": "氹仔岛",
            "district": "氹仔岛"
        }
    },
    {
        "id": "16329941917904424070",
        "title": "男洗手间(澳门国际机场)",
        "address": "伟龙马路澳门国际机场F2层",
        "tel": "",
        "category": "基础设施:公共设施:公共厕所",
        "type": 0,
        "location": {
            "lat": 22.155789,
            "lng": 113.579989
        },
        "ad_info": {
            "adcode": 820200,
            "province": "澳门特别行政区",
            "city": "氹仔岛",
            "district": "氹仔岛"
        }
    },
    {
        "id": "7243064060665958180",
        "title": "男洗手间(澳门国际机场)",
        "address": "伟龙马路澳门国际机场F1层",
        "tel": "",
        "category": "基础设施:公共设施:公共厕所",
        "type": 0,
        "location": {
            "lat": 22.154518,
            "lng": 113.579047
        },
        "ad_info": {
            "adcode": 820200,
            "province": "澳门特别行政区",
            "city": "氹仔岛",
            "district": "氹仔岛"
        }
    },
    {
        "id": "11200139537890742037",
        "title": "公共厕所",
        "address": "十月初五街东南方向120米",
        "tel": "",
        "category": "基础设施:公共设施:公共厕所",
        "type": 0,
        "location": {
            "lat": 22.113135,
            "lng": 113.557067
        },
        "ad_info": {
            "adcode": 820300,
            "province": "澳门特别行政区",
            "city": "路环岛",
            "district": "路环岛"
        }
    },
    {
        "id": "7210945217340900271",
        "title": "金莲花广场公共厕所",
        "address": "毕仕达大马路18号附近",
        "tel": "",
        "category": "基础设施:公共设施:公共厕所",
        "type": 0,
        "location": {
            "lat": 22.19157,
            "lng": 113.55911
        },
        "ad_info": {
            "adcode": 820100,
            "province": "澳门特别行政区",
            "city": "澳门半岛",
            "district": "澳门半岛"
        }
    },
    {
        "id": "9321005789820014697",
        "title": "男洗手间(澳门国际机场)",
        "address": "伟龙马路澳门国际机场F2层",
        "tel": "",
        "category": "基础设施:公共设施:公共厕所",
        "type": 0,
        "location": {
            "lat": 22.154339,
            "lng": 113.57946
        },
        "ad_info": {
            "adcode": 820200,
            "province": "澳门特别行政区",
            "city": "氹仔岛",
            "district": "氹仔岛"
        }
    },
    {
        "id": "2338402738856947445",
        "title": "路环船人街公共厕所",
        "address": "屠场前地21东北方向30米",
        "tel": "",
        "category": "基础设施:公共设施:公共厕所",
        "type": 0,
        "location": {
            "lat": 22.115882,
            "lng": 113.556209
        },
        "ad_info": {
            "adcode": 820300,
            "province": "澳门特别行政区",
            "city": "路环岛",
            "district": "路环岛"
        }
    },
    {
        "id": "13941856637644250038",
        "title": "女洗手间(澳门国际机场)",
        "address": "伟龙马路澳门国际机场F1层",
        "tel": "",
        "category": "基础设施:公共设施:公共厕所",
        "type": 0,
        "location": {
            "lat": 22.155555,
            "lng": 113.579881
        },
        "ad_info": {
            "adcode": 820200,
            "province": "澳门特别行政区",
            "city": "氹仔岛",
            "district": "氹仔岛"
        }
    },
    {
        "id": "11505237142298602026",
        "title": "加思栏花园公共厕所",
        "address": "孙逸仙大马路803号附近",
        "tel": "",
        "category": "基础设施:公共设施:公共厕所",
        "type": 0,
        "location": {
            "lat": 22.189679,
            "lng": 113.549682
        },
        "ad_info": {
            "adcode": 820100,
            "province": "澳门特别行政区",
            "city": "澳门半岛",
            "district": "澳门半岛"
        }
    },
    {
        "id": "16351314599801800271",
        "title": "女洗手间(澳门国际机场)",
        "address": "伟龙马路澳门国际机场F2层",
        "tel": "",
        "category": "基础设施:公共设施:公共厕所",
        "type": 0,
        "location": {
            "lat": 22.154304,
            "lng": 113.579409
        },
        "ad_info": {
            "adcode": 820200,
            "province": "澳门特别行政区",
            "city": "氹仔岛",
            "district": "氹仔岛"
        }
    },
    {
        "id": "16527200994494841633",
        "title": "男洗手间(澳门国际机场)",
        "address": "伟龙马路澳门国际机场F1层",
        "tel": "",
        "category": "基础设施:公共设施:公共厕所",
        "type": 0,
        "location": {
            "lat": 22.155604,
            "lng": 113.579899
        },
        "ad_info": {
            "adcode": 820200,
            "province": "澳门特别行政区",
            "city": "氹仔岛",
            "district": "氹仔岛"
        }
    },
    {
        "id": "7360501944372753777",
        "title": "皇家金堡酒店-洗手间",
        "address": "博士大马路与马六甲街交叉口东60米",
        "tel": "",
        "category": "基础设施:公共设施:公共厕所",
        "type": 0,
        "location": {
            "lat": 22.193744,
            "lng": 113.558805
        },
        "ad_info": {
            "adcode": 820100,
            "province": "澳门特别行政区",
            "city": "澳门半岛",
            "district": "澳门半岛"
        }
    },
    {
        "id": "28131327457546536",
        "title": "公共洗手间",
        "address": "竹湾马路与乡村马路交叉口西北140米",
        "tel": "",
        "category": "基础设施:公共设施:公共厕所",
        "type": 0,
        "location": {
            "lat": 22.112658,
            "lng": 113.561979
        },
        "ad_info": {
            "adcode": 820300,
            "province": "澳门特别行政区",
            "city": "路环岛",
            "district": "路环岛"
        }
    },
    {
        "id": "3172775901551600919",
        "title": "澳门文华东方酒店-洗手间",
        "address": "沙格斯大马路",
        "tel": "",
        "category": "基础设施:公共设施:公共厕所",
        "type": 0,
        "location": {
            "lat": 22.181345,
            "lng": 113.552134
        },
        "ad_info": {
            "adcode": 820100,
            "province": "澳门特别行政区",
            "city": "澳门半岛",
            "district": "澳门半岛"
        }
    }
]