[
    {
        "id": "13538872255308335864",
        "title": "公共厕所",
        "address": "黑龙江省牡丹江市西安区星环路与西南市街交叉口西南方向39米左右",
        "tel": "",
        "category": "基础设施:公共设施:公共厕所",
        "type": 0,
        "location": {
            "lat": 44.574048,
            "lng": 129.620962
        },
        "ad_info": {
            "adcode": 231005,
            "province": "黑龙江省",
            "city": "牡丹江市",
            "district": "西安区"
        }
    },
    {
        "id": "16059409075106975829",
        "title": "公共厕所",
        "address": "黑龙江省牡丹江市西安区西七条路华隆一区",
        "tel": "",
        "category": "基础设施:公共设施:公共厕所",
        "type": 0,
        "location": {
            "lat": 44.573577,
            "lng": 129.601013
        },
        "ad_info": {
            "adcode": 231005,
            "province": "黑龙江省",
            "city": "牡丹江市",
            "district": "西安区"
        }
    },
    {
        "id": "6886691750635372741",
        "title": "公共厕所",
        "address": "黑龙江省牡丹江市爱民区中华路与康佳街交叉口东南方向71米左右",
        "tel": "",
        "category": "基础设施:公共设施:公共厕所",
        "type": 0,
        "location": {
            "lat": 44.595119,
            "lng": 129.606199
        },
        "ad_info": {
            "adcode": 231004,
            "province": "黑龙江省",
            "city": "牡丹江市",
            "district": "爱民区"
        }
    },
    {
        "id": "15323085934177579249",
        "title": "公共厕所",
        "address": "黑龙江省牡丹江市东安区东小太平路与光华街交叉口正南方向24米左右",
        "tel": "",
        "category": "基础设施:公共设施:公共厕所",
        "type": 0,
        "location": {
            "lat": 44.589486,
            "lng": 129.614622
        },
        "ad_info": {
            "adcode": 231002,
            "province": "黑龙江省",
            "city": "牡丹江市",
            "district": "东安区"
        }
    },
    {
        "id": "13508378436616487794",
        "title": "公共厕所",
        "address": "黑龙江省牡丹江市西安区西八条路与西新安街交叉口正北方向52米左右",
        "tel": "",
        "category": "基础设施:公共设施:公共厕所",
        "type": 0,
        "location": {
            "lat": 44.57084,
            "lng": 129.59942
        },
        "ad_info": {
            "adcode": 231005,
            "province": "黑龙江省",
            "city": "牡丹江市",
            "district": "西安区"
        }
    },
    {
        "id": "11007122914973004724",
        "title": "公共厕所",
        "address": "黑龙江省牡丹江市东安区东一条路与福民街交叉口正东方向33米左右",
        "tel": "",
        "category": "基础设施:公共设施:公共厕所",
        "type": 0,
        "location": {
            "lat": 44.577174,
            "lng": 129.624922
        },
        "ad_info": {
            "adcode": 231002,
            "province": "黑龙江省",
            "city": "牡丹江市",
            "district": "东安区"
        }
    },
    {
        "id": "13490151903990998683",
        "title": "公共厕所",
        "address": "黑龙江省牡丹江市西安区西三条路119号",
        "tel": "",
        "category": "基础设施:公共设施:公共厕所",
        "type": 0,
        "location": {
            "lat": 44.58171,
            "lng": 129.608749
        },
        "ad_info": {
            "adcode": 231005,
            "province": "黑龙江省",
            "city": "牡丹江市",
            "district": "西安区"
        }
    },
    {
        "id": "1021847604060279482",
        "title": "公共厕所",
        "address": "黑龙江省牡丹江市西安区西十一条路与西平安街交叉口正东方向98米左右",
        "tel": "",
        "category": "基础设施:公共设施:公共厕所",
        "type": 0,
        "location": {
            "lat": 44.572505,
            "lng": 129.589294
        },
        "ad_info": {
            "adcode": 231005,
            "province": "黑龙江省",
            "city": "牡丹江市",
            "district": "西安区"
        }
    },
    {
        "id": "16417871413462517713",
        "title": "公共厕所",
        "address": "黑龙江省牡丹江市西安区北小西平安街与西小一条路交叉口正东方向16米左右",
        "tel": "",
        "category": "基础设施:公共设施:公共厕所",
        "type": 0,
        "location": {
            "lat": 44.580992,
            "lng": 129.613849
        },
        "ad_info": {
            "adcode": 231005,
            "province": "黑龙江省",
            "city": "牡丹江市",
            "district": "西安区"
        }
    },
    {
        "id": "670589454972699804",
        "title": "公共厕所",
        "address": "黑龙江省牡丹江市东安区六峰湖路六峰湖小区",
        "tel": "",
        "category": "基础设施:公共设施:公共厕所",
        "type": 0,
        "location": {
            "lat": 44.542432,
            "lng": 129.606502
        },
        "ad_info": {
            "adcode": 231002,
            "province": "黑龙江省",
            "city": "牡丹江市",
            "district": "东安区"
        }
    },
    {
        "id": "9110505564369151499",
        "title": "公共厕所",
        "address": "黑龙江省牡丹江市绥芬河市花园路184号",
        "tel": "",
        "category": "基础设施:公共设施:公共厕所",
        "type": 0,
        "location": {
            "lat": 44.395041,
            "lng": 131.158151
        },
        "ad_info": {
            "adcode": 231081,
            "province": "黑龙江省",
            "city": "牡丹江市",
            "district": "绥芬河市"
        }
    },
    {
        "id": "3165605247752646044",
        "title": "公共厕所",
        "address": "黑龙江省牡丹江市爱民区新华路与西海林街交叉口正东方向21米左右",
        "tel": "",
        "category": "基础设施:公共设施:公共厕所",
        "type": 0,
        "location": {
            "lat": 44.590108,
            "lng": 129.604978
        },
        "ad_info": {
            "adcode": 231004,
            "province": "黑龙江省",
            "city": "牡丹江市",
            "district": "爱民区"
        }
    },
    {
        "id": "2691063515229550234",
        "title": "公共厕所",
        "address": "黑龙江省牡丹江市东安区会展街与镜泊湖路交叉口西北方向107米左右",
        "tel": "",
        "category": "基础设施:公共设施:公共厕所",
        "type": 0,
        "location": {
            "lat": 44.558568,
            "lng": 129.631471
        },
        "ad_info": {
            "adcode": 231002,
            "province": "黑龙江省",
            "city": "牡丹江市",
            "district": "东安区"
        }
    },
    {
        "id": "16227764488957083764",
        "title": "公共厕所",
        "address": "黑龙江省牡丹江市爱民区通乡二路7号",
        "tel": "",
        "category": "基础设施:公共设施:公共厕所",
        "type": 0,
        "location": {
            "lat": 44.603376,
            "lng": 129.57359
        },
        "ad_info": {
            "adcode": 231004,
            "province": "黑龙江省",
            "city": "牡丹江市",
            "district": "爱民区"
        }
    },
    {
        "id": "10502606585775192642",
        "title": "公共厕所",
        "address": "黑龙江省牡丹江市绥芬河市富华街208号",
        "tel": "",
        "category": "基础设施:公共设施:公共厕所",
        "type": 0,
        "location": {
            "lat": 44.396021,
            "lng": 131.139326
        },
        "ad_info": {
            "adcode": 231081,
            "province": "黑龙江省",
            "city": "牡丹江市",
            "district": "绥芬河市"
        }
    },
    {
        "id": "15581632923310773277",
        "title": "公共厕所",
        "address": "黑龙江省牡丹江市东宁市东苑路与宏源街交叉口西南方向56米左右",
        "tel": "",
        "category": "基础设施:公共设施:公共厕所",
        "type": 0,
        "location": {
            "lat": 44.059414,
            "lng": 131.137045
        },
        "ad_info": {
            "adcode": 231086,
            "province": "黑龙江省",
            "city": "牡丹江市",
            "district": "东宁市"
        }
    },
    {
        "id": "17827814702028029643",
        "title": "公共厕所",
        "address": "黑龙江省牡丹江市爱民区天安路与西地明街交叉口正北方向97米左右",
        "tel": "",
        "category": "基础设施:公共设施:公共厕所",
        "type": 0,
        "location": {
            "lat": 44.600542,
            "lng": 129.589636
        },
        "ad_info": {
            "adcode": 231004,
            "province": "黑龙江省",
            "city": "牡丹江市",
            "district": "爱民区"
        }
    },
    {
        "id": "1819002436046473579",
        "title": "公共厕所",
        "address": "黑龙江省牡丹江市东宁市繁荣街与长青巷交叉口东南方向27米左右",
        "tel": "",
        "category": "基础设施:公共设施:公共厕所",
        "type": 0,
        "location": {
            "lat": 44.064833,
            "lng": 131.128294
        },
        "ad_info": {
            "adcode": 231086,
            "province": "黑龙江省",
            "city": "牡丹江市",
            "district": "东宁市"
        }
    },
    {
        "id": "7022837887025719471",
        "title": "公共厕所",
        "address": "黑龙江省牡丹江市东安区东小太平路与日照街交叉口正南方向62米左右",
        "tel": "",
        "category": "基础设施:公共设施:公共厕所",
        "type": 0,
        "location": {
            "lat": 44.587837,
            "lng": 129.6157
        },
        "ad_info": {
            "adcode": 231002,
            "province": "黑龙江省",
            "city": "牡丹江市",
            "district": "东安区"
        }
    },
    {
        "id": "7150625918884745165",
        "title": "公共厕所",
        "address": "黑龙江省牡丹江市西安区海浪路与西三条路交叉口正西方向48米左右",
        "tel": "",
        "category": "基础设施:公共设施:公共厕所",
        "type": 0,
        "location": {
            "lat": 44.569878,
            "lng": 129.613723
        },
        "ad_info": {
            "adcode": 231005,
            "province": "黑龙江省",
            "city": "牡丹江市",
            "district": "西安区"
        }
    },
    {
        "id": "7549163099202476763",
        "title": "公共厕所",
        "address": "黑龙江省牡丹江市西安区温春镇建水路牡丹江北方水泥东北",
        "tel": "",
        "category": "基础设施:公共设施:公共厕所",
        "type": 0,
        "location": {
            "lat": 44.43658,
            "lng": 129.491017
        },
        "ad_info": {
            "adcode": 231005,
            "province": "黑龙江省",
            "city": "牡丹江市",
            "district": "西安区"
        }
    },
    {
        "id": "10692184720953147323",
        "title": "公共厕所",
        "address": "黑龙江省牡丹江市东安区东小一条路与南小七星街交叉口东北方向47米左右",
        "tel": "",
        "category": "基础设施:公共设施:公共厕所",
        "type": 0,
        "location": {
            "lat": 44.585836,
            "lng": 129.620853
        },
        "ad_info": {
            "adcode": 231002,
            "province": "黑龙江省",
            "city": "牡丹江市",
            "district": "东安区"
        }
    },
    {
        "id": "15550454574452585866",
        "title": "公共厕所",
        "address": "黑龙江省牡丹江市西安区西二条路306号",
        "tel": "",
        "category": "基础设施:公共设施:公共厕所",
        "type": 0,
        "location": {
            "lat": 44.573687,
            "lng": 129.616179
        },
        "ad_info": {
            "adcode": 231005,
            "province": "黑龙江省",
            "city": "牡丹江市",
            "district": "西安区"
        }
    },
    {
        "id": "327580344119495952",
        "title": "公共厕所",
        "address": "黑龙江省牡丹江市西安区西五条路罗兰新城",
        "tel": "",
        "category": "基础设施:公共设施:公共厕所",
        "type": 0,
        "location": {
            "lat": 44.570234,
            "lng": 129.608683
        },
        "ad_info": {
            "adcode": 231005,
            "province": "黑龙江省",
            "city": "牡丹江市",
            "district": "西安区"
        }
    },
    {
        "id": "9623971473653649224",
        "title": "公共厕所",
        "address": "黑龙江省牡丹江市东安区东四条路与福民街交叉口正南方向75米左右",
        "tel": "",
        "category": "基础设施:公共设施:公共厕所",
        "type": 0,
        "location": {
            "lat": 44.577442,
            "lng": 129.632816
        },
        "ad_info": {
            "adcode": 231002,
            "province": "黑龙江省",
            "city": "牡丹江市",
            "district": "东安区"
        }
    },
    {
        "id": "9638947103726835061",
        "title": "公共厕所",
        "address": "黑龙江省牡丹江市宁安市中心西街与文化路交叉口东北方向26米左右",
        "tel": "",
        "category": "基础设施:公共设施:公共厕所",
        "type": 0,
        "location": {
            "lat": 44.345248,
            "lng": 129.466197
        },
        "ad_info": {
            "adcode": 231084,
            "province": "黑龙江省",
            "city": "牡丹江市",
            "district": "宁安市"
        }
    },
    {
        "id": "15239816466027471423",
        "title": "公共厕所",
        "address": "黑龙江省牡丹江市西安区日照街与西三条路交叉口正西方向44米左右",
        "tel": "",
        "category": "基础设施:公共设施:公共厕所",
        "type": 0,
        "location": {
            "lat": 44.585523,
            "lng": 129.605683
        },
        "ad_info": {
            "adcode": 231005,
            "province": "黑龙江省",
            "city": "牡丹江市",
            "district": "西安区"
        }
    },
    {
        "id": "10925772484056251180",
        "title": "公共厕所",
        "address": "黑龙江省牡丹江市林口县203省道东50米",
        "tel": "",
        "category": "基础设施:公共设施:公共厕所",
        "type": 0,
        "location": {
            "lat": 45.824504,
            "lng": 129.82157
        },
        "ad_info": {
            "adcode": 231025,
            "province": "黑龙江省",
            "city": "牡丹江市",
            "district": "林口县"
        }
    },
    {
        "id": "2714473333649171045",
        "title": "公共厕所",
        "address": "黑龙江省牡丹江市东宁市柞木小学东北侧90米",
        "tel": "",
        "category": "基础设施:公共设施:公共厕所",
        "type": 0,
        "location": {
            "lat": 44.456071,
            "lng": 130.833174
        },
        "ad_info": {
            "adcode": 231086,
            "province": "黑龙江省",
            "city": "牡丹江市",
            "district": "东宁市"
        }
    },
    {
        "id": "14655815424955806609",
        "title": "公共厕所",
        "address": "黑龙江省牡丹江市穆棱市X068与兴城街交叉口正西方向166米左右",
        "tel": "",
        "category": "基础设施:公共设施:公共厕所",
        "type": 0,
        "location": {
            "lat": 44.678362,
            "lng": 130.458132
        },
        "ad_info": {
            "adcode": 231085,
            "province": "黑龙江省",
            "city": "牡丹江市",
            "district": "穆棱市"
        }
    },
    {
        "id": "4480992026626425970",
        "title": "公共厕所",
        "address": "黑龙江省牡丹江市爱民区中华路与牡三公路交叉口正南方向1049米左右",
        "tel": "",
        "category": "基础设施:公共设施:公共厕所",
        "type": 0,
        "location": {
            "lat": 44.624371,
            "lng": 129.589659
        },
        "ad_info": {
            "adcode": 231004,
            "province": "黑龙江省",
            "city": "牡丹江市",
            "district": "爱民区"
        }
    },
    {
        "id": "1551997385198042223",
        "title": "公共厕所",
        "address": "黑龙江省牡丹江市穆棱市东风路与铁路街交叉口正东方向153米左右",
        "tel": "",
        "category": "基础设施:公共设施:公共厕所",
        "type": 0,
        "location": {
            "lat": 44.923932,
            "lng": 130.543844
        },
        "ad_info": {
            "adcode": 231085,
            "province": "黑龙江省",
            "city": "牡丹江市",
            "district": "穆棱市"
        }
    },
    {
        "id": "7695674733351571871",
        "title": "公共厕所",
        "address": "黑龙江省牡丹江市爱民区东地明街与纺织一路交叉口正北方向54米左右",
        "tel": "",
        "category": "基础设施:公共设施:公共厕所",
        "type": 0,
        "location": {
            "lat": 44.6055,
            "lng": 129.607388
        },
        "ad_info": {
            "adcode": 231004,
            "province": "黑龙江省",
            "city": "牡丹江市",
            "district": "爱民区"
        }
    },
    {
        "id": "2946903183629933627",
        "title": "公共厕所",
        "address": "黑龙江省牡丹江市绥芬河市聚源街1号",
        "tel": "",
        "category": "基础设施:公共设施:公共厕所",
        "type": 0,
        "location": {
            "lat": 44.397901,
            "lng": 131.162135
        },
        "ad_info": {
            "adcode": 231081,
            "province": "黑龙江省",
            "city": "牡丹江市",
            "district": "绥芬河市"
        }
    },
    {
        "id": "14064308467395964300",
        "title": "公共厕所",
        "address": "黑龙江省牡丹江市林口县G201与兴林大街交叉口东南方向684米左右",
        "tel": "",
        "category": "基础设施:公共设施:公共厕所",
        "type": 0,
        "location": {
            "lat": 45.274865,
            "lng": 130.292578
        },
        "ad_info": {
            "adcode": 231025,
            "province": "黑龙江省",
            "city": "牡丹江市",
            "district": "林口县"
        }
    },
    {
        "id": "17238433806652436499",
        "title": "公共厕所",
        "address": "黑龙江省牡丹江市绥芬河市丽泽路与乌苏里大街交叉口正西方向1435米左右",
        "tel": "",
        "category": "基础设施:公共设施:公共厕所",
        "type": 0,
        "location": {
            "lat": 44.388911,
            "lng": 131.07906
        },
        "ad_info": {
            "adcode": 231081,
            "province": "黑龙江省",
            "city": "牡丹江市",
            "district": "绥芬河市"
        }
    },
    {
        "id": "5205487685786045004",
        "title": "公共厕所",
        "address": "黑龙江省牡丹江市东安区太平路与环江路交叉口东南方向390米左右",
        "tel": "",
        "category": "基础设施:公共设施:公共厕所",
        "type": 0,
        "location": {
            "lat": 44.569094,
            "lng": 129.628704
        },
        "ad_info": {
            "adcode": 231002,
            "province": "黑龙江省",
            "city": "牡丹江市",
            "district": "东安区"
        }
    },
    {
        "id": "10504089046469645666",
        "title": "公共厕所",
        "address": "黑龙江省牡丹江市宁安市宁古塔大道与西外环路交叉口正北方向36米左右",
        "tel": "",
        "category": "基础设施:公共设施:公共厕所",
        "type": 0,
        "location": {
            "lat": 44.350364,
            "lng": 129.459144
        },
        "ad_info": {
            "adcode": 231084,
            "province": "黑龙江省",
            "city": "牡丹江市",
            "district": "宁安市"
        }
    },
    {
        "id": "6196926847512723052",
        "title": "公共厕所",
        "address": "黑龙江省牡丹江市穆棱市中心街与化北一胡同交叉口东北方向28米左右",
        "tel": "",
        "category": "基础设施:公共设施:公共厕所",
        "type": 0,
        "location": {
            "lat": 44.930235,
            "lng": 130.531169
        },
        "ad_info": {
            "adcode": 231085,
            "province": "黑龙江省",
            "city": "牡丹江市",
            "district": "穆棱市"
        }
    },
    {
        "id": "1662670152975668316",
        "title": "公共厕所",
        "address": "黑龙江省牡丹江市爱民区兴平路与西祥伦街交叉口东北方向194米左右",
        "tel": "",
        "category": "基础设施:公共设施:公共厕所",
        "type": 0,
        "location": {
            "lat": 44.594905,
            "lng": 129.580428
        },
        "ad_info": {
            "adcode": 231004,
            "province": "黑龙江省",
            "city": "牡丹江市",
            "district": "爱民区"
        }
    },
    {
        "id": "4051260142325208966",
        "title": "公共厕所",
        "address": "黑龙江省牡丹江市西安区西三条路与西四条路交叉口正西方向57米左右",
        "tel": "",
        "category": "基础设施:公共设施:公共厕所",
        "type": 0,
        "location": {
            "lat": 44.568474,
            "lng": 129.613783
        },
        "ad_info": {
            "adcode": 231005,
            "province": "黑龙江省",
            "city": "牡丹江市",
            "district": "西安区"
        }
    },
    {
        "id": "13823179388068332032",
        "title": "公共厕所",
        "address": "黑龙江省牡丹江市爱民区中华路与康佳街交叉口正北方向49米左右",
        "tel": "",
        "category": "基础设施:公共设施:公共厕所",
        "type": 0,
        "location": {
            "lat": 44.596052,
            "lng": 129.605649
        },
        "ad_info": {
            "adcode": 231004,
            "province": "黑龙江省",
            "city": "牡丹江市",
            "district": "爱民区"
        }
    },
    {
        "id": "4910365360287690458",
        "title": "公共厕所",
        "address": "黑龙江省牡丹江市爱民区海林公路与黄花七条路交叉口西南方向240米左右",
        "tel": "",
        "category": "基础设施:公共设施:公共厕所",
        "type": 0,
        "location": {
            "lat": 44.566148,
            "lng": 129.559129
        },
        "ad_info": {
            "adcode": 231004,
            "province": "黑龙江省",
            "city": "牡丹江市",
            "district": "爱民区"
        }
    },
    {
        "id": "17726377796295281246",
        "title": "公共厕所",
        "address": "黑龙江省牡丹江市穆棱市中心街与化北一胡同交叉口正南方向92米左右",
        "tel": "",
        "category": "基础设施:公共设施:公共厕所",
        "type": 0,
        "location": {
            "lat": 44.929223,
            "lng": 130.531036
        },
        "ad_info": {
            "adcode": 231085,
            "province": "黑龙江省",
            "city": "牡丹江市",
            "district": "穆棱市"
        }
    },
    {
        "id": "1059212389484838017",
        "title": "公共厕所",
        "address": "黑龙江省牡丹江市穆棱市东风路与西环街交叉口东南方向46米左右",
        "tel": "",
        "category": "基础设施:公共设施:公共厕所",
        "type": 0,
        "location": {
            "lat": 44.922326,
            "lng": 130.521113
        },
        "ad_info": {
            "adcode": 231085,
            "province": "黑龙江省",
            "city": "牡丹江市",
            "district": "穆棱市"
        }
    },
    {
        "id": "16813382948836648864",
        "title": "公共厕所",
        "address": "黑龙江省牡丹江市林口县罗勒密山景区人参山采挖基地",
        "tel": "",
        "category": "基础设施:公共设施:公共厕所",
        "type": 0,
        "location": {
            "lat": 45.69282,
            "lng": 129.500243
        },
        "ad_info": {
            "adcode": 231025,
            "province": "黑龙江省",
            "city": "牡丹江市",
            "district": "林口县"
        }
    },
    {
        "id": "15100294741457218673",
        "title": "公共厕所",
        "address": "黑龙江省牡丹江市爱民区东新荣街与荣华路交叉口正西方向112米左右",
        "tel": "",
        "category": "基础设施:公共设施:公共厕所",
        "type": 0,
        "location": {
            "lat": 44.59537,
            "lng": 129.614086
        },
        "ad_info": {
            "adcode": 231004,
            "province": "黑龙江省",
            "city": "牡丹江市",
            "district": "爱民区"
        }
    },
    {
        "id": "17471069161081034230",
        "title": "公共厕所",
        "address": "黑龙江省牡丹江市穆棱市团结路与文化街交叉口东南方向45米左右",
        "tel": "",
        "category": "基础设施:公共设施:公共厕所",
        "type": 0,
        "location": {
            "lat": 44.912031,
            "lng": 130.53684
        },
        "ad_info": {
            "adcode": 231085,
            "province": "黑龙江省",
            "city": "牡丹江市",
            "district": "穆棱市"
        }
    },
    {
        "id": "5122283677762905169",
        "title": "公共厕所",
        "address": "黑龙江省牡丹江市穆棱市东风路与工农街交叉口东北方向142米左右",
        "tel": "",
        "category": "基础设施:公共设施:公共厕所",
        "type": 0,
        "location": {
            "lat": 44.922548,
            "lng": 130.533998
        },
        "ad_info": {
            "adcode": 231085,
            "province": "黑龙江省",
            "city": "牡丹江市",
            "district": "穆棱市"
        }
    },
    {
        "id": "16265740189985734677",
        "title": "公共厕所",
        "address": "黑龙江省牡丹江市东宁市中华路86号",
        "tel": "",
        "category": "基础设施:公共设施:公共厕所",
        "type": 0,
        "location": {
            "lat": 44.067813,
            "lng": 131.125152
        },
        "ad_info": {
            "adcode": 231086,
            "province": "黑龙江省",
            "city": "牡丹江市",
            "district": "东宁市"
        }
    },
    {
        "id": "1157795763590939561",
        "title": "公共厕所",
        "address": "黑龙江省牡丹江市爱民区康安路与西地明街交叉口正南方向48米左右",
        "tel": "",
        "category": "基础设施:公共设施:公共厕所",
        "type": 0,
        "location": {
            "lat": 44.598078,
            "lng": 129.585769
        },
        "ad_info": {
            "adcode": 231004,
            "province": "黑龙江省",
            "city": "牡丹江市",
            "district": "爱民区"
        }
    },
    {
        "id": "13912616159521058175",
        "title": "公共厕所",
        "address": "黑龙江省牡丹江市东宁市光明街与西环路交叉口东南方向55米左右",
        "tel": "",
        "category": "基础设施:公共设施:公共厕所",
        "type": 0,
        "location": {
            "lat": 44.0662,
            "lng": 131.115096
        },
        "ad_info": {
            "adcode": 231086,
            "province": "黑龙江省",
            "city": "牡丹江市",
            "district": "东宁市"
        }
    },
    {
        "id": "2362524488952417639",
        "title": "公共厕所",
        "address": "黑龙江省牡丹江市东安区乌苏里路与兴隆街交叉口西南方向68米左右",
        "tel": "",
        "category": "基础设施:公共设施:公共厕所",
        "type": 0,
        "location": {
            "lat": 44.549728,
            "lng": 129.628005
        },
        "ad_info": {
            "adcode": 231002,
            "province": "黑龙江省",
            "city": "牡丹江市",
            "district": "东安区"
        }
    },
    {
        "id": "2392838449775315484",
        "title": "公共厕所",
        "address": "黑龙江省牡丹江市东安区东二条路与南小景福街交叉口正东方向26米左右",
        "tel": "",
        "category": "基础设施:公共设施:公共厕所",
        "type": 0,
        "location": {
            "lat": 44.587542,
            "lng": 129.621113
        },
        "ad_info": {
            "adcode": 231002,
            "province": "黑龙江省",
            "city": "牡丹江市",
            "district": "东安区"
        }
    },
    {
        "id": "18343108174885651010",
        "title": "公共厕所",
        "address": "黑龙江省牡丹江市宁安市北园街与民益路交叉口西北方向118米左右",
        "tel": "",
        "category": "基础设施:公共设施:公共厕所",
        "type": 0,
        "location": {
            "lat": 44.351526,
            "lng": 129.477734
        },
        "ad_info": {
            "adcode": 231084,
            "province": "黑龙江省",
            "city": "牡丹江市",
            "district": "宁安市"
        }
    },
    {
        "id": "8046658844117747877",
        "title": "公共厕所",
        "address": "黑龙江省牡丹江市爱民区西晓云街康居新城-A区",
        "tel": "",
        "category": "基础设施:公共设施:公共厕所",
        "type": 0,
        "location": {
            "lat": 44.591411,
            "lng": 129.581352
        },
        "ad_info": {
            "adcode": 231004,
            "province": "黑龙江省",
            "city": "牡丹江市",
            "district": "爱民区"
        }
    },
    {
        "id": "483708471978312020",
        "title": "公共厕所",
        "address": "黑龙江省牡丹江市东宁市育才路东宁市实验小学",
        "tel": "",
        "category": "基础设施:公共设施:公共厕所",
        "type": 0,
        "location": {
            "lat": 44.064794,
            "lng": 131.122816
        },
        "ad_info": {
            "adcode": 231086,
            "province": "黑龙江省",
            "city": "牡丹江市",
            "district": "东宁市"
        }
    },
    {
        "id": "2084973243240447486",
        "title": "公共厕所",
        "address": "黑龙江省牡丹江市爱民区东地明街牡丹江市第十九中学",
        "tel": "",
        "category": "基础设施:公共设施:公共厕所",
        "type": 0,
        "location": {
            "lat": 44.603659,
            "lng": 129.599399
        },
        "ad_info": {
            "adcode": 231004,
            "province": "黑龙江省",
            "city": "牡丹江市",
            "district": "爱民区"
        }
    },
    {
        "id": "6714717786722348262",
        "title": "公共厕所",
        "address": "黑龙江省牡丹江市穆棱市大庆路与工农街交叉口正东方向230米左右",
        "tel": "",
        "category": "基础设施:公共设施:公共厕所",
        "type": 0,
        "location": {
            "lat": 44.93072,
            "lng": 130.536262
        },
        "ad_info": {
            "adcode": 231085,
            "province": "黑龙江省",
            "city": "牡丹江市",
            "district": "穆棱市"
        }
    },
    {
        "id": "7201898488846067080",
        "title": "公共厕所",
        "address": "黑龙江省牡丹江市东宁市宏源街与富民巷交叉口正东方向37米左右",
        "tel": "",
        "category": "基础设施:公共设施:公共厕所",
        "type": 0,
        "location": {
            "lat": 44.058849,
            "lng": 131.141047
        },
        "ad_info": {
            "adcode": 231086,
            "province": "黑龙江省",
            "city": "牡丹江市",
            "district": "东宁市"
        }
    },
    {
        "id": "5779219530946900670",
        "title": "公共厕所",
        "address": "黑龙江省牡丹江市穆棱市朝阳街与金川路交叉口西北方向124米左右",
        "tel": "",
        "category": "基础设施:公共设施:公共厕所",
        "type": 0,
        "location": {
            "lat": 44.923908,
            "lng": 130.49913
        },
        "ad_info": {
            "adcode": 231085,
            "province": "黑龙江省",
            "city": "牡丹江市",
            "district": "穆棱市"
        }
    },
    {
        "id": "2913323798131678021",
        "title": "公共厕所",
        "address": "黑龙江省牡丹江市爱民区建卫路与西祥伦街交叉口正西方向36米左右",
        "tel": "",
        "category": "基础设施:公共设施:公共厕所",
        "type": 0,
        "location": {
            "lat": 44.599195,
            "lng": 129.597957
        },
        "ad_info": {
            "adcode": 231004,
            "province": "黑龙江省",
            "city": "牡丹江市",
            "district": "爱民区"
        }
    },
    {
        "id": "12803848536771842646",
        "title": "公共厕所",
        "address": "黑龙江省牡丹江市东宁市繁荣街与细林巷交叉口东南方向29米左右",
        "tel": "",
        "category": "基础设施:公共设施:公共厕所",
        "type": 0,
        "location": {
            "lat": 44.063072,
            "lng": 131.132093
        },
        "ad_info": {
            "adcode": 231086,
            "province": "黑龙江省",
            "city": "牡丹江市",
            "district": "东宁市"
        }
    },
    {
        "id": "6577875837058083849",
        "title": "公共厕所",
        "address": "黑龙江省牡丹江市东安区东三条路与东四条路交叉口正西方向21米左右",
        "tel": "",
        "category": "基础设施:公共设施:公共厕所",
        "type": 0,
        "location": {
            "lat": 44.574187,
            "lng": 129.63287
        },
        "ad_info": {
            "adcode": 231002,
            "province": "黑龙江省",
            "city": "牡丹江市",
            "district": "东安区"
        }
    },
    {
        "id": "12956816240313376500",
        "title": "公共厕所",
        "address": "黑龙江省牡丹江市穆棱市幸福大街华光幼儿园",
        "tel": "",
        "category": "基础设施:公共设施:公共厕所",
        "type": 0,
        "location": {
            "lat": 44.913054,
            "lng": 130.537911
        },
        "ad_info": {
            "adcode": 231085,
            "province": "黑龙江省",
            "city": "牡丹江市",
            "district": "穆棱市"
        }
    },
    {
        "id": "3713213715104346326",
        "title": "公共厕所",
        "address": "黑龙江省牡丹江市穆棱市东风路与兴林街交叉口正北方向212米左右",
        "tel": "",
        "category": "基础设施:公共设施:公共厕所",
        "type": 0,
        "location": {
            "lat": 44.926562,
            "lng": 130.54549
        },
        "ad_info": {
            "adcode": 231085,
            "province": "黑龙江省",
            "city": "牡丹江市",
            "district": "穆棱市"
        }
    },
    {
        "id": "3696694653439302527",
        "title": "公共厕所",
        "address": "黑龙江省牡丹江市林口县文政大街与永昌街交叉口正西方向21米左右",
        "tel": "",
        "category": "基础设施:公共设施:公共厕所",
        "type": 0,
        "location": {
            "lat": 45.293219,
            "lng": 130.279367
        },
        "ad_info": {
            "adcode": 231025,
            "province": "黑龙江省",
            "city": "牡丹江市",
            "district": "林口县"
        }
    },
    {
        "id": "14625383748687282460",
        "title": "公共厕所",
        "address": "黑龙江省牡丹江市东宁市健康街与怀英街交叉口正北方向26米左右",
        "tel": "",
        "category": "基础设施:公共设施:公共厕所",
        "type": 0,
        "location": {
            "lat": 44.060864,
            "lng": 131.120941
        },
        "ad_info": {
            "adcode": 231086,
            "province": "黑龙江省",
            "city": "牡丹江市",
            "district": "东宁市"
        }
    },
    {
        "id": "13864316527285487510",
        "title": "公共厕所",
        "address": "黑龙江省牡丹江市宁安市北园街金泰嘉园(镜泊湖大街)",
        "tel": "",
        "category": "基础设施:公共设施:公共厕所",
        "type": 0,
        "location": {
            "lat": 44.349831,
            "lng": 129.469068
        },
        "ad_info": {
            "adcode": 231084,
            "province": "黑龙江省",
            "city": "牡丹江市",
            "district": "宁安市"
        }
    },
    {
        "id": "5856116736406019174",
        "title": "公共厕所",
        "address": "黑龙江省牡丹江市东安区Y003与牡丹峰公路交叉口正南方向1430米左右",
        "tel": "",
        "category": "基础设施:公共设施:公共厕所",
        "type": 0,
        "location": {
            "lat": 44.494114,
            "lng": 129.669769
        },
        "ad_info": {
            "adcode": 231002,
            "province": "黑龙江省",
            "city": "牡丹江市",
            "district": "东安区"
        }
    },
    {
        "id": "16924563398156162677",
        "title": "公共厕所",
        "address": "黑龙江省牡丹江市宁安市G201与Y015交叉口正东方向44米左右",
        "tel": "",
        "category": "基础设施:公共设施:公共厕所",
        "type": 0,
        "location": {
            "lat": 44.170742,
            "lng": 129.371333
        },
        "ad_info": {
            "adcode": 231084,
            "province": "黑龙江省",
            "city": "牡丹江市",
            "district": "宁安市"
        }
    },
    {
        "id": "11721795308764610639",
        "title": "公共厕所",
        "address": "黑龙江省牡丹江市东安区东三条路与福民街交叉口正南方向90米左右",
        "tel": "",
        "category": "基础设施:公共设施:公共厕所",
        "type": 0,
        "location": {
            "lat": 44.577555,
            "lng": 129.629747
        },
        "ad_info": {
            "adcode": 231002,
            "province": "黑龙江省",
            "city": "牡丹江市",
            "district": "东安区"
        }
    },
    {
        "id": "7151017924662711061",
        "title": "公共厕所",
        "address": "黑龙江省牡丹江市爱民区轴承小区(文化街北)",
        "tel": "",
        "category": "基础设施:公共设施:公共厕所",
        "type": 0,
        "location": {
            "lat": 44.590778,
            "lng": 129.578244
        },
        "ad_info": {
            "adcode": 231004,
            "province": "黑龙江省",
            "city": "牡丹江市",
            "district": "爱民区"
        }
    },
    {
        "id": "8071379046191036148",
        "title": "公共厕所",
        "address": "黑龙江省牡丹江市宁安市X062与翰章路交叉口西北方向121米左右",
        "tel": "",
        "category": "基础设施:公共设施:公共厕所",
        "type": 0,
        "location": {
            "lat": 44.359558,
            "lng": 129.463981
        },
        "ad_info": {
            "adcode": 231084,
            "province": "黑龙江省",
            "city": "牡丹江市",
            "district": "宁安市"
        }
    },
    {
        "id": "18041438662299002105",
        "title": "公共厕所",
        "address": "黑龙江省牡丹江市宁安市东兴路与中心东街交叉口西北方向38米左右",
        "tel": "",
        "category": "基础设施:公共设施:公共厕所",
        "type": 0,
        "location": {
            "lat": 44.348152,
            "lng": 129.480433
        },
        "ad_info": {
            "adcode": 231084,
            "province": "黑龙江省",
            "city": "牡丹江市",
            "district": "宁安市"
        }
    },
    {
        "id": "11310978950621385888",
        "title": "公共厕所",
        "address": "黑龙江省牡丹江市爱民区东地明街北100米垃圾中转站旁边",
        "tel": "",
        "category": "基础设施:公共设施:公共厕所",
        "type": 0,
        "location": {
            "lat": 44.611374,
            "lng": 129.622913
        },
        "ad_info": {
            "adcode": 231004,
            "province": "黑龙江省",
            "city": "牡丹江市",
            "district": "爱民区"
        }
    },
    {
        "id": "9369702965151510556",
        "title": "公共厕所",
        "address": "黑龙江省牡丹江市东安区柴市路与清福街交叉口东北方向74米左右",
        "tel": "",
        "category": "基础设施:公共设施:公共厕所",
        "type": 0,
        "location": {
            "lat": 44.576788,
            "lng": 129.629082
        },
        "ad_info": {
            "adcode": 231002,
            "province": "黑龙江省",
            "city": "牡丹江市",
            "district": "东安区"
        }
    },
    {
        "id": "8656241322559649503",
        "title": "公共厕所",
        "address": "黑龙江省牡丹江市爱民区海林公路与黄花七条路交叉口西南方向411米左右",
        "tel": "",
        "category": "基础设施:公共设施:公共厕所",
        "type": 0,
        "location": {
            "lat": 44.56512,
            "lng": 129.557521
        },
        "ad_info": {
            "adcode": 231004,
            "province": "黑龙江省",
            "city": "牡丹江市",
            "district": "爱民区"
        }
    },
    {
        "id": "9454954803521990021",
        "title": "公共厕所",
        "address": "黑龙江省牡丹江市爱民区康安路与西圣林街交叉口正南方向86米左右",
        "tel": "",
        "category": "基础设施:公共设施:公共厕所",
        "type": 0,
        "location": {
            "lat": 44.590099,
            "lng": 129.59056
        },
        "ad_info": {
            "adcode": 231004,
            "province": "黑龙江省",
            "city": "牡丹江市",
            "district": "爱民区"
        }
    },
    {
        "id": "553813182829143163",
        "title": "公共厕所",
        "address": "黑龙江省牡丹江市东安区Y003与牡丹峰公路交叉口正东方向1474米左右",
        "tel": "",
        "category": "基础设施:公共设施:公共厕所",
        "type": 0,
        "location": {
            "lat": 44.506618,
            "lng": 129.687585
        },
        "ad_info": {
            "adcode": 231002,
            "province": "黑龙江省",
            "city": "牡丹江市",
            "district": "东安区"
        }
    },
    {
        "id": "6129800203094447799",
        "title": "公共厕所",
        "address": "黑龙江省牡丹江市宁安市中心东街与第十五号路交叉口西南方向108米左右",
        "tel": "",
        "category": "基础设施:公共设施:公共厕所",
        "type": 0,
        "location": {
            "lat": 44.347119,
            "lng": 129.478267
        },
        "ad_info": {
            "adcode": 231084,
            "province": "黑龙江省",
            "city": "牡丹江市",
            "district": "宁安市"
        }
    },
    {
        "id": "7361469054563164534",
        "title": "公共厕所",
        "address": "黑龙江省牡丹江市宁安市G201与友谊路交叉口东北方向1032米左右",
        "tel": "",
        "category": "基础设施:公共设施:公共厕所",
        "type": 0,
        "location": {
            "lat": 44.128632,
            "lng": 129.232639
        },
        "ad_info": {
            "adcode": 231084,
            "province": "黑龙江省",
            "city": "牡丹江市",
            "district": "宁安市"
        }
    },
    {
        "id": "14738467175478026040",
        "title": "公共厕所",
        "address": "黑龙江省牡丹江市宁安市尔站路与火山口旅游公路交叉口东北方向74米左右",
        "tel": "",
        "category": "基础设施:公共设施:公共厕所",
        "type": 0,
        "location": {
            "lat": 44.083949,
            "lng": 128.731665
        },
        "ad_info": {
            "adcode": 231084,
            "province": "黑龙江省",
            "city": "牡丹江市",
            "district": "宁安市"
        }
    },
    {
        "id": "9550870280716128448",
        "title": "公共厕所",
        "address": "黑龙江省牡丹江市宁安市江华优生态农业公司南湖百果园采摘棚东",
        "tel": "",
        "category": "基础设施:公共设施:公共厕所",
        "type": 0,
        "location": {
            "lat": 43.817564,
            "lng": 128.906877
        },
        "ad_info": {
            "adcode": 231084,
            "province": "黑龙江省",
            "city": "牡丹江市",
            "district": "宁安市"
        }
    },
    {
        "id": "15097618989478526384",
        "title": "公共厕所",
        "address": "黑龙江省牡丹江市阳明区东平安街与阳明二路交叉口东南方向39米左右",
        "tel": "",
        "category": "基础设施:公共设施:公共厕所",
        "type": 0,
        "location": {
            "lat": 44.59153,
            "lng": 129.642564
        },
        "ad_info": {
            "adcode": 231003,
            "province": "黑龙江省",
            "city": "牡丹江市",
            "district": "阳明区"
        }
    },
    {
        "id": "6356647997060119330",
        "title": "公共厕所",
        "address": "黑龙江省牡丹江市阳明区光华街与镇江路交叉口东北方向96米左右",
        "tel": "",
        "category": "基础设施:公共设施:公共厕所",
        "type": 0,
        "location": {
            "lat": 44.601563,
            "lng": 129.660094
        },
        "ad_info": {
            "adcode": 231003,
            "province": "黑龙江省",
            "city": "牡丹江市",
            "district": "阳明区"
        }
    },
    {
        "id": "1755109211636527078",
        "title": "公共厕所",
        "address": "黑龙江省牡丹江市阳明区东平安街与富江路交叉口正北方向69米左右",
        "tel": "",
        "category": "基础设施:公共设施:公共厕所",
        "type": 0,
        "location": {
            "lat": 44.59527,
            "lng": 129.647749
        },
        "ad_info": {
            "adcode": 231003,
            "province": "黑龙江省",
            "city": "牡丹江市",
            "district": "阳明区"
        }
    },
    {
        "id": "6085389628470454475",
        "title": "公共厕所",
        "address": "黑龙江省牡丹江市宁安市东京城镇卫生院北侧150米",
        "tel": "",
        "category": "基础设施:公共设施:公共厕所",
        "type": 0,
        "location": {
            "lat": 44.119745,
            "lng": 129.212241
        },
        "ad_info": {
            "adcode": 231084,
            "province": "黑龙江省",
            "city": "牡丹江市",
            "district": "宁安市"
        }
    },
    {
        "id": "6016646044092644615",
        "title": "公共厕所",
        "address": "黑龙江省牡丹江市阳明区新兴路与铁岭街交叉口正南方向76米左右",
        "tel": "",
        "category": "基础设施:公共设施:公共厕所",
        "type": 0,
        "location": {
            "lat": 44.593241,
            "lng": 129.683896
        },
        "ad_info": {
            "adcode": 231003,
            "province": "黑龙江省",
            "city": "牡丹江市",
            "district": "阳明区"
        }
    },
    {
        "id": "14143773911970320523",
        "title": "公共厕所",
        "address": "黑龙江省牡丹江市阳明区光华街与阳明三路交叉口正西方向47米左右",
        "tel": "",
        "category": "基础设施:公共设施:公共厕所",
        "type": 0,
        "location": {
            "lat": 44.596536,
            "lng": 129.635639
        },
        "ad_info": {
            "adcode": 231003,
            "province": "黑龙江省",
            "city": "牡丹江市",
            "district": "阳明区"
        }
    },
    {
        "id": "7836541444865204780",
        "title": "公共厕所",
        "address": "黑龙江省牡丹江市宁安市北园街与新街路交叉口正东方向47米左右",
        "tel": "",
        "category": "基础设施:公共设施:公共厕所",
        "type": 0,
        "location": {
            "lat": 44.350224,
            "lng": 129.476045
        },
        "ad_info": {
            "adcode": 231084,
            "province": "黑龙江省",
            "city": "牡丹江市",
            "district": "宁安市"
        }
    },
    {
        "id": "16346059892832954518",
        "title": "公共厕所",
        "address": "黑龙江省牡丹江市宁安市镜泊小镇内",
        "tel": "",
        "category": "基础设施:公共设施:公共厕所",
        "type": 0,
        "location": {
            "lat": 44.07028,
            "lng": 128.985874
        },
        "ad_info": {
            "adcode": 231084,
            "province": "黑龙江省",
            "city": "牡丹江市",
            "district": "宁安市"
        }
    },
    {
        "id": "510595129560550590",
        "title": "公共厕所",
        "address": "黑龙江省牡丹江市阳明区光华街与水利路交叉口正北方向212米左右",
        "tel": "",
        "category": "基础设施:公共设施:公共厕所",
        "type": 0,
        "location": {
            "lat": 44.599893,
            "lng": 129.640795
        },
        "ad_info": {
            "adcode": 231003,
            "province": "黑龙江省",
            "city": "牡丹江市",
            "district": "阳明区"
        }
    },
    {
        "id": "13677183015860096616",
        "title": "公共厕所",
        "address": "黑龙江省牡丹江市宁安市兴文路与古塔西街交叉口正西方向96米左右",
        "tel": "",
        "category": "基础设施:公共设施:公共厕所",
        "type": 0,
        "location": {
            "lat": 44.339589,
            "lng": 129.461149
        },
        "ad_info": {
            "adcode": 231084,
            "province": "黑龙江省",
            "city": "牡丹江市",
            "district": "宁安市"
        }
    },
    {
        "id": "12442627665522223823",
        "title": "公共厕所",
        "address": "黑龙江省牡丹江市宁安市十五号路与古塔东街交叉口东南方向145米左右",
        "tel": "",
        "category": "基础设施:公共设施:公共厕所",
        "type": 0,
        "location": {
            "lat": 44.341652,
            "lng": 129.480633
        },
        "ad_info": {
            "adcode": 231084,
            "province": "黑龙江省",
            "city": "牡丹江市",
            "district": "宁安市"
        }
    },
    {
        "id": "10485999971641318450",
        "title": "公共厕所",
        "address": "黑龙江省牡丹江市阳明区桦橡科技路与桦橡西街交叉口东南方向197米左右",
        "tel": "",
        "category": "基础设施:公共设施:公共厕所",
        "type": 0,
        "location": {
            "lat": 44.678374,
            "lng": 129.675673
        },
        "ad_info": {
            "adcode": 231003,
            "province": "黑龙江省",
            "city": "牡丹江市",
            "district": "阳明区"
        }
    },
    {
        "id": "9523332007489158149",
        "title": "公共厕所",
        "address": "黑龙江省牡丹江市海林市子荣街与河西路交叉口东北方向42米左右",
        "tel": "",
        "category": "基础设施:公共设施:公共厕所",
        "type": 0,
        "location": {
            "lat": 44.573744,
            "lng": 129.395174
        },
        "ad_info": {
            "adcode": 231083,
            "province": "黑龙江省",
            "city": "牡丹江市",
            "district": "海林市"
        }
    },
    {
        "id": "4095370218368773114",
        "title": "公共厕所",
        "address": "黑龙江省牡丹江市阳明区兴民路与裕民路交叉口正北方向136米左右",
        "tel": "",
        "category": "基础设施:公共设施:公共厕所",
        "type": 0,
        "location": {
            "lat": 44.605811,
            "lng": 129.65703
        },
        "ad_info": {
            "adcode": 231003,
            "province": "黑龙江省",
            "city": "牡丹江市",
            "district": "阳明区"
        }
    },
    {
        "id": "8647096432016086244",
        "title": "公共厕所",
        "address": "黑龙江省牡丹江市海林市西河路与西河路西河路交叉口正南方向106米左右",
        "tel": "",
        "category": "基础设施:公共设施:公共厕所",
        "type": 0,
        "location": {
            "lat": 44.591613,
            "lng": 129.386702
        },
        "ad_info": {
            "adcode": 231083,
            "province": "黑龙江省",
            "city": "牡丹江市",
            "district": "海林市"
        }
    },
    {
        "id": "4922976323355799546",
        "title": "公共厕所",
        "address": "黑龙江省牡丹江市阳明区莲花南路与裕民路交叉口东北方向73米左右",
        "tel": "",
        "category": "基础设施:公共设施:公共厕所",
        "type": 0,
        "location": {
            "lat": 44.609149,
            "lng": 129.658013
        },
        "ad_info": {
            "adcode": 231003,
            "province": "黑龙江省",
            "city": "牡丹江市",
            "district": "阳明区"
        }
    },
    {
        "id": "5587004774918914991",
        "title": "公共厕所",
        "address": "黑龙江省牡丹江市阳明区沿堤街与裕民路交叉口正北方向130米左右",
        "tel": "",
        "category": "基础设施:公共设施:公共厕所",
        "type": 0,
        "location": {
            "lat": 44.633877,
            "lng": 129.674432
        },
        "ad_info": {
            "adcode": 231003,
            "province": "黑龙江省",
            "city": "牡丹江市",
            "district": "阳明区"
        }
    },
    {
        "id": "13800109928269410699",
        "title": "公共厕所",
        "address": "黑龙江省牡丹江市阳明区第十一中学(人民公园西北)",
        "tel": "",
        "category": "基础设施:公共设施:公共厕所",
        "type": 0,
        "location": {
            "lat": 44.592827,
            "lng": 129.625693
        },
        "ad_info": {
            "adcode": 231003,
            "province": "黑龙江省",
            "city": "牡丹江市",
            "district": "阳明区"
        }
    },
    {
        "id": "11668142817079664559",
        "title": "公共厕所",
        "address": "黑龙江省牡丹江市海林市和平街与城西路交叉口正南方向56米左右",
        "tel": "",
        "category": "基础设施:公共设施:公共厕所",
        "type": 0,
        "location": {
            "lat": 44.573544,
            "lng": 129.383987
        },
        "ad_info": {
            "adcode": 231083,
            "province": "黑龙江省",
            "city": "牡丹江市",
            "district": "海林市"
        }
    },
    {
        "id": "16501051223293298741",
        "title": "公共厕所",
        "address": "黑龙江省牡丹江市海林市和平街与河西路交叉口东南方向72米左右",
        "tel": "",
        "category": "基础设施:公共设施:公共厕所",
        "type": 0,
        "location": {
            "lat": 44.571419,
            "lng": 129.394576
        },
        "ad_info": {
            "adcode": 231083,
            "province": "黑龙江省",
            "city": "牡丹江市",
            "district": "海林市"
        }
    },
    {
        "id": "8464834912797431246",
        "title": "公共厕所",
        "address": "黑龙江省牡丹江市海林市S207与S316交叉口东北方向581米左右",
        "tel": "",
        "category": "基础设施:公共设施:公共厕所",
        "type": 0,
        "location": {
            "lat": 44.543154,
            "lng": 129.393066
        },
        "ad_info": {
            "adcode": 231083,
            "province": "黑龙江省",
            "city": "牡丹江市",
            "district": "海林市"
        }
    },
    {
        "id": "18401524882044493440",
        "title": "公共厕所",
        "address": "黑龙江省牡丹江市海林市前进街与幸福路交叉口西南方向107米左右",
        "tel": "",
        "category": "基础设施:公共设施:公共厕所",
        "type": 0,
        "location": {
            "lat": 44.567072,
            "lng": 129.388955
        },
        "ad_info": {
            "adcode": 231083,
            "province": "黑龙江省",
            "city": "牡丹江市",
            "district": "海林市"
        }
    },
    {
        "id": "11975068445323261174",
        "title": "公共厕所",
        "address": "黑龙江省牡丹江市海林市幸福路与雪原街交叉口西南方向38米左右",
        "tel": "",
        "category": "基础设施:公共设施:公共厕所",
        "type": 0,
        "location": {
            "lat": 44.570671,
            "lng": 129.391073
        },
        "ad_info": {
            "adcode": 231083,
            "province": "黑龙江省",
            "city": "牡丹江市",
            "district": "海林市"
        }
    },
    {
        "id": "17829487135495847306",
        "title": "公共厕所",
        "address": "黑龙江省牡丹江市阳明区东小四条路东四小区",
        "tel": "",
        "category": "基础设施:公共设施:公共厕所",
        "type": 0,
        "location": {
            "lat": 44.584746,
            "lng": 129.629987
        },
        "ad_info": {
            "adcode": 231003,
            "province": "黑龙江省",
            "city": "牡丹江市",
            "district": "阳明区"
        }
    },
    {
        "id": "17016231374101494755",
        "title": "公共厕所",
        "address": "黑龙江省牡丹江市海林市和平街与奋斗路交叉口正南方向55米左右",
        "tel": "",
        "category": "基础设施:公共设施:公共厕所",
        "type": 0,
        "location": {
            "lat": 44.573207,
            "lng": 129.38562
        },
        "ad_info": {
            "adcode": 231083,
            "province": "黑龙江省",
            "city": "牡丹江市",
            "district": "海林市"
        }
    },
    {
        "id": "15679449147580182217",
        "title": "林口服务区公共厕所",
        "address": "黑龙江省牡丹江市林口县G11鹤大高速附近",
        "tel": "",
        "category": "基础设施:公共设施:公共厕所",
        "type": 0,
        "location": {
            "lat": 45.174399,
            "lng": 130.277036
        },
        "ad_info": {
            "adcode": 231025,
            "province": "黑龙江省",
            "city": "牡丹江市",
            "district": "林口县"
        }
    },
    {
        "id": "11904501106274491951",
        "title": "兴源服务区公共厕所",
        "address": "黑龙江省牡丹江市穆棱市绿江街与萱草路交叉口正东方向603米左右",
        "tel": "",
        "category": "基础设施:公共设施:公共厕所",
        "type": 0,
        "location": {
            "lat": 44.636988,
            "lng": 130.392852
        },
        "ad_info": {
            "adcode": 231085,
            "province": "黑龙江省",
            "city": "牡丹江市",
            "district": "穆棱市"
        }
    },
    {
        "id": "11194105440734131703",
        "title": "旅游厕所",
        "address": "黑龙江省牡丹江市林口县罗勒密山景区",
        "tel": "",
        "category": "基础设施:公共设施:公共厕所",
        "type": 0,
        "location": {
            "lat": 45.596108,
            "lng": 129.512152
        },
        "ad_info": {
            "adcode": 231025,
            "province": "黑龙江省",
            "city": "牡丹江市",
            "district": "林口县"
        }
    },
    {
        "id": "9676935243284078822",
        "title": "林口服务区第二公共厕所",
        "address": "黑龙江省牡丹江市林口县G11鹤大高速西100米",
        "tel": "",
        "category": "基础设施:公共设施:公共厕所",
        "type": 0,
        "location": {
            "lat": 45.175484,
            "lng": 130.275865
        },
        "ad_info": {
            "adcode": 231025,
            "province": "黑龙江省",
            "city": "牡丹江市",
            "district": "林口县"
        }
    },
    {
        "id": "8328344083074843168",
        "title": "公共厕所",
        "address": "黑龙江省牡丹江市阳明区兴业路与裕民路交叉口正西方向380米左右",
        "tel": "",
        "category": "基础设施:公共设施:公共厕所",
        "type": 0,
        "location": {
            "lat": 44.616959,
            "lng": 129.657313
        },
        "ad_info": {
            "adcode": 231003,
            "province": "黑龙江省",
            "city": "牡丹江市",
            "district": "阳明区"
        }
    },
    {
        "id": "17362079096352667745",
        "title": "西湖岫服务区-公共厕所",
        "address": "黑龙江省牡丹江市宁安市鹤大高速镜泊服务区",
        "tel": "",
        "category": "基础设施:公共设施:公共厕所",
        "type": 0,
        "location": {
            "lat": 43.802009,
            "lng": 128.868332
        },
        "ad_info": {
            "adcode": 231084,
            "province": "黑龙江省",
            "city": "牡丹江市",
            "district": "宁安市"
        }
    },
    {
        "id": "6948778827159017281",
        "title": "无障碍公共厕所",
        "address": "黑龙江省牡丹江市阳明区东四条路与南小景福街交叉口东北方向36米左右",
        "tel": "",
        "category": "基础设施:公共设施:公共厕所",
        "type": 0,
        "location": {
            "lat": 44.58939,
            "lng": 129.626125
        },
        "ad_info": {
            "adcode": 231003,
            "province": "黑龙江省",
            "city": "牡丹江市",
            "district": "阳明区"
        }
    },
    {
        "id": "7688826387911457455",
        "title": "公共厕所",
        "address": "黑龙江省牡丹江市海林市新海路与胜利街交叉口正西方向38米左右",
        "tel": "",
        "category": "基础设施:公共设施:公共厕所",
        "type": 0,
        "location": {
            "lat": 44.570861,
            "lng": 129.385324
        },
        "ad_info": {
            "adcode": 231083,
            "province": "黑龙江省",
            "city": "牡丹江市",
            "district": "海林市"
        }
    },
    {
        "id": "7011155469959851385",
        "title": "渤海服务区第二公共厕所",
        "address": "黑龙江省牡丹江市宁安市G201与G333交叉口东北方向1477米左右",
        "tel": "",
        "category": "基础设施:公共设施:公共厕所",
        "type": 0,
        "location": {
            "lat": 44.083362,
            "lng": 129.158585
        },
        "ad_info": {
            "adcode": 231084,
            "province": "黑龙江省",
            "city": "牡丹江市",
            "district": "宁安市"
        }
    },
    {
        "id": "13225144441394276096",
        "title": "柴河服务区公共厕所",
        "address": "黑龙江省牡丹江市阳明区鹤大高速",
        "tel": "",
        "category": "基础设施:公共设施:公共厕所",
        "type": 0,
        "location": {
            "lat": 44.740385,
            "lng": 129.766501
        },
        "ad_info": {
            "adcode": 231003,
            "province": "黑龙江省",
            "city": "牡丹江市",
            "district": "阳明区"
        }
    },
    {
        "id": "12243198979751084967",
        "title": "横道河子服务区公共厕所",
        "address": "黑龙江省牡丹江市海林市G10绥满高速与横道河子服务区交叉口东140米",
        "tel": "",
        "category": "基础设施:公共设施:公共厕所",
        "type": 0,
        "location": {
            "lat": 44.786534,
            "lng": 129.12951
        },
        "ad_info": {
            "adcode": 231083,
            "province": "黑龙江省",
            "city": "牡丹江市",
            "district": "海林市"
        }
    },
    {
        "id": "9032807778392585905",
        "title": "公共厕所",
        "address": "黑龙江省牡丹江市宁安市中心街与团结路交叉口正西方向66米左右",
        "tel": "",
        "category": "基础设施:公共设施:公共厕所",
        "type": 0,
        "location": {
            "lat": 44.119774,
            "lng": 129.219368
        },
        "ad_info": {
            "adcode": 231084,
            "province": "黑龙江省",
            "city": "牡丹江市",
            "district": "宁安市"
        }
    },
    {
        "id": "17681251611517534632",
        "title": "公共卫生间",
        "address": "黑龙江省牡丹江市东安区兴隆街与斗银河路交叉口东北方向23米左右",
        "tel": "",
        "category": "基础设施:公共设施:公共厕所",
        "type": 0,
        "location": {
            "lat": 44.55084,
            "lng": 129.623199
        },
        "ad_info": {
            "adcode": 231002,
            "province": "黑龙江省",
            "city": "牡丹江市",
            "district": "东安区"
        }
    },
    {
        "id": "3535488088117935535",
        "title": "公共厕所",
        "address": "黑龙江省牡丹江市西安区西一条路与西牡丹街交叉口正北方向21米左右",
        "tel": "",
        "category": "基础设施:公共设施:公共厕所",
        "type": 0,
        "location": {
            "lat": 44.579398,
            "lng": 129.616485
        },
        "ad_info": {
            "adcode": 231005,
            "province": "黑龙江省",
            "city": "牡丹江市",
            "district": "西安区"
        }
    },
    {
        "id": "13726108892610162557",
        "title": "公共厕所",
        "address": "黑龙江省牡丹江市爱民区西祥伦街102号",
        "tel": "",
        "category": "基础设施:公共设施:公共厕所",
        "type": 0,
        "location": {
            "lat": 44.595749,
            "lng": 129.588111
        },
        "ad_info": {
            "adcode": 231004,
            "province": "黑龙江省",
            "city": "牡丹江市",
            "district": "爱民区"
        }
    },
    {
        "id": "4237403477781523942",
        "title": "公共卫生间",
        "address": "黑龙江省牡丹江市绥芬河市幸福街与长江路交叉口正南方向27米左右",
        "tel": "",
        "category": "基础设施:公共设施:公共厕所",
        "type": 0,
        "location": {
            "lat": 44.410695,
            "lng": 131.151238
        },
        "ad_info": {
            "adcode": 231081,
            "province": "黑龙江省",
            "city": "牡丹江市",
            "district": "绥芬河市"
        }
    },
    {
        "id": "13948266536271232771",
        "title": "公共厕所",
        "address": "黑龙江省牡丹江市东安区东七条路与沿江街交叉口正西方向20米左右",
        "tel": "",
        "category": "基础设施:公共设施:公共厕所",
        "type": 0,
        "location": {
            "lat": 44.578906,
            "lng": 129.642967
        },
        "ad_info": {
            "adcode": 231002,
            "province": "黑龙江省",
            "city": "牡丹江市",
            "district": "东安区"
        }
    },
    {
        "id": "1964986362923330611",
        "title": "公共厕所",
        "address": "黑龙江省牡丹江市东安区共和街与穆棱河路交叉口正北方向51米左右",
        "tel": "",
        "category": "基础设施:公共设施:公共厕所",
        "type": 0,
        "location": {
            "lat": 44.541479,
            "lng": 129.616862
        },
        "ad_info": {
            "adcode": 231002,
            "province": "黑龙江省",
            "city": "牡丹江市",
            "district": "东安区"
        }
    },
    {
        "id": "3289637210306890662",
        "title": "公共厕所",
        "address": "黑龙江省牡丹江市林口县卫平街51号",
        "tel": "",
        "category": "基础设施:公共设施:公共厕所",
        "type": 0,
        "location": {
            "lat": 45.289783,
            "lng": 130.270459
        },
        "ad_info": {
            "adcode": 231025,
            "province": "黑龙江省",
            "city": "牡丹江市",
            "district": "林口县"
        }
    },
    {
        "id": "170689725289891702",
        "title": "公共厕所",
        "address": "黑龙江省牡丹江市阳明区东七条路与东平安街交叉口正北方向77米左右",
        "tel": "",
        "category": "基础设施:公共设施:公共厕所",
        "type": 0,
        "location": {
            "lat": 44.58836,
            "lng": 129.63844
        },
        "ad_info": {
            "adcode": 231003,
            "province": "黑龙江省",
            "city": "牡丹江市",
            "district": "阳明区"
        }
    },
    {
        "id": "14713075800469747436",
        "title": "公共厕所",
        "address": "黑龙江省牡丹江市宁安市幸福路与西关路交叉口西南方向23米左右",
        "tel": "",
        "category": "基础设施:公共设施:公共厕所",
        "type": 0,
        "location": {
            "lat": 44.347077,
            "lng": 129.460368
        },
        "ad_info": {
            "adcode": 231084,
            "province": "黑龙江省",
            "city": "牡丹江市",
            "district": "宁安市"
        }
    },
    {
        "id": "10732175887426711210",
        "title": "出境路口临时公共厕所",
        "address": "黑龙江省牡丹江市绥芬河市互贸区大门公交站(乌苏里大街北)",
        "tel": "0453-3936469",
        "category": "基础设施:公共设施:公共厕所",
        "type": 0,
        "location": {
            "lat": 44.408489,
            "lng": 131.178501
        },
        "ad_info": {
            "adcode": 231081,
            "province": "黑龙江省",
            "city": "牡丹江市",
            "district": "绥芬河市"
        }
    },
    {
        "id": "641862943422940483",
        "title": "公共卫生间",
        "address": "黑龙江省牡丹江市穆棱市和平大街与工农街交叉口东北方向149米左右",
        "tel": "",
        "category": "基础设施:公共设施:公共厕所",
        "type": 0,
        "location": {
            "lat": 44.926115,
            "lng": 130.527923
        },
        "ad_info": {
            "adcode": 231085,
            "province": "黑龙江省",
            "city": "牡丹江市",
            "district": "穆棱市"
        }
    },
    {
        "id": "2740865151247391277",
        "title": "公共厕所",
        "address": "黑龙江省牡丹江市宁安市中心东街与宁古塔大道交叉口正北方向61米左右",
        "tel": "",
        "category": "基础设施:公共设施:公共厕所",
        "type": 0,
        "location": {
            "lat": 44.3489,
            "lng": 129.483755
        },
        "ad_info": {
            "adcode": 231084,
            "province": "黑龙江省",
            "city": "牡丹江市",
            "district": "宁安市"
        }
    },
    {
        "id": "5279040965107713527",
        "title": "公共厕所",
        "address": "黑龙江省牡丹江市东安区太平路与环江北街交叉口正东方向403米左右",
        "tel": "",
        "category": "基础设施:公共设施:公共厕所",
        "type": 0,
        "location": {
            "lat": 44.568048,
            "lng": 129.628804
        },
        "ad_info": {
            "adcode": 231002,
            "province": "黑龙江省",
            "city": "牡丹江市",
            "district": "东安区"
        }
    },
    {
        "id": "14242343083343644300",
        "title": "公共厕所",
        "address": "黑龙江省牡丹江市爱民区康安路与西晓云街交叉口东南方向29米左右",
        "tel": "",
        "category": "基础设施:公共设施:公共厕所",
        "type": 0,
        "location": {
            "lat": 44.592596,
            "lng": 129.589364
        },
        "ad_info": {
            "adcode": 231004,
            "province": "黑龙江省",
            "city": "牡丹江市",
            "district": "爱民区"
        }
    },
    {
        "id": "11940608334920061556",
        "title": "公共厕所",
        "address": "黑龙江省牡丹江市林口县向阳路与文昌街交叉口正南方向193米左右",
        "tel": "",
        "category": "基础设施:公共设施:公共厕所",
        "type": 0,
        "location": {
            "lat": 45.297041,
            "lng": 130.272197
        },
        "ad_info": {
            "adcode": 231025,
            "province": "黑龙江省",
            "city": "牡丹江市",
            "district": "林口县"
        }
    },
    {
        "id": "29332930797378312",
        "title": "阳明公园公共厕所",
        "address": "黑龙江省牡丹江市阳明区东平安街与富江路交叉口东北方向45米左右",
        "tel": "",
        "category": "基础设施:公共设施:公共厕所",
        "type": 0,
        "location": {
            "lat": 44.595016,
            "lng": 129.64787
        },
        "ad_info": {
            "adcode": 231003,
            "province": "黑龙江省",
            "city": "牡丹江市",
            "district": "阳明区"
        }
    },
    {
        "id": "114624933037590357",
        "title": "公共厕所",
        "address": "黑龙江省牡丹江市爱民区五星路与西圣林街交叉口正西方向240米左右",
        "tel": "",
        "category": "基础设施:公共设施:公共厕所",
        "type": 0,
        "location": {
            "lat": 44.593368,
            "lng": 129.596213
        },
        "ad_info": {
            "adcode": 231004,
            "province": "黑龙江省",
            "city": "牡丹江市",
            "district": "爱民区"
        }
    },
    {
        "id": "11583690211015203058",
        "title": "公共厕所",
        "address": "黑龙江省牡丹江市爱民区大庆街道北安路中国邮政旁(广厦新城北)",
        "tel": "",
        "category": "基础设施:公共设施:公共厕所",
        "type": 0,
        "location": {
            "lat": 44.597566,
            "lng": 129.62136
        },
        "ad_info": {
            "adcode": 231004,
            "province": "黑龙江省",
            "city": "牡丹江市",
            "district": "爱民区"
        }
    },
    {
        "id": "2937794531834230256",
        "title": "公共厕所",
        "address": "黑龙江省牡丹江市绥芬河市学府街与教育路交叉口正西方向89米左右",
        "tel": "",
        "category": "基础设施:公共设施:公共厕所",
        "type": 0,
        "location": {
            "lat": 44.386112,
            "lng": 131.132082
        },
        "ad_info": {
            "adcode": 231081,
            "province": "黑龙江省",
            "city": "牡丹江市",
            "district": "绥芬河市"
        }
    },
    {
        "id": "7758719915161995454",
        "title": "公共厕所",
        "address": "黑龙江省牡丹江市西安区G201与鹤大线交叉口西南方向1920米",
        "tel": "",
        "category": "基础设施:公共设施:公共厕所",
        "type": 0,
        "location": {
            "lat": 44.527327,
            "lng": 129.546673
        },
        "ad_info": {
            "adcode": 231005,
            "province": "黑龙江省",
            "city": "牡丹江市",
            "district": "西安区"
        }
    },
    {
        "id": "10050882713946652689",
        "title": "公共厕所",
        "address": "黑龙江省牡丹江市东宁市中国石油兴华加油站东北侧230米",
        "tel": "",
        "category": "基础设施:公共设施:公共厕所",
        "type": 0,
        "location": {
            "lat": 44.440296,
            "lng": 130.902118
        },
        "ad_info": {
            "adcode": 231086,
            "province": "黑龙江省",
            "city": "牡丹江市",
            "district": "东宁市"
        }
    },
    {
        "id": "9238041330764755128",
        "title": "公共厕所",
        "address": "黑龙江省牡丹江市东安区东一条路与环江北街交叉口东南方向369米左右",
        "tel": "",
        "category": "基础设施:公共设施:公共厕所",
        "type": 0,
        "location": {
            "lat": 44.569709,
            "lng": 129.630749
        },
        "ad_info": {
            "adcode": 231002,
            "province": "黑龙江省",
            "city": "牡丹江市",
            "district": "东安区"
        }
    },
    {
        "id": "2341992395099425570",
        "title": "公共厕所",
        "address": "黑龙江省牡丹江市爱民区东地明街与庆北一路交叉口正南方向182米左右",
        "tel": "",
        "category": "基础设施:公共设施:公共厕所",
        "type": 0,
        "location": {
            "lat": 44.609042,
            "lng": 129.625645
        },
        "ad_info": {
            "adcode": 231004,
            "province": "黑龙江省",
            "city": "牡丹江市",
            "district": "爱民区"
        }
    },
    {
        "id": "8081634796031432828",
        "title": "公共厕所",
        "address": "黑龙江省牡丹江市阳明区东光立交桥与东四条路交叉口正东方向143米左右",
        "tel": "",
        "category": "基础设施:公共设施:公共厕所",
        "type": 0,
        "location": {
            "lat": 44.590125,
            "lng": 129.627271
        },
        "ad_info": {
            "adcode": 231003,
            "province": "黑龙江省",
            "city": "牡丹江市",
            "district": "阳明区"
        }
    },
    {
        "id": "3385641016531835939",
        "title": "公共厕所",
        "address": "黑龙江省牡丹江市海林市X083与山嘴子大桥交叉口正东方向518米左右",
        "tel": "",
        "category": "基础设施:公共设施:公共厕所",
        "type": 0,
        "location": {
            "lat": 44.409116,
            "lng": 129.088743
        },
        "ad_info": {
            "adcode": 231083,
            "province": "黑龙江省",
            "city": "牡丹江市",
            "district": "海林市"
        }
    },
    {
        "id": "5243488793437758453",
        "title": "公共厕所",
        "address": "黑龙江省牡丹江市绥芬河市新兴街与长江路交叉口正西方向116米左右",
        "tel": "",
        "category": "基础设施:公共设施:公共厕所",
        "type": 0,
        "location": {
            "lat": 44.403568,
            "lng": 131.156179
        },
        "ad_info": {
            "adcode": 231081,
            "province": "黑龙江省",
            "city": "牡丹江市",
            "district": "绥芬河市"
        }
    },
    {
        "id": "7507852016009066349",
        "title": "公共厕所",
        "address": "黑龙江省牡丹江市爱民区明月路与西新荣街交叉口西北方向95米左右",
        "tel": "",
        "category": "基础设施:公共设施:公共厕所",
        "type": 0,
        "location": {
            "lat": 44.588136,
            "lng": 129.588501
        },
        "ad_info": {
            "adcode": 231004,
            "province": "黑龙江省",
            "city": "牡丹江市",
            "district": "爱民区"
        }
    },
    {
        "id": "1265533490367498952",
        "title": "服务区公共厕所",
        "address": "黑龙江省牡丹江市宁安市G201与G333交叉口东北方向310米左右",
        "tel": "",
        "category": "基础设施:公共设施:公共厕所",
        "type": 0,
        "location": {
            "lat": 44.051161,
            "lng": 129.131204
        },
        "ad_info": {
            "adcode": 231084,
            "province": "黑龙江省",
            "city": "牡丹江市",
            "district": "宁安市"
        }
    },
    {
        "id": "88646296627804100",
        "title": "公共厕所",
        "address": "黑龙江省牡丹江市绥芬河市沿河街与黄河路交叉口东北方向260米左右",
        "tel": "",
        "category": "基础设施:公共设施:公共厕所",
        "type": 0,
        "location": {
            "lat": 44.402088,
            "lng": 131.148692
        },
        "ad_info": {
            "adcode": 231081,
            "province": "黑龙江省",
            "city": "牡丹江市",
            "district": "绥芬河市"
        }
    },
    {
        "id": "633643808538016521",
        "title": "公共厕所",
        "address": "黑龙江省牡丹江市穆棱市红旗街与长征路交叉口正北方向50米左右",
        "tel": "",
        "category": "基础设施:公共设施:公共厕所",
        "type": 0,
        "location": {
            "lat": 44.918785,
            "lng": 130.528151
        },
        "ad_info": {
            "adcode": 231085,
            "province": "黑龙江省",
            "city": "牡丹江市",
            "district": "穆棱市"
        }
    },
    {
        "id": "6351980134130997550",
        "title": "公共厕所",
        "address": "黑龙江省牡丹江市西安区立新街与西小二条路交叉口西北方向64米左右",
        "tel": "",
        "category": "基础设施:公共设施:公共厕所",
        "type": 0,
        "location": {
            "lat": 44.573339,
            "lng": 129.614807
        },
        "ad_info": {
            "adcode": 231005,
            "province": "黑龙江省",
            "city": "牡丹江市",
            "district": "西安区"
        }
    },
    {
        "id": "9022523425342154154",
        "title": "公共厕所",
        "address": "黑龙江省牡丹江市穆棱市兴林街与林福路交叉口正东方向36米左右",
        "tel": "",
        "category": "基础设施:公共设施:公共厕所",
        "type": 0,
        "location": {
            "lat": 44.935285,
            "lng": 130.545013
        },
        "ad_info": {
            "adcode": 231085,
            "province": "黑龙江省",
            "city": "牡丹江市",
            "district": "穆棱市"
        }
    },
    {
        "id": "11767407485119830139",
        "title": "公共厕所",
        "address": "黑龙江省牡丹江市爱民区兴平路与西圣林街交叉口西北方向158米左右",
        "tel": "",
        "category": "基础设施:公共设施:公共厕所",
        "type": 0,
        "location": {
            "lat": 44.589514,
            "lng": 129.581095
        },
        "ad_info": {
            "adcode": 231004,
            "province": "黑龙江省",
            "city": "牡丹江市",
            "district": "爱民区"
        }
    },
    {
        "id": "4083998246178056709",
        "title": "公共厕所",
        "address": "黑龙江省牡丹江市海林市学子街与林兴路交叉口东北方向48米左右",
        "tel": "",
        "category": "基础设施:公共设施:公共厕所",
        "type": 0,
        "location": {
            "lat": 44.76187,
            "lng": 129.686131
        },
        "ad_info": {
            "adcode": 231083,
            "province": "黑龙江省",
            "city": "牡丹江市",
            "district": "海林市"
        }
    },
    {
        "id": "16860457457502379053",
        "title": "公共厕所",
        "address": "黑龙江省牡丹江市阳明区G301与四道公铁立交桥交叉口东南方向680米左右",
        "tel": "",
        "category": "基础设施:公共设施:公共厕所",
        "type": 0,
        "location": {
            "lat": 44.545077,
            "lng": 129.760248
        },
        "ad_info": {
            "adcode": 231003,
            "province": "黑龙江省",
            "city": "牡丹江市",
            "district": "阳明区"
        }
    },
    {
        "id": "13919056548688522980",
        "title": "磨刀石服务区公共厕所",
        "address": "黑龙江省牡丹江市阳明区G301与四道公铁立交桥交叉口正东方向445米左右",
        "tel": "",
        "category": "基础设施:公共设施:公共厕所",
        "type": 0,
        "location": {
            "lat": 44.549803,
            "lng": 129.759415
        },
        "ad_info": {
            "adcode": 231003,
            "province": "黑龙江省",
            "city": "牡丹江市",
            "district": "阳明区"
        }
    },
    {
        "id": "3094675043733195120",
        "title": "公共厕所",
        "address": "黑龙江省牡丹江市爱民区北山街与北山路交叉口正南方向17米左右",
        "tel": "",
        "category": "基础设施:公共设施:公共厕所",
        "type": 0,
        "location": {
            "lat": 44.604642,
            "lng": 129.586149
        },
        "ad_info": {
            "adcode": 231004,
            "province": "黑龙江省",
            "city": "牡丹江市",
            "district": "爱民区"
        }
    },
    {
        "id": "16472732030507959769",
        "title": "公共厕所",
        "address": "黑龙江省牡丹江市东宁市东苑路与兴隆街交叉口东南方向19米左右",
        "tel": "",
        "category": "基础设施:公共设施:公共厕所",
        "type": 0,
        "location": {
            "lat": 44.060525,
            "lng": 131.138438
        },
        "ad_info": {
            "adcode": 231086,
            "province": "黑龙江省",
            "city": "牡丹江市",
            "district": "东宁市"
        }
    },
    {
        "id": "9917989109091266579",
        "title": "公共厕所",
        "address": "黑龙江省牡丹江市东安区六峰湖路与共和街交叉口正北方向26米左右",
        "tel": "",
        "category": "基础设施:公共设施:公共厕所",
        "type": 0,
        "location": {
            "lat": 44.54024,
            "lng": 129.60764
        },
        "ad_info": {
            "adcode": 231002,
            "province": "黑龙江省",
            "city": "牡丹江市",
            "district": "东安区"
        }
    },
    {
        "id": "13154549898539875508",
        "title": "无障碍公共厕所",
        "address": "黑龙江省牡丹江市爱民区建卫路与林卫街交叉口西南方向74米左右",
        "tel": "",
        "category": "基础设施:公共设施:公共厕所",
        "type": 0,
        "location": {
            "lat": 44.599908,
            "lng": 129.596825
        },
        "ad_info": {
            "adcode": 231004,
            "province": "黑龙江省",
            "city": "牡丹江市",
            "district": "爱民区"
        }
    },
    {
        "id": "15817195093758929595",
        "title": "公共厕所",
        "address": "黑龙江省牡丹江市阳明区矿山东路与裕民路交叉口西北方向275米左右",
        "tel": "",
        "category": "基础设施:公共设施:公共厕所",
        "type": 0,
        "location": {
            "lat": 44.626621,
            "lng": 129.671109
        },
        "ad_info": {
            "adcode": 231003,
            "province": "黑龙江省",
            "city": "牡丹江市",
            "district": "阳明区"
        }
    },
    {
        "id": "4160100511170186519",
        "title": "公共厕所(HLJ-MD-0431)",
        "address": "黑龙江省牡丹江市宁安市小朱家江心岛",
        "tel": "",
        "category": "基础设施:公共设施:公共厕所",
        "type": 0,
        "location": {
            "lat": 44.068005,
            "lng": 129.090442
        },
        "ad_info": {
            "adcode": 231084,
            "province": "黑龙江省",
            "city": "牡丹江市",
            "district": "宁安市"
        }
    },
    {
        "id": "7777922653966253993",
        "title": "公共厕所",
        "address": "黑龙江省牡丹江市宁安市城后东街与环卫路交叉口东南方向50米左右",
        "tel": "",
        "category": "基础设施:公共设施:公共厕所",
        "type": 0,
        "location": {
            "lat": 44.345253,
            "lng": 129.47314
        },
        "ad_info": {
            "adcode": 231084,
            "province": "黑龙江省",
            "city": "牡丹江市",
            "district": "宁安市"
        }
    },
    {
        "id": "6716470775122056833",
        "title": "公共厕所",
        "address": "黑龙江省牡丹江市宁安市东兴路与中心东街交叉口正北方向17米左右",
        "tel": "",
        "category": "基础设施:公共设施:公共厕所",
        "type": 0,
        "location": {
            "lat": 44.347992,
            "lng": 129.480695
        },
        "ad_info": {
            "adcode": 231084,
            "province": "黑龙江省",
            "city": "牡丹江市",
            "district": "宁安市"
        }
    },
    {
        "id": "14631196985858227484",
        "title": "公共厕所",
        "address": "黑龙江省牡丹江市海林市林海路体育场",
        "tel": "",
        "category": "基础设施:公共设施:公共厕所",
        "type": 0,
        "location": {
            "lat": 44.582487,
            "lng": 129.393473
        },
        "ad_info": {
            "adcode": 231083,
            "province": "黑龙江省",
            "city": "牡丹江市",
            "district": "海林市"
        }
    },
    {
        "id": "10132572581997310494",
        "title": "公共厕所",
        "address": "黑龙江省牡丹江市海林市和平街与城西路交叉口西南方向37米左右",
        "tel": "",
        "category": "基础设施:公共设施:公共厕所",
        "type": 0,
        "location": {
            "lat": 44.573769,
            "lng": 129.383935
        },
        "ad_info": {
            "adcode": 231083,
            "province": "黑龙江省",
            "city": "牡丹江市",
            "district": "海林市"
        }
    },
    {
        "id": "7418405937914238844",
        "title": "公共厕所",
        "address": "黑龙江省牡丹江市东宁市中华路东宁市人民医院",
        "tel": "",
        "category": "基础设施:公共设施:公共厕所",
        "type": 0,
        "location": {
            "lat": 44.05827,
            "lng": 131.127408
        },
        "ad_info": {
            "adcode": 231086,
            "province": "黑龙江省",
            "city": "牡丹江市",
            "district": "东宁市"
        }
    },
    {
        "id": "8300149455425849586",
        "title": "爱情谷景区公共厕所",
        "address": "黑龙江省牡丹江市绥芬河市S315与黄河路交叉口东南方向1603米左右",
        "tel": "0453-3936469",
        "category": "基础设施:公共设施:公共厕所",
        "type": 0,
        "location": {
            "lat": 44.436032,
            "lng": 131.154256
        },
        "ad_info": {
            "adcode": 231081,
            "province": "黑龙江省",
            "city": "牡丹江市",
            "district": "绥芬河市"
        }
    },
    {
        "id": "12477858798663989501",
        "title": "公共厕所",
        "address": "黑龙江省牡丹江市东安区东三条路与东四条路交叉口正北方向29米左右",
        "tel": "",
        "category": "基础设施:公共设施:公共厕所",
        "type": 0,
        "location": {
            "lat": 44.574493,
            "lng": 129.633031
        },
        "ad_info": {
            "adcode": 231002,
            "province": "黑龙江省",
            "city": "牡丹江市",
            "district": "东安区"
        }
    },
    {
        "id": "14852112453920606167",
        "title": "公共厕所",
        "address": "黑龙江省牡丹江市海林市山市镇卫生院东北侧210米",
        "tel": "",
        "category": "基础设施:公共设施:公共厕所",
        "type": 0,
        "location": {
            "lat": 44.579462,
            "lng": 129.104761
        },
        "ad_info": {
            "adcode": 231083,
            "province": "黑龙江省",
            "city": "牡丹江市",
            "district": "海林市"
        }
    },
    {
        "id": "13758756889629188786",
        "title": "公共厕所",
        "address": "黑龙江省牡丹江市绥芬河市绥芬河收费站入口方向东南(G10南)",
        "tel": "0453-3936469",
        "category": "基础设施:公共设施:公共厕所",
        "type": 0,
        "location": {
            "lat": 44.378307,
            "lng": 131.043718
        },
        "ad_info": {
            "adcode": 231081,
            "province": "黑龙江省",
            "city": "牡丹江市",
            "district": "绥芬河市"
        }
    },
    {
        "id": "11787052823666583359",
        "title": "公共厕所",
        "address": "黑龙江省牡丹江市爱民区东祥伦街与纺织一路交叉口正南方向28米左右",
        "tel": "",
        "category": "基础设施:公共设施:公共厕所",
        "type": 0,
        "location": {
            "lat": 44.602101,
            "lng": 129.608804
        },
        "ad_info": {
            "adcode": 231004,
            "province": "黑龙江省",
            "city": "牡丹江市",
            "district": "爱民区"
        }
    },
    {
        "id": "17403608740760102738",
        "title": "公共厕所",
        "address": "黑龙江省牡丹江市西安区星环路与西南市街交叉口正南方向29米左右",
        "tel": "",
        "category": "基础设施:公共设施:公共厕所",
        "type": 0,
        "location": {
            "lat": 44.573991,
            "lng": 129.621363
        },
        "ad_info": {
            "adcode": 231005,
            "province": "黑龙江省",
            "city": "牡丹江市",
            "district": "西安区"
        }
    },
    {
        "id": "5106431934781136137",
        "title": "磨刀石服务区公共厕所",
        "address": "黑龙江省牡丹江市阳明区磨刀石服务区与G10绥满高速交叉口西北260米",
        "tel": "",
        "category": "基础设施:公共设施:公共厕所",
        "type": 0,
        "location": {
            "lat": 44.551215,
            "lng": 129.76033
        },
        "ad_info": {
            "adcode": 231003,
            "province": "黑龙江省",
            "city": "牡丹江市",
            "district": "阳明区"
        }
    },
    {
        "id": "1025758983178127642",
        "title": "公共厕所",
        "address": "黑龙江省牡丹江市爱民区金朝阳陶瓷批发中心西侧",
        "tel": "",
        "category": "基础设施:公共设施:公共厕所",
        "type": 0,
        "location": {
            "lat": 44.573421,
            "lng": 129.581061
        },
        "ad_info": {
            "adcode": 231004,
            "province": "黑龙江省",
            "city": "牡丹江市",
            "district": "爱民区"
        }
    },
    {
        "id": "7028215067628783134",
        "title": "公共厕所",
        "address": "黑龙江省牡丹江市东安区六峰湖路与共和街交叉口东北方向24米左右",
        "tel": "",
        "category": "基础设施:公共设施:公共厕所",
        "type": 0,
        "location": {
            "lat": 44.540183,
            "lng": 129.607942
        },
        "ad_info": {
            "adcode": 231002,
            "province": "黑龙江省",
            "city": "牡丹江市",
            "district": "东安区"
        }
    },
    {
        "id": "4381170169895365658",
        "title": "公共厕所",
        "address": "黑龙江省牡丹江市林口县方正林业局有限公司鸳鸯峰景区鸳鸯峰山下",
        "tel": "",
        "category": "基础设施:公共设施:公共厕所",
        "type": 0,
        "location": {
            "lat": 45.594318,
            "lng": 129.53519
        },
        "ad_info": {
            "adcode": 231025,
            "province": "黑龙江省",
            "city": "牡丹江市",
            "district": "林口县"
        }
    },
    {
        "id": "1387539573495010833",
        "title": "伊戈尔公共厕所",
        "address": "黑龙江省牡丹江市绥芬河市北海公园(嘎丽娅路北)",
        "tel": "",
        "category": "基础设施:公共设施:公共厕所",
        "type": 0,
        "location": {
            "lat": 44.405747,
            "lng": 131.163159
        },
        "ad_info": {
            "adcode": 231081,
            "province": "黑龙江省",
            "city": "牡丹江市",
            "district": "绥芬河市"
        }
    },
    {
        "id": "15247410599089320417",
        "title": "公共厕所",
        "address": "黑龙江省牡丹江市东宁市东环路与宏源街交叉口正东方向175米左右",
        "tel": "",
        "category": "基础设施:公共设施:公共厕所",
        "type": 0,
        "location": {
            "lat": 44.057157,
            "lng": 131.146987
        },
        "ad_info": {
            "adcode": 231086,
            "province": "黑龙江省",
            "city": "牡丹江市",
            "district": "东宁市"
        }
    },
    {
        "id": "18107034541418073564",
        "title": "公共厕所",
        "address": "黑龙江省牡丹江市西安区宁北街与西六条路交叉口正东方向24米左右",
        "tel": "",
        "category": "基础设施:公共设施:公共厕所",
        "type": 0,
        "location": {
            "lat": 44.580623,
            "lng": 129.599671
        },
        "ad_info": {
            "adcode": 231005,
            "province": "黑龙江省",
            "city": "牡丹江市",
            "district": "西安区"
        }
    },
    {
        "id": "4189504792497804437",
        "title": "公共厕所",
        "address": "黑龙江省牡丹江市东安区兴隆街与斗银河路交叉口正北方向352米左右",
        "tel": "",
        "category": "基础设施:公共设施:公共厕所",
        "type": 0,
        "location": {
            "lat": 44.553828,
            "lng": 129.622246
        },
        "ad_info": {
            "adcode": 231002,
            "province": "黑龙江省",
            "city": "牡丹江市",
            "district": "东安区"
        }
    },
    {
        "id": "9117462365840556024",
        "title": "无障碍公共厕所",
        "address": "黑龙江省牡丹江市阳明区莲花路与镇江路交叉口西南方向36米左右",
        "tel": "",
        "category": "基础设施:公共设施:公共厕所",
        "type": 0,
        "location": {
            "lat": 44.612569,
            "lng": 129.662771
        },
        "ad_info": {
            "adcode": 231003,
            "province": "黑龙江省",
            "city": "牡丹江市",
            "district": "阳明区"
        }
    },
    {
        "id": "17762208710908009832",
        "title": "体育馆公共厕所",
        "address": "黑龙江省牡丹江市绥芬河市体育场东路与富华街交叉口正西方向169米左右",
        "tel": "0453-3936469",
        "category": "基础设施:公共设施:公共厕所",
        "type": 0,
        "location": {
            "lat": 44.398041,
            "lng": 131.142434
        },
        "ad_info": {
            "adcode": 231081,
            "province": "黑龙江省",
            "city": "牡丹江市",
            "district": "绥芬河市"
        }
    },
    {
        "id": "9976186641108007357",
        "title": "公共厕所",
        "address": "黑龙江省牡丹江市宁安市G11鹤大高速东50米",
        "tel": "",
        "category": "基础设施:公共设施:公共厕所",
        "type": 0,
        "location": {
            "lat": 44.312695,
            "lng": 129.440317
        },
        "ad_info": {
            "adcode": 231084,
            "province": "黑龙江省",
            "city": "牡丹江市",
            "district": "宁安市"
        }
    },
    {
        "id": "9992149082962221760",
        "title": "东渝花园广场公共厕所",
        "address": "黑龙江省牡丹江市绥芬河市会晤路与新安街交叉口东南方向63米左右",
        "tel": "0453-3936469",
        "category": "基础设施:公共设施:公共厕所",
        "type": 0,
        "location": {
            "lat": 44.398952,
            "lng": 131.170282
        },
        "ad_info": {
            "adcode": 231081,
            "province": "黑龙江省",
            "city": "牡丹江市",
            "district": "绥芬河市"
        }
    },
    {
        "id": "893507869464401951",
        "title": "公共厕所",
        "address": "黑龙江省牡丹江市东安区威虎山路与海浪河路交叉口西南方向56米左右",
        "tel": "",
        "category": "基础设施:公共设施:公共厕所",
        "type": 0,
        "location": {
            "lat": 44.549942,
            "lng": 129.649166
        },
        "ad_info": {
            "adcode": 231002,
            "province": "黑龙江省",
            "city": "牡丹江市",
            "district": "东安区"
        }
    },
    {
        "id": "12000981915565529694",
        "title": "小裁缝公园公共厕所",
        "address": "黑龙江省牡丹江市绥芬河市天长路与幸福街交叉口东南方向22米左右",
        "tel": "0453-3936469",
        "category": "基础设施:公共设施:公共厕所",
        "type": 0,
        "location": {
            "lat": 44.410889,
            "lng": 131.156124
        },
        "ad_info": {
            "adcode": 231081,
            "province": "黑龙江省",
            "city": "牡丹江市",
            "district": "绥芬河市"
        }
    },
    {
        "id": "4562541866000231776",
        "title": "公共厕所",
        "address": "黑龙江省牡丹江市东安区太平路与环江路交叉口东北方向44米左右",
        "tel": "",
        "category": "基础设施:公共设施:公共厕所",
        "type": 0,
        "location": {
            "lat": 44.571165,
            "lng": 129.624956
        },
        "ad_info": {
            "adcode": 231002,
            "province": "黑龙江省",
            "city": "牡丹江市",
            "district": "东安区"
        }
    },
    {
        "id": "10371229821357734138",
        "title": "公共厕所",
        "address": "黑龙江省牡丹江市穆棱市大庆路与西环街交叉口东北方向62米左右",
        "tel": "",
        "category": "基础设施:公共设施:公共厕所",
        "type": 0,
        "location": {
            "lat": 44.931435,
            "lng": 130.523411
        },
        "ad_info": {
            "adcode": 231085,
            "province": "黑龙江省",
            "city": "牡丹江市",
            "district": "穆棱市"
        }
    },
    {
        "id": "2975197561577582713",
        "title": "公共厕所",
        "address": "黑龙江省牡丹江市阳明区东平安街与阳明三路交叉口正西方向63米左右",
        "tel": "",
        "category": "基础设施:公共设施:公共厕所",
        "type": 0,
        "location": {
            "lat": 44.591636,
            "lng": 129.641141
        },
        "ad_info": {
            "adcode": 231003,
            "province": "黑龙江省",
            "city": "牡丹江市",
            "district": "阳明区"
        }
    },
    {
        "id": "3927004385551480155",
        "title": "公共厕所",
        "address": "黑龙江省牡丹江市东安区二区二道街与合江路交叉口西南方向82米",
        "tel": "",
        "category": "基础设施:公共设施:公共厕所",
        "type": 0,
        "location": {
            "lat": 44.581473,
            "lng": 129.646263
        },
        "ad_info": {
            "adcode": 231002,
            "province": "黑龙江省",
            "city": "牡丹江市",
            "district": "东安区"
        }
    },
    {
        "id": "12164408705543390217",
        "title": "公共厕所",
        "address": "黑龙江省牡丹江市阳明区江浦路与裕民北街交叉口西北方向226米左右",
        "tel": "",
        "category": "基础设施:公共设施:公共厕所",
        "type": 0,
        "location": {
            "lat": 44.621717,
            "lng": 129.661355
        },
        "ad_info": {
            "adcode": 231003,
            "province": "黑龙江省",
            "city": "牡丹江市",
            "district": "阳明区"
        }
    },
    {
        "id": "8579390356210151721",
        "title": "公共厕所",
        "address": "黑龙江省牡丹江市东安区东四条路与东牡丹街交叉口西北方向53米左右",
        "tel": "",
        "category": "基础设施:公共设施:公共厕所",
        "type": 0,
        "location": {
            "lat": 44.581944,
            "lng": 129.629842
        },
        "ad_info": {
            "adcode": 231002,
            "province": "黑龙江省",
            "city": "牡丹江市",
            "district": "东安区"
        }
    },
    {
        "id": "6447201170677900466",
        "title": "公共厕所",
        "address": "黑龙江省牡丹江市东宁市团结路与率宾路交叉口东南方向86米左右",
        "tel": "",
        "category": "基础设施:公共设施:公共厕所",
        "type": 0,
        "location": {
            "lat": 44.058288,
            "lng": 131.135271
        },
        "ad_info": {
            "adcode": 231086,
            "province": "黑龙江省",
            "city": "牡丹江市",
            "district": "东宁市"
        }
    },
    {
        "id": "924623367474875641",
        "title": "柴河服务区公共厕所",
        "address": "黑龙江省牡丹江市阳明区",
        "tel": "",
        "category": "基础设施:公共设施:公共厕所",
        "type": 0,
        "location": {
            "lat": 44.74191,
            "lng": 129.765413
        },
        "ad_info": {
            "adcode": 231003,
            "province": "黑龙江省",
            "city": "牡丹江市",
            "district": "阳明区"
        }
    },
    {
        "id": "15581935399448308752",
        "title": "公共厕所",
        "address": "黑龙江省牡丹江市阳明区光华街与富江路交叉口西南方向104米左右",
        "tel": "",
        "category": "基础设施:公共设施:公共厕所",
        "type": 0,
        "location": {
            "lat": 44.599016,
            "lng": 129.645447
        },
        "ad_info": {
            "adcode": 231003,
            "province": "黑龙江省",
            "city": "牡丹江市",
            "district": "阳明区"
        }
    },
    {
        "id": "9469896182760355266",
        "title": "公共厕所",
        "address": "黑龙江省牡丹江市东安区三区二道街与松江路交叉口正西方向23米",
        "tel": "",
        "category": "基础设施:公共设施:公共厕所",
        "type": 0,
        "location": {
            "lat": 44.578887,
            "lng": 129.645389
        },
        "ad_info": {
            "adcode": 231002,
            "province": "黑龙江省",
            "city": "牡丹江市",
            "district": "东安区"
        }
    },
    {
        "id": "10999434920662985809",
        "title": "公共厕所",
        "address": "黑龙江省牡丹江市宁安市市场北头道街与环卫路交叉口正东方向64米左右",
        "tel": "",
        "category": "基础设施:公共设施:公共厕所",
        "type": 0,
        "location": {
            "lat": 44.34834,
            "lng": 129.472331
        },
        "ad_info": {
            "adcode": 231084,
            "province": "黑龙江省",
            "city": "牡丹江市",
            "district": "宁安市"
        }
    },
    {
        "id": "12671062360711742817",
        "title": "公共厕所",
        "address": "黑龙江省牡丹江市宁安市宁古塔大道与文庙街交叉口西北方向24米左右",
        "tel": "",
        "category": "基础设施:公共设施:公共厕所",
        "type": 0,
        "location": {
            "lat": 44.345547,
            "lng": 129.483954
        },
        "ad_info": {
            "adcode": 231084,
            "province": "黑龙江省",
            "city": "牡丹江市",
            "district": "宁安市"
        }
    },
    {
        "id": "18107034541418073564",
        "title": "公共厕所",
        "address": "黑龙江省牡丹江市西安区宁北街与西六条路交叉口正东方向24米左右",
        "tel": "",
        "category": "基础设施:公共设施:公共厕所",
        "type": 0,
        "location": {
            "lat": 44.580623,
            "lng": 129.599671
        },
        "ad_info": {
            "adcode": 231005,
            "province": "黑龙江省",
            "city": "牡丹江市",
            "district": "西安区"
        }
    },
    {
        "id": "4189504792497804437",
        "title": "公共厕所",
        "address": "黑龙江省牡丹江市东安区兴隆街与斗银河路交叉口正北方向352米左右",
        "tel": "",
        "category": "基础设施:公共设施:公共厕所",
        "type": 0,
        "location": {
            "lat": 44.553828,
            "lng": 129.622246
        },
        "ad_info": {
            "adcode": 231002,
            "province": "黑龙江省",
            "city": "牡丹江市",
            "district": "东安区"
        }
    },
    {
        "id": "9117462365840556024",
        "title": "无障碍公共厕所",
        "address": "黑龙江省牡丹江市阳明区莲花路与镇江路交叉口西南方向36米左右",
        "tel": "",
        "category": "基础设施:公共设施:公共厕所",
        "type": 0,
        "location": {
            "lat": 44.612569,
            "lng": 129.662771
        },
        "ad_info": {
            "adcode": 231003,
            "province": "黑龙江省",
            "city": "牡丹江市",
            "district": "阳明区"
        }
    },
    {
        "id": "17762208710908009832",
        "title": "体育馆公共厕所",
        "address": "黑龙江省牡丹江市绥芬河市体育场东路与富华街交叉口正西方向169米左右",
        "tel": "0453-3936469",
        "category": "基础设施:公共设施:公共厕所",
        "type": 0,
        "location": {
            "lat": 44.398041,
            "lng": 131.142434
        },
        "ad_info": {
            "adcode": 231081,
            "province": "黑龙江省",
            "city": "牡丹江市",
            "district": "绥芬河市"
        }
    },
    {
        "id": "9976186641108007357",
        "title": "公共厕所",
        "address": "黑龙江省牡丹江市宁安市G11鹤大高速东50米",
        "tel": "",
        "category": "基础设施:公共设施:公共厕所",
        "type": 0,
        "location": {
            "lat": 44.312695,
            "lng": 129.440317
        },
        "ad_info": {
            "adcode": 231084,
            "province": "黑龙江省",
            "city": "牡丹江市",
            "district": "宁安市"
        }
    },
    {
        "id": "9992149082962221760",
        "title": "东渝花园广场公共厕所",
        "address": "黑龙江省牡丹江市绥芬河市会晤路与新安街交叉口东南方向63米左右",
        "tel": "0453-3936469",
        "category": "基础设施:公共设施:公共厕所",
        "type": 0,
        "location": {
            "lat": 44.398952,
            "lng": 131.170282
        },
        "ad_info": {
            "adcode": 231081,
            "province": "黑龙江省",
            "city": "牡丹江市",
            "district": "绥芬河市"
        }
    },
    {
        "id": "893507869464401951",
        "title": "公共厕所",
        "address": "黑龙江省牡丹江市东安区威虎山路与海浪河路交叉口西南方向56米左右",
        "tel": "",
        "category": "基础设施:公共设施:公共厕所",
        "type": 0,
        "location": {
            "lat": 44.549942,
            "lng": 129.649166
        },
        "ad_info": {
            "adcode": 231002,
            "province": "黑龙江省",
            "city": "牡丹江市",
            "district": "东安区"
        }
    },
    {
        "id": "12000981915565529694",
        "title": "小裁缝公园公共厕所",
        "address": "黑龙江省牡丹江市绥芬河市天长路与幸福街交叉口东南方向22米左右",
        "tel": "0453-3936469",
        "category": "基础设施:公共设施:公共厕所",
        "type": 0,
        "location": {
            "lat": 44.410889,
            "lng": 131.156124
        },
        "ad_info": {
            "adcode": 231081,
            "province": "黑龙江省",
            "city": "牡丹江市",
            "district": "绥芬河市"
        }
    },
    {
        "id": "4562541866000231776",
        "title": "公共厕所",
        "address": "黑龙江省牡丹江市东安区太平路与环江路交叉口东北方向44米左右",
        "tel": "",
        "category": "基础设施:公共设施:公共厕所",
        "type": 0,
        "location": {
            "lat": 44.571165,
            "lng": 129.624956
        },
        "ad_info": {
            "adcode": 231002,
            "province": "黑龙江省",
            "city": "牡丹江市",
            "district": "东安区"
        }
    },
    {
        "id": "10371229821357734138",
        "title": "公共厕所",
        "address": "黑龙江省牡丹江市穆棱市大庆路与西环街交叉口东北方向62米左右",
        "tel": "",
        "category": "基础设施:公共设施:公共厕所",
        "type": 0,
        "location": {
            "lat": 44.931435,
            "lng": 130.523411
        },
        "ad_info": {
            "adcode": 231085,
            "province": "黑龙江省",
            "city": "牡丹江市",
            "district": "穆棱市"
        }
    },
    {
        "id": "2975197561577582713",
        "title": "公共厕所",
        "address": "黑龙江省牡丹江市阳明区东平安街与阳明三路交叉口正西方向63米左右",
        "tel": "",
        "category": "基础设施:公共设施:公共厕所",
        "type": 0,
        "location": {
            "lat": 44.591636,
            "lng": 129.641141
        },
        "ad_info": {
            "adcode": 231003,
            "province": "黑龙江省",
            "city": "牡丹江市",
            "district": "阳明区"
        }
    },
    {
        "id": "3927004385551480155",
        "title": "公共厕所",
        "address": "黑龙江省牡丹江市东安区二区二道街与合江路交叉口西南方向82米",
        "tel": "",
        "category": "基础设施:公共设施:公共厕所",
        "type": 0,
        "location": {
            "lat": 44.581473,
            "lng": 129.646263
        },
        "ad_info": {
            "adcode": 231002,
            "province": "黑龙江省",
            "city": "牡丹江市",
            "district": "东安区"
        }
    },
    {
        "id": "12164408705543390217",
        "title": "公共厕所",
        "address": "黑龙江省牡丹江市阳明区江浦路与裕民北街交叉口西北方向226米左右",
        "tel": "",
        "category": "基础设施:公共设施:公共厕所",
        "type": 0,
        "location": {
            "lat": 44.621717,
            "lng": 129.661355
        },
        "ad_info": {
            "adcode": 231003,
            "province": "黑龙江省",
            "city": "牡丹江市",
            "district": "阳明区"
        }
    },
    {
        "id": "8579390356210151721",
        "title": "公共厕所",
        "address": "黑龙江省牡丹江市东安区东四条路与东牡丹街交叉口西北方向53米左右",
        "tel": "",
        "category": "基础设施:公共设施:公共厕所",
        "type": 0,
        "location": {
            "lat": 44.581944,
            "lng": 129.629842
        },
        "ad_info": {
            "adcode": 231002,
            "province": "黑龙江省",
            "city": "牡丹江市",
            "district": "东安区"
        }
    },
    {
        "id": "6447201170677900466",
        "title": "公共厕所",
        "address": "黑龙江省牡丹江市东宁市团结路与率宾路交叉口东南方向86米左右",
        "tel": "",
        "category": "基础设施:公共设施:公共厕所",
        "type": 0,
        "location": {
            "lat": 44.058288,
            "lng": 131.135271
        },
        "ad_info": {
            "adcode": 231086,
            "province": "黑龙江省",
            "city": "牡丹江市",
            "district": "东宁市"
        }
    },
    {
        "id": "924623367474875641",
        "title": "柴河服务区公共厕所",
        "address": "黑龙江省牡丹江市阳明区",
        "tel": "",
        "category": "基础设施:公共设施:公共厕所",
        "type": 0,
        "location": {
            "lat": 44.74191,
            "lng": 129.765413
        },
        "ad_info": {
            "adcode": 231003,
            "province": "黑龙江省",
            "city": "牡丹江市",
            "district": "阳明区"
        }
    },
    {
        "id": "15581935399448308752",
        "title": "公共厕所",
        "address": "黑龙江省牡丹江市阳明区光华街与富江路交叉口西南方向104米左右",
        "tel": "",
        "category": "基础设施:公共设施:公共厕所",
        "type": 0,
        "location": {
            "lat": 44.599016,
            "lng": 129.645447
        },
        "ad_info": {
            "adcode": 231003,
            "province": "黑龙江省",
            "city": "牡丹江市",
            "district": "阳明区"
        }
    },
    {
        "id": "9469896182760355266",
        "title": "公共厕所",
        "address": "黑龙江省牡丹江市东安区三区二道街与松江路交叉口正西方向23米",
        "tel": "",
        "category": "基础设施:公共设施:公共厕所",
        "type": 0,
        "location": {
            "lat": 44.578887,
            "lng": 129.645389
        },
        "ad_info": {
            "adcode": 231002,
            "province": "黑龙江省",
            "city": "牡丹江市",
            "district": "东安区"
        }
    },
    {
        "id": "10999434920662985809",
        "title": "公共厕所",
        "address": "黑龙江省牡丹江市宁安市市场北头道街与环卫路交叉口正东方向64米左右",
        "tel": "",
        "category": "基础设施:公共设施:公共厕所",
        "type": 0,
        "location": {
            "lat": 44.34834,
            "lng": 129.472331
        },
        "ad_info": {
            "adcode": 231084,
            "province": "黑龙江省",
            "city": "牡丹江市",
            "district": "宁安市"
        }
    },
    {
        "id": "12671062360711742817",
        "title": "公共厕所",
        "address": "黑龙江省牡丹江市宁安市宁古塔大道与文庙街交叉口西北方向24米左右",
        "tel": "",
        "category": "基础设施:公共设施:公共厕所",
        "type": 0,
        "location": {
            "lat": 44.345547,
            "lng": 129.483954
        },
        "ad_info": {
            "adcode": 231084,
            "province": "黑龙江省",
            "city": "牡丹江市",
            "district": "宁安市"
        }
    },
    {
        "id": "18107034541418073564",
        "title": "公共厕所",
        "address": "黑龙江省牡丹江市西安区宁北街与西六条路交叉口正东方向24米左右",
        "tel": "",
        "category": "基础设施:公共设施:公共厕所",
        "type": 0,
        "location": {
            "lat": 44.580623,
            "lng": 129.599671
        },
        "ad_info": {
            "adcode": 231005,
            "province": "黑龙江省",
            "city": "牡丹江市",
            "district": "西安区"
        }
    },
    {
        "id": "4189504792497804437",
        "title": "公共厕所",
        "address": "黑龙江省牡丹江市东安区兴隆街与斗银河路交叉口正北方向352米左右",
        "tel": "",
        "category": "基础设施:公共设施:公共厕所",
        "type": 0,
        "location": {
            "lat": 44.553828,
            "lng": 129.622246
        },
        "ad_info": {
            "adcode": 231002,
            "province": "黑龙江省",
            "city": "牡丹江市",
            "district": "东安区"
        }
    },
    {
        "id": "9117462365840556024",
        "title": "无障碍公共厕所",
        "address": "黑龙江省牡丹江市阳明区莲花路与镇江路交叉口西南方向36米左右",
        "tel": "",
        "category": "基础设施:公共设施:公共厕所",
        "type": 0,
        "location": {
            "lat": 44.612569,
            "lng": 129.662771
        },
        "ad_info": {
            "adcode": 231003,
            "province": "黑龙江省",
            "city": "牡丹江市",
            "district": "阳明区"
        }
    },
    {
        "id": "17762208710908009832",
        "title": "体育馆公共厕所",
        "address": "黑龙江省牡丹江市绥芬河市体育场东路与富华街交叉口正西方向169米左右",
        "tel": "0453-3936469",
        "category": "基础设施:公共设施:公共厕所",
        "type": 0,
        "location": {
            "lat": 44.398041,
            "lng": 131.142434
        },
        "ad_info": {
            "adcode": 231081,
            "province": "黑龙江省",
            "city": "牡丹江市",
            "district": "绥芬河市"
        }
    },
    {
        "id": "9976186641108007357",
        "title": "公共厕所",
        "address": "黑龙江省牡丹江市宁安市G11鹤大高速东50米",
        "tel": "",
        "category": "基础设施:公共设施:公共厕所",
        "type": 0,
        "location": {
            "lat": 44.312695,
            "lng": 129.440317
        },
        "ad_info": {
            "adcode": 231084,
            "province": "黑龙江省",
            "city": "牡丹江市",
            "district": "宁安市"
        }
    },
    {
        "id": "9992149082962221760",
        "title": "东渝花园广场公共厕所",
        "address": "黑龙江省牡丹江市绥芬河市会晤路与新安街交叉口东南方向63米左右",
        "tel": "0453-3936469",
        "category": "基础设施:公共设施:公共厕所",
        "type": 0,
        "location": {
            "lat": 44.398952,
            "lng": 131.170282
        },
        "ad_info": {
            "adcode": 231081,
            "province": "黑龙江省",
            "city": "牡丹江市",
            "district": "绥芬河市"
        }
    },
    {
        "id": "893507869464401951",
        "title": "公共厕所",
        "address": "黑龙江省牡丹江市东安区威虎山路与海浪河路交叉口西南方向56米左右",
        "tel": "",
        "category": "基础设施:公共设施:公共厕所",
        "type": 0,
        "location": {
            "lat": 44.549942,
            "lng": 129.649166
        },
        "ad_info": {
            "adcode": 231002,
            "province": "黑龙江省",
            "city": "牡丹江市",
            "district": "东安区"
        }
    },
    {
        "id": "12000981915565529694",
        "title": "小裁缝公园公共厕所",
        "address": "黑龙江省牡丹江市绥芬河市天长路与幸福街交叉口东南方向22米左右",
        "tel": "0453-3936469",
        "category": "基础设施:公共设施:公共厕所",
        "type": 0,
        "location": {
            "lat": 44.410889,
            "lng": 131.156124
        },
        "ad_info": {
            "adcode": 231081,
            "province": "黑龙江省",
            "city": "牡丹江市",
            "district": "绥芬河市"
        }
    },
    {
        "id": "4562541866000231776",
        "title": "公共厕所",
        "address": "黑龙江省牡丹江市东安区太平路与环江路交叉口东北方向44米左右",
        "tel": "",
        "category": "基础设施:公共设施:公共厕所",
        "type": 0,
        "location": {
            "lat": 44.571165,
            "lng": 129.624956
        },
        "ad_info": {
            "adcode": 231002,
            "province": "黑龙江省",
            "city": "牡丹江市",
            "district": "东安区"
        }
    },
    {
        "id": "10371229821357734138",
        "title": "公共厕所",
        "address": "黑龙江省牡丹江市穆棱市大庆路与西环街交叉口东北方向62米左右",
        "tel": "",
        "category": "基础设施:公共设施:公共厕所",
        "type": 0,
        "location": {
            "lat": 44.931435,
            "lng": 130.523411
        },
        "ad_info": {
            "adcode": 231085,
            "province": "黑龙江省",
            "city": "牡丹江市",
            "district": "穆棱市"
        }
    },
    {
        "id": "2975197561577582713",
        "title": "公共厕所",
        "address": "黑龙江省牡丹江市阳明区东平安街与阳明三路交叉口正西方向63米左右",
        "tel": "",
        "category": "基础设施:公共设施:公共厕所",
        "type": 0,
        "location": {
            "lat": 44.591636,
            "lng": 129.641141
        },
        "ad_info": {
            "adcode": 231003,
            "province": "黑龙江省",
            "city": "牡丹江市",
            "district": "阳明区"
        }
    },
    {
        "id": "3927004385551480155",
        "title": "公共厕所",
        "address": "黑龙江省牡丹江市东安区二区二道街与合江路交叉口西南方向82米",
        "tel": "",
        "category": "基础设施:公共设施:公共厕所",
        "type": 0,
        "location": {
            "lat": 44.581473,
            "lng": 129.646263
        },
        "ad_info": {
            "adcode": 231002,
            "province": "黑龙江省",
            "city": "牡丹江市",
            "district": "东安区"
        }
    },
    {
        "id": "12164408705543390217",
        "title": "公共厕所",
        "address": "黑龙江省牡丹江市阳明区江浦路与裕民北街交叉口西北方向226米左右",
        "tel": "",
        "category": "基础设施:公共设施:公共厕所",
        "type": 0,
        "location": {
            "lat": 44.621717,
            "lng": 129.661355
        },
        "ad_info": {
            "adcode": 231003,
            "province": "黑龙江省",
            "city": "牡丹江市",
            "district": "阳明区"
        }
    },
    {
        "id": "8579390356210151721",
        "title": "公共厕所",
        "address": "黑龙江省牡丹江市东安区东四条路与东牡丹街交叉口西北方向53米左右",
        "tel": "",
        "category": "基础设施:公共设施:公共厕所",
        "type": 0,
        "location": {
            "lat": 44.581944,
            "lng": 129.629842
        },
        "ad_info": {
            "adcode": 231002,
            "province": "黑龙江省",
            "city": "牡丹江市",
            "district": "东安区"
        }
    },
    {
        "id": "6447201170677900466",
        "title": "公共厕所",
        "address": "黑龙江省牡丹江市东宁市团结路与率宾路交叉口东南方向86米左右",
        "tel": "",
        "category": "基础设施:公共设施:公共厕所",
        "type": 0,
        "location": {
            "lat": 44.058288,
            "lng": 131.135271
        },
        "ad_info": {
            "adcode": 231086,
            "province": "黑龙江省",
            "city": "牡丹江市",
            "district": "东宁市"
        }
    },
    {
        "id": "924623367474875641",
        "title": "柴河服务区公共厕所",
        "address": "黑龙江省牡丹江市阳明区",
        "tel": "",
        "category": "基础设施:公共设施:公共厕所",
        "type": 0,
        "location": {
            "lat": 44.74191,
            "lng": 129.765413
        },
        "ad_info": {
            "adcode": 231003,
            "province": "黑龙江省",
            "city": "牡丹江市",
            "district": "阳明区"
        }
    },
    {
        "id": "15581935399448308752",
        "title": "公共厕所",
        "address": "黑龙江省牡丹江市阳明区光华街与富江路交叉口西南方向104米左右",
        "tel": "",
        "category": "基础设施:公共设施:公共厕所",
        "type": 0,
        "location": {
            "lat": 44.599016,
            "lng": 129.645447
        },
        "ad_info": {
            "adcode": 231003,
            "province": "黑龙江省",
            "city": "牡丹江市",
            "district": "阳明区"
        }
    },
    {
        "id": "9469896182760355266",
        "title": "公共厕所",
        "address": "黑龙江省牡丹江市东安区三区二道街与松江路交叉口正西方向23米",
        "tel": "",
        "category": "基础设施:公共设施:公共厕所",
        "type": 0,
        "location": {
            "lat": 44.578887,
            "lng": 129.645389
        },
        "ad_info": {
            "adcode": 231002,
            "province": "黑龙江省",
            "city": "牡丹江市",
            "district": "东安区"
        }
    },
    {
        "id": "10999434920662985809",
        "title": "公共厕所",
        "address": "黑龙江省牡丹江市宁安市市场北头道街与环卫路交叉口正东方向64米左右",
        "tel": "",
        "category": "基础设施:公共设施:公共厕所",
        "type": 0,
        "location": {
            "lat": 44.34834,
            "lng": 129.472331
        },
        "ad_info": {
            "adcode": 231084,
            "province": "黑龙江省",
            "city": "牡丹江市",
            "district": "宁安市"
        }
    },
    {
        "id": "12671062360711742817",
        "title": "公共厕所",
        "address": "黑龙江省牡丹江市宁安市宁古塔大道与文庙街交叉口西北方向24米左右",
        "tel": "",
        "category": "基础设施:公共设施:公共厕所",
        "type": 0,
        "location": {
            "lat": 44.345547,
            "lng": 129.483954
        },
        "ad_info": {
            "adcode": 231084,
            "province": "黑龙江省",
            "city": "牡丹江市",
            "district": "宁安市"
        }
    },
    {
        "id": "18107034541418073564",
        "title": "公共厕所",
        "address": "黑龙江省牡丹江市西安区宁北街与西六条路交叉口正东方向24米左右",
        "tel": "",
        "category": "基础设施:公共设施:公共厕所",
        "type": 0,
        "location": {
            "lat": 44.580623,
            "lng": 129.599671
        },
        "ad_info": {
            "adcode": 231005,
            "province": "黑龙江省",
            "city": "牡丹江市",
            "district": "西安区"
        }
    },
    {
        "id": "4189504792497804437",
        "title": "公共厕所",
        "address": "黑龙江省牡丹江市东安区兴隆街与斗银河路交叉口正北方向352米左右",
        "tel": "",
        "category": "基础设施:公共设施:公共厕所",
        "type": 0,
        "location": {
            "lat": 44.553828,
            "lng": 129.622246
        },
        "ad_info": {
            "adcode": 231002,
            "province": "黑龙江省",
            "city": "牡丹江市",
            "district": "东安区"
        }
    },
    {
        "id": "9117462365840556024",
        "title": "无障碍公共厕所",
        "address": "黑龙江省牡丹江市阳明区莲花路与镇江路交叉口西南方向36米左右",
        "tel": "",
        "category": "基础设施:公共设施:公共厕所",
        "type": 0,
        "location": {
            "lat": 44.612569,
            "lng": 129.662771
        },
        "ad_info": {
            "adcode": 231003,
            "province": "黑龙江省",
            "city": "牡丹江市",
            "district": "阳明区"
        }
    },
    {
        "id": "17762208710908009832",
        "title": "体育馆公共厕所",
        "address": "黑龙江省牡丹江市绥芬河市体育场东路与富华街交叉口正西方向169米左右",
        "tel": "0453-3936469",
        "category": "基础设施:公共设施:公共厕所",
        "type": 0,
        "location": {
            "lat": 44.398041,
            "lng": 131.142434
        },
        "ad_info": {
            "adcode": 231081,
            "province": "黑龙江省",
            "city": "牡丹江市",
            "district": "绥芬河市"
        }
    },
    {
        "id": "9976186641108007357",
        "title": "公共厕所",
        "address": "黑龙江省牡丹江市宁安市G11鹤大高速东50米",
        "tel": "",
        "category": "基础设施:公共设施:公共厕所",
        "type": 0,
        "location": {
            "lat": 44.312695,
            "lng": 129.440317
        },
        "ad_info": {
            "adcode": 231084,
            "province": "黑龙江省",
            "city": "牡丹江市",
            "district": "宁安市"
        }
    },
    {
        "id": "9992149082962221760",
        "title": "东渝花园广场公共厕所",
        "address": "黑龙江省牡丹江市绥芬河市会晤路与新安街交叉口东南方向63米左右",
        "tel": "0453-3936469",
        "category": "基础设施:公共设施:公共厕所",
        "type": 0,
        "location": {
            "lat": 44.398952,
            "lng": 131.170282
        },
        "ad_info": {
            "adcode": 231081,
            "province": "黑龙江省",
            "city": "牡丹江市",
            "district": "绥芬河市"
        }
    },
    {
        "id": "893507869464401951",
        "title": "公共厕所",
        "address": "黑龙江省牡丹江市东安区威虎山路与海浪河路交叉口西南方向56米左右",
        "tel": "",
        "category": "基础设施:公共设施:公共厕所",
        "type": 0,
        "location": {
            "lat": 44.549942,
            "lng": 129.649166
        },
        "ad_info": {
            "adcode": 231002,
            "province": "黑龙江省",
            "city": "牡丹江市",
            "district": "东安区"
        }
    },
    {
        "id": "12000981915565529694",
        "title": "小裁缝公园公共厕所",
        "address": "黑龙江省牡丹江市绥芬河市天长路与幸福街交叉口东南方向22米左右",
        "tel": "0453-3936469",
        "category": "基础设施:公共设施:公共厕所",
        "type": 0,
        "location": {
            "lat": 44.410889,
            "lng": 131.156124
        },
        "ad_info": {
            "adcode": 231081,
            "province": "黑龙江省",
            "city": "牡丹江市",
            "district": "绥芬河市"
        }
    },
    {
        "id": "4562541866000231776",
        "title": "公共厕所",
        "address": "黑龙江省牡丹江市东安区太平路与环江路交叉口东北方向44米左右",
        "tel": "",
        "category": "基础设施:公共设施:公共厕所",
        "type": 0,
        "location": {
            "lat": 44.571165,
            "lng": 129.624956
        },
        "ad_info": {
            "adcode": 231002,
            "province": "黑龙江省",
            "city": "牡丹江市",
            "district": "东安区"
        }
    },
    {
        "id": "10371229821357734138",
        "title": "公共厕所",
        "address": "黑龙江省牡丹江市穆棱市大庆路与西环街交叉口东北方向62米左右",
        "tel": "",
        "category": "基础设施:公共设施:公共厕所",
        "type": 0,
        "location": {
            "lat": 44.931435,
            "lng": 130.523411
        },
        "ad_info": {
            "adcode": 231085,
            "province": "黑龙江省",
            "city": "牡丹江市",
            "district": "穆棱市"
        }
    },
    {
        "id": "2975197561577582713",
        "title": "公共厕所",
        "address": "黑龙江省牡丹江市阳明区东平安街与阳明三路交叉口正西方向63米左右",
        "tel": "",
        "category": "基础设施:公共设施:公共厕所",
        "type": 0,
        "location": {
            "lat": 44.591636,
            "lng": 129.641141
        },
        "ad_info": {
            "adcode": 231003,
            "province": "黑龙江省",
            "city": "牡丹江市",
            "district": "阳明区"
        }
    },
    {
        "id": "3927004385551480155",
        "title": "公共厕所",
        "address": "黑龙江省牡丹江市东安区二区二道街与合江路交叉口西南方向82米",
        "tel": "",
        "category": "基础设施:公共设施:公共厕所",
        "type": 0,
        "location": {
            "lat": 44.581473,
            "lng": 129.646263
        },
        "ad_info": {
            "adcode": 231002,
            "province": "黑龙江省",
            "city": "牡丹江市",
            "district": "东安区"
        }
    },
    {
        "id": "12164408705543390217",
        "title": "公共厕所",
        "address": "黑龙江省牡丹江市阳明区江浦路与裕民北街交叉口西北方向226米左右",
        "tel": "",
        "category": "基础设施:公共设施:公共厕所",
        "type": 0,
        "location": {
            "lat": 44.621717,
            "lng": 129.661355
        },
        "ad_info": {
            "adcode": 231003,
            "province": "黑龙江省",
            "city": "牡丹江市",
            "district": "阳明区"
        }
    },
    {
        "id": "8579390356210151721",
        "title": "公共厕所",
        "address": "黑龙江省牡丹江市东安区东四条路与东牡丹街交叉口西北方向53米左右",
        "tel": "",
        "category": "基础设施:公共设施:公共厕所",
        "type": 0,
        "location": {
            "lat": 44.581944,
            "lng": 129.629842
        },
        "ad_info": {
            "adcode": 231002,
            "province": "黑龙江省",
            "city": "牡丹江市",
            "district": "东安区"
        }
    },
    {
        "id": "6447201170677900466",
        "title": "公共厕所",
        "address": "黑龙江省牡丹江市东宁市团结路与率宾路交叉口东南方向86米左右",
        "tel": "",
        "category": "基础设施:公共设施:公共厕所",
        "type": 0,
        "location": {
            "lat": 44.058288,
            "lng": 131.135271
        },
        "ad_info": {
            "adcode": 231086,
            "province": "黑龙江省",
            "city": "牡丹江市",
            "district": "东宁市"
        }
    },
    {
        "id": "924623367474875641",
        "title": "柴河服务区公共厕所",
        "address": "黑龙江省牡丹江市阳明区",
        "tel": "",
        "category": "基础设施:公共设施:公共厕所",
        "type": 0,
        "location": {
            "lat": 44.74191,
            "lng": 129.765413
        },
        "ad_info": {
            "adcode": 231003,
            "province": "黑龙江省",
            "city": "牡丹江市",
            "district": "阳明区"
        }
    },
    {
        "id": "15581935399448308752",
        "title": "公共厕所",
        "address": "黑龙江省牡丹江市阳明区光华街与富江路交叉口西南方向104米左右",
        "tel": "",
        "category": "基础设施:公共设施:公共厕所",
        "type": 0,
        "location": {
            "lat": 44.599016,
            "lng": 129.645447
        },
        "ad_info": {
            "adcode": 231003,
            "province": "黑龙江省",
            "city": "牡丹江市",
            "district": "阳明区"
        }
    },
    {
        "id": "9469896182760355266",
        "title": "公共厕所",
        "address": "黑龙江省牡丹江市东安区三区二道街与松江路交叉口正西方向23米",
        "tel": "",
        "category": "基础设施:公共设施:公共厕所",
        "type": 0,
        "location": {
            "lat": 44.578887,
            "lng": 129.645389
        },
        "ad_info": {
            "adcode": 231002,
            "province": "黑龙江省",
            "city": "牡丹江市",
            "district": "东安区"
        }
    },
    {
        "id": "10999434920662985809",
        "title": "公共厕所",
        "address": "黑龙江省牡丹江市宁安市市场北头道街与环卫路交叉口正东方向64米左右",
        "tel": "",
        "category": "基础设施:公共设施:公共厕所",
        "type": 0,
        "location": {
            "lat": 44.34834,
            "lng": 129.472331
        },
        "ad_info": {
            "adcode": 231084,
            "province": "黑龙江省",
            "city": "牡丹江市",
            "district": "宁安市"
        }
    },
    {
        "id": "12671062360711742817",
        "title": "公共厕所",
        "address": "黑龙江省牡丹江市宁安市宁古塔大道与文庙街交叉口西北方向24米左右",
        "tel": "",
        "category": "基础设施:公共设施:公共厕所",
        "type": 0,
        "location": {
            "lat": 44.345547,
            "lng": 129.483954
        },
        "ad_info": {
            "adcode": 231084,
            "province": "黑龙江省",
            "city": "牡丹江市",
            "district": "宁安市"
        }
    },
    {
        "id": "18107034541418073564",
        "title": "公共厕所",
        "address": "黑龙江省牡丹江市西安区宁北街与西六条路交叉口正东方向24米左右",
        "tel": "",
        "category": "基础设施:公共设施:公共厕所",
        "type": 0,
        "location": {
            "lat": 44.580623,
            "lng": 129.599671
        },
        "ad_info": {
            "adcode": 231005,
            "province": "黑龙江省",
            "city": "牡丹江市",
            "district": "西安区"
        }
    },
    {
        "id": "4189504792497804437",
        "title": "公共厕所",
        "address": "黑龙江省牡丹江市东安区兴隆街与斗银河路交叉口正北方向352米左右",
        "tel": "",
        "category": "基础设施:公共设施:公共厕所",
        "type": 0,
        "location": {
            "lat": 44.553828,
            "lng": 129.622246
        },
        "ad_info": {
            "adcode": 231002,
            "province": "黑龙江省",
            "city": "牡丹江市",
            "district": "东安区"
        }
    },
    {
        "id": "9117462365840556024",
        "title": "无障碍公共厕所",
        "address": "黑龙江省牡丹江市阳明区莲花路与镇江路交叉口西南方向36米左右",
        "tel": "",
        "category": "基础设施:公共设施:公共厕所",
        "type": 0,
        "location": {
            "lat": 44.612569,
            "lng": 129.662771
        },
        "ad_info": {
            "adcode": 231003,
            "province": "黑龙江省",
            "city": "牡丹江市",
            "district": "阳明区"
        }
    },
    {
        "id": "17762208710908009832",
        "title": "体育馆公共厕所",
        "address": "黑龙江省牡丹江市绥芬河市体育场东路与富华街交叉口正西方向169米左右",
        "tel": "0453-3936469",
        "category": "基础设施:公共设施:公共厕所",
        "type": 0,
        "location": {
            "lat": 44.398041,
            "lng": 131.142434
        },
        "ad_info": {
            "adcode": 231081,
            "province": "黑龙江省",
            "city": "牡丹江市",
            "district": "绥芬河市"
        }
    },
    {
        "id": "9976186641108007357",
        "title": "公共厕所",
        "address": "黑龙江省牡丹江市宁安市G11鹤大高速东50米",
        "tel": "",
        "category": "基础设施:公共设施:公共厕所",
        "type": 0,
        "location": {
            "lat": 44.312695,
            "lng": 129.440317
        },
        "ad_info": {
            "adcode": 231084,
            "province": "黑龙江省",
            "city": "牡丹江市",
            "district": "宁安市"
        }
    },
    {
        "id": "9992149082962221760",
        "title": "东渝花园广场公共厕所",
        "address": "黑龙江省牡丹江市绥芬河市会晤路与新安街交叉口东南方向63米左右",
        "tel": "0453-3936469",
        "category": "基础设施:公共设施:公共厕所",
        "type": 0,
        "location": {
            "lat": 44.398952,
            "lng": 131.170282
        },
        "ad_info": {
            "adcode": 231081,
            "province": "黑龙江省",
            "city": "牡丹江市",
            "district": "绥芬河市"
        }
    },
    {
        "id": "893507869464401951",
        "title": "公共厕所",
        "address": "黑龙江省牡丹江市东安区威虎山路与海浪河路交叉口西南方向56米左右",
        "tel": "",
        "category": "基础设施:公共设施:公共厕所",
        "type": 0,
        "location": {
            "lat": 44.549942,
            "lng": 129.649166
        },
        "ad_info": {
            "adcode": 231002,
            "province": "黑龙江省",
            "city": "牡丹江市",
            "district": "东安区"
        }
    },
    {
        "id": "12000981915565529694",
        "title": "小裁缝公园公共厕所",
        "address": "黑龙江省牡丹江市绥芬河市天长路与幸福街交叉口东南方向22米左右",
        "tel": "0453-3936469",
        "category": "基础设施:公共设施:公共厕所",
        "type": 0,
        "location": {
            "lat": 44.410889,
            "lng": 131.156124
        },
        "ad_info": {
            "adcode": 231081,
            "province": "黑龙江省",
            "city": "牡丹江市",
            "district": "绥芬河市"
        }
    },
    {
        "id": "4562541866000231776",
        "title": "公共厕所",
        "address": "黑龙江省牡丹江市东安区太平路与环江路交叉口东北方向44米左右",
        "tel": "",
        "category": "基础设施:公共设施:公共厕所",
        "type": 0,
        "location": {
            "lat": 44.571165,
            "lng": 129.624956
        },
        "ad_info": {
            "adcode": 231002,
            "province": "黑龙江省",
            "city": "牡丹江市",
            "district": "东安区"
        }
    },
    {
        "id": "10371229821357734138",
        "title": "公共厕所",
        "address": "黑龙江省牡丹江市穆棱市大庆路与西环街交叉口东北方向62米左右",
        "tel": "",
        "category": "基础设施:公共设施:公共厕所",
        "type": 0,
        "location": {
            "lat": 44.931435,
            "lng": 130.523411
        },
        "ad_info": {
            "adcode": 231085,
            "province": "黑龙江省",
            "city": "牡丹江市",
            "district": "穆棱市"
        }
    },
    {
        "id": "2975197561577582713",
        "title": "公共厕所",
        "address": "黑龙江省牡丹江市阳明区东平安街与阳明三路交叉口正西方向63米左右",
        "tel": "",
        "category": "基础设施:公共设施:公共厕所",
        "type": 0,
        "location": {
            "lat": 44.591636,
            "lng": 129.641141
        },
        "ad_info": {
            "adcode": 231003,
            "province": "黑龙江省",
            "city": "牡丹江市",
            "district": "阳明区"
        }
    },
    {
        "id": "3927004385551480155",
        "title": "公共厕所",
        "address": "黑龙江省牡丹江市东安区二区二道街与合江路交叉口西南方向82米",
        "tel": "",
        "category": "基础设施:公共设施:公共厕所",
        "type": 0,
        "location": {
            "lat": 44.581473,
            "lng": 129.646263
        },
        "ad_info": {
            "adcode": 231002,
            "province": "黑龙江省",
            "city": "牡丹江市",
            "district": "东安区"
        }
    },
    {
        "id": "12164408705543390217",
        "title": "公共厕所",
        "address": "黑龙江省牡丹江市阳明区江浦路与裕民北街交叉口西北方向226米左右",
        "tel": "",
        "category": "基础设施:公共设施:公共厕所",
        "type": 0,
        "location": {
            "lat": 44.621717,
            "lng": 129.661355
        },
        "ad_info": {
            "adcode": 231003,
            "province": "黑龙江省",
            "city": "牡丹江市",
            "district": "阳明区"
        }
    },
    {
        "id": "8579390356210151721",
        "title": "公共厕所",
        "address": "黑龙江省牡丹江市东安区东四条路与东牡丹街交叉口西北方向53米左右",
        "tel": "",
        "category": "基础设施:公共设施:公共厕所",
        "type": 0,
        "location": {
            "lat": 44.581944,
            "lng": 129.629842
        },
        "ad_info": {
            "adcode": 231002,
            "province": "黑龙江省",
            "city": "牡丹江市",
            "district": "东安区"
        }
    },
    {
        "id": "6447201170677900466",
        "title": "公共厕所",
        "address": "黑龙江省牡丹江市东宁市团结路与率宾路交叉口东南方向86米左右",
        "tel": "",
        "category": "基础设施:公共设施:公共厕所",
        "type": 0,
        "location": {
            "lat": 44.058288,
            "lng": 131.135271
        },
        "ad_info": {
            "adcode": 231086,
            "province": "黑龙江省",
            "city": "牡丹江市",
            "district": "东宁市"
        }
    },
    {
        "id": "924623367474875641",
        "title": "柴河服务区公共厕所",
        "address": "黑龙江省牡丹江市阳明区",
        "tel": "",
        "category": "基础设施:公共设施:公共厕所",
        "type": 0,
        "location": {
            "lat": 44.74191,
            "lng": 129.765413
        },
        "ad_info": {
            "adcode": 231003,
            "province": "黑龙江省",
            "city": "牡丹江市",
            "district": "阳明区"
        }
    },
    {
        "id": "15581935399448308752",
        "title": "公共厕所",
        "address": "黑龙江省牡丹江市阳明区光华街与富江路交叉口西南方向104米左右",
        "tel": "",
        "category": "基础设施:公共设施:公共厕所",
        "type": 0,
        "location": {
            "lat": 44.599016,
            "lng": 129.645447
        },
        "ad_info": {
            "adcode": 231003,
            "province": "黑龙江省",
            "city": "牡丹江市",
            "district": "阳明区"
        }
    },
    {
        "id": "9469896182760355266",
        "title": "公共厕所",
        "address": "黑龙江省牡丹江市东安区三区二道街与松江路交叉口正西方向23米",
        "tel": "",
        "category": "基础设施:公共设施:公共厕所",
        "type": 0,
        "location": {
            "lat": 44.578887,
            "lng": 129.645389
        },
        "ad_info": {
            "adcode": 231002,
            "province": "黑龙江省",
            "city": "牡丹江市",
            "district": "东安区"
        }
    },
    {
        "id": "10999434920662985809",
        "title": "公共厕所",
        "address": "黑龙江省牡丹江市宁安市市场北头道街与环卫路交叉口正东方向64米左右",
        "tel": "",
        "category": "基础设施:公共设施:公共厕所",
        "type": 0,
        "location": {
            "lat": 44.34834,
            "lng": 129.472331
        },
        "ad_info": {
            "adcode": 231084,
            "province": "黑龙江省",
            "city": "牡丹江市",
            "district": "宁安市"
        }
    },
    {
        "id": "12671062360711742817",
        "title": "公共厕所",
        "address": "黑龙江省牡丹江市宁安市宁古塔大道与文庙街交叉口西北方向24米左右",
        "tel": "",
        "category": "基础设施:公共设施:公共厕所",
        "type": 0,
        "location": {
            "lat": 44.345547,
            "lng": 129.483954
        },
        "ad_info": {
            "adcode": 231084,
            "province": "黑龙江省",
            "city": "牡丹江市",
            "district": "宁安市"
        }
    },
    {
        "id": "18107034541418073564",
        "title": "公共厕所",
        "address": "黑龙江省牡丹江市西安区宁北街与西六条路交叉口正东方向24米左右",
        "tel": "",
        "category": "基础设施:公共设施:公共厕所",
        "type": 0,
        "location": {
            "lat": 44.580623,
            "lng": 129.599671
        },
        "ad_info": {
            "adcode": 231005,
            "province": "黑龙江省",
            "city": "牡丹江市",
            "district": "西安区"
        }
    },
    {
        "id": "4189504792497804437",
        "title": "公共厕所",
        "address": "黑龙江省牡丹江市东安区兴隆街与斗银河路交叉口正北方向352米左右",
        "tel": "",
        "category": "基础设施:公共设施:公共厕所",
        "type": 0,
        "location": {
            "lat": 44.553828,
            "lng": 129.622246
        },
        "ad_info": {
            "adcode": 231002,
            "province": "黑龙江省",
            "city": "牡丹江市",
            "district": "东安区"
        }
    },
    {
        "id": "9117462365840556024",
        "title": "无障碍公共厕所",
        "address": "黑龙江省牡丹江市阳明区莲花路与镇江路交叉口西南方向36米左右",
        "tel": "",
        "category": "基础设施:公共设施:公共厕所",
        "type": 0,
        "location": {
            "lat": 44.612569,
            "lng": 129.662771
        },
        "ad_info": {
            "adcode": 231003,
            "province": "黑龙江省",
            "city": "牡丹江市",
            "district": "阳明区"
        }
    },
    {
        "id": "17762208710908009832",
        "title": "体育馆公共厕所",
        "address": "黑龙江省牡丹江市绥芬河市体育场东路与富华街交叉口正西方向169米左右",
        "tel": "0453-3936469",
        "category": "基础设施:公共设施:公共厕所",
        "type": 0,
        "location": {
            "lat": 44.398041,
            "lng": 131.142434
        },
        "ad_info": {
            "adcode": 231081,
            "province": "黑龙江省",
            "city": "牡丹江市",
            "district": "绥芬河市"
        }
    },
    {
        "id": "9976186641108007357",
        "title": "公共厕所",
        "address": "黑龙江省牡丹江市宁安市G11鹤大高速东50米",
        "tel": "",
        "category": "基础设施:公共设施:公共厕所",
        "type": 0,
        "location": {
            "lat": 44.312695,
            "lng": 129.440317
        },
        "ad_info": {
            "adcode": 231084,
            "province": "黑龙江省",
            "city": "牡丹江市",
            "district": "宁安市"
        }
    },
    {
        "id": "9992149082962221760",
        "title": "东渝花园广场公共厕所",
        "address": "黑龙江省牡丹江市绥芬河市会晤路与新安街交叉口东南方向63米左右",
        "tel": "0453-3936469",
        "category": "基础设施:公共设施:公共厕所",
        "type": 0,
        "location": {
            "lat": 44.398952,
            "lng": 131.170282
        },
        "ad_info": {
            "adcode": 231081,
            "province": "黑龙江省",
            "city": "牡丹江市",
            "district": "绥芬河市"
        }
    },
    {
        "id": "893507869464401951",
        "title": "公共厕所",
        "address": "黑龙江省牡丹江市东安区威虎山路与海浪河路交叉口西南方向56米左右",
        "tel": "",
        "category": "基础设施:公共设施:公共厕所",
        "type": 0,
        "location": {
            "lat": 44.549942,
            "lng": 129.649166
        },
        "ad_info": {
            "adcode": 231002,
            "province": "黑龙江省",
            "city": "牡丹江市",
            "district": "东安区"
        }
    },
    {
        "id": "12000981915565529694",
        "title": "小裁缝公园公共厕所",
        "address": "黑龙江省牡丹江市绥芬河市天长路与幸福街交叉口东南方向22米左右",
        "tel": "0453-3936469",
        "category": "基础设施:公共设施:公共厕所",
        "type": 0,
        "location": {
            "lat": 44.410889,
            "lng": 131.156124
        },
        "ad_info": {
            "adcode": 231081,
            "province": "黑龙江省",
            "city": "牡丹江市",
            "district": "绥芬河市"
        }
    },
    {
        "id": "4562541866000231776",
        "title": "公共厕所",
        "address": "黑龙江省牡丹江市东安区太平路与环江路交叉口东北方向44米左右",
        "tel": "",
        "category": "基础设施:公共设施:公共厕所",
        "type": 0,
        "location": {
            "lat": 44.571165,
            "lng": 129.624956
        },
        "ad_info": {
            "adcode": 231002,
            "province": "黑龙江省",
            "city": "牡丹江市",
            "district": "东安区"
        }
    },
    {
        "id": "10371229821357734138",
        "title": "公共厕所",
        "address": "黑龙江省牡丹江市穆棱市大庆路与西环街交叉口东北方向62米左右",
        "tel": "",
        "category": "基础设施:公共设施:公共厕所",
        "type": 0,
        "location": {
            "lat": 44.931435,
            "lng": 130.523411
        },
        "ad_info": {
            "adcode": 231085,
            "province": "黑龙江省",
            "city": "牡丹江市",
            "district": "穆棱市"
        }
    },
    {
        "id": "2975197561577582713",
        "title": "公共厕所",
        "address": "黑龙江省牡丹江市阳明区东平安街与阳明三路交叉口正西方向63米左右",
        "tel": "",
        "category": "基础设施:公共设施:公共厕所",
        "type": 0,
        "location": {
            "lat": 44.591636,
            "lng": 129.641141
        },
        "ad_info": {
            "adcode": 231003,
            "province": "黑龙江省",
            "city": "牡丹江市",
            "district": "阳明区"
        }
    },
    {
        "id": "3927004385551480155",
        "title": "公共厕所",
        "address": "黑龙江省牡丹江市东安区二区二道街与合江路交叉口西南方向82米",
        "tel": "",
        "category": "基础设施:公共设施:公共厕所",
        "type": 0,
        "location": {
            "lat": 44.581473,
            "lng": 129.646263
        },
        "ad_info": {
            "adcode": 231002,
            "province": "黑龙江省",
            "city": "牡丹江市",
            "district": "东安区"
        }
    },
    {
        "id": "12164408705543390217",
        "title": "公共厕所",
        "address": "黑龙江省牡丹江市阳明区江浦路与裕民北街交叉口西北方向226米左右",
        "tel": "",
        "category": "基础设施:公共设施:公共厕所",
        "type": 0,
        "location": {
            "lat": 44.621717,
            "lng": 129.661355
        },
        "ad_info": {
            "adcode": 231003,
            "province": "黑龙江省",
            "city": "牡丹江市",
            "district": "阳明区"
        }
    },
    {
        "id": "8579390356210151721",
        "title": "公共厕所",
        "address": "黑龙江省牡丹江市东安区东四条路与东牡丹街交叉口西北方向53米左右",
        "tel": "",
        "category": "基础设施:公共设施:公共厕所",
        "type": 0,
        "location": {
            "lat": 44.581944,
            "lng": 129.629842
        },
        "ad_info": {
            "adcode": 231002,
            "province": "黑龙江省",
            "city": "牡丹江市",
            "district": "东安区"
        }
    },
    {
        "id": "6447201170677900466",
        "title": "公共厕所",
        "address": "黑龙江省牡丹江市东宁市团结路与率宾路交叉口东南方向86米左右",
        "tel": "",
        "category": "基础设施:公共设施:公共厕所",
        "type": 0,
        "location": {
            "lat": 44.058288,
            "lng": 131.135271
        },
        "ad_info": {
            "adcode": 231086,
            "province": "黑龙江省",
            "city": "牡丹江市",
            "district": "东宁市"
        }
    },
    {
        "id": "924623367474875641",
        "title": "柴河服务区公共厕所",
        "address": "黑龙江省牡丹江市阳明区",
        "tel": "",
        "category": "基础设施:公共设施:公共厕所",
        "type": 0,
        "location": {
            "lat": 44.74191,
            "lng": 129.765413
        },
        "ad_info": {
            "adcode": 231003,
            "province": "黑龙江省",
            "city": "牡丹江市",
            "district": "阳明区"
        }
    },
    {
        "id": "15581935399448308752",
        "title": "公共厕所",
        "address": "黑龙江省牡丹江市阳明区光华街与富江路交叉口西南方向104米左右",
        "tel": "",
        "category": "基础设施:公共设施:公共厕所",
        "type": 0,
        "location": {
            "lat": 44.599016,
            "lng": 129.645447
        },
        "ad_info": {
            "adcode": 231003,
            "province": "黑龙江省",
            "city": "牡丹江市",
            "district": "阳明区"
        }
    },
    {
        "id": "9469896182760355266",
        "title": "公共厕所",
        "address": "黑龙江省牡丹江市东安区三区二道街与松江路交叉口正西方向23米",
        "tel": "",
        "category": "基础设施:公共设施:公共厕所",
        "type": 0,
        "location": {
            "lat": 44.578887,
            "lng": 129.645389
        },
        "ad_info": {
            "adcode": 231002,
            "province": "黑龙江省",
            "city": "牡丹江市",
            "district": "东安区"
        }
    },
    {
        "id": "10999434920662985809",
        "title": "公共厕所",
        "address": "黑龙江省牡丹江市宁安市市场北头道街与环卫路交叉口正东方向64米左右",
        "tel": "",
        "category": "基础设施:公共设施:公共厕所",
        "type": 0,
        "location": {
            "lat": 44.34834,
            "lng": 129.472331
        },
        "ad_info": {
            "adcode": 231084,
            "province": "黑龙江省",
            "city": "牡丹江市",
            "district": "宁安市"
        }
    },
    {
        "id": "12671062360711742817",
        "title": "公共厕所",
        "address": "黑龙江省牡丹江市宁安市宁古塔大道与文庙街交叉口西北方向24米左右",
        "tel": "",
        "category": "基础设施:公共设施:公共厕所",
        "type": 0,
        "location": {
            "lat": 44.345547,
            "lng": 129.483954
        },
        "ad_info": {
            "adcode": 231084,
            "province": "黑龙江省",
            "city": "牡丹江市",
            "district": "宁安市"
        }
    }
]