[
    {
        "id": "11957085716462997602",
        "title": "公共厕所",
        "address": "青海省玉树藏族自治州玉树市民主路与结古朵巷交叉口西南方向86米左右",
        "tel": "",
        "category": "基础设施:公共设施:公共厕所",
        "type": 0,
        "location": {
            "lat": 33.003539,
            "lng": 97.009042
        },
        "ad_info": {
            "adcode": 632701,
            "province": "青海省",
            "city": "玉树藏族自治州",
            "district": "玉树市"
        }
    },
    {
        "id": "1220769233188878111",
        "title": "公共厕所",
        "address": "青海省玉树藏族自治州囊谦县民德路与荣卡东路交叉口正东方向105米左右",
        "tel": "",
        "category": "基础设施:公共设施:公共厕所",
        "type": 0,
        "location": {
            "lat": 32.198248,
            "lng": 96.466053
        },
        "ad_info": {
            "adcode": 632725,
            "province": "青海省",
            "city": "玉树藏族自治州",
            "district": "囊谦县"
        }
    },
    {
        "id": "16717370425164115382",
        "title": "公共厕所",
        "address": "青海省玉树藏族自治州玉树市扎西大通西路与结古大道交叉口西北80米",
        "tel": "",
        "category": "基础设施:公共设施:公共厕所",
        "type": 0,
        "location": {
            "lat": 33.000509,
            "lng": 97.008971
        },
        "ad_info": {
            "adcode": 632701,
            "province": "青海省",
            "city": "玉树藏族自治州",
            "district": "玉树市"
        }
    },
    {
        "id": "14039401033202439068",
        "title": "公共厕所",
        "address": "青海省玉树藏族自治州玉树市中铁工街与结古大道交叉口东南方向146米左右",
        "tel": "",
        "category": "基础设施:公共设施:公共厕所",
        "type": 0,
        "location": {
            "lat": 32.983176,
            "lng": 97.00836
        },
        "ad_info": {
            "adcode": 632701,
            "province": "青海省",
            "city": "玉树藏族自治州",
            "district": "玉树市"
        }
    },
    {
        "id": "2913308080734967602",
        "title": "公共厕所",
        "address": "青海省玉树藏族自治州玉树市真情路与结古大道二巷交叉口西北方向34米左右",
        "tel": "",
        "category": "基础设施:公共设施:公共厕所",
        "type": 0,
        "location": {
            "lat": 32.99525,
            "lng": 97.008398
        },
        "ad_info": {
            "adcode": 632701,
            "province": "青海省",
            "city": "玉树藏族自治州",
            "district": "玉树市"
        }
    },
    {
        "id": "12701298758297849730",
        "title": "公共厕所",
        "address": "青海省玉树藏族自治州杂多县中杂曲南路与人民路交叉口东北方向168米左右",
        "tel": "",
        "category": "基础设施:公共设施:公共厕所",
        "type": 0,
        "location": {
            "lat": 32.889572,
            "lng": 95.309252
        },
        "ad_info": {
            "adcode": 632722,
            "province": "青海省",
            "city": "玉树藏族自治州",
            "district": "杂多县"
        }
    },
    {
        "id": "7671321078677439853",
        "title": "公共厕所",
        "address": "青海省玉树藏族自治州杂多县下杂曲南路与南山路交叉口东南方向161米左右",
        "tel": "",
        "category": "基础设施:公共设施:公共厕所",
        "type": 0,
        "location": {
            "lat": 32.883172,
            "lng": 95.321459
        },
        "ad_info": {
            "adcode": 632722,
            "province": "青海省",
            "city": "玉树藏族自治州",
            "district": "杂多县"
        }
    },
    {
        "id": "17299296617126382312",
        "title": "公共厕所",
        "address": "青海省玉树藏族自治州称多县214国道西50米",
        "tel": "",
        "category": "基础设施:公共设施:公共厕所",
        "type": 0,
        "location": {
            "lat": 33.358701,
            "lng": 97.342055
        },
        "ad_info": {
            "adcode": 632723,
            "province": "青海省",
            "city": "玉树藏族自治州",
            "district": "称多县"
        }
    },
    {
        "id": "2627399664800502140",
        "title": "公共卫生间",
        "address": "青海省玉树藏族自治州曲麻莱县嘎觉悟步行街与扎曲路交叉口东南方向54米左右",
        "tel": "",
        "category": "基础设施:公共设施:公共厕所",
        "type": 0,
        "location": {
            "lat": 34.125561,
            "lng": 95.800386
        },
        "ad_info": {
            "adcode": 632726,
            "province": "青海省",
            "city": "玉树藏族自治州",
            "district": "曲麻莱县"
        }
    },
    {
        "id": "4999239501950937697",
        "title": "公共厕所",
        "address": "青海省玉树藏族自治州曲麻莱县巴干路与麻曲路交叉口正西方向117米左右",
        "tel": "",
        "category": "基础设施:公共设施:公共厕所",
        "type": 0,
        "location": {
            "lat": 34.128021,
            "lng": 95.799116
        },
        "ad_info": {
            "adcode": 632726,
            "province": "青海省",
            "city": "玉树藏族自治州",
            "district": "曲麻莱县"
        }
    },
    {
        "id": "18059324037521241858",
        "title": "公共厕所",
        "address": "青海省玉树藏族自治州曲麻莱县科教街与黄河路交叉口正南方向39米左右",
        "tel": "",
        "category": "基础设施:公共设施:公共厕所",
        "type": 0,
        "location": {
            "lat": 34.12591,
            "lng": 95.797089
        },
        "ad_info": {
            "adcode": 632726,
            "province": "青海省",
            "city": "玉树藏族自治州",
            "district": "曲麻莱县"
        }
    },
    {
        "id": "7411272727232689725",
        "title": "公共厕所",
        "address": "青海省玉树藏族自治州治多县和谐路与珠姆街交叉口西北方向271米左右",
        "tel": "",
        "category": "基础设施:公共设施:公共厕所",
        "type": 0,
        "location": {
            "lat": 33.84479,
            "lng": 95.610094
        },
        "ad_info": {
            "adcode": 632724,
            "province": "青海省",
            "city": "玉树藏族自治州",
            "district": "治多县"
        }
    },
    {
        "id": "5215331745490374155",
        "title": "公共厕所",
        "address": "青海省玉树藏族自治州玉树市商业街与孟宗二巷交叉口东南方向34米左右",
        "tel": "",
        "category": "基础设施:公共设施:公共厕所",
        "type": 0,
        "location": {
            "lat": 32.991379,
            "lng": 97.008213
        },
        "ad_info": {
            "adcode": 632701,
            "province": "青海省",
            "city": "玉树藏族自治州",
            "district": "玉树市"
        }
    },
    {
        "id": "471584166839088668",
        "title": "公共厕所",
        "address": "青海省玉树藏族自治州治多县感恩路与聂恰南路交叉口正东方向337米左右",
        "tel": "",
        "category": "基础设施:公共设施:公共厕所",
        "type": 0,
        "location": {
            "lat": 33.846191,
            "lng": 95.620241
        },
        "ad_info": {
            "adcode": 632724,
            "province": "青海省",
            "city": "玉树藏族自治州",
            "district": "治多县"
        }
    },
    {
        "id": "6913262668977780862",
        "title": "公共厕所",
        "address": "青海省玉树藏族自治州治多县109国道东50米",
        "tel": "",
        "category": "基础设施:公共设施:公共厕所",
        "type": 0,
        "location": {
            "lat": 35.218771,
            "lng": 93.082937
        },
        "ad_info": {
            "adcode": 632724,
            "province": "青海省",
            "city": "玉树藏族自治州",
            "district": "治多县"
        }
    },
    {
        "id": "13235613012438631047",
        "title": "公共厕所",
        "address": "青海省玉树藏族自治州曲麻莱县叶格路与长江路交叉口正东方向209米左右",
        "tel": "",
        "category": "基础设施:公共设施:公共厕所",
        "type": 0,
        "location": {
            "lat": 34.130926,
            "lng": 95.812076
        },
        "ad_info": {
            "adcode": 632726,
            "province": "青海省",
            "city": "玉树藏族自治州",
            "district": "曲麻莱县"
        }
    },
    {
        "id": "3984749636855402217",
        "title": "公共厕所",
        "address": "青海省玉树藏族自治州囊谦县830县道附近",
        "tel": "",
        "category": "基础设施:公共设施:公共厕所",
        "type": 0,
        "location": {
            "lat": 32.263801,
            "lng": 96.81778
        },
        "ad_info": {
            "adcode": 632725,
            "province": "青海省",
            "city": "玉树藏族自治州",
            "district": "囊谦县"
        }
    },
    {
        "id": "10655508004966461919",
        "title": "公共厕所",
        "address": "青海省玉树藏族自治州玉树市双拥街与治曲路交叉口东北方向51米左右",
        "tel": "",
        "category": "基础设施:公共设施:公共厕所",
        "type": 0,
        "location": {
            "lat": 32.988642,
            "lng": 97.006201
        },
        "ad_info": {
            "adcode": 632701,
            "province": "青海省",
            "city": "玉树藏族自治州",
            "district": "玉树市"
        }
    },
    {
        "id": "18339248333556830761",
        "title": "公共厕所",
        "address": "青海省玉树藏族自治州称多县G214与休郎路交叉口正南方向1346米左右",
        "tel": "",
        "category": "基础设施:公共设施:公共厕所",
        "type": 0,
        "location": {
            "lat": 33.063538,
            "lng": 97.284867
        },
        "ad_info": {
            "adcode": 632723,
            "province": "青海省",
            "city": "玉树藏族自治州",
            "district": "称多县"
        }
    },
    {
        "id": "11642363488859171386",
        "title": "公共厕所",
        "address": "青海省玉树藏族自治州曲麻莱县叶格路与夏吾杂扎街交叉口正南方向36米左右",
        "tel": "",
        "category": "基础设施:公共设施:公共厕所",
        "type": 0,
        "location": {
            "lat": 34.12814,
            "lng": 95.81229
        },
        "ad_info": {
            "adcode": 632726,
            "province": "青海省",
            "city": "玉树藏族自治州",
            "district": "曲麻莱县"
        }
    },
    {
        "id": "15397042748518595818",
        "title": "公共厕所",
        "address": "青海省玉树藏族自治州称多县214国道南50米",
        "tel": "",
        "category": "基础设施:公共设施:公共厕所",
        "type": 0,
        "location": {
            "lat": 33.333973,
            "lng": 97.400908
        },
        "ad_info": {
            "adcode": 632723,
            "province": "青海省",
            "city": "玉树藏族自治州",
            "district": "称多县"
        }
    },
    {
        "id": "17429150058694996496",
        "title": "公共厕所",
        "address": "青海省玉树藏族自治州曲麻莱县定居二路与黄河路交叉口东南方向200米左右",
        "tel": "",
        "category": "基础设施:公共设施:公共厕所",
        "type": 0,
        "location": {
            "lat": 34.137418,
            "lng": 95.809238
        },
        "ad_info": {
            "adcode": 632726,
            "province": "青海省",
            "city": "玉树藏族自治州",
            "district": "曲麻莱县"
        }
    },
    {
        "id": "8499837012584011565",
        "title": "公共厕所",
        "address": "青海省玉树藏族自治州玉树市隆学路与隆富路交叉口正西方向9米左右",
        "tel": "",
        "category": "基础设施:公共设施:公共厕所",
        "type": 0,
        "location": {
            "lat": 33.267792,
            "lng": 96.423253
        },
        "ad_info": {
            "adcode": 632701,
            "province": "青海省",
            "city": "玉树藏族自治州",
            "district": "玉树市"
        }
    },
    {
        "id": "3849444593321501155",
        "title": "公共厕所",
        "address": "青海省玉树藏族自治州玉树市感恩路与杂曲南路交叉口正北方向47米左右",
        "tel": "",
        "category": "基础设施:公共设施:公共厕所",
        "type": 0,
        "location": {
            "lat": 32.981181,
            "lng": 97.009854
        },
        "ad_info": {
            "adcode": 632701,
            "province": "青海省",
            "city": "玉树藏族自治州",
            "district": "玉树市"
        }
    },
    {
        "id": "15459499376004499920",
        "title": "文化公园公共厕所",
        "address": "青海省玉树藏族自治州玉树市中建路与民主路交叉口东南方向46米左右",
        "tel": "",
        "category": "基础设施:公共设施:公共厕所",
        "type": 0,
        "location": {
            "lat": 33.004738,
            "lng": 96.987757
        },
        "ad_info": {
            "adcode": 632701,
            "province": "青海省",
            "city": "玉树藏族自治州",
            "district": "玉树市"
        }
    },
    {
        "id": "15982103162470151304",
        "title": "格萨尔王广场公共厕所",
        "address": "青海省玉树藏族自治州玉树市扎曲北路格萨尔王广场(西北角)",
        "tel": "",
        "category": "基础设施:公共设施:公共厕所",
        "type": 0,
        "location": {
            "lat": 33.001934,
            "lng": 97.010704
        },
        "ad_info": {
            "adcode": 632701,
            "province": "青海省",
            "city": "玉树藏族自治州",
            "district": "玉树市"
        }
    },
    {
        "id": "5493944281439155163",
        "title": "珍秦服务区公共厕所",
        "address": "青海省玉树藏族自治州称多县中国石油珍秦服务区加油站西侧50米",
        "tel": "",
        "category": "基础设施:公共设施:公共厕所",
        "type": 0,
        "location": {
            "lat": 33.424561,
            "lng": 97.295788
        },
        "ad_info": {
            "adcode": 632723,
            "province": "青海省",
            "city": "玉树藏族自治州",
            "district": "称多县"
        }
    }
]