[
    {
        "id": "1394067561709469491",
        "title": "公共厕所",
        "address": "广西壮族自治区玉林市福绵区双福路与育才路交叉口西南方向70米左右",
        "tel": "",
        "category": "基础设施:公共设施:公共厕所",
        "type": 0,
        "location": {
            "lat": 22.580662,
            "lng": 110.049074
        },
        "ad_info": {
            "adcode": 450903,
            "province": "广西壮族自治区",
            "city": "玉林市",
            "district": "福绵区"
        }
    },
    {
        "id": "15476620773745488867",
        "title": "公共厕所",
        "address": "广西壮族自治区玉林市玉州区胜利路与金玉路交叉口东北方向188米左右",
        "tel": "",
        "category": "基础设施:公共设施:公共厕所",
        "type": 0,
        "location": {
            "lat": 22.635333,
            "lng": 110.180428
        },
        "ad_info": {
            "adcode": 450902,
            "province": "广西壮族自治区",
            "city": "玉林市",
            "district": "玉州区"
        }
    },
    {
        "id": "5265834778252885678",
        "title": "公共厕所",
        "address": "广西壮族自治区玉林市容县金珠街太爷巷与南大街交叉口南60米",
        "tel": "",
        "category": "基础设施:公共设施:公共厕所",
        "type": 0,
        "location": {
            "lat": 22.854532,
            "lng": 110.557356
        },
        "ad_info": {
            "adcode": 450921,
            "province": "广西壮族自治区",
            "city": "玉林市",
            "district": "容县"
        }
    },
    {
        "id": "2009320615099781026",
        "title": "公共厕所",
        "address": "广西壮族自治区玉林市玉州区公园路与城站路交叉口正北方向107米左右",
        "tel": "",
        "category": "基础设施:公共设施:公共厕所",
        "type": 0,
        "location": {
            "lat": 22.622967,
            "lng": 110.156349
        },
        "ad_info": {
            "adcode": 450902,
            "province": "广西壮族自治区",
            "city": "玉林市",
            "district": "玉州区"
        }
    },
    {
        "id": "16632174737158093478",
        "title": "公共厕所",
        "address": "广西壮族自治区玉林市容县广场街8号",
        "tel": "",
        "category": "基础设施:公共设施:公共厕所",
        "type": 0,
        "location": {
            "lat": 22.852785,
            "lng": 110.551159
        },
        "ad_info": {
            "adcode": 450921,
            "province": "广西壮族自治区",
            "city": "玉林市",
            "district": "容县"
        }
    },
    {
        "id": "3993410024359009915",
        "title": "公共厕所",
        "address": "广西壮族自治区玉林市玉州区江南路城南公园(北侧)",
        "tel": "",
        "category": "基础设施:公共设施:公共厕所",
        "type": 0,
        "location": {
            "lat": 22.603909,
            "lng": 110.171906
        },
        "ad_info": {
            "adcode": 450902,
            "province": "广西壮族自治区",
            "city": "玉林市",
            "district": "玉州区"
        }
    },
    {
        "id": "3613616589343627657",
        "title": "公共厕所",
        "address": "广西壮族自治区玉林市玉州区广场南路与广场西路交叉口西北方向23米左右",
        "tel": "",
        "category": "基础设施:公共设施:公共厕所",
        "type": 0,
        "location": {
            "lat": 22.642442,
            "lng": 110.171588
        },
        "ad_info": {
            "adcode": 450902,
            "province": "广西壮族自治区",
            "city": "玉林市",
            "district": "玉州区"
        }
    },
    {
        "id": "1388816426905902861",
        "title": "公共厕所",
        "address": "广西壮族自治区玉林市玉州区一环北路与营盘街交叉口西南方向79米左右",
        "tel": "",
        "category": "基础设施:公共设施:公共厕所",
        "type": 0,
        "location": {
            "lat": 22.633997,
            "lng": 110.137498
        },
        "ad_info": {
            "adcode": 450902,
            "province": "广西壮族自治区",
            "city": "玉林市",
            "district": "玉州区"
        }
    },
    {
        "id": "6613208984888651787",
        "title": "公共厕所",
        "address": "广西壮族自治区玉林市北流市永丰路121号",
        "tel": "",
        "category": "基础设施:公共设施:公共厕所",
        "type": 0,
        "location": {
            "lat": 22.6973,
            "lng": 110.348139
        },
        "ad_info": {
            "adcode": 450981,
            "province": "广西壮族自治区",
            "city": "玉林市",
            "district": "北流市"
        }
    },
    {
        "id": "3297632765590453530",
        "title": "公共厕所",
        "address": "广西壮族自治区玉林市兴业县G324与玉贵路交叉口西南方向23米左右",
        "tel": "",
        "category": "基础设施:公共设施:公共厕所",
        "type": 0,
        "location": {
            "lat": 22.750951,
            "lng": 109.877645
        },
        "ad_info": {
            "adcode": 450924,
            "province": "广西壮族自治区",
            "city": "玉林市",
            "district": "兴业县"
        }
    },
    {
        "id": "81796259660940942",
        "title": "公共厕所",
        "address": "广西壮族自治区玉林市容县东外街8号",
        "tel": "",
        "category": "基础设施:公共设施:公共厕所",
        "type": 0,
        "location": {
            "lat": 22.856192,
            "lng": 110.559197
        },
        "ad_info": {
            "adcode": 450921,
            "province": "广西壮族自治区",
            "city": "玉林市",
            "district": "容县"
        }
    },
    {
        "id": "5638800727087106411",
        "title": "公共厕所",
        "address": "广西壮族自治区玉林市玉州区加油站旁边",
        "tel": "",
        "category": "基础设施:公共设施:公共厕所",
        "type": 0,
        "location": {
            "lat": 22.647622,
            "lng": 110.188573
        },
        "ad_info": {
            "adcode": 450902,
            "province": "广西壮族自治区",
            "city": "玉林市",
            "district": "玉州区"
        }
    },
    {
        "id": "12109272221630170166",
        "title": "公共厕所",
        "address": "广西壮族自治区玉林市玉州区一环北路884号",
        "tel": "",
        "category": "基础设施:公共设施:公共厕所",
        "type": 0,
        "location": {
            "lat": 22.630623,
            "lng": 110.136611
        },
        "ad_info": {
            "adcode": 450902,
            "province": "广西壮族自治区",
            "city": "玉林市",
            "district": "玉州区"
        }
    },
    {
        "id": "11572205258249992032",
        "title": "公共厕所",
        "address": "广西壮族自治区玉林市玉州区和平路与解放路交叉口东北方向136米左右",
        "tel": "",
        "category": "基础设施:公共设施:公共厕所",
        "type": 0,
        "location": {
            "lat": 22.62771,
            "lng": 110.15426
        },
        "ad_info": {
            "adcode": 450902,
            "province": "广西壮族自治区",
            "city": "玉林市",
            "district": "玉州区"
        }
    },
    {
        "id": "6504424265646467982",
        "title": "公共厕所",
        "address": "广西壮族自治区玉林市容县城南大道与工业大道交叉口正北方向74米左右",
        "tel": "",
        "category": "基础设施:公共设施:公共厕所",
        "type": 0,
        "location": {
            "lat": 22.840475,
            "lng": 110.56051
        },
        "ad_info": {
            "adcode": 450921,
            "province": "广西壮族自治区",
            "city": "玉林市",
            "district": "容县"
        }
    },
    {
        "id": "9558341827747317728",
        "title": "公共厕所",
        "address": "广西壮族自治区玉林市玉州区江南路与秀石路交叉口西南方向124米左右",
        "tel": "",
        "category": "基础设施:公共设施:公共厕所",
        "type": 0,
        "location": {
            "lat": 22.603964,
            "lng": 110.171084
        },
        "ad_info": {
            "adcode": 450902,
            "province": "广西壮族自治区",
            "city": "玉林市",
            "district": "玉州区"
        }
    },
    {
        "id": "9262814881952885691",
        "title": "公共厕所",
        "address": "广西壮族自治区玉林市玉州区胜利路万达广场(金玉路店)二楼大门靠这边",
        "tel": "",
        "category": "基础设施:公共设施:公共厕所",
        "type": 0,
        "location": {
            "lat": 22.634074,
            "lng": 110.180454
        },
        "ad_info": {
            "adcode": 450902,
            "province": "广西壮族自治区",
            "city": "玉林市",
            "district": "玉州区"
        }
    },
    {
        "id": "16169360500676316579",
        "title": "公共厕所",
        "address": "广西壮族自治区玉林市陆川县东滨中路与温汤路交叉口正西方向71米左右",
        "tel": "",
        "category": "基础设施:公共设施:公共厕所",
        "type": 0,
        "location": {
            "lat": 22.314324,
            "lng": 110.263256
        },
        "ad_info": {
            "adcode": 450922,
            "province": "广西壮族自治区",
            "city": "玉林市",
            "district": "陆川县"
        }
    },
    {
        "id": "16161974100688249894",
        "title": "公共厕所",
        "address": "广西壮族自治区玉林市北流市福昆线瓦窑头公园内",
        "tel": "",
        "category": "基础设施:公共设施:公共厕所",
        "type": 0,
        "location": {
            "lat": 22.698532,
            "lng": 110.363839
        },
        "ad_info": {
            "adcode": 450981,
            "province": "广西壮族自治区",
            "city": "玉林市",
            "district": "北流市"
        }
    },
    {
        "id": "8041356141780354387",
        "title": "公共厕所",
        "address": "广西壮族自治区玉林市陆川县新洲南路与温泉大道交叉口正北方向32米左右",
        "tel": "",
        "category": "基础设施:公共设施:公共厕所",
        "type": 0,
        "location": {
            "lat": 22.301251,
            "lng": 110.260055
        },
        "ad_info": {
            "adcode": 450922,
            "province": "广西壮族自治区",
            "city": "玉林市",
            "district": "陆川县"
        }
    },
    {
        "id": "11255767806120098269",
        "title": "公共厕所",
        "address": "广西壮族自治区玉林市玉州区新坡路与玉博大道交叉口正北方向184米左右",
        "tel": "",
        "category": "基础设施:公共设施:公共厕所",
        "type": 0,
        "location": {
            "lat": 22.574765,
            "lng": 110.122933
        },
        "ad_info": {
            "adcode": 450902,
            "province": "广西壮族自治区",
            "city": "玉林市",
            "district": "玉州区"
        }
    },
    {
        "id": "13205733646997106853",
        "title": "公共厕所",
        "address": "广西壮族自治区玉林市玉州区二环北路与庆旺路交叉口正南方向175米左右",
        "tel": "",
        "category": "基础设施:公共设施:公共厕所",
        "type": 0,
        "location": {
            "lat": 22.650682,
            "lng": 110.125127
        },
        "ad_info": {
            "adcode": 450902,
            "province": "广西壮族自治区",
            "city": "玉林市",
            "district": "玉州区"
        }
    },
    {
        "id": "11116106206291713554",
        "title": "公共厕所",
        "address": "广西壮族自治区玉林市福绵区G241与玉博大道交叉口正南方向585米左右",
        "tel": "",
        "category": "基础设施:公共设施:公共厕所",
        "type": 0,
        "location": {
            "lat": 22.561908,
            "lng": 110.122323
        },
        "ad_info": {
            "adcode": 450903,
            "province": "广西壮族自治区",
            "city": "玉林市",
            "district": "福绵区"
        }
    },
    {
        "id": "5098902054203280336",
        "title": "公共厕所",
        "address": "广西壮族自治区玉林市玉州区玉州路与解放路交叉口西北方向41米左右",
        "tel": "",
        "category": "基础设施:公共设施:公共厕所",
        "type": 0,
        "location": {
            "lat": 22.626736,
            "lng": 110.152029
        },
        "ad_info": {
            "adcode": 450902,
            "province": "广西壮族自治区",
            "city": "玉林市",
            "district": "玉州区"
        }
    },
    {
        "id": "291680275054057215",
        "title": "公共厕所",
        "address": "广西壮族自治区玉林市玉州区玉东大道辅路与石牛路交叉口正南方向64米左右",
        "tel": "",
        "category": "基础设施:公共设施:公共厕所",
        "type": 0,
        "location": {
            "lat": 22.655042,
            "lng": 110.186691
        },
        "ad_info": {
            "adcode": 450902,
            "province": "广西壮族自治区",
            "city": "玉林市",
            "district": "玉州区"
        }
    },
    {
        "id": "525411559935902276",
        "title": "公共厕所",
        "address": "广西壮族自治区玉林市玉州区电脑电器专业市场1楼A区第26-31号正北方向40米",
        "tel": "",
        "category": "基础设施:公共设施:公共厕所",
        "type": 0,
        "location": {
            "lat": 22.62233,
            "lng": 110.1413
        },
        "ad_info": {
            "adcode": 450902,
            "province": "广西壮族自治区",
            "city": "玉林市",
            "district": "玉州区"
        }
    },
    {
        "id": "13257226382745157690",
        "title": "公共厕所",
        "address": "广西壮族自治区玉林市玉州区教育中路与民主中路交叉口东北方向100米左右",
        "tel": "",
        "category": "基础设施:公共设施:公共厕所",
        "type": 0,
        "location": {
            "lat": 22.634139,
            "lng": 110.1563
        },
        "ad_info": {
            "adcode": 450902,
            "province": "广西壮族自治区",
            "city": "玉林市",
            "district": "玉州区"
        }
    },
    {
        "id": "1812192308672903748",
        "title": "公共厕所",
        "address": "广西壮族自治区玉林市玉州区宏进农副产品批发市场",
        "tel": "",
        "category": "基础设施:公共设施:公共厕所",
        "type": 0,
        "location": {
            "lat": 22.651853,
            "lng": 110.142696
        },
        "ad_info": {
            "adcode": 450902,
            "province": "广西壮族自治区",
            "city": "玉林市",
            "district": "玉州区"
        }
    },
    {
        "id": "4073199968939832566",
        "title": "公共厕所",
        "address": "广西壮族自治区玉林市玉州区人民西路与玉博大道交叉口东南方向50米左右",
        "tel": "",
        "category": "基础设施:公共设施:公共厕所",
        "type": 0,
        "location": {
            "lat": 22.605986,
            "lng": 110.12492
        },
        "ad_info": {
            "adcode": 450902,
            "province": "广西壮族自治区",
            "city": "玉林市",
            "district": "玉州区"
        }
    },
    {
        "id": "6721646013288648476",
        "title": "公共厕所",
        "address": "广西壮族自治区玉林市玉州区万良路与良园路交叉口东北方向114米左右",
        "tel": "",
        "category": "基础设施:公共设施:公共厕所",
        "type": 0,
        "location": {
            "lat": 22.61536,
            "lng": 110.171191
        },
        "ad_info": {
            "adcode": 450902,
            "province": "广西壮族自治区",
            "city": "玉林市",
            "district": "玉州区"
        }
    },
    {
        "id": "13564441366674734261",
        "title": "公共厕所",
        "address": "广西壮族自治区玉林市玉州区金港路聚丰渔村",
        "tel": "",
        "category": "基础设施:公共设施:公共厕所",
        "type": 0,
        "location": {
            "lat": 22.617598,
            "lng": 110.178871
        },
        "ad_info": {
            "adcode": 450902,
            "province": "广西壮族自治区",
            "city": "玉林市",
            "district": "玉州区"
        }
    },
    {
        "id": "666655563867946230",
        "title": "公共厕所",
        "address": "广西壮族自治区玉林市玉州区樱花大道与紫薇大道交叉口东北方向284米左右",
        "tel": "",
        "category": "基础设施:公共设施:公共厕所",
        "type": 0,
        "location": {
            "lat": 22.643003,
            "lng": 110.294469
        },
        "ad_info": {
            "adcode": 450902,
            "province": "广西壮族自治区",
            "city": "玉林市",
            "district": "玉州区"
        }
    },
    {
        "id": "3752876400604181528",
        "title": "公共厕所",
        "address": "广西壮族自治区玉林市玉州区人民东路与纵三路交叉口东南方向71米左右",
        "tel": "",
        "category": "基础设施:公共设施:公共厕所",
        "type": 0,
        "location": {
            "lat": 22.651054,
            "lng": 110.200325
        },
        "ad_info": {
            "adcode": 450902,
            "province": "广西壮族自治区",
            "city": "玉林市",
            "district": "玉州区"
        }
    },
    {
        "id": "5760181720328882690",
        "title": "公共厕所",
        "address": "广西壮族自治区玉林市北流市永安路与河东路交叉口东北方向24米左右",
        "tel": "",
        "category": "基础设施:公共设施:公共厕所",
        "type": 0,
        "location": {
            "lat": 22.707781,
            "lng": 110.355411
        },
        "ad_info": {
            "adcode": 450981,
            "province": "广西壮族自治区",
            "city": "玉林市",
            "district": "北流市"
        }
    },
    {
        "id": "17799622002783341106",
        "title": "公共厕所",
        "address": "广西壮族自治区玉林市玉州区玉北大道辅路与茂林路交叉口正西方向391米左右",
        "tel": "",
        "category": "基础设施:公共设施:公共厕所",
        "type": 0,
        "location": {
            "lat": 22.664767,
            "lng": 110.234839
        },
        "ad_info": {
            "adcode": 450902,
            "province": "广西壮族自治区",
            "city": "玉林市",
            "district": "玉州区"
        }
    },
    {
        "id": "13020122990990624741",
        "title": "公共厕所",
        "address": "广西壮族自治区玉林市玉州区玉兴大道与玉石公路交叉口正西方向368米左右",
        "tel": "",
        "category": "基础设施:公共设施:公共厕所",
        "type": 0,
        "location": {
            "lat": 22.646917,
            "lng": 110.099105
        },
        "ad_info": {
            "adcode": 450902,
            "province": "广西壮族自治区",
            "city": "玉林市",
            "district": "玉州区"
        }
    },
    {
        "id": "14163524253638351355",
        "title": "公共厕所",
        "address": "广西壮族自治区玉林市玉州区曾屋巷与玉州路交叉口东北方向78米左右",
        "tel": "",
        "category": "基础设施:公共设施:公共厕所",
        "type": 0,
        "location": {
            "lat": 22.62385,
            "lng": 110.155225
        },
        "ad_info": {
            "adcode": 450902,
            "province": "广西壮族自治区",
            "city": "玉林市",
            "district": "玉州区"
        }
    },
    {
        "id": "14459954896494776261",
        "title": "公共厕所",
        "address": "广西壮族自治区玉林市兴业县G324与X418交叉口正西方向1124米左右",
        "tel": "",
        "category": "基础设施:公共设施:公共厕所",
        "type": 0,
        "location": {
            "lat": 22.720913,
            "lng": 109.825042
        },
        "ad_info": {
            "adcode": 450924,
            "province": "广西壮族自治区",
            "city": "玉林市",
            "district": "兴业县"
        }
    },
    {
        "id": "6303779650431047725",
        "title": "公共厕所",
        "address": "广西壮族自治区玉林市玉州区吉泉路中国石油(侨建加油站)",
        "tel": "",
        "category": "基础设施:公共设施:公共厕所",
        "type": 0,
        "location": {
            "lat": 22.652953,
            "lng": 110.176013
        },
        "ad_info": {
            "adcode": 450902,
            "province": "广西壮族自治区",
            "city": "玉林市",
            "district": "玉州区"
        }
    },
    {
        "id": "15074907869308835628",
        "title": "公共厕所",
        "address": "广西壮族自治区玉林市玉州区大南路与广新路交叉口正南方向187米左右",
        "tel": "",
        "category": "基础设施:公共设施:公共厕所",
        "type": 0,
        "location": {
            "lat": 22.602065,
            "lng": 110.145162
        },
        "ad_info": {
            "adcode": 450902,
            "province": "广西壮族自治区",
            "city": "玉林市",
            "district": "玉州区"
        }
    },
    {
        "id": "7579247911203996281",
        "title": "公共厕所",
        "address": "广西壮族自治区玉林市兴业县站前路兴业站",
        "tel": "",
        "category": "基础设施:公共设施:公共厕所",
        "type": 0,
        "location": {
            "lat": 22.737515,
            "lng": 109.90679
        },
        "ad_info": {
            "adcode": 450924,
            "province": "广西壮族自治区",
            "city": "玉林市",
            "district": "兴业县"
        }
    },
    {
        "id": "16311023356985485463",
        "title": "公共厕所",
        "address": "广西壮族自治区玉林市北流市X432与书房背路交叉口东南方向63米左右",
        "tel": "",
        "category": "基础设施:公共设施:公共厕所",
        "type": 0,
        "location": {
            "lat": 22.592792,
            "lng": 110.272502
        },
        "ad_info": {
            "adcode": 450981,
            "province": "广西壮族自治区",
            "city": "玉林市",
            "district": "北流市"
        }
    },
    {
        "id": "7125769985227523970",
        "title": "公共厕所",
        "address": "广西壮族自治区玉林市玉州区一环北路中国石化(玉林第十六加油站)",
        "tel": "",
        "category": "基础设施:公共设施:公共厕所",
        "type": 0,
        "location": {
            "lat": 22.625702,
            "lng": 110.132119
        },
        "ad_info": {
            "adcode": 450902,
            "province": "广西壮族自治区",
            "city": "玉林市",
            "district": "玉州区"
        }
    },
    {
        "id": "3058170600417493829",
        "title": "公共厕所",
        "address": "广西壮族自治区玉林市北流市二环北路与百花路交叉口正北方向309米左右",
        "tel": "",
        "category": "基础设施:公共设施:公共厕所",
        "type": 0,
        "location": {
            "lat": 22.711022,
            "lng": 110.337045
        },
        "ad_info": {
            "adcode": 450981,
            "province": "广西壮族自治区",
            "city": "玉林市",
            "district": "北流市"
        }
    },
    {
        "id": "13137066494541857047",
        "title": "公共厕所",
        "address": "广西壮族自治区玉林市玉州区教育中路与清淳路交叉口西北方向55米左右",
        "tel": "",
        "category": "基础设施:公共设施:公共厕所",
        "type": 0,
        "location": {
            "lat": 22.628601,
            "lng": 110.14707
        },
        "ad_info": {
            "adcode": 450902,
            "province": "广西壮族自治区",
            "city": "玉林市",
            "district": "玉州区"
        }
    },
    {
        "id": "5152820812608186941",
        "title": "公共厕所",
        "address": "广西壮族自治区玉林市容县双拥路与育才路交叉口正北方向228米左右",
        "tel": "",
        "category": "基础设施:公共设施:公共厕所",
        "type": 0,
        "location": {
            "lat": 22.861566,
            "lng": 110.556884
        },
        "ad_info": {
            "adcode": 450921,
            "province": "广西壮族自治区",
            "city": "玉林市",
            "district": "容县"
        }
    },
    {
        "id": "17824634592523226994",
        "title": "公共厕所",
        "address": "广西壮族自治区玉林市玉州区二环南路辅路与天桥西路交叉口东北方向137米左右",
        "tel": "",
        "category": "基础设施:公共设施:公共厕所",
        "type": 0,
        "location": {
            "lat": 22.591854,
            "lng": 110.16262
        },
        "ad_info": {
            "adcode": 450902,
            "province": "广西壮族自治区",
            "city": "玉林市",
            "district": "玉州区"
        }
    },
    {
        "id": "18646246933553314",
        "title": "公共厕所",
        "address": "广西壮族自治区玉林市玉州区东宁牙科东侧90米",
        "tel": "",
        "category": "基础设施:公共设施:公共厕所",
        "type": 0,
        "location": {
            "lat": 22.665113,
            "lng": 110.244665
        },
        "ad_info": {
            "adcode": 450902,
            "province": "广西壮族自治区",
            "city": "玉林市",
            "district": "玉州区"
        }
    },
    {
        "id": "9362062430713389857",
        "title": "公共厕所",
        "address": "广西壮族自治区玉林市博白县东华南路鑫陇加油站",
        "tel": "",
        "category": "基础设施:公共设施:公共厕所",
        "type": 0,
        "location": {
            "lat": 21.734198,
            "lng": 109.750715
        },
        "ad_info": {
            "adcode": 450923,
            "province": "广西壮族自治区",
            "city": "玉林市",
            "district": "博白县"
        }
    },
    {
        "id": "5862472371354814824",
        "title": "公共厕所",
        "address": "广西壮族自治区玉林市玉州区棠旺路与江滨路交叉口正西方向242米左右",
        "tel": "",
        "category": "基础设施:公共设施:公共厕所",
        "type": 0,
        "location": {
            "lat": 22.623448,
            "lng": 110.199682
        },
        "ad_info": {
            "adcode": 450902,
            "province": "广西壮族自治区",
            "city": "玉林市",
            "district": "玉州区"
        }
    },
    {
        "id": "5206246859361304009",
        "title": "公共厕所",
        "address": "广西壮族自治区玉林市北流市工业大道与高速路引道交叉口东南方向48米左右",
        "tel": "",
        "category": "基础设施:公共设施:公共厕所",
        "type": 0,
        "location": {
            "lat": 22.772896,
            "lng": 110.324642
        },
        "ad_info": {
            "adcode": 450981,
            "province": "广西壮族自治区",
            "city": "玉林市",
            "district": "北流市"
        }
    },
    {
        "id": "4313932927165290705",
        "title": "公共厕所",
        "address": "广西壮族自治区玉林市兴业县石南镇葵山村葵山",
        "tel": "",
        "category": "基础设施:公共设施:公共厕所",
        "type": 0,
        "location": {
            "lat": 22.772302,
            "lng": 109.82529
        },
        "ad_info": {
            "adcode": 450924,
            "province": "广西壮族自治区",
            "city": "玉林市",
            "district": "兴业县"
        }
    },
    {
        "id": "7887958034294219931",
        "title": "公共厕所",
        "address": "广西壮族自治区玉林市陆川县园林路13号",
        "tel": "",
        "category": "基础设施:公共设施:公共厕所",
        "type": 0,
        "location": {
            "lat": 22.322442,
            "lng": 110.265587
        },
        "ad_info": {
            "adcode": 450922,
            "province": "广西壮族自治区",
            "city": "玉林市",
            "district": "陆川县"
        }
    },
    {
        "id": "3504168323020171574",
        "title": "公共厕所",
        "address": "广西壮族自治区玉林市兴业县石南镇卫生院东侧260米",
        "tel": "",
        "category": "基础设施:公共设施:公共厕所",
        "type": 0,
        "location": {
            "lat": 22.741645,
            "lng": 109.858468
        },
        "ad_info": {
            "adcode": 450924,
            "province": "广西壮族自治区",
            "city": "玉林市",
            "district": "兴业县"
        }
    },
    {
        "id": "9880457852770235735",
        "title": "公共厕所",
        "address": "广西壮族自治区玉林市陆川县东滨中路九洲江带状公园(南侧)",
        "tel": "",
        "category": "基础设施:公共设施:公共厕所",
        "type": 0,
        "location": {
            "lat": 22.315279,
            "lng": 110.263895
        },
        "ad_info": {
            "adcode": 450922,
            "province": "广西壮族自治区",
            "city": "玉林市",
            "district": "陆川县"
        }
    },
    {
        "id": "16427772923875808600",
        "title": "公共厕所",
        "address": "广西壮族自治区玉林市容县中环西路与站前大道交叉口西北方向682米左右",
        "tel": "",
        "category": "基础设施:公共设施:公共厕所",
        "type": 0,
        "location": {
            "lat": 22.859002,
            "lng": 110.532712
        },
        "ad_info": {
            "adcode": 450921,
            "province": "广西壮族自治区",
            "city": "玉林市",
            "district": "容县"
        }
    },
    {
        "id": "16998830946261634999",
        "title": "公共厕所",
        "address": "广西壮族自治区玉林市容县北门街与金珠街大井巷交叉口东南方向19米左右",
        "tel": "",
        "category": "基础设施:公共设施:公共厕所",
        "type": 0,
        "location": {
            "lat": 22.85768,
            "lng": 110.55581
        },
        "ad_info": {
            "adcode": 450921,
            "province": "广西壮族自治区",
            "city": "玉林市",
            "district": "容县"
        }
    },
    {
        "id": "13949542968938081188",
        "title": "公共厕所",
        "address": "广西壮族自治区玉林市博白县人民中路与南州南路交叉口正北方向76米左右",
        "tel": "",
        "category": "基础设施:公共设施:公共厕所",
        "type": 0,
        "location": {
            "lat": 22.262008,
            "lng": 109.981648
        },
        "ad_info": {
            "adcode": 450923,
            "province": "广西壮族自治区",
            "city": "玉林市",
            "district": "博白县"
        }
    },
    {
        "id": "13806558017153951818",
        "title": "公共厕所",
        "address": "广西壮族自治区玉林市兴业县212省道西50米",
        "tel": "",
        "category": "基础设施:公共设施:公共厕所",
        "type": 0,
        "location": {
            "lat": 22.808312,
            "lng": 110.072315
        },
        "ad_info": {
            "adcode": 450924,
            "province": "广西壮族自治区",
            "city": "玉林市",
            "district": "兴业县"
        }
    },
    {
        "id": "10037072240253708617",
        "title": "公共厕所",
        "address": "广西壮族自治区玉林市玉州区Y024与树棉大道交叉口东北方向1222米左右",
        "tel": "",
        "category": "基础设施:公共设施:公共厕所",
        "type": 0,
        "location": {
            "lat": 22.648613,
            "lng": 110.273692
        },
        "ad_info": {
            "adcode": 450902,
            "province": "广西壮族自治区",
            "city": "玉林市",
            "district": "玉州区"
        }
    },
    {
        "id": "5367385380171615094",
        "title": "公共厕所",
        "address": "广西壮族自治区玉林市北流市兴安街与兴松街交叉口正东方向156米左右",
        "tel": "",
        "category": "基础设施:公共设施:公共厕所",
        "type": 0,
        "location": {
            "lat": 22.750277,
            "lng": 110.422595
        },
        "ad_info": {
            "adcode": 450981,
            "province": "广西壮族自治区",
            "city": "玉林市",
            "district": "北流市"
        }
    },
    {
        "id": "4226268883352925871",
        "title": "公共厕所",
        "address": "广西壮族自治区玉林市北流市北流海螺水泥有限责任公司南侧100米",
        "tel": "",
        "category": "基础设施:公共设施:公共厕所",
        "type": 0,
        "location": {
            "lat": 22.764199,
            "lng": 110.427725
        },
        "ad_info": {
            "adcode": 450981,
            "province": "广西壮族自治区",
            "city": "玉林市",
            "district": "北流市"
        }
    },
    {
        "id": "12150482872381879341",
        "title": "公共厕所",
        "address": "广西壮族自治区玉林市北流市玉容一级公路与马玉线交叉口西南方向1361米左右",
        "tel": "",
        "category": "基础设施:公共设施:公共厕所",
        "type": 0,
        "location": {
            "lat": 22.768073,
            "lng": 110.441656
        },
        "ad_info": {
            "adcode": 450981,
            "province": "广西壮族自治区",
            "city": "玉林市",
            "district": "北流市"
        }
    },
    {
        "id": "17174272985071659868",
        "title": "公共厕所",
        "address": "广西壮族自治区玉林市玉州区清淳路与白石桥路交叉口东北方向76米左右",
        "tel": "",
        "category": "基础设施:公共设施:公共厕所",
        "type": 0,
        "location": {
            "lat": 22.633189,
            "lng": 110.142841
        },
        "ad_info": {
            "adcode": 450902,
            "province": "广西壮族自治区",
            "city": "玉林市",
            "district": "玉州区"
        }
    },
    {
        "id": "14372313424839463940",
        "title": "公共厕所",
        "address": "广西壮族自治区玉林市兴业县莲花瀑布西侧280米",
        "tel": "",
        "category": "基础设施:公共设施:公共厕所",
        "type": 0,
        "location": {
            "lat": 22.870319,
            "lng": 110.205638
        },
        "ad_info": {
            "adcode": 450924,
            "province": "广西壮族自治区",
            "city": "玉林市",
            "district": "兴业县"
        }
    },
    {
        "id": "14085430466472404211",
        "title": "公共厕所",
        "address": "广西壮族自治区玉林市容县浪水镇泗利村卫生室东侧80米",
        "tel": "",
        "category": "基础设施:公共设施:公共厕所",
        "type": 0,
        "location": {
            "lat": 23.018291,
            "lng": 110.690292
        },
        "ad_info": {
            "adcode": 450921,
            "province": "广西壮族自治区",
            "city": "玉林市",
            "district": "容县"
        }
    },
    {
        "id": "14652567392762523526",
        "title": "公共厕所",
        "address": "广西壮族自治区玉林市福绵区Y257与玉福路交叉口东北方向658米左右",
        "tel": "",
        "category": "基础设施:公共设施:公共厕所",
        "type": 0,
        "location": {
            "lat": 22.597318,
            "lng": 110.076766
        },
        "ad_info": {
            "adcode": 450903,
            "province": "广西壮族自治区",
            "city": "玉林市",
            "district": "福绵区"
        }
    },
    {
        "id": "11979047450704140055",
        "title": "公共厕所",
        "address": "广西壮族自治区玉林市玉州区北门巷与教育中路交叉口正东方向133米左右",
        "tel": "",
        "category": "基础设施:公共设施:公共厕所",
        "type": 0,
        "location": {
            "lat": 22.630336,
            "lng": 110.15308
        },
        "ad_info": {
            "adcode": 450902,
            "province": "广西壮族自治区",
            "city": "玉林市",
            "district": "玉州区"
        }
    },
    {
        "id": "7491482721149866448",
        "title": "公共厕所",
        "address": "广西壮族自治区玉林市兴业县S206与X369交叉口正南方向673米左右",
        "tel": "",
        "category": "基础设施:公共设施:公共厕所",
        "type": 0,
        "location": {
            "lat": 22.930725,
            "lng": 110.075137
        },
        "ad_info": {
            "adcode": 450924,
            "province": "广西壮族自治区",
            "city": "玉林市",
            "district": "兴业县"
        }
    },
    {
        "id": "5629311091135781701",
        "title": "公共厕所",
        "address": "广西壮族自治区玉林市北流市城南一路二里与荔丰路交叉口正东方向86米左右",
        "tel": "",
        "category": "基础设施:公共设施:公共厕所",
        "type": 0,
        "location": {
            "lat": 22.700937,
            "lng": 110.348837
        },
        "ad_info": {
            "adcode": 450981,
            "province": "广西壮族自治区",
            "city": "玉林市",
            "district": "北流市"
        }
    },
    {
        "id": "10854574363914851145",
        "title": "公共厕所",
        "address": "广西壮族自治区玉林市容县全容高速与全容高速出口交叉口西240米",
        "tel": "",
        "category": "基础设施:公共设施:公共厕所",
        "type": 0,
        "location": {
            "lat": 22.897358,
            "lng": 110.517588
        },
        "ad_info": {
            "adcode": 450921,
            "province": "广西壮族自治区",
            "city": "玉林市",
            "district": "容县"
        }
    },
    {
        "id": "12572783044196649374",
        "title": "公共厕所",
        "address": "广西壮族自治区玉林市陆川县兴达一巷与陆兴北路交叉口正北方向73米左右",
        "tel": "",
        "category": "基础设施:公共设施:公共厕所",
        "type": 0,
        "location": {
            "lat": 22.336671,
            "lng": 110.269547
        },
        "ad_info": {
            "adcode": 450922,
            "province": "广西壮族自治区",
            "city": "玉林市",
            "district": "陆川县"
        }
    },
    {
        "id": "4693425750915304339",
        "title": "公共厕所",
        "address": "广西壮族自治区玉林市玉州区玉城供销大厦(教育西路店)",
        "tel": "",
        "category": "基础设施:公共设施:公共厕所",
        "type": 0,
        "location": {
            "lat": 22.626801,
            "lng": 110.144385
        },
        "ad_info": {
            "adcode": 450902,
            "province": "广西壮族自治区",
            "city": "玉林市",
            "district": "玉州区"
        }
    },
    {
        "id": "6084394594137896042",
        "title": "公共厕所",
        "address": "广西壮族自治区玉林市陆川县东环路与温泉北路交叉口正南方向156米左右",
        "tel": "",
        "category": "基础设施:公共设施:公共厕所",
        "type": 0,
        "location": {
            "lat": 22.348624,
            "lng": 110.269455
        },
        "ad_info": {
            "adcode": 450922,
            "province": "广西壮族自治区",
            "city": "玉林市",
            "district": "陆川县"
        }
    },
    {
        "id": "13986947992250650033",
        "title": "公共厕所",
        "address": "广西壮族自治区玉林市玉州区清宁路与美林街交叉口正南方向111米左右",
        "tel": "",
        "category": "基础设施:公共设施:公共厕所",
        "type": 0,
        "location": {
            "lat": 22.62919,
            "lng": 110.147101
        },
        "ad_info": {
            "adcode": 450902,
            "province": "广西壮族自治区",
            "city": "玉林市",
            "district": "玉州区"
        }
    },
    {
        "id": "6737669997148804022",
        "title": "公共厕所",
        "address": "广西壮族自治区玉林市玉州区一环东路与一环北路交叉口东南方向89米左右",
        "tel": "",
        "category": "基础设施:公共设施:公共厕所",
        "type": 0,
        "location": {
            "lat": 22.645868,
            "lng": 110.169305
        },
        "ad_info": {
            "adcode": 450902,
            "province": "广西壮族自治区",
            "city": "玉林市",
            "district": "玉州区"
        }
    },
    {
        "id": "9026935341776362499",
        "title": "公共厕所",
        "address": "广西壮族自治区玉林市博白县马村垌小学教学点附近飞风岭登山入口处",
        "tel": "",
        "category": "基础设施:公共设施:公共厕所",
        "type": 0,
        "location": {
            "lat": 22.277851,
            "lng": 109.958988
        },
        "ad_info": {
            "adcode": 450923,
            "province": "广西壮族自治区",
            "city": "玉林市",
            "district": "博白县"
        }
    },
    {
        "id": "5848760433782949061",
        "title": "公共厕所",
        "address": "广西壮族自治区玉林市容县城西路500号",
        "tel": "",
        "category": "基础设施:公共设施:公共厕所",
        "type": 0,
        "location": {
            "lat": 22.851152,
            "lng": 110.542081
        },
        "ad_info": {
            "adcode": 450921,
            "province": "广西壮族自治区",
            "city": "玉林市",
            "district": "容县"
        }
    },
    {
        "id": "8312871761887734841",
        "title": "公共厕所",
        "address": "广西壮族自治区玉林市博白县水英东路与G59呼北高速出口交叉口西120米",
        "tel": "",
        "category": "基础设施:公共设施:公共厕所",
        "type": 0,
        "location": {
            "lat": 22.113864,
            "lng": 109.910053
        },
        "ad_info": {
            "adcode": 450923,
            "province": "广西壮族自治区",
            "city": "玉林市",
            "district": "博白县"
        }
    },
    {
        "id": "3640420224145312287",
        "title": "公共厕所",
        "address": "广西壮族自治区玉林市北流市陵宁路26-2号",
        "tel": "",
        "category": "基础设施:公共设施:公共厕所",
        "type": 0,
        "location": {
            "lat": 22.706692,
            "lng": 110.352232
        },
        "ad_info": {
            "adcode": 450981,
            "province": "广西壮族自治区",
            "city": "玉林市",
            "district": "北流市"
        }
    },
    {
        "id": "13575261189468605069",
        "title": "江南公园公共厕所",
        "address": "广西壮族自治区玉林市玉州区会展路江南公园(西南角)",
        "tel": "",
        "category": "基础设施:公共设施:公共厕所",
        "type": 0,
        "location": {
            "lat": 22.619121,
            "lng": 110.165135
        },
        "ad_info": {
            "adcode": 450902,
            "province": "广西壮族自治区",
            "city": "玉林市",
            "district": "玉州区"
        }
    },
    {
        "id": "13701224077333309332",
        "title": "公共厕所",
        "address": "广西壮族自治区玉林市容县中环中路与横石街交叉口东北方向181米左右",
        "tel": "",
        "category": "基础设施:公共设施:公共厕所",
        "type": 0,
        "location": {
            "lat": 22.865875,
            "lng": 110.54778
        },
        "ad_info": {
            "adcode": 450921,
            "province": "广西壮族自治区",
            "city": "玉林市",
            "district": "容县"
        }
    },
    {
        "id": "9517223324531395886",
        "title": "公共厕所",
        "address": "广西壮族自治区玉林市北流市园林路与莲石路交叉口正南方向52米左右",
        "tel": "",
        "category": "基础设施:公共设施:公共厕所",
        "type": 0,
        "location": {
            "lat": 22.693504,
            "lng": 110.349337
        },
        "ad_info": {
            "adcode": 450981,
            "province": "广西壮族自治区",
            "city": "玉林市",
            "district": "北流市"
        }
    },
    {
        "id": "682203587828942538",
        "title": "公共厕所",
        "address": "广西壮族自治区玉林市玉州区和平路与解放路交叉口正东方向79米左右",
        "tel": "",
        "category": "基础设施:公共设施:公共厕所",
        "type": 0,
        "location": {
            "lat": 22.626777,
            "lng": 110.153888
        },
        "ad_info": {
            "adcode": 450902,
            "province": "广西壮族自治区",
            "city": "玉林市",
            "district": "玉州区"
        }
    },
    {
        "id": "9498513113114686321",
        "title": "广丰公园公共厕所",
        "address": "广西壮族自治区玉林市北流市广丰路广丰公园(北侧)",
        "tel": "",
        "category": "基础设施:公共设施:公共厕所",
        "type": 0,
        "location": {
            "lat": 22.697898,
            "lng": 110.343269
        },
        "ad_info": {
            "adcode": 450981,
            "province": "广西壮族自治区",
            "city": "玉林市",
            "district": "北流市"
        }
    },
    {
        "id": "3557215393158687776",
        "title": "肯德基玉林东门餐厅-洗手间",
        "address": "广西壮族自治区玉林市玉州区人民中路六路口东门商业广场B幢1-2层",
        "tel": "",
        "category": "基础设施:公共设施:公共厕所",
        "type": 0,
        "location": {
            "lat": 22.629076,
            "lng": 110.153892
        },
        "ad_info": {
            "adcode": 450902,
            "province": "广西壮族自治区",
            "city": "玉林市",
            "district": "玉州区"
        }
    },
    {
        "id": "11629995766954197563",
        "title": "江南公园公共厕所",
        "address": "广西壮族自治区玉林市玉州区双利路与民主南路交叉口正西方向65米左右",
        "tel": "",
        "category": "基础设施:公共设施:公共厕所",
        "type": 0,
        "location": {
            "lat": 22.621064,
            "lng": 110.168157
        },
        "ad_info": {
            "adcode": 450902,
            "province": "广西壮族自治区",
            "city": "玉林市",
            "district": "玉州区"
        }
    },
    {
        "id": "3642640492004781788",
        "title": "公共厕所",
        "address": "广西壮族自治区玉林市玉州区亨通街与泉源街交叉口正南方向56米左右",
        "tel": "",
        "category": "基础设施:公共设施:公共厕所",
        "type": 0,
        "location": {
            "lat": 22.617634,
            "lng": 110.137012
        },
        "ad_info": {
            "adcode": 450902,
            "province": "广西壮族自治区",
            "city": "玉林市",
            "district": "玉州区"
        }
    },
    {
        "id": "254402993638168059",
        "title": "公共厕所",
        "address": "广西壮族自治区玉林市北流市城南一路与新松路交叉口西南方向95米左右",
        "tel": "",
        "category": "基础设施:公共设施:公共厕所",
        "type": 0,
        "location": {
            "lat": 22.703184,
            "lng": 110.348161
        },
        "ad_info": {
            "adcode": 450981,
            "province": "广西壮族自治区",
            "city": "玉林市",
            "district": "北流市"
        }
    },
    {
        "id": "15982040239399090502",
        "title": "公共厕所",
        "address": "广西壮族自治区玉林市福绵区天河路与沿江路交叉口西北方向680米左右",
        "tel": "",
        "category": "基础设施:公共设施:公共厕所",
        "type": 0,
        "location": {
            "lat": 22.582171,
            "lng": 110.02533
        },
        "ad_info": {
            "adcode": 450903,
            "province": "广西壮族自治区",
            "city": "玉林市",
            "district": "福绵区"
        }
    },
    {
        "id": "2408373516016196406",
        "title": "公共厕所",
        "address": "广西壮族自治区玉林市博白县亚山镇第二初级中学西北侧250米",
        "tel": "",
        "category": "基础设施:公共设施:公共厕所",
        "type": 0,
        "location": {
            "lat": 22.188961,
            "lng": 109.945025
        },
        "ad_info": {
            "adcode": 450923,
            "province": "广西壮族自治区",
            "city": "玉林市",
            "district": "博白县"
        }
    },
    {
        "id": "13916884830720729392",
        "title": "旅游公共厕所",
        "address": "广西壮族自治区玉林市北流市城北二路44号",
        "tel": "",
        "category": "基础设施:公共设施:公共厕所",
        "type": 0,
        "location": {
            "lat": 22.721066,
            "lng": 110.341424
        },
        "ad_info": {
            "adcode": 450981,
            "province": "广西壮族自治区",
            "city": "玉林市",
            "district": "北流市"
        }
    },
    {
        "id": "5022075023545851443",
        "title": "公共厕所",
        "address": "广西壮族自治区玉林市陆川县三峰中路与西滨中路交叉口正南方向87米左右",
        "tel": "",
        "category": "基础设施:公共设施:公共厕所",
        "type": 0,
        "location": {
            "lat": 22.30896,
            "lng": 110.26309
        },
        "ad_info": {
            "adcode": 450922,
            "province": "广西壮族自治区",
            "city": "玉林市",
            "district": "陆川县"
        }
    },
    {
        "id": "8015356573639430064",
        "title": "公共厕所",
        "address": "广西壮族自治区玉林市陆川县世纪花园南街与东滨南路交叉口西北方向12米左右",
        "tel": "",
        "category": "基础设施:公共设施:公共厕所",
        "type": 0,
        "location": {
            "lat": 22.299791,
            "lng": 110.262418
        },
        "ad_info": {
            "adcode": 450922,
            "province": "广西壮族自治区",
            "city": "玉林市",
            "district": "陆川县"
        }
    },
    {
        "id": "14884480472636853587",
        "title": "公共厕所",
        "address": "广西壮族自治区玉林市博白县人民南路与安民路交叉口正北方向73米左右",
        "tel": "",
        "category": "基础设施:公共设施:公共厕所",
        "type": 0,
        "location": {
            "lat": 22.234155,
            "lng": 109.974068
        },
        "ad_info": {
            "adcode": 450923,
            "province": "广西壮族自治区",
            "city": "玉林市",
            "district": "博白县"
        }
    },
    {
        "id": "1326582713879963047",
        "title": "公共厕所",
        "address": "广西壮族自治区玉林市陆川县九洲江与温泉大道交叉口东北方向116米左右",
        "tel": "",
        "category": "基础设施:公共设施:公共厕所",
        "type": 0,
        "location": {
            "lat": 22.295365,
            "lng": 110.256298
        },
        "ad_info": {
            "adcode": 450922,
            "province": "广西壮族自治区",
            "city": "玉林市",
            "district": "陆川县"
        }
    },
    {
        "id": "11479328978710583473",
        "title": "公共厕所",
        "address": "广西壮族自治区玉林市陆川县文昌路与陆兴南路交叉口正南方向52米左右",
        "tel": "",
        "category": "基础设施:公共设施:公共厕所",
        "type": 0,
        "location": {
            "lat": 22.307032,
            "lng": 110.257878
        },
        "ad_info": {
            "adcode": 450922,
            "province": "广西壮族自治区",
            "city": "玉林市",
            "district": "陆川县"
        }
    },
    {
        "id": "11576245602116890004",
        "title": "公共厕所",
        "address": "广西壮族自治区玉林市容县南大街与城南街交叉口正东方向180米左右",
        "tel": "",
        "category": "基础设施:公共设施:公共厕所",
        "type": 0,
        "location": {
            "lat": 22.855128,
            "lng": 110.560057
        },
        "ad_info": {
            "adcode": 450921,
            "province": "广西壮族自治区",
            "city": "玉林市",
            "district": "容县"
        }
    },
    {
        "id": "17260902781481486269",
        "title": "公共厕所",
        "address": "广西壮族自治区玉林市玉州区东井巷与人民东路交叉口西北方向34米左右",
        "tel": "",
        "category": "基础设施:公共设施:公共厕所",
        "type": 0,
        "location": {
            "lat": 22.634021,
            "lng": 110.158557
        },
        "ad_info": {
            "adcode": 450902,
            "province": "广西壮族自治区",
            "city": "玉林市",
            "district": "玉州区"
        }
    },
    {
        "id": "1328112460638568037",
        "title": "公共厕所",
        "address": "广西壮族自治区玉林市玉州区中山路与城站路交叉口正南方向183米左右",
        "tel": "",
        "category": "基础设施:公共设施:公共厕所",
        "type": 0,
        "location": {
            "lat": 22.605189,
            "lng": 110.15784
        },
        "ad_info": {
            "adcode": 450902,
            "province": "广西壮族自治区",
            "city": "玉林市",
            "district": "玉州区"
        }
    },
    {
        "id": "3338505171179276098",
        "title": "容州古城公共厕所",
        "address": "广西壮族自治区玉林市容县沿江北街(城东路)容州古城广场",
        "tel": "",
        "category": "基础设施:公共设施:公共厕所",
        "type": 0,
        "location": {
            "lat": 22.85488,
            "lng": 110.559966
        },
        "ad_info": {
            "adcode": 450921,
            "province": "广西壮族自治区",
            "city": "玉林市",
            "district": "容县"
        }
    },
    {
        "id": "9207832210490176208",
        "title": "中国石化北流第七加油站公共厕所",
        "address": "广西壮族自治区玉林市北流市G324与甘贵路交叉口正西方向188米左右",
        "tel": "",
        "category": "基础设施:公共设施:公共厕所",
        "type": 0,
        "location": {
            "lat": 22.690345,
            "lng": 110.304145
        },
        "ad_info": {
            "adcode": 450981,
            "province": "广西壮族自治区",
            "city": "玉林市",
            "district": "北流市"
        }
    },
    {
        "id": "12853197980515025172",
        "title": "公共厕所",
        "address": "广西壮族自治区玉林市玉州区护龙路北辰派出所对面",
        "tel": "",
        "category": "基础设施:公共设施:公共厕所",
        "type": 0,
        "location": {
            "lat": 22.630834,
            "lng": 110.143756
        },
        "ad_info": {
            "adcode": 450902,
            "province": "广西壮族自治区",
            "city": "玉林市",
            "district": "玉州区"
        }
    },
    {
        "id": "8402884734054444011",
        "title": "公共厕所",
        "address": "广西壮族自治区玉林市玉州区平江路与江岸路交叉口东南方向20米左右",
        "tel": "",
        "category": "基础设施:公共设施:公共厕所",
        "type": 0,
        "location": {
            "lat": 22.644413,
            "lng": 110.146787
        },
        "ad_info": {
            "adcode": 450902,
            "province": "广西壮族自治区",
            "city": "玉林市",
            "district": "玉州区"
        }
    },
    {
        "id": "11171836347105320392",
        "title": "公共厕所",
        "address": "广西壮族自治区玉林市玉州区一环北路与沂山路交叉口东北方向90米左右",
        "tel": "",
        "category": "基础设施:公共设施:公共厕所",
        "type": 0,
        "location": {
            "lat": 22.64109,
            "lng": 110.145477
        },
        "ad_info": {
            "adcode": 450902,
            "province": "广西壮族自治区",
            "city": "玉林市",
            "district": "玉州区"
        }
    },
    {
        "id": "7941125482523489949",
        "title": "工会爱心驿站(文体路公共厕所)",
        "address": "广西壮族自治区玉林市玉州区文体北路与玉东大道交叉口西160米",
        "tel": "",
        "category": "基础设施:公共设施:公共厕所",
        "type": 0,
        "location": {
            "lat": 22.663027,
            "lng": 110.192319
        },
        "ad_info": {
            "adcode": 450902,
            "province": "广西壮族自治区",
            "city": "玉林市",
            "district": "玉州区"
        }
    },
    {
        "id": "5329679172775388009",
        "title": "玉林服务区公共厕所",
        "address": "广西壮族自治区玉林市兴业县S206与X419交叉口东北方向656米左右",
        "tel": "",
        "category": "基础设施:公共设施:公共厕所",
        "type": 0,
        "location": {
            "lat": 22.770667,
            "lng": 110.089154
        },
        "ad_info": {
            "adcode": 450924,
            "province": "广西壮族自治区",
            "city": "玉林市",
            "district": "兴业县"
        }
    },
    {
        "id": "5335172046261382381",
        "title": "公共厕所",
        "address": "广西壮族自治区玉林市博白县人民北路与兴隆东路交叉口西北方向75米左右",
        "tel": "",
        "category": "基础设施:公共设施:公共厕所",
        "type": 0,
        "location": {
            "lat": 22.271914,
            "lng": 109.983223
        },
        "ad_info": {
            "adcode": 450923,
            "province": "广西壮族自治区",
            "city": "玉林市",
            "district": "博白县"
        }
    },
    {
        "id": "10826742196300663208",
        "title": "公共厕所",
        "address": "广西壮族自治区玉林市博白县文兴巷与文化路交叉口正东方向27米左右",
        "tel": "",
        "category": "基础设施:公共设施:公共厕所",
        "type": 0,
        "location": {
            "lat": 22.273947,
            "lng": 109.980563
        },
        "ad_info": {
            "adcode": 450923,
            "province": "广西壮族自治区",
            "city": "玉林市",
            "district": "博白县"
        }
    },
    {
        "id": "11261300476609143219",
        "title": "玉林服务区第二公共厕所",
        "address": "广西壮族自治区玉林市兴业县玉林服务区与G80广昆高速交叉口东南150米",
        "tel": "",
        "category": "基础设施:公共设施:公共厕所",
        "type": 0,
        "location": {
            "lat": 22.770571,
            "lng": 110.08973
        },
        "ad_info": {
            "adcode": 450924,
            "province": "广西壮族自治区",
            "city": "玉林市",
            "district": "兴业县"
        }
    },
    {
        "id": "2415721630465127941",
        "title": "容县服务区公共厕所",
        "address": "广西壮族自治区玉林市容县容县服务区与G80广昆高速交叉口东300米",
        "tel": "",
        "category": "基础设施:公共设施:公共厕所",
        "type": 0,
        "location": {
            "lat": 22.891519,
            "lng": 110.593029
        },
        "ad_info": {
            "adcode": 450921,
            "province": "广西壮族自治区",
            "city": "玉林市",
            "district": "容县"
        }
    },
    {
        "id": "2969465145498559181",
        "title": "玉林国际购物中心洗车间",
        "address": "广西壮族自治区玉林市玉州区北门巷与教育中路交叉口东南方向137米左右",
        "tel": "",
        "category": "基础设施:公共设施:公共厕所",
        "type": 0,
        "location": {
            "lat": 22.630137,
            "lng": 110.153036
        },
        "ad_info": {
            "adcode": 450902,
            "province": "广西壮族自治区",
            "city": "玉林市",
            "district": "玉州区"
        }
    },
    {
        "id": "10419362394725482970",
        "title": "博白服务区公共厕所",
        "address": "广西壮族自治区玉林市博白县博白枢纽与呼北高速交叉口西南方向1887米左右",
        "tel": "",
        "category": "基础设施:公共设施:公共厕所",
        "type": 0,
        "location": {
            "lat": 22.152454,
            "lng": 109.962019
        },
        "ad_info": {
            "adcode": 450923,
            "province": "广西壮族自治区",
            "city": "玉林市",
            "district": "博白县"
        }
    },
    {
        "id": "11772497411890741168",
        "title": "玉林南服务区公共厕所",
        "address": "广西壮族自治区玉林市陆川县民主南路与玉林绕城高速交叉口东北方向1852米左右",
        "tel": "",
        "category": "基础设施:公共设施:公共厕所",
        "type": 0,
        "location": {
            "lat": 22.536215,
            "lng": 110.23313
        },
        "ad_info": {
            "adcode": 450922,
            "province": "广西壮族自治区",
            "city": "玉林市",
            "district": "陆川县"
        }
    },
    {
        "id": "376137027171788340",
        "title": "博白服务区第二公共厕所",
        "address": "广西壮族自治区玉林市博白县博白枢纽与呼北高速交叉口西南方向1760米左右",
        "tel": "",
        "category": "基础设施:公共设施:公共厕所",
        "type": 0,
        "location": {
            "lat": 22.153346,
            "lng": 109.962844
        },
        "ad_info": {
            "adcode": 450923,
            "province": "广西壮族自治区",
            "city": "玉林市",
            "district": "博白县"
        }
    },
    {
        "id": "8819386487583040936",
        "title": "容县服务区第二公共厕所",
        "address": "广西壮族自治区玉林市容县岑兴高速附近",
        "tel": "",
        "category": "基础设施:公共设施:公共厕所",
        "type": 0,
        "location": {
            "lat": 22.893331,
            "lng": 110.59322
        },
        "ad_info": {
            "adcode": 450921,
            "province": "广西壮族自治区",
            "city": "玉林市",
            "district": "容县"
        }
    },
    {
        "id": "15010739555020029223",
        "title": "博白服务区公共厕所",
        "address": "广西壮族自治区玉林市博白县博白枢纽与呼北高速交叉口西南方向1820米左右",
        "tel": "",
        "category": "基础设施:公共设施:公共厕所",
        "type": 0,
        "location": {
            "lat": 22.153791,
            "lng": 109.960893
        },
        "ad_info": {
            "adcode": 450923,
            "province": "广西壮族自治区",
            "city": "玉林市",
            "district": "博白县"
        }
    },
    {
        "id": "814429887138315748",
        "title": "博白县七彩生态园公共厕所",
        "address": "广西壮族自治区玉林市博白县三滩镇守育村和平田七彩生态园",
        "tel": "",
        "category": "基础设施:公共设施:公共厕所",
        "type": 0,
        "location": {
            "lat": 22.220373,
            "lng": 110.009235
        },
        "ad_info": {
            "adcode": 450923,
            "province": "广西壮族自治区",
            "city": "玉林市",
            "district": "博白县"
        }
    },
    {
        "id": "17488883923593200990",
        "title": "珊罗龙珠第二加油站公共厕所",
        "address": "广西壮族自治区玉林市陆川县G241与X432交叉口正西方向203米左右",
        "tel": "",
        "category": "基础设施:公共设施:公共厕所",
        "type": 0,
        "location": {
            "lat": 22.562485,
            "lng": 110.222141
        },
        "ad_info": {
            "adcode": 450922,
            "province": "广西壮族自治区",
            "city": "玉林市",
            "district": "陆川县"
        }
    },
    {
        "id": "909601603535526475",
        "title": "松旺服务区公共厕所",
        "address": "广西壮族自治区玉林市博白县呼北高速与松旺南枢纽交叉口正南方向1478米左右",
        "tel": "",
        "category": "基础设施:公共设施:公共厕所",
        "type": 0,
        "location": {
            "lat": 21.854751,
            "lng": 109.754948
        },
        "ad_info": {
            "adcode": 450923,
            "province": "广西壮族自治区",
            "city": "玉林市",
            "district": "博白县"
        }
    },
    {
        "id": "15660629705471665240",
        "title": "公共厕所",
        "address": "广西壮族自治区玉林市陆川县新村路与石桥街交叉口西南方向79米左右",
        "tel": "",
        "category": "基础设施:公共设施:公共厕所",
        "type": 0,
        "location": {
            "lat": 22.319023,
            "lng": 110.260908
        },
        "ad_info": {
            "adcode": 450922,
            "province": "广西壮族自治区",
            "city": "玉林市",
            "district": "陆川县"
        }
    },
    {
        "id": "8488865137092301565",
        "title": "公共厕所",
        "address": "广西壮族自治区玉林市陆川县庆丰巷与文昌桥交叉口西南方向26米左右",
        "tel": "",
        "category": "基础设施:公共设施:公共厕所",
        "type": 0,
        "location": {
            "lat": 22.306392,
            "lng": 110.261091
        },
        "ad_info": {
            "adcode": 450922,
            "province": "广西壮族自治区",
            "city": "玉林市",
            "district": "陆川县"
        }
    },
    {
        "id": "17668084449585625408",
        "title": "公共厕所",
        "address": "广西壮族自治区玉林市玉州区江岸路与清宁路交叉口东北方向69米左右",
        "tel": "",
        "category": "基础设施:公共设施:公共厕所",
        "type": 0,
        "location": {
            "lat": 22.637709,
            "lng": 110.14017
        },
        "ad_info": {
            "adcode": 450902,
            "province": "广西壮族自治区",
            "city": "玉林市",
            "district": "玉州区"
        }
    },
    {
        "id": "14254841606812908386",
        "title": "公共厕所",
        "address": "广西壮族自治区玉林市玉州区东井巷与教育中路交叉口正北方向226米左右",
        "tel": "",
        "category": "基础设施:公共设施:公共厕所",
        "type": 0,
        "location": {
            "lat": 22.640441,
            "lng": 110.160568
        },
        "ad_info": {
            "adcode": 450902,
            "province": "广西壮族自治区",
            "city": "玉林市",
            "district": "玉州区"
        }
    },
    {
        "id": "12775979486319453535",
        "title": "卫生间",
        "address": "广西壮族自治区玉林市容县S203与X453交叉口西南方向925米左右",
        "tel": "",
        "category": "基础设施:公共设施:公共厕所",
        "type": 0,
        "location": {
            "lat": 23.054463,
            "lng": 110.643995
        },
        "ad_info": {
            "adcode": 450921,
            "province": "广西壮族自治区",
            "city": "玉林市",
            "district": "容县"
        }
    },
    {
        "id": "3849804411207297269",
        "title": "公共厕所",
        "address": "广西壮族自治区玉林市陆川县西滨北路与长安三街交叉口正西方向41米左右",
        "tel": "",
        "category": "基础设施:公共设施:公共厕所",
        "type": 0,
        "location": {
            "lat": 22.326994,
            "lng": 110.269897
        },
        "ad_info": {
            "adcode": 450922,
            "province": "广西壮族自治区",
            "city": "玉林市",
            "district": "陆川县"
        }
    },
    {
        "id": "9218238210846422816",
        "title": "公共厕所",
        "address": "广西壮族自治区玉林市博白县北街与水英东路交叉口正北方向87米左右",
        "tel": "",
        "category": "基础设施:公共设施:公共厕所",
        "type": 0,
        "location": {
            "lat": 22.116368,
            "lng": 109.910153
        },
        "ad_info": {
            "adcode": 450923,
            "province": "广西壮族自治区",
            "city": "玉林市",
            "district": "博白县"
        }
    },
    {
        "id": "12899836811001669003",
        "title": "公共厕所",
        "address": "广西壮族自治区玉林市容县城北路281号",
        "tel": "",
        "category": "基础设施:公共设施:公共厕所",
        "type": 0,
        "location": {
            "lat": 22.863906,
            "lng": 110.546037
        },
        "ad_info": {
            "adcode": 450921,
            "province": "广西壮族自治区",
            "city": "玉林市",
            "district": "容县"
        }
    },
    {
        "id": "9091771045862694989",
        "title": "公共厕所",
        "address": "广西壮族自治区玉林市博白县G241与X406交叉口西南方向294米左右",
        "tel": "",
        "category": "基础设施:公共设施:公共厕所",
        "type": 0,
        "location": {
            "lat": 22.303847,
            "lng": 110.001596
        },
        "ad_info": {
            "adcode": 450923,
            "province": "广西壮族自治区",
            "city": "玉林市",
            "district": "博白县"
        }
    },
    {
        "id": "11424434327247079237",
        "title": "公共厕所",
        "address": "广西壮族自治区玉林市容县天堂湖温泉山庄",
        "tel": "",
        "category": "基础设施:公共设施:公共厕所",
        "type": 0,
        "location": {
            "lat": 22.563426,
            "lng": 110.726498
        },
        "ad_info": {
            "adcode": 450921,
            "province": "广西壮族自治区",
            "city": "玉林市",
            "district": "容县"
        }
    },
    {
        "id": "18231184699336491173",
        "title": "公共厕所",
        "address": "广西壮族自治区玉林市陆川县老手牙科东北侧140米",
        "tel": "",
        "category": "基础设施:公共设施:公共厕所",
        "type": 0,
        "location": {
            "lat": 22.16524,
            "lng": 110.234964
        },
        "ad_info": {
            "adcode": 450922,
            "province": "广西壮族自治区",
            "city": "玉林市",
            "district": "陆川县"
        }
    },
    {
        "id": "12664000758826950473",
        "title": "公共厕所",
        "address": "广西壮族自治区玉林市玉州区城站路218号",
        "tel": "",
        "category": "基础设施:公共设施:公共厕所",
        "type": 0,
        "location": {
            "lat": 22.598949,
            "lng": 110.157538
        },
        "ad_info": {
            "adcode": 450902,
            "province": "广西壮族自治区",
            "city": "玉林市",
            "district": "玉州区"
        }
    },
    {
        "id": "10597092973330295166",
        "title": "公共厕所",
        "address": "广西壮族自治区玉林市玉州区一环西路与解放路交叉口西北方向109米左右",
        "tel": "",
        "category": "基础设施:公共设施:公共厕所",
        "type": 0,
        "location": {
            "lat": 22.615068,
            "lng": 110.139595
        },
        "ad_info": {
            "adcode": 450902,
            "province": "广西壮族自治区",
            "city": "玉林市",
            "district": "玉州区"
        }
    },
    {
        "id": "8509095674791991247",
        "title": "玉林南服务区公共厕所",
        "address": "广西壮族自治区玉林市陆川县玉林南服务区与S1701玉林绕城高速交叉口西南500米",
        "tel": "",
        "category": "基础设施:公共设施:公共厕所",
        "type": 0,
        "location": {
            "lat": 22.533793,
            "lng": 110.232649
        },
        "ad_info": {
            "adcode": 450922,
            "province": "广西壮族自治区",
            "city": "玉林市",
            "district": "陆川县"
        }
    },
    {
        "id": "8388935266880047733",
        "title": "公共厕所(GX-YL-0393)",
        "address": "广西壮族自治区玉林市北流市二环北路与城北一路交叉口西北方向296米左右",
        "tel": "",
        "category": "基础设施:公共设施:公共厕所",
        "type": 0,
        "location": {
            "lat": 22.721052,
            "lng": 110.34147
        },
        "ad_info": {
            "adcode": 450981,
            "province": "广西壮族自治区",
            "city": "玉林市",
            "district": "北流市"
        }
    },
    {
        "id": "4292293194161983302",
        "title": "公共厕所(GX-YL-0522)",
        "address": "广西壮族自治区玉林市博白县路桥集团-南湛高速公路南宁至博白那卜段标段2-2分部东南侧200米",
        "tel": "",
        "category": "基础设施:公共设施:公共厕所",
        "type": 0,
        "location": {
            "lat": 21.95828,
            "lng": 109.596664
        },
        "ad_info": {
            "adcode": 450923,
            "province": "广西壮族自治区",
            "city": "玉林市",
            "district": "博白县"
        }
    },
    {
        "id": "3103160045731788757",
        "title": "公共厕所",
        "address": "广西壮族自治区玉林市容县雅秀峡景区东北50米",
        "tel": "",
        "category": "基础设施:公共设施:公共厕所",
        "type": 0,
        "location": {
            "lat": 22.969659,
            "lng": 110.413409
        },
        "ad_info": {
            "adcode": 450921,
            "province": "广西壮族自治区",
            "city": "玉林市",
            "district": "容县"
        }
    },
    {
        "id": "5313711212284642687",
        "title": "洗手间",
        "address": "广西壮族自治区玉林市博白县呼北高速与松旺南枢纽交叉口正南方向1376米左右",
        "tel": "",
        "category": "基础设施:公共设施:公共厕所",
        "type": 0,
        "location": {
            "lat": 21.855965,
            "lng": 109.754155
        },
        "ad_info": {
            "adcode": 450923,
            "province": "广西壮族自治区",
            "city": "玉林市",
            "district": "博白县"
        }
    },
    {
        "id": "4712004474514481458",
        "title": "公共厕所",
        "address": "广西壮族自治区玉林市玉州区二环北路1185号",
        "tel": "",
        "category": "基础设施:公共设施:公共厕所",
        "type": 0,
        "location": {
            "lat": 22.653862,
            "lng": 110.137472
        },
        "ad_info": {
            "adcode": 450902,
            "province": "广西壮族自治区",
            "city": "玉林市",
            "district": "玉州区"
        }
    },
    {
        "id": "3791557841795006886",
        "title": "山心停车区公共厕所",
        "address": "广西壮族自治区玉林市兴业县山心镇鸣水广昆高速公路山心停车区",
        "tel": "",
        "category": "基础设施:公共设施:公共厕所",
        "type": 0,
        "location": {
            "lat": 22.811706,
            "lng": 109.905508
        },
        "ad_info": {
            "adcode": 450924,
            "province": "广西壮族自治区",
            "city": "玉林市",
            "district": "兴业县"
        }
    },
    {
        "id": "12415582215585156578",
        "title": "山心停车区公共厕所",
        "address": "广西壮族自治区玉林市兴业县山心停车区东50米",
        "tel": "",
        "category": "基础设施:公共设施:公共厕所",
        "type": 0,
        "location": {
            "lat": 22.812674,
            "lng": 109.906781
        },
        "ad_info": {
            "adcode": 450924,
            "province": "广西壮族自治区",
            "city": "玉林市",
            "district": "兴业县"
        }
    },
    {
        "id": "15760088922749160197",
        "title": "公共厕所",
        "address": "广西壮族自治区玉林市北流市二环北路与城北一路交叉口正西方向245米左右",
        "tel": "",
        "category": "基础设施:公共设施:公共厕所",
        "type": 0,
        "location": {
            "lat": 22.719142,
            "lng": 110.340514
        },
        "ad_info": {
            "adcode": 450981,
            "province": "广西壮族自治区",
            "city": "玉林市",
            "district": "北流市"
        }
    },
    {
        "id": "470409020939646162",
        "title": "文地服务区公共厕所",
        "address": "广西壮族自治区玉林市博白县S79玉湛高速与文地服务区交叉口北300米",
        "tel": "",
        "category": "基础设施:公共设施:公共厕所",
        "type": 0,
        "location": {
            "lat": 21.949547,
            "lng": 110.157568
        },
        "ad_info": {
            "adcode": 450923,
            "province": "广西壮族自治区",
            "city": "玉林市",
            "district": "博白县"
        }
    },
    {
        "id": "3255211432878333613",
        "title": "公共厕所",
        "address": "广西壮族自治区玉林市北流市新世纪豪园南侧250米",
        "tel": "",
        "category": "基础设施:公共设施:公共厕所",
        "type": 0,
        "location": {
            "lat": 22.67003,
            "lng": 110.348996
        },
        "ad_info": {
            "adcode": 450981,
            "province": "广西壮族自治区",
            "city": "玉林市",
            "district": "北流市"
        }
    },
    {
        "id": "6275464149430403156",
        "title": "公共厕所",
        "address": "广西壮族自治区玉林市玉州区疾病预防控制中心北侧140米",
        "tel": "",
        "category": "基础设施:公共设施:公共厕所",
        "type": 0,
        "location": {
            "lat": 22.659587,
            "lng": 110.172315
        },
        "ad_info": {
            "adcode": 450902,
            "province": "广西壮族自治区",
            "city": "玉林市",
            "district": "玉州区"
        }
    },
    {
        "id": "12898455375826212994",
        "title": "公共厕所",
        "address": "广西壮族自治区玉林市北流市城北一路与西河中路交叉口正西方向218米左右",
        "tel": "",
        "category": "基础设施:公共设施:公共厕所",
        "type": 0,
        "location": {
            "lat": 22.706712,
            "lng": 110.345924
        },
        "ad_info": {
            "adcode": 450981,
            "province": "广西壮族自治区",
            "city": "玉林市",
            "district": "北流市"
        }
    },
    {
        "id": "1681970441316630395",
        "title": "公共厕所",
        "address": "广西壮族自治区玉林市博白县双凤镇圣女公司",
        "tel": "",
        "category": "基础设施:公共设施:公共厕所",
        "type": 0,
        "location": {
            "lat": 22.396924,
            "lng": 109.877448
        },
        "ad_info": {
            "adcode": 450923,
            "province": "广西壮族自治区",
            "city": "玉林市",
            "district": "博白县"
        }
    },
    {
        "id": "9553828680635781253",
        "title": "公共厕所",
        "address": "广西壮族自治区玉林市北流市西河南路0005号",
        "tel": "",
        "category": "基础设施:公共设施:公共厕所",
        "type": 0,
        "location": {
            "lat": 22.702195,
            "lng": 110.338376
        },
        "ad_info": {
            "adcode": 450981,
            "province": "广西壮族自治区",
            "city": "玉林市",
            "district": "北流市"
        }
    },
    {
        "id": "18397566401896164929",
        "title": "公共厕所",
        "address": "广西壮族自治区玉林市福绵区十丈村同心广场东北侧",
        "tel": "",
        "category": "基础设施:公共设施:公共厕所",
        "type": 0,
        "location": {
            "lat": 22.607283,
            "lng": 110.005023
        },
        "ad_info": {
            "adcode": 450903,
            "province": "广西壮族自治区",
            "city": "玉林市",
            "district": "福绵区"
        }
    },
    {
        "id": "10200486298421922666",
        "title": "陆川服务区公共厕所",
        "address": "广西壮族自治区玉林市陆川县陆川服务区与S79玉湛高速交叉口西北500米",
        "tel": "",
        "category": "基础设施:公共设施:公共厕所",
        "type": 0,
        "location": {
            "lat": 22.39264,
            "lng": 110.242423
        },
        "ad_info": {
            "adcode": 450922,
            "province": "广西壮族自治区",
            "city": "玉林市",
            "district": "陆川县"
        }
    },
    {
        "id": "14209396728888339960",
        "title": "公共厕所(GX-YL-0176)",
        "address": "广西壮族自治区玉林市容县城南大道与绣江大桥交叉口正东方向45米左右",
        "tel": "",
        "category": "基础设施:公共设施:公共厕所",
        "type": 0,
        "location": {
            "lat": 22.849019,
            "lng": 110.551694
        },
        "ad_info": {
            "adcode": 450921,
            "province": "广西壮族自治区",
            "city": "玉林市",
            "district": "容县"
        }
    },
    {
        "id": "5971014576522820616",
        "title": "公共厕所",
        "address": "广西壮族自治区玉林市玉州区城站路与站前路交叉口西北方向119米左右",
        "tel": "",
        "category": "基础设施:公共设施:公共厕所",
        "type": 0,
        "location": {
            "lat": 22.599191,
            "lng": 110.15741
        },
        "ad_info": {
            "adcode": 450902,
            "province": "广西壮族自治区",
            "city": "玉林市",
            "district": "玉州区"
        }
    },
    {
        "id": "16404749001944955412",
        "title": "公共厕所",
        "address": "广西壮族自治区玉林市容县北大街与燕塘街交叉口西南方向54米左右",
        "tel": "",
        "category": "基础设施:公共设施:公共厕所",
        "type": 0,
        "location": {
            "lat": 22.859401,
            "lng": 110.554448
        },
        "ad_info": {
            "adcode": 450921,
            "province": "广西壮族自治区",
            "city": "玉林市",
            "district": "容县"
        }
    },
    {
        "id": "15659532953053162298",
        "title": "公共厕所",
        "address": "广西壮族自治区玉林市北流市S205与Y209交叉口西北方向374米左右",
        "tel": "",
        "category": "基础设施:公共设施:公共厕所",
        "type": 0,
        "location": {
            "lat": 22.638446,
            "lng": 110.388948
        },
        "ad_info": {
            "adcode": 450981,
            "province": "广西壮族自治区",
            "city": "玉林市",
            "district": "北流市"
        }
    },
    {
        "id": "14764867985506223520",
        "title": "公共厕所",
        "address": "广西壮族自治区玉林市兴业县G324与兴业大道交叉口正北方向467米左右",
        "tel": "",
        "category": "基础设施:公共设施:公共厕所",
        "type": 0,
        "location": {
            "lat": 22.738593,
            "lng": 109.864259
        },
        "ad_info": {
            "adcode": 450924,
            "province": "广西壮族自治区",
            "city": "玉林市",
            "district": "兴业县"
        }
    },
    {
        "id": "16426759976366994634",
        "title": "公共厕所",
        "address": "广西壮族自治区玉林市北流市沿江北路与一环南路四区交叉口东南140米",
        "tel": "",
        "category": "基础设施:公共设施:公共厕所",
        "type": 0,
        "location": {
            "lat": 22.701556,
            "lng": 110.360396
        },
        "ad_info": {
            "adcode": 450981,
            "province": "广西壮族自治区",
            "city": "玉林市",
            "district": "北流市"
        }
    },
    {
        "id": "12970225951771976876",
        "title": "公共厕所",
        "address": "广西壮族自治区玉林市博白县兴隆西路与教育路交叉口正西方向33米左右",
        "tel": "",
        "category": "基础设施:公共设施:公共厕所",
        "type": 0,
        "location": {
            "lat": 22.272212,
            "lng": 109.977498
        },
        "ad_info": {
            "adcode": 450923,
            "province": "广西壮族自治区",
            "city": "玉林市",
            "district": "博白县"
        }
    },
    {
        "id": "15952924441489992927",
        "title": "泽丰庄园-公共厕所",
        "address": "广西壮族自治区玉林市容县泽丰山庄西南侧140米",
        "tel": "",
        "category": "基础设施:公共设施:公共厕所",
        "type": 0,
        "location": {
            "lat": 22.839127,
            "lng": 110.597273
        },
        "ad_info": {
            "adcode": 450921,
            "province": "广西壮族自治区",
            "city": "玉林市",
            "district": "容县"
        }
    },
    {
        "id": "12944941354990950603",
        "title": "北流停车区公共厕所",
        "address": "广西壮族自治区玉林市北流市S205与莲东路交叉口正北方向885米左右",
        "tel": "",
        "category": "基础设施:公共设施:公共厕所",
        "type": 0,
        "location": {
            "lat": 22.799786,
            "lng": 110.343133
        },
        "ad_info": {
            "adcode": 450981,
            "province": "广西壮族自治区",
            "city": "玉林市",
            "district": "北流市"
        }
    },
    {
        "id": "9874277638942360501",
        "title": "公共厕所",
        "address": "广西壮族自治区玉林市容县城西路与新城街交叉口西北方向269米左右",
        "tel": "",
        "category": "基础设施:公共设施:公共厕所",
        "type": 0,
        "location": {
            "lat": 22.850987,
            "lng": 110.539266
        },
        "ad_info": {
            "adcode": 450921,
            "province": "广西壮族自治区",
            "city": "玉林市",
            "district": "容县"
        }
    },
    {
        "id": "1638814500478495926",
        "title": "亚山服务区公共厕所",
        "address": "广西壮族自治区玉林市博白县Y014与兴隆路交叉口正北方向1038米左右",
        "tel": "",
        "category": "基础设施:公共设施:公共厕所",
        "type": 0,
        "location": {
            "lat": 22.186138,
            "lng": 109.932478
        },
        "ad_info": {
            "adcode": 450923,
            "province": "广西壮族自治区",
            "city": "玉林市",
            "district": "博白县"
        }
    },
    {
        "id": "5952449240573021608",
        "title": "公共厕所",
        "address": "广西壮族自治区玉林市北流市S205与Y209交叉口西北方向418米左右",
        "tel": "",
        "category": "基础设施:公共设施:公共厕所",
        "type": 0,
        "location": {
            "lat": 22.638757,
            "lng": 110.388653
        },
        "ad_info": {
            "adcode": 450981,
            "province": "广西壮族自治区",
            "city": "玉林市",
            "district": "北流市"
        }
    },
    {
        "id": "10667080649516646454",
        "title": "公共厕所",
        "address": "广西壮族自治区玉林市福绵区天河路与沿江路交叉口西北方向358米左右",
        "tel": "",
        "category": "基础设施:公共设施:公共厕所",
        "type": 0,
        "location": {
            "lat": 22.58062,
            "lng": 110.028175
        },
        "ad_info": {
            "adcode": 450903,
            "province": "广西壮族自治区",
            "city": "玉林市",
            "district": "福绵区"
        }
    },
    {
        "id": "12404084385270904062",
        "title": "龙安服务区公共厕所",
        "address": "广西壮族自治区玉林市兴业县龙安服务区西侧",
        "tel": "",
        "category": "基础设施:公共设施:公共厕所",
        "type": 0,
        "location": {
            "lat": 22.730647,
            "lng": 109.995037
        },
        "ad_info": {
            "adcode": 450924,
            "province": "广西壮族自治区",
            "city": "玉林市",
            "district": "兴业县"
        }
    },
    {
        "id": "6430189022731123573",
        "title": "文地服务区公共厕所",
        "address": "广西壮族自治区玉林市博白县S79玉湛高速与文地服务区交叉口南300米",
        "tel": "",
        "category": "基础设施:公共设施:公共厕所",
        "type": 0,
        "location": {
            "lat": 21.950567,
            "lng": 110.159513
        },
        "ad_info": {
            "adcode": 450923,
            "province": "广西壮族自治区",
            "city": "玉林市",
            "district": "博白县"
        }
    },
    {
        "id": "5436057152151943644",
        "title": "公共厕所",
        "address": "广西壮族自治区玉林市容县下沙东街与中环西路交叉口正北方向63米左右",
        "tel": "",
        "category": "基础设施:公共设施:公共厕所",
        "type": 0,
        "location": {
            "lat": 22.845051,
            "lng": 110.5322
        },
        "ad_info": {
            "adcode": 450921,
            "province": "广西壮族自治区",
            "city": "玉林市",
            "district": "容县"
        }
    },
    {
        "id": "8394815513340782589",
        "title": "松旺服务区公共厕所",
        "address": "广西壮族自治区玉林市博白县呼北高速与松旺南枢纽交叉口正南方向1411米左右",
        "tel": "",
        "category": "基础设施:公共设施:公共厕所",
        "type": 0,
        "location": {
            "lat": 21.855589,
            "lng": 109.753941
        },
        "ad_info": {
            "adcode": 450923,
            "province": "广西壮族自治区",
            "city": "玉林市",
            "district": "博白县"
        }
    },
    {
        "id": "15687644273654095968",
        "title": "柴行巷公共厕所",
        "address": "广西壮族自治区玉林市玉州区内环南路与内环西路交叉口西北方向85米左右",
        "tel": "",
        "category": "基础设施:公共设施:公共厕所",
        "type": 0,
        "location": {
            "lat": 22.625456,
            "lng": 110.149722
        },
        "ad_info": {
            "adcode": 450902,
            "province": "广西壮族自治区",
            "city": "玉林市",
            "district": "玉州区"
        }
    },
    {
        "id": "12319946355023204032",
        "title": "小平山镇集贸厕所",
        "address": "广西壮族自治区玉林市兴业县黄皮垌诊所南侧",
        "tel": "",
        "category": "基础设施:公共设施:公共厕所",
        "type": 0,
        "location": {
            "lat": 22.818097,
            "lng": 110.076362
        },
        "ad_info": {
            "adcode": 450924,
            "province": "广西壮族自治区",
            "city": "玉林市",
            "district": "兴业县"
        }
    },
    {
        "id": "16200115458726082257",
        "title": "洗手间",
        "address": "广西壮族自治区玉林市容县G241与X378交叉口正北方向77米左右",
        "tel": "",
        "category": "基础设施:公共设施:公共厕所",
        "type": 0,
        "location": {
            "lat": 22.981533,
            "lng": 110.462409
        },
        "ad_info": {
            "adcode": 450921,
            "province": "广西壮族自治区",
            "city": "玉林市",
            "district": "容县"
        }
    },
    {
        "id": "5135236288547875069",
        "title": "公共卫生间",
        "address": "广西壮族自治区玉林市北流市大兴路与桂塘路交叉口西北方向67米左右",
        "tel": "",
        "category": "基础设施:公共设施:公共厕所",
        "type": 0,
        "location": {
            "lat": 22.701008,
            "lng": 110.358825
        },
        "ad_info": {
            "adcode": 450981,
            "province": "广西壮族自治区",
            "city": "玉林市",
            "district": "北流市"
        }
    },
    {
        "id": "13126567126144326260",
        "title": "公共厕所",
        "address": "广西壮族自治区玉林市北流市沿江北路1号",
        "tel": "",
        "category": "基础设施:公共设施:公共厕所",
        "type": 0,
        "location": {
            "lat": 22.707764,
            "lng": 110.355703
        },
        "ad_info": {
            "adcode": 450981,
            "province": "广西壮族自治区",
            "city": "玉林市",
            "district": "北流市"
        }
    },
    {
        "id": "13050867090583517999",
        "title": "龙安服务区公共厕所",
        "address": "广西壮族自治区玉林市兴业县S1701玉林绕城高速与龙安服务区交叉口东南200米",
        "tel": "",
        "category": "基础设施:公共设施:公共厕所",
        "type": 0,
        "location": {
            "lat": 22.733467,
            "lng": 109.999069
        },
        "ad_info": {
            "adcode": 450924,
            "province": "广西壮族自治区",
            "city": "玉林市",
            "district": "兴业县"
        }
    },
    {
        "id": "7650217047912878211",
        "title": "公共厕所",
        "address": "广西壮族自治区玉林市玉州区城站路与站前路交叉口西北方向87米左右",
        "tel": "",
        "category": "基础设施:公共设施:公共厕所",
        "type": 0,
        "location": {
            "lat": 22.599113,
            "lng": 110.157728
        },
        "ad_info": {
            "adcode": 450902,
            "province": "广西壮族自治区",
            "city": "玉林市",
            "district": "玉州区"
        }
    },
    {
        "id": "18065507609738732359",
        "title": "清湾服务区公共厕所",
        "address": "广西壮族自治区玉林市北流市S50清凭高速与清湾服务区交叉口西320米",
        "tel": "",
        "category": "基础设施:公共设施:公共厕所",
        "type": 0,
        "location": {
            "lat": 22.204651,
            "lng": 110.609709
        },
        "ad_info": {
            "adcode": 450981,
            "province": "广西壮族自治区",
            "city": "玉林市",
            "district": "北流市"
        }
    },
    {
        "id": "4605882509950625326",
        "title": "公共厕所",
        "address": "广西壮族自治区玉林市玉州区万良路与城站路交叉口正东方向194米左右",
        "tel": "",
        "category": "基础设施:公共设施:公共厕所",
        "type": 0,
        "location": {
            "lat": 22.609687,
            "lng": 110.15923
        },
        "ad_info": {
            "adcode": 450902,
            "province": "广西壮族自治区",
            "city": "玉林市",
            "district": "玉州区"
        }
    },
    {
        "id": "8377483152136747109",
        "title": "公共厕所",
        "address": "广西壮族自治区玉林市兴业县S209与兴德路交叉口西南方向355米左右",
        "tel": "",
        "category": "基础设施:公共设施:公共厕所",
        "type": 0,
        "location": {
            "lat": 22.600996,
            "lng": 109.741244
        },
        "ad_info": {
            "adcode": 450924,
            "province": "广西壮族自治区",
            "city": "玉林市",
            "district": "兴业县"
        }
    },
    {
        "id": "10606072825161546933",
        "title": "公共场所",
        "address": "广西壮族自治区玉林市北流市沿江北路与一环南路四区交叉口东南120米",
        "tel": "",
        "category": "基础设施:公共设施:公共厕所",
        "type": 0,
        "location": {
            "lat": 22.70159,
            "lng": 110.360415
        },
        "ad_info": {
            "adcode": 450981,
            "province": "广西壮族自治区",
            "city": "玉林市",
            "district": "北流市"
        }
    },
    {
        "id": "15059211082486917792",
        "title": "公共厕所",
        "address": "广西壮族自治区玉林市玉州区新瑞街与江滨路交叉口东北方向151米左右",
        "tel": "",
        "category": "基础设施:公共设施:公共厕所",
        "type": 0,
        "location": {
            "lat": 22.621144,
            "lng": 110.15376
        },
        "ad_info": {
            "adcode": 450902,
            "province": "广西壮族自治区",
            "city": "玉林市",
            "district": "玉州区"
        }
    },
    {
        "id": "16131768209667023641",
        "title": "公共厕所",
        "address": "广西壮族自治区玉林市博白县沙陂镇老虎头生态园",
        "tel": "",
        "category": "基础设施:公共设施:公共厕所",
        "type": 0,
        "location": {
            "lat": 21.81054,
            "lng": 109.886455
        },
        "ad_info": {
            "adcode": 450923,
            "province": "广西壮族自治区",
            "city": "玉林市",
            "district": "博白县"
        }
    },
    {
        "id": "1793057984069688510",
        "title": "洗手间",
        "address": "广西壮族自治区玉林市容县城西路与新城街交叉口西北方向227米左右",
        "tel": "",
        "category": "基础设施:公共设施:公共厕所",
        "type": 0,
        "location": {
            "lat": 22.85095,
            "lng": 110.539732
        },
        "ad_info": {
            "adcode": 450921,
            "province": "广西壮族自治区",
            "city": "玉林市",
            "district": "容县"
        }
    },
    {
        "id": "10645699143234679707",
        "title": "公共厕所",
        "address": "广西壮族自治区玉林市陆川县向阳路南一东巷与莲花一路交叉口正东方向72米左右",
        "tel": "",
        "category": "基础设施:公共设施:公共厕所",
        "type": 0,
        "location": {
            "lat": 22.330332,
            "lng": 110.276625
        },
        "ad_info": {
            "adcode": 450922,
            "province": "广西壮族自治区",
            "city": "玉林市",
            "district": "陆川县"
        }
    },
    {
        "id": "18400680489472705181",
        "title": "公共厕所",
        "address": "广西壮族自治区玉林市博白县广恒路城南公园",
        "tel": "",
        "category": "基础设施:公共设施:公共厕所",
        "type": 0,
        "location": {
            "lat": 22.245985,
            "lng": 109.984563
        },
        "ad_info": {
            "adcode": 450923,
            "province": "广西壮族自治区",
            "city": "玉林市",
            "district": "博白县"
        }
    },
    {
        "id": "16057202778507925936",
        "title": "公共厕所",
        "address": "广西壮族自治区玉林市博白县东圩街与东城北街交叉口正东方向45米左右",
        "tel": "",
        "category": "基础设施:公共设施:公共厕所",
        "type": 0,
        "location": {
            "lat": 22.273897,
            "lng": 109.983828
        },
        "ad_info": {
            "adcode": 450923,
            "province": "广西壮族自治区",
            "city": "玉林市",
            "district": "博白县"
        }
    },
    {
        "id": "9797964118547403996",
        "title": "北流服务区公共厕所",
        "address": "广西壮族自治区玉林市北流市S50清凭高速与清湾服务区交叉口西北300米",
        "tel": "",
        "category": "基础设施:公共设施:公共厕所",
        "type": 0,
        "location": {
            "lat": 22.206451,
            "lng": 110.6106
        },
        "ad_info": {
            "adcode": 450981,
            "province": "广西壮族自治区",
            "city": "玉林市",
            "district": "北流市"
        }
    },
    {
        "id": "17311548901305007004",
        "title": "大南路公共厕所",
        "address": "广西壮族自治区玉林市玉州区大南路与广新路交叉口正南方向249米左右",
        "tel": "",
        "category": "基础设施:公共设施:公共厕所",
        "type": 0,
        "location": {
            "lat": 22.601442,
            "lng": 110.145602
        },
        "ad_info": {
            "adcode": 450902,
            "province": "广西壮族自治区",
            "city": "玉林市",
            "district": "玉州区"
        }
    },
    {
        "id": "17628350301558004594",
        "title": "公共厕所",
        "address": "广西壮族自治区玉林市玉州区人民中路与内环西路交叉口正东方向75米左右",
        "tel": "",
        "category": "基础设施:公共设施:公共厕所",
        "type": 0,
        "location": {
            "lat": 22.626738,
            "lng": 110.150561
        },
        "ad_info": {
            "adcode": 450902,
            "province": "广西壮族自治区",
            "city": "玉林市",
            "district": "玉州区"
        }
    },
    {
        "id": "16075940810867217230",
        "title": "公共厕所(GX-YL-0618)",
        "address": "广西壮族自治区玉林市博白县南湛高速与那卜互通交叉口东南方向1318米左右",
        "tel": "",
        "category": "基础设施:公共设施:公共厕所",
        "type": 0,
        "location": {
            "lat": 21.835922,
            "lng": 109.946954
        },
        "ad_info": {
            "adcode": 450923,
            "province": "广西壮族自治区",
            "city": "玉林市",
            "district": "博白县"
        }
    },
    {
        "id": "6396243475438491703",
        "title": "公共厕所",
        "address": "广西壮族自治区玉林市兴业县供销石化加油站东侧220米",
        "tel": "",
        "category": "基础设施:公共设施:公共厕所",
        "type": 0,
        "location": {
            "lat": 22.768603,
            "lng": 110.086406
        },
        "ad_info": {
            "adcode": 450924,
            "province": "广西壮族自治区",
            "city": "玉林市",
            "district": "兴业县"
        }
    },
    {
        "id": "13032607496659524434",
        "title": "公共厕所",
        "address": "广西壮族自治区玉林市容县容岑一级公路与富林路交叉口东北方向287米左右",
        "tel": "",
        "category": "基础设施:公共设施:公共厕所",
        "type": 0,
        "location": {
            "lat": 22.843179,
            "lng": 110.578864
        },
        "ad_info": {
            "adcode": 450921,
            "province": "广西壮族自治区",
            "city": "玉林市",
            "district": "容县"
        }
    },
    {
        "id": "2756315228938531901",
        "title": "公共厕所",
        "address": "广西壮族自治区玉林市北流市城北一路3号",
        "tel": "",
        "category": "基础设施:公共设施:公共厕所",
        "type": 0,
        "location": {
            "lat": 22.707422,
            "lng": 110.348503
        },
        "ad_info": {
            "adcode": 450981,
            "province": "广西壮族自治区",
            "city": "玉林市",
            "district": "北流市"
        }
    },
    {
        "id": "15061101222219322718",
        "title": "公共厕所",
        "address": "广西壮族自治区玉林市北流市荔丰路荔枝公园(西侧)",
        "tel": "",
        "category": "基础设施:公共设施:公共厕所",
        "type": 0,
        "location": {
            "lat": 22.699731,
            "lng": 110.345937
        },
        "ad_info": {
            "adcode": 450981,
            "province": "广西壮族自治区",
            "city": "玉林市",
            "district": "北流市"
        }
    },
    {
        "id": "17847379536132758530",
        "title": "五灯坡公园公共厕所",
        "address": "广西壮族自治区玉林市玉州区和平路1号",
        "tel": "",
        "category": "基础设施:公共设施:公共厕所",
        "type": 0,
        "location": {
            "lat": 22.625719,
            "lng": 110.153945
        },
        "ad_info": {
            "adcode": 450902,
            "province": "广西壮族自治区",
            "city": "玉林市",
            "district": "玉州区"
        }
    },
    {
        "id": "3554741333546011412",
        "title": "公共厕所",
        "address": "广西壮族自治区玉林市玉州区教育中路与清淳路交叉口东北方向14米左右",
        "tel": "",
        "category": "基础设施:公共设施:公共厕所",
        "type": 0,
        "location": {
            "lat": 22.628341,
            "lng": 110.147486
        },
        "ad_info": {
            "adcode": 450902,
            "province": "广西壮族自治区",
            "city": "玉林市",
            "district": "玉州区"
        }
    },
    {
        "id": "3752598334825798903",
        "title": "公共厕所",
        "address": "广西壮族自治区玉林市玉州区玉至石化加油站东北侧100米",
        "tel": "",
        "category": "基础设施:公共设施:公共厕所",
        "type": 0,
        "location": {
            "lat": 22.647484,
            "lng": 110.099617
        },
        "ad_info": {
            "adcode": 450902,
            "province": "广西壮族自治区",
            "city": "玉林市",
            "district": "玉州区"
        }
    },
    {
        "id": "2453994188704268510",
        "title": "公共厕所",
        "address": "广西壮族自治区玉林市兴业县四季花城西北侧250米",
        "tel": "",
        "category": "基础设施:公共设施:公共厕所",
        "type": 0,
        "location": {
            "lat": 22.744148,
            "lng": 109.862677
        },
        "ad_info": {
            "adcode": 450924,
            "province": "广西壮族自治区",
            "city": "玉林市",
            "district": "兴业县"
        }
    },
    {
        "id": "6885411312823283070",
        "title": "公共厕所",
        "address": "广西壮族自治区玉林市容县侨乡大道与容县峤山路交叉口西北方向301米左右",
        "tel": "",
        "category": "基础设施:公共设施:公共厕所",
        "type": 0,
        "location": {
            "lat": 22.838795,
            "lng": 110.564972
        },
        "ad_info": {
            "adcode": 450921,
            "province": "广西壮族自治区",
            "city": "玉林市",
            "district": "容县"
        }
    },
    {
        "id": "16494281565014557187",
        "title": "公共厕所",
        "address": "广西壮族自治区玉林市兴业县建设路与环西路交叉口西北方向1391米左右",
        "tel": "",
        "category": "基础设施:公共设施:公共厕所",
        "type": 0,
        "location": {
            "lat": 22.746484,
            "lng": 109.860145
        },
        "ad_info": {
            "adcode": 450924,
            "province": "广西壮族自治区",
            "city": "玉林市",
            "district": "兴业县"
        }
    },
    {
        "id": "3796859799749851540",
        "title": "容县服务区公共厕所",
        "address": "广西壮族自治区玉林市容县广昆高速附近",
        "tel": "",
        "category": "基础设施:公共设施:公共厕所",
        "type": 0,
        "location": {
            "lat": 22.892945,
            "lng": 110.594109
        },
        "ad_info": {
            "adcode": 450921,
            "province": "广西壮族自治区",
            "city": "玉林市",
            "district": "容县"
        }
    },
    {
        "id": "10030136423945798434",
        "title": "玉林服务区公共厕所",
        "address": "广西壮族自治区玉林市兴业县S206与X419交叉口东北方向1059米左右",
        "tel": "",
        "category": "基础设施:公共设施:公共厕所",
        "type": 0,
        "location": {
            "lat": 22.772294,
            "lng": 110.093255
        },
        "ad_info": {
            "adcode": 450924,
            "province": "广西壮族自治区",
            "city": "玉林市",
            "district": "兴业县"
        }
    },
    {
        "id": "1793057984069688510",
        "title": "洗手间",
        "address": "广西壮族自治区玉林市容县城西路与新城街交叉口西北方向227米左右",
        "tel": "",
        "category": "基础设施:公共设施:公共厕所",
        "type": 0,
        "location": {
            "lat": 22.85095,
            "lng": 110.539732
        },
        "ad_info": {
            "adcode": 450921,
            "province": "广西壮族自治区",
            "city": "玉林市",
            "district": "容县"
        }
    },
    {
        "id": "10645699143234679707",
        "title": "公共厕所",
        "address": "广西壮族自治区玉林市陆川县向阳路南一东巷与莲花一路交叉口正东方向72米左右",
        "tel": "",
        "category": "基础设施:公共设施:公共厕所",
        "type": 0,
        "location": {
            "lat": 22.330332,
            "lng": 110.276625
        },
        "ad_info": {
            "adcode": 450922,
            "province": "广西壮族自治区",
            "city": "玉林市",
            "district": "陆川县"
        }
    },
    {
        "id": "18400680489472705181",
        "title": "公共厕所",
        "address": "广西壮族自治区玉林市博白县广恒路城南公园",
        "tel": "",
        "category": "基础设施:公共设施:公共厕所",
        "type": 0,
        "location": {
            "lat": 22.245985,
            "lng": 109.984563
        },
        "ad_info": {
            "adcode": 450923,
            "province": "广西壮族自治区",
            "city": "玉林市",
            "district": "博白县"
        }
    },
    {
        "id": "16057202778507925936",
        "title": "公共厕所",
        "address": "广西壮族自治区玉林市博白县东圩街与东城北街交叉口正东方向45米左右",
        "tel": "",
        "category": "基础设施:公共设施:公共厕所",
        "type": 0,
        "location": {
            "lat": 22.273897,
            "lng": 109.983828
        },
        "ad_info": {
            "adcode": 450923,
            "province": "广西壮族自治区",
            "city": "玉林市",
            "district": "博白县"
        }
    },
    {
        "id": "9797964118547403996",
        "title": "北流服务区公共厕所",
        "address": "广西壮族自治区玉林市北流市S50清凭高速与清湾服务区交叉口西北300米",
        "tel": "",
        "category": "基础设施:公共设施:公共厕所",
        "type": 0,
        "location": {
            "lat": 22.206451,
            "lng": 110.6106
        },
        "ad_info": {
            "adcode": 450981,
            "province": "广西壮族自治区",
            "city": "玉林市",
            "district": "北流市"
        }
    },
    {
        "id": "17311548901305007004",
        "title": "大南路公共厕所",
        "address": "广西壮族自治区玉林市玉州区大南路与广新路交叉口正南方向249米左右",
        "tel": "",
        "category": "基础设施:公共设施:公共厕所",
        "type": 0,
        "location": {
            "lat": 22.601442,
            "lng": 110.145602
        },
        "ad_info": {
            "adcode": 450902,
            "province": "广西壮族自治区",
            "city": "玉林市",
            "district": "玉州区"
        }
    },
    {
        "id": "17628350301558004594",
        "title": "公共厕所",
        "address": "广西壮族自治区玉林市玉州区人民中路与内环西路交叉口正东方向75米左右",
        "tel": "",
        "category": "基础设施:公共设施:公共厕所",
        "type": 0,
        "location": {
            "lat": 22.626738,
            "lng": 110.150561
        },
        "ad_info": {
            "adcode": 450902,
            "province": "广西壮族自治区",
            "city": "玉林市",
            "district": "玉州区"
        }
    },
    {
        "id": "16075940810867217230",
        "title": "公共厕所(GX-YL-0618)",
        "address": "广西壮族自治区玉林市博白县南湛高速与那卜互通交叉口东南方向1318米左右",
        "tel": "",
        "category": "基础设施:公共设施:公共厕所",
        "type": 0,
        "location": {
            "lat": 21.835922,
            "lng": 109.946954
        },
        "ad_info": {
            "adcode": 450923,
            "province": "广西壮族自治区",
            "city": "玉林市",
            "district": "博白县"
        }
    },
    {
        "id": "6396243475438491703",
        "title": "公共厕所",
        "address": "广西壮族自治区玉林市兴业县供销石化加油站东侧220米",
        "tel": "",
        "category": "基础设施:公共设施:公共厕所",
        "type": 0,
        "location": {
            "lat": 22.768603,
            "lng": 110.086406
        },
        "ad_info": {
            "adcode": 450924,
            "province": "广西壮族自治区",
            "city": "玉林市",
            "district": "兴业县"
        }
    },
    {
        "id": "13032607496659524434",
        "title": "公共厕所",
        "address": "广西壮族自治区玉林市容县容岑一级公路与富林路交叉口东北方向287米左右",
        "tel": "",
        "category": "基础设施:公共设施:公共厕所",
        "type": 0,
        "location": {
            "lat": 22.843179,
            "lng": 110.578864
        },
        "ad_info": {
            "adcode": 450921,
            "province": "广西壮族自治区",
            "city": "玉林市",
            "district": "容县"
        }
    },
    {
        "id": "2756315228938531901",
        "title": "公共厕所",
        "address": "广西壮族自治区玉林市北流市城北一路3号",
        "tel": "",
        "category": "基础设施:公共设施:公共厕所",
        "type": 0,
        "location": {
            "lat": 22.707422,
            "lng": 110.348503
        },
        "ad_info": {
            "adcode": 450981,
            "province": "广西壮族自治区",
            "city": "玉林市",
            "district": "北流市"
        }
    },
    {
        "id": "15061101222219322718",
        "title": "公共厕所",
        "address": "广西壮族自治区玉林市北流市荔丰路荔枝公园(西侧)",
        "tel": "",
        "category": "基础设施:公共设施:公共厕所",
        "type": 0,
        "location": {
            "lat": 22.699731,
            "lng": 110.345937
        },
        "ad_info": {
            "adcode": 450981,
            "province": "广西壮族自治区",
            "city": "玉林市",
            "district": "北流市"
        }
    },
    {
        "id": "17847379536132758530",
        "title": "五灯坡公园公共厕所",
        "address": "广西壮族自治区玉林市玉州区和平路1号",
        "tel": "",
        "category": "基础设施:公共设施:公共厕所",
        "type": 0,
        "location": {
            "lat": 22.625719,
            "lng": 110.153945
        },
        "ad_info": {
            "adcode": 450902,
            "province": "广西壮族自治区",
            "city": "玉林市",
            "district": "玉州区"
        }
    },
    {
        "id": "3554741333546011412",
        "title": "公共厕所",
        "address": "广西壮族自治区玉林市玉州区教育中路与清淳路交叉口东北方向14米左右",
        "tel": "",
        "category": "基础设施:公共设施:公共厕所",
        "type": 0,
        "location": {
            "lat": 22.628341,
            "lng": 110.147486
        },
        "ad_info": {
            "adcode": 450902,
            "province": "广西壮族自治区",
            "city": "玉林市",
            "district": "玉州区"
        }
    },
    {
        "id": "3752598334825798903",
        "title": "公共厕所",
        "address": "广西壮族自治区玉林市玉州区玉至石化加油站东北侧100米",
        "tel": "",
        "category": "基础设施:公共设施:公共厕所",
        "type": 0,
        "location": {
            "lat": 22.647484,
            "lng": 110.099617
        },
        "ad_info": {
            "adcode": 450902,
            "province": "广西壮族自治区",
            "city": "玉林市",
            "district": "玉州区"
        }
    },
    {
        "id": "2453994188704268510",
        "title": "公共厕所",
        "address": "广西壮族自治区玉林市兴业县四季花城西北侧250米",
        "tel": "",
        "category": "基础设施:公共设施:公共厕所",
        "type": 0,
        "location": {
            "lat": 22.744148,
            "lng": 109.862677
        },
        "ad_info": {
            "adcode": 450924,
            "province": "广西壮族自治区",
            "city": "玉林市",
            "district": "兴业县"
        }
    },
    {
        "id": "6885411312823283070",
        "title": "公共厕所",
        "address": "广西壮族自治区玉林市容县侨乡大道与容县峤山路交叉口西北方向301米左右",
        "tel": "",
        "category": "基础设施:公共设施:公共厕所",
        "type": 0,
        "location": {
            "lat": 22.838795,
            "lng": 110.564972
        },
        "ad_info": {
            "adcode": 450921,
            "province": "广西壮族自治区",
            "city": "玉林市",
            "district": "容县"
        }
    },
    {
        "id": "16494281565014557187",
        "title": "公共厕所",
        "address": "广西壮族自治区玉林市兴业县建设路与环西路交叉口西北方向1391米左右",
        "tel": "",
        "category": "基础设施:公共设施:公共厕所",
        "type": 0,
        "location": {
            "lat": 22.746484,
            "lng": 109.860145
        },
        "ad_info": {
            "adcode": 450924,
            "province": "广西壮族自治区",
            "city": "玉林市",
            "district": "兴业县"
        }
    },
    {
        "id": "3796859799749851540",
        "title": "容县服务区公共厕所",
        "address": "广西壮族自治区玉林市容县广昆高速附近",
        "tel": "",
        "category": "基础设施:公共设施:公共厕所",
        "type": 0,
        "location": {
            "lat": 22.892945,
            "lng": 110.594109
        },
        "ad_info": {
            "adcode": 450921,
            "province": "广西壮族自治区",
            "city": "玉林市",
            "district": "容县"
        }
    },
    {
        "id": "10030136423945798434",
        "title": "玉林服务区公共厕所",
        "address": "广西壮族自治区玉林市兴业县S206与X419交叉口东北方向1059米左右",
        "tel": "",
        "category": "基础设施:公共设施:公共厕所",
        "type": 0,
        "location": {
            "lat": 22.772294,
            "lng": 110.093255
        },
        "ad_info": {
            "adcode": 450924,
            "province": "广西壮族自治区",
            "city": "玉林市",
            "district": "兴业县"
        }
    }
]