[
    {
        "id": "187114478465671661",
        "title": "公共厕所",
        "address": "海南省琼中黎族苗族自治县国兴大道琼中汽车站",
        "tel": "",
        "category": "基础设施:公共设施:公共厕所",
        "type": 0,
        "location": {
            "lat": 19.04903,
            "lng": 109.849551
        },
        "ad_info": {
            "adcode": 469030,
            "province": "海南省",
            "city": "",
            "district": "琼中黎族苗族自治县"
        }
    },
    {
        "id": "710127661442461252",
        "title": "公共厕所",
        "address": "海南省琼中黎族苗族自治县G224与乌石红大道交叉口正东方向200米左右",
        "tel": "",
        "category": "基础设施:公共设施:公共厕所",
        "type": 0,
        "location": {
            "lat": 19.142759,
            "lng": 109.903253
        },
        "ad_info": {
            "adcode": 469030,
            "province": "海南省",
            "city": "",
            "district": "琼中黎族苗族自治县"
        }
    },
    {
        "id": "18157524036165406792",
        "title": "公共厕所",
        "address": "海南省琼中黎族苗族自治县营万公路与营乘路交叉口东北方向235米左右",
        "tel": "",
        "category": "基础设施:公共设施:公共厕所",
        "type": 0,
        "location": {
            "lat": 19.036554,
            "lng": 109.84669
        },
        "ad_info": {
            "adcode": 469030,
            "province": "海南省",
            "city": "",
            "district": "琼中黎族苗族自治县"
        }
    },
    {
        "id": "606192865062245252",
        "title": "公共厕所",
        "address": "海南省琼中黎族苗族自治县国兴大道与教育路交叉口西南方向32米左右",
        "tel": "",
        "category": "基础设施:公共设施:公共厕所",
        "type": 0,
        "location": {
            "lat": 19.037048,
            "lng": 109.841189
        },
        "ad_info": {
            "adcode": 469030,
            "province": "海南省",
            "city": "",
            "district": "琼中黎族苗族自治县"
        }
    },
    {
        "id": "3775606282844684342",
        "title": "公共厕所",
        "address": "海南省琼中黎族苗族自治县国兴五横路与玉锦大道交叉口正北方向151米左右",
        "tel": "",
        "category": "基础设施:公共设施:公共厕所",
        "type": 0,
        "location": {
            "lat": 19.058327,
            "lng": 109.852718
        },
        "ad_info": {
            "adcode": 469030,
            "province": "海南省",
            "city": "",
            "district": "琼中黎族苗族自治县"
        }
    },
    {
        "id": "14356685031844649685",
        "title": "公共厕所",
        "address": "海南省琼中黎族苗族自治县国兴大道与木棉路交叉口西北方向38米左右",
        "tel": "",
        "category": "基础设施:公共设施:公共厕所",
        "type": 0,
        "location": {
            "lat": 19.052736,
            "lng": 109.849461
        },
        "ad_info": {
            "adcode": 469030,
            "province": "海南省",
            "city": "",
            "district": "琼中黎族苗族自治县"
        }
    },
    {
        "id": "9740319330694901553",
        "title": "公共厕所",
        "address": "海南省琼中黎族苗族自治县百花路与营根路交叉口正西方向104米左右",
        "tel": "",
        "category": "基础设施:公共设施:公共厕所",
        "type": 0,
        "location": {
            "lat": 19.033919,
            "lng": 109.837149
        },
        "ad_info": {
            "adcode": 469030,
            "province": "海南省",
            "city": "",
            "district": "琼中黎族苗族自治县"
        }
    },
    {
        "id": "1303447121448003711",
        "title": "公共厕所",
        "address": "海南省琼中黎族苗族自治县国兴大道与龙溪路交叉口西北方向149米左右",
        "tel": "",
        "category": "基础设施:公共设施:公共厕所",
        "type": 0,
        "location": {
            "lat": 19.04601,
            "lng": 109.8461
        },
        "ad_info": {
            "adcode": 469030,
            "province": "海南省",
            "city": "",
            "district": "琼中黎族苗族自治县"
        }
    },
    {
        "id": "14493275854268799798",
        "title": "公共厕所",
        "address": "海南省琼中黎族苗族自治县百花路与观瀑路交叉口东南方向202米左右",
        "tel": "",
        "category": "基础设施:公共设施:公共厕所",
        "type": 0,
        "location": {
            "lat": 19.033113,
            "lng": 109.844884
        },
        "ad_info": {
            "adcode": 469030,
            "province": "海南省",
            "city": "",
            "district": "琼中黎族苗族自治县"
        }
    },
    {
        "id": "4797150507669973660",
        "title": "公共厕所",
        "address": "海南省琼中黎族苗族自治县S215与军马场路交叉口东北方向1959米左右",
        "tel": "",
        "category": "基础设施:公共设施:公共厕所",
        "type": 0,
        "location": {
            "lat": 18.895551,
            "lng": 109.853803
        },
        "ad_info": {
            "adcode": 469030,
            "province": "海南省",
            "city": "",
            "district": "琼中黎族苗族自治县"
        }
    },
    {
        "id": "13376544218994462211",
        "title": "公共厕所",
        "address": "海南省琼中黎族苗族自治县国兴大道与文化路交叉口正西方向311米左右",
        "tel": "",
        "category": "基础设施:公共设施:公共厕所",
        "type": 0,
        "location": {
            "lat": 19.054256,
            "lng": 109.846636
        },
        "ad_info": {
            "adcode": 469030,
            "province": "海南省",
            "city": "",
            "district": "琼中黎族苗族自治县"
        }
    },
    {
        "id": "13092063969718546711",
        "title": "公共厕所",
        "address": "海南省琼中黎族苗族自治县吊罗山路与太平路交叉口西北方向955米左右",
        "tel": "",
        "category": "基础设施:公共设施:公共厕所",
        "type": 0,
        "location": {
            "lat": 18.8018,
            "lng": 109.871145
        },
        "ad_info": {
            "adcode": 469030,
            "province": "海南省",
            "city": "",
            "district": "琼中黎族苗族自治县"
        }
    },
    {
        "id": "5493006015429496492",
        "title": "公共厕所",
        "address": "海南省琼中黎族苗族自治县S304",
        "tel": "",
        "category": "基础设施:公共设施:公共厕所",
        "type": 0,
        "location": {
            "lat": 18.982262,
            "lng": 109.864782
        },
        "ad_info": {
            "adcode": 469030,
            "province": "海南省",
            "city": "",
            "district": "琼中黎族苗族自治县"
        }
    },
    {
        "id": "990867960584696272",
        "title": "公共厕所",
        "address": "海南省琼中黎族苗族自治县国兴三横路与玉锦大道交叉口正南方向106米左右",
        "tel": "",
        "category": "基础设施:公共设施:公共厕所",
        "type": 0,
        "location": {
            "lat": 19.046177,
            "lng": 109.85318
        },
        "ad_info": {
            "adcode": 469030,
            "province": "海南省",
            "city": "",
            "district": "琼中黎族苗族自治县"
        }
    },
    {
        "id": "17066238796708729807",
        "title": "公共厕所",
        "address": "海南省琼中黎族苗族自治县百绿巷与营城路交叉口正东方向85米左右",
        "tel": "",
        "category": "基础设施:公共设施:公共厕所",
        "type": 0,
        "location": {
            "lat": 19.032098,
            "lng": 109.841132
        },
        "ad_info": {
            "adcode": 469030,
            "province": "海南省",
            "city": "",
            "district": "琼中黎族苗族自治县"
        }
    },
    {
        "id": "15513651883113119002",
        "title": "公共厕所",
        "address": "海南省琼中黎族苗族自治县营万公路与营乘路交叉口正东方向245米左右",
        "tel": "",
        "category": "基础设施:公共设施:公共厕所",
        "type": 0,
        "location": {
            "lat": 19.035919,
            "lng": 109.847081
        },
        "ad_info": {
            "adcode": 469030,
            "province": "海南省",
            "city": "",
            "district": "琼中黎族苗族自治县"
        }
    },
    {
        "id": "2894283634306385208",
        "title": "公共厕所",
        "address": "海南省琼中黎族苗族自治县吊罗山路与新安路交叉口正南方向20米左右",
        "tel": "",
        "category": "基础设施:公共设施:公共厕所",
        "type": 0,
        "location": {
            "lat": 18.791889,
            "lng": 109.876045
        },
        "ad_info": {
            "adcode": 469030,
            "province": "海南省",
            "city": "",
            "district": "琼中黎族苗族自治县"
        }
    },
    {
        "id": "2620294688862946958",
        "title": "琼中服务区公共厕所",
        "address": "海南省琼中黎族苗族自治县中线高速",
        "tel": "",
        "category": "基础设施:公共设施:公共厕所",
        "type": 0,
        "location": {
            "lat": 19.028753,
            "lng": 109.656524
        },
        "ad_info": {
            "adcode": 469030,
            "province": "海南省",
            "city": "",
            "district": "琼中黎族苗族自治县"
        }
    },
    {
        "id": "12140553637390905380",
        "title": "阳江服务区公共厕所",
        "address": "海南省琼中黎族苗族自治县阳江服务区与阳江互通交叉口西北280米",
        "tel": "",
        "category": "基础设施:公共设施:公共厕所",
        "type": 0,
        "location": {
            "lat": 19.308957,
            "lng": 109.736483
        },
        "ad_info": {
            "adcode": 469030,
            "province": "海南省",
            "city": "",
            "district": "琼中黎族苗族自治县"
        }
    },
    {
        "id": "2468570029471481116",
        "title": "阳江服务区公共厕所",
        "address": "海南省琼中黎族苗族自治县阳江服务区西南侧",
        "tel": "",
        "category": "基础设施:公共设施:公共厕所",
        "type": 0,
        "location": {
            "lat": 19.310857,
            "lng": 109.733598
        },
        "ad_info": {
            "adcode": 469030,
            "province": "海南省",
            "city": "",
            "district": "琼中黎族苗族自治县"
        }
    }
]