[
    {
        "id": "3508537643714056716",
        "title": "公共厕所",
        "address": "海南省琼海市金海西一横街与金海西一路交叉口东南方向25米左右",
        "tel": "",
        "category": "基础设施:公共设施:公共厕所",
        "type": 0,
        "location": {
            "lat": 19.251509,
            "lng": 110.46565
        },
        "ad_info": {
            "adcode": 469002,
            "province": "海南省",
            "city": "",
            "district": "琼海市"
        }
    },
    {
        "id": "9989041292498132685",
        "title": "公共厕所",
        "address": "海南省琼海市银海北五横街与银海路交叉口正西方向71米左右",
        "tel": "",
        "category": "基础设施:公共设施:公共厕所",
        "type": 0,
        "location": {
            "lat": 19.258405,
            "lng": 110.467768
        },
        "ad_info": {
            "adcode": 469002,
            "province": "海南省",
            "city": "",
            "district": "琼海市"
        }
    },
    {
        "id": "10223866304393401783",
        "title": "公共厕所",
        "address": "海南省琼海市常青路与新海路交叉口正东方向419米左右",
        "tel": "",
        "category": "基础设施:公共设施:公共厕所",
        "type": 0,
        "location": {
            "lat": 19.273975,
            "lng": 110.469957
        },
        "ad_info": {
            "adcode": 469002,
            "province": "海南省",
            "city": "",
            "district": "琼海市"
        }
    },
    {
        "id": "5836159294505270882",
        "title": "公共厕所",
        "address": "海南省琼海市滨海大道与疏港大道交叉口正西方向27米左右",
        "tel": "",
        "category": "基础设施:公共设施:公共厕所",
        "type": 0,
        "location": {
            "lat": 19.237455,
            "lng": 110.617672
        },
        "ad_info": {
            "adcode": 469002,
            "province": "海南省",
            "city": "",
            "district": "琼海市"
        }
    },
    {
        "id": "12706614713993627546",
        "title": "公共厕所",
        "address": "海南省琼海市万泉河路与光华路交叉口西南方向58米左右",
        "tel": "",
        "category": "基础设施:公共设施:公共厕所",
        "type": 0,
        "location": {
            "lat": 19.230871,
            "lng": 110.456243
        },
        "ad_info": {
            "adcode": 469002,
            "province": "海南省",
            "city": "",
            "district": "琼海市"
        }
    },
    {
        "id": "11168608350737281984",
        "title": "公共厕所",
        "address": "海南省琼海市内环街与登仙岭街交叉口西南方向160米左右",
        "tel": "",
        "category": "基础设施:公共设施:公共厕所",
        "type": 0,
        "location": {
            "lat": 19.244245,
            "lng": 110.46519
        },
        "ad_info": {
            "adcode": 469002,
            "province": "海南省",
            "city": "",
            "district": "琼海市"
        }
    },
    {
        "id": "15808019366389310838",
        "title": "公共厕所",
        "address": "海南省琼海市S213(海滨路)",
        "tel": "",
        "category": "基础设施:公共设施:公共厕所",
        "type": 0,
        "location": {
            "lat": 19.1681,
            "lng": 110.587937
        },
        "ad_info": {
            "adcode": 469002,
            "province": "海南省",
            "city": "",
            "district": "琼海市"
        }
    },
    {
        "id": "4657428914420642496",
        "title": "公共厕所",
        "address": "海南省琼海市S213风情广场商业步行街1-2号",
        "tel": "",
        "category": "基础设施:公共设施:公共厕所",
        "type": 0,
        "location": {
            "lat": 19.160148,
            "lng": 110.58565
        },
        "ad_info": {
            "adcode": 469002,
            "province": "海南省",
            "city": "",
            "district": "琼海市"
        }
    },
    {
        "id": "16309717083868704239",
        "title": "公共厕所",
        "address": "海南省琼海市小学路与海榆东线交叉口西北方向369米左右",
        "tel": "",
        "category": "基础设施:公共设施:公共厕所",
        "type": 0,
        "location": {
            "lat": 19.150175,
            "lng": 110.470067
        },
        "ad_info": {
            "adcode": 469002,
            "province": "海南省",
            "city": "",
            "district": "琼海市"
        }
    },
    {
        "id": "2172443359944442055",
        "title": "公共厕所",
        "address": "海南省琼海市兴海中路与兴海南路交叉口正东方向847米左右",
        "tel": "",
        "category": "基础设施:公共设施:公共厕所",
        "type": 0,
        "location": {
            "lat": 19.240595,
            "lng": 110.490483
        },
        "ad_info": {
            "adcode": 469002,
            "province": "海南省",
            "city": "",
            "district": "琼海市"
        }
    },
    {
        "id": "3352235811694565189",
        "title": "公共厕所",
        "address": "海南省琼海市双拥路与富海路交叉口西南方向182米左右",
        "tel": "",
        "category": "基础设施:公共设施:公共厕所",
        "type": 0,
        "location": {
            "lat": 19.250619,
            "lng": 110.471066
        },
        "ad_info": {
            "adcode": 469002,
            "province": "海南省",
            "city": "",
            "district": "琼海市"
        }
    },
    {
        "id": "2378332206035556177",
        "title": "公共厕所",
        "address": "海南省琼海市X343与Y070交叉口正东方向1856米左右",
        "tel": "",
        "category": "基础设施:公共设施:公共厕所",
        "type": 0,
        "location": {
            "lat": 19.41441,
            "lng": 110.560979
        },
        "ad_info": {
            "adcode": 469002,
            "province": "海南省",
            "city": "",
            "district": "琼海市"
        }
    },
    {
        "id": "13392846604135892679",
        "title": "公共厕所",
        "address": "海南省琼海市",
        "tel": "",
        "category": "基础设施:公共设施:公共厕所",
        "type": 0,
        "location": {
            "lat": 19.107409,
            "lng": 110.557045
        },
        "ad_info": {
            "adcode": 469002,
            "province": "海南省",
            "city": "",
            "district": "琼海市"
        }
    },
    {
        "id": "7681671899695463870",
        "title": "公共厕所",
        "address": "海南省琼海市X356与南正留恋桥交叉口正北方向871米左右",
        "tel": "",
        "category": "基础设施:公共设施:公共厕所",
        "type": 0,
        "location": {
            "lat": 19.165033,
            "lng": 110.350569
        },
        "ad_info": {
            "adcode": 469002,
            "province": "海南省",
            "city": "",
            "district": "琼海市"
        }
    },
    {
        "id": "14491030649767477376",
        "title": "公共厕所",
        "address": "海南省琼海市冠诚汽车修理服务中心东侧",
        "tel": "",
        "category": "基础设施:公共设施:公共厕所",
        "type": 0,
        "location": {
            "lat": 19.232771,
            "lng": 110.616215
        },
        "ad_info": {
            "adcode": 469002,
            "province": "海南省",
            "city": "",
            "district": "琼海市"
        }
    },
    {
        "id": "14107039754268214126",
        "title": "公共厕所",
        "address": "海南省琼海市海榆东线与迎宾路交叉口正东方向483米左右",
        "tel": "",
        "category": "基础设施:公共设施:公共厕所",
        "type": 0,
        "location": {
            "lat": 19.130372,
            "lng": 110.485408
        },
        "ad_info": {
            "adcode": 469002,
            "province": "海南省",
            "city": "",
            "district": "琼海市"
        }
    },
    {
        "id": "7814710392654087158",
        "title": "公共厕所",
        "address": "海南省琼海市中阳路与乐园路交叉口西北方向252米左右",
        "tel": "",
        "category": "基础设施:公共设施:公共厕所",
        "type": 0,
        "location": {
            "lat": 19.154931,
            "lng": 110.465694
        },
        "ad_info": {
            "adcode": 469002,
            "province": "海南省",
            "city": "",
            "district": "琼海市"
        }
    },
    {
        "id": "4263440446322249055",
        "title": "公共厕所",
        "address": "海南省琼海市S219与博文路交叉口正东方向1260米左右",
        "tel": "",
        "category": "基础设施:公共设施:公共厕所",
        "type": 0,
        "location": {
            "lat": 19.159183,
            "lng": 110.570029
        },
        "ad_info": {
            "adcode": 469002,
            "province": "海南省",
            "city": "",
            "district": "琼海市"
        }
    },
    {
        "id": "6965894944036893763",
        "title": "公共厕所",
        "address": "海南省琼海市双拥路与富海路交叉口东南方向38米左右",
        "tel": "",
        "category": "基础设施:公共设施:公共厕所",
        "type": 0,
        "location": {
            "lat": 19.251455,
            "lng": 110.472725
        },
        "ad_info": {
            "adcode": 469002,
            "province": "海南省",
            "city": "",
            "district": "琼海市"
        }
    },
    {
        "id": "2451416738507660736",
        "title": "公共厕所",
        "address": "海南省琼海市S201与长新街交叉口西南方向914米左右",
        "tel": "",
        "category": "基础设施:公共设施:公共厕所",
        "type": 0,
        "location": {
            "lat": 19.33409,
            "lng": 110.602254
        },
        "ad_info": {
            "adcode": 469002,
            "province": "海南省",
            "city": "",
            "district": "琼海市"
        }
    },
    {
        "id": "14747100034236223380",
        "title": "公共厕所",
        "address": "海南省琼海市福泰街与福源街交叉口正西方向292米左右",
        "tel": "",
        "category": "基础设施:公共设施:公共厕所",
        "type": 0,
        "location": {
            "lat": 19.231964,
            "lng": 110.577681
        },
        "ad_info": {
            "adcode": 469002,
            "province": "海南省",
            "city": "",
            "district": "琼海市"
        }
    },
    {
        "id": "6525364041887454655",
        "title": "公共厕所",
        "address": "海南省琼海市博鳌东屿岛远洋大道1号东屿岛温泉内",
        "tel": "",
        "category": "基础设施:公共设施:公共厕所",
        "type": 0,
        "location": {
            "lat": 19.147095,
            "lng": 110.57683
        },
        "ad_info": {
            "adcode": 469002,
            "province": "海南省",
            "city": "",
            "district": "琼海市"
        }
    },
    {
        "id": "467756579954475992",
        "title": "公共厕所",
        "address": "海南省琼海市人民路95号",
        "tel": "",
        "category": "基础设施:公共设施:公共厕所",
        "type": 0,
        "location": {
            "lat": 19.234875,
            "lng": 110.46806
        },
        "ad_info": {
            "adcode": 469002,
            "province": "海南省",
            "city": "",
            "district": "琼海市"
        }
    },
    {
        "id": "1313066367131861699",
        "title": "公共厕所",
        "address": "海南省琼海市兴海中路与学海路交叉口东北方向114米左右",
        "tel": "",
        "category": "基础设施:公共设施:公共厕所",
        "type": 0,
        "location": {
            "lat": 19.250975,
            "lng": 110.478078
        },
        "ad_info": {
            "adcode": 469002,
            "province": "海南省",
            "city": "",
            "district": "琼海市"
        }
    },
    {
        "id": "3419289231926300815",
        "title": "公共厕所",
        "address": "海南省琼海市常青路与新海路交叉口正南方向79米左右",
        "tel": "",
        "category": "基础设施:公共设施:公共厕所",
        "type": 0,
        "location": {
            "lat": 19.273623,
            "lng": 110.465837
        },
        "ad_info": {
            "adcode": 469002,
            "province": "海南省",
            "city": "",
            "district": "琼海市"
        }
    },
    {
        "id": "8433837440869804099",
        "title": "公共厕所",
        "address": "海南省琼海市X356与官塘大道交叉口正西方向72米左右",
        "tel": "",
        "category": "基础设施:公共设施:公共厕所",
        "type": 0,
        "location": {
            "lat": 19.206374,
            "lng": 110.428333
        },
        "ad_info": {
            "adcode": 469002,
            "province": "海南省",
            "city": "",
            "district": "琼海市"
        }
    },
    {
        "id": "13722521077800924809",
        "title": "公共厕所",
        "address": "海南省琼海市X356与雷公坡桥交叉口西北方向1642米左右",
        "tel": "",
        "category": "基础设施:公共设施:公共厕所",
        "type": 0,
        "location": {
            "lat": 19.209978,
            "lng": 110.407642
        },
        "ad_info": {
            "adcode": 469002,
            "province": "海南省",
            "city": "",
            "district": "琼海市"
        }
    },
    {
        "id": "9103525635219097191",
        "title": "公共厕所",
        "address": "海南省琼海市常青路与新海路交叉口正北方向512米左右",
        "tel": "",
        "category": "基础设施:公共设施:公共厕所",
        "type": 0,
        "location": {
            "lat": 19.278928,
            "lng": 110.466519
        },
        "ad_info": {
            "adcode": 469002,
            "province": "海南省",
            "city": "",
            "district": "琼海市"
        }
    },
    {
        "id": "1905121591751980171",
        "title": "公共厕所",
        "address": "海南省琼海市博鳌东屿岛远洋大道1号(东屿岛上)博鳌亚洲论坛大酒店内",
        "tel": "",
        "category": "基础设施:公共设施:公共厕所",
        "type": 0,
        "location": {
            "lat": 19.146123,
            "lng": 110.576912
        },
        "ad_info": {
            "adcode": 469002,
            "province": "海南省",
            "city": "",
            "district": "琼海市"
        }
    },
    {
        "id": "10109110731517714265",
        "title": "公共厕所",
        "address": "海南省琼海市豪华南一路与豪华路交叉口西北方向30米左右",
        "tel": "",
        "category": "基础设施:公共设施:公共厕所",
        "type": 0,
        "location": {
            "lat": 19.226759,
            "lng": 110.480486
        },
        "ad_info": {
            "adcode": 469002,
            "province": "海南省",
            "city": "",
            "district": "琼海市"
        }
    },
    {
        "id": "16815707957217503604",
        "title": "公共厕所",
        "address": "海南省琼海市嘉浪河西路",
        "tel": "",
        "category": "基础设施:公共设施:公共厕所",
        "type": 0,
        "location": {
            "lat": 19.252057,
            "lng": 110.449982
        },
        "ad_info": {
            "adcode": 469002,
            "province": "海南省",
            "city": "",
            "district": "琼海市"
        }
    },
    {
        "id": "14180887732434728957",
        "title": "公共厕所",
        "address": "海南省琼海市兴海中路与兴海南路交叉口正东方向900米左右",
        "tel": "",
        "category": "基础设施:公共设施:公共厕所",
        "type": 0,
        "location": {
            "lat": 19.240005,
            "lng": 110.490896
        },
        "ad_info": {
            "adcode": 469002,
            "province": "海南省",
            "city": "",
            "district": "琼海市"
        }
    },
    {
        "id": "12293129019624258343",
        "title": "公共厕所",
        "address": "海南省琼海市德海路与红星东二路交叉口正北方向379米左右",
        "tel": "",
        "category": "基础设施:公共设施:公共厕所",
        "type": 0,
        "location": {
            "lat": 19.257885,
            "lng": 110.449
        },
        "ad_info": {
            "adcode": 469002,
            "province": "海南省",
            "city": "",
            "district": "琼海市"
        }
    },
    {
        "id": "7013678488364822609",
        "title": "公共厕所",
        "address": "海南省琼海市富港街3号",
        "tel": "",
        "category": "基础设施:公共设施:公共厕所",
        "type": 0,
        "location": {
            "lat": 19.240438,
            "lng": 110.618058
        },
        "ad_info": {
            "adcode": 469002,
            "province": "海南省",
            "city": "",
            "district": "琼海市"
        }
    },
    {
        "id": "8442132167867451161",
        "title": "公共厕所",
        "address": "海南省琼海市昌顺街与高坡路交叉口正南方向95米左右",
        "tel": "",
        "category": "基础设施:公共设施:公共厕所",
        "type": 0,
        "location": {
            "lat": 19.167755,
            "lng": 110.586574
        },
        "ad_info": {
            "adcode": 469002,
            "province": "海南省",
            "city": "",
            "district": "琼海市"
        }
    },
    {
        "id": "9494430232163282897",
        "title": "公共厕所",
        "address": "海南省琼海市海榆东线与迎宾路交叉口西北方向67米左右",
        "tel": "",
        "category": "基础设施:公共设施:公共厕所",
        "type": 0,
        "location": {
            "lat": 19.130136,
            "lng": 110.480427
        },
        "ad_info": {
            "adcode": 469002,
            "province": "海南省",
            "city": "",
            "district": "琼海市"
        }
    },
    {
        "id": "14326649280033510657",
        "title": "公共厕所",
        "address": "海南省琼海市兴海中路与兴海南路交叉口正东方向972米左右",
        "tel": "",
        "category": "基础设施:公共设施:公共厕所",
        "type": 0,
        "location": {
            "lat": 19.24056,
            "lng": 110.491685
        },
        "ad_info": {
            "adcode": 469002,
            "province": "海南省",
            "city": "",
            "district": "琼海市"
        }
    },
    {
        "id": "13374562213235054606",
        "title": "公共厕所",
        "address": "海南省琼海市红星东二路与红星南二路交叉口正南方向197米左右",
        "tel": "",
        "category": "基础设施:公共设施:公共厕所",
        "type": 0,
        "location": {
            "lat": 19.250943,
            "lng": 110.448392
        },
        "ad_info": {
            "adcode": 469002,
            "province": "海南省",
            "city": "",
            "district": "琼海市"
        }
    },
    {
        "id": "16344294235218721447",
        "title": "公共厕所",
        "address": "海南省琼海市银河路与银海路交叉口正西方向122米左右",
        "tel": "",
        "category": "基础设施:公共设施:公共厕所",
        "type": 0,
        "location": {
            "lat": 19.258565,
            "lng": 110.442604
        },
        "ad_info": {
            "adcode": 469002,
            "province": "海南省",
            "city": "",
            "district": "琼海市"
        }
    },
    {
        "id": "11273341922748365808",
        "title": "公共厕所",
        "address": "海南省琼海市S213与兴海中路交叉口正东方向231米左右",
        "tel": "",
        "category": "基础设施:公共设施:公共厕所",
        "type": 0,
        "location": {
            "lat": 19.252668,
            "lng": 110.477297
        },
        "ad_info": {
            "adcode": 469002,
            "province": "海南省",
            "city": "",
            "district": "琼海市"
        }
    },
    {
        "id": "10752001581580314945",
        "title": "公共厕所",
        "address": "海南省琼海市S213与鳌翔路交叉口西北方向1081米左右",
        "tel": "",
        "category": "基础设施:公共设施:公共厕所",
        "type": 0,
        "location": {
            "lat": 19.184778,
            "lng": 110.576959
        },
        "ad_info": {
            "adcode": 469002,
            "province": "海南省",
            "city": "",
            "district": "琼海市"
        }
    },
    {
        "id": "306530341489631694",
        "title": "公共厕所",
        "address": "海南省琼海市S213与X347交叉口正西方向53米左右",
        "tel": "",
        "category": "基础设施:公共设施:公共厕所",
        "type": 0,
        "location": {
            "lat": 19.211775,
            "lng": 110.518974
        },
        "ad_info": {
            "adcode": 469002,
            "province": "海南省",
            "city": "",
            "district": "琼海市"
        }
    },
    {
        "id": "5791656580566061629",
        "title": "公共厕所",
        "address": "海南省琼海市东海路与迎宾路交叉口正东方向249米左右",
        "tel": "",
        "category": "基础设施:公共设施:公共厕所",
        "type": 0,
        "location": {
            "lat": 19.130458,
            "lng": 110.560564
        },
        "ad_info": {
            "adcode": 469002,
            "province": "海南省",
            "city": "",
            "district": "琼海市"
        }
    },
    {
        "id": "10139667374256113283",
        "title": "公共厕所",
        "address": "海南省琼海市海城时代广场东侧410米",
        "tel": "",
        "category": "基础设施:公共设施:公共厕所",
        "type": 0,
        "location": {
            "lat": 19.239744,
            "lng": 110.49038
        },
        "ad_info": {
            "adcode": 469002,
            "province": "海南省",
            "city": "",
            "district": "琼海市"
        }
    },
    {
        "id": "9164010308656705193",
        "title": "公共厕所",
        "address": "海南省琼海市S219与博文路交叉口东南方向1026米左右",
        "tel": "",
        "category": "基础设施:公共设施:公共厕所",
        "type": 0,
        "location": {
            "lat": 19.156388,
            "lng": 110.566787
        },
        "ad_info": {
            "adcode": 469002,
            "province": "海南省",
            "city": "",
            "district": "琼海市"
        }
    },
    {
        "id": "1683232149112320231",
        "title": "公共厕所",
        "address": "海南省琼海市红星西二路与红星路交叉口正西方向50米左右",
        "tel": "",
        "category": "基础设施:公共设施:公共厕所",
        "type": 0,
        "location": {
            "lat": 19.253552,
            "lng": 110.444058
        },
        "ad_info": {
            "adcode": 469002,
            "province": "海南省",
            "city": "",
            "district": "琼海市"
        }
    },
    {
        "id": "15501537265707407476",
        "title": "公共厕所",
        "address": "海南省琼海市内环街与新民街交叉口正北方向124米左右",
        "tel": "",
        "category": "基础设施:公共设施:公共厕所",
        "type": 0,
        "location": {
            "lat": 19.243347,
            "lng": 110.45984
        },
        "ad_info": {
            "adcode": 469002,
            "province": "海南省",
            "city": "",
            "district": "琼海市"
        }
    },
    {
        "id": "10372720309466686904",
        "title": "公共厕所",
        "address": "海南省琼海市幸福街与海榆东线交叉口东南方向48米左右",
        "tel": "",
        "category": "基础设施:公共设施:公共厕所",
        "type": 0,
        "location": {
            "lat": 19.382235,
            "lng": 110.473694
        },
        "ad_info": {
            "adcode": 469002,
            "province": "海南省",
            "city": "",
            "district": "琼海市"
        }
    },
    {
        "id": "6055705707853835895",
        "title": "公共厕所",
        "address": "海南省琼海市元亨一街与教育路交叉口正东方向29米左右",
        "tel": "",
        "category": "基础设施:公共设施:公共厕所",
        "type": 0,
        "location": {
            "lat": 19.239049,
            "lng": 110.471706
        },
        "ad_info": {
            "adcode": 469002,
            "province": "海南省",
            "city": "",
            "district": "琼海市"
        }
    },
    {
        "id": "16356235606681145721",
        "title": "公共厕所",
        "address": "海南省琼海市S201与富海路交叉口西南方向165米左右",
        "tel": "",
        "category": "基础设施:公共设施:公共厕所",
        "type": 0,
        "location": {
            "lat": 19.256592,
            "lng": 110.47874
        },
        "ad_info": {
            "adcode": 469002,
            "province": "海南省",
            "city": "",
            "district": "琼海市"
        }
    },
    {
        "id": "11649101941971837059",
        "title": "公共厕所",
        "address": "海南省琼海市新海路与银河路交叉口东北方向915米左右",
        "tel": "",
        "category": "基础设施:公共设施:公共厕所",
        "type": 0,
        "location": {
            "lat": 19.269864,
            "lng": 110.447367
        },
        "ad_info": {
            "adcode": 469002,
            "province": "海南省",
            "city": "",
            "district": "琼海市"
        }
    },
    {
        "id": "3502256092949007053",
        "title": "公共厕所",
        "address": "海南省琼海市彬侨路与彬贸路交叉口西南方向94米左右",
        "tel": "",
        "category": "基础设施:公共设施:公共厕所",
        "type": 0,
        "location": {
            "lat": 19.309696,
            "lng": 110.570436
        },
        "ad_info": {
            "adcode": 469002,
            "province": "海南省",
            "city": "",
            "district": "琼海市"
        }
    },
    {
        "id": "4265639330616201967",
        "title": "公共厕所",
        "address": "海南省琼海市万泉河路与银河路交叉口正西方向287米左右",
        "tel": "",
        "category": "基础设施:公共设施:公共厕所",
        "type": 0,
        "location": {
            "lat": 19.250764,
            "lng": 110.441114
        },
        "ad_info": {
            "adcode": 469002,
            "province": "海南省",
            "city": "",
            "district": "琼海市"
        }
    },
    {
        "id": "12217744925533857223",
        "title": "公共厕所",
        "address": "海南省琼海市X351与西岸二桥交叉口东南方向537米左右",
        "tel": "",
        "category": "基础设施:公共设施:公共厕所",
        "type": 0,
        "location": {
            "lat": 19.172857,
            "lng": 110.356709
        },
        "ad_info": {
            "adcode": 469002,
            "province": "海南省",
            "city": "",
            "district": "琼海市"
        }
    },
    {
        "id": "8916064894271296645",
        "title": "公共厕所",
        "address": "海南省琼海市S213中国石化加油站",
        "tel": "",
        "category": "基础设施:公共设施:公共厕所",
        "type": 0,
        "location": {
            "lat": 19.179084,
            "lng": 110.581516
        },
        "ad_info": {
            "adcode": 469002,
            "province": "海南省",
            "city": "",
            "district": "琼海市"
        }
    },
    {
        "id": "13020333170861439858",
        "title": "公共厕所(HN-QH-0096)",
        "address": "海南省琼海市东风路与文明路交叉口东南方向60米左右",
        "tel": "",
        "category": "基础设施:公共设施:公共厕所",
        "type": 0,
        "location": {
            "lat": 19.244032,
            "lng": 110.467716
        },
        "ad_info": {
            "adcode": 469002,
            "province": "海南省",
            "city": "",
            "district": "琼海市"
        }
    },
    {
        "id": "7737525258558982742",
        "title": "公共厕所",
        "address": "海南省琼海市X350与Y190交叉口西南方向510米左右",
        "tel": "",
        "category": "基础设施:公共设施:公共厕所",
        "type": 0,
        "location": {
            "lat": 19.117502,
            "lng": 110.220838
        },
        "ad_info": {
            "adcode": 469002,
            "province": "海南省",
            "city": "",
            "district": "琼海市"
        }
    },
    {
        "id": "4340447896760443560",
        "title": "公共厕所",
        "address": "海南省琼海市S201与富海路交叉口东北方向575米左右",
        "tel": "",
        "category": "基础设施:公共设施:公共厕所",
        "type": 0,
        "location": {
            "lat": 19.259861,
            "lng": 110.484889
        },
        "ad_info": {
            "adcode": 469002,
            "province": "海南省",
            "city": "",
            "district": "琼海市"
        }
    },
    {
        "id": "12834621599070952167",
        "title": "公共厕所",
        "address": "海南省琼海市X356与蓝山龙须沟桥交叉口正西方向880米左右",
        "tel": "",
        "category": "基础设施:公共设施:公共厕所",
        "type": 0,
        "location": {
            "lat": 19.188632,
            "lng": 110.370547
        },
        "ad_info": {
            "adcode": 469002,
            "province": "海南省",
            "city": "",
            "district": "琼海市"
        }
    },
    {
        "id": "1108688036824955891",
        "title": "琼海市国土资源局洗手间",
        "address": "海南省琼海市一横路与金海路交叉口东南方向98米左右",
        "tel": "",
        "category": "基础设施:公共设施:公共厕所",
        "type": 0,
        "location": {
            "lat": 19.265356,
            "lng": 110.466434
        },
        "ad_info": {
            "adcode": 469002,
            "province": "海南省",
            "city": "",
            "district": "琼海市"
        }
    },
    {
        "id": "7551456887331264965",
        "title": "环岛旅游公路长坡段欧村厕所",
        "address": "海南省琼海市S201与欧村大众路交叉口东南方向1108米左右",
        "tel": "",
        "category": "基础设施:公共设施:公共厕所",
        "type": 0,
        "location": {
            "lat": 19.349993,
            "lng": 110.669998
        },
        "ad_info": {
            "adcode": 469002,
            "province": "海南省",
            "city": "",
            "district": "琼海市"
        }
    },
    {
        "id": "8053724587513815734",
        "title": "福山咖啡-卫生间",
        "address": "海南省琼海市银海北八横街与银海路交叉口西北方向34米左右",
        "tel": "",
        "category": "基础设施:公共设施:公共厕所",
        "type": 0,
        "location": {
            "lat": 19.258498,
            "lng": 110.464575
        },
        "ad_info": {
            "adcode": 469002,
            "province": "海南省",
            "city": "",
            "district": "琼海市"
        }
    },
    {
        "id": "16037071712421999655",
        "title": "鳌庄公共厕所",
        "address": "海南省琼海市鳌庄公厕",
        "tel": "",
        "category": "基础设施:公共设施:公共厕所",
        "type": 0,
        "location": {
            "lat": 19.170866,
            "lng": 110.591974
        },
        "ad_info": {
            "adcode": 469002,
            "province": "海南省",
            "city": "",
            "district": "琼海市"
        }
    },
    {
        "id": "1910649334311060261",
        "title": "金贸大酒店-洗手间",
        "address": "海南省琼海市S213与兴海路交叉口东南方向81米左右",
        "tel": "",
        "category": "基础设施:公共设施:公共厕所",
        "type": 0,
        "location": {
            "lat": 19.244575,
            "lng": 110.481016
        },
        "ad_info": {
            "adcode": 469002,
            "province": "海南省",
            "city": "",
            "district": "琼海市"
        }
    },
    {
        "id": "9044041128632557794",
        "title": "无障碍公共厕所",
        "address": "海南省琼海市S201与长新街交叉口正东方向137米左右",
        "tel": "",
        "category": "基础设施:公共设施:公共厕所",
        "type": 0,
        "location": {
            "lat": 19.336905,
            "lng": 110.611478
        },
        "ad_info": {
            "adcode": 469002,
            "province": "海南省",
            "city": "",
            "district": "琼海市"
        }
    },
    {
        "id": "9194799260053184665",
        "title": "公共厕所",
        "address": "海南省琼海市X356与南正留恋桥交叉口正北方向1066米左右",
        "tel": "",
        "category": "基础设施:公共设施:公共厕所",
        "type": 0,
        "location": {
            "lat": 19.167099,
            "lng": 110.34932
        },
        "ad_info": {
            "adcode": 469002,
            "province": "海南省",
            "city": "",
            "district": "琼海市"
        }
    },
    {
        "id": "2171890842587335992",
        "title": "亚洲湾水上乐园公共厕所",
        "address": "海南省琼海市博鳌镇亚洲湾水上乐园",
        "tel": "",
        "category": "基础设施:公共设施:公共厕所",
        "type": 0,
        "location": {
            "lat": 19.190642,
            "lng": 110.598283
        },
        "ad_info": {
            "adcode": 469002,
            "province": "海南省",
            "city": "",
            "district": "琼海市"
        }
    },
    {
        "id": "18317182632805611916",
        "title": "营村东边园公共厕所",
        "address": "海南省琼海市S201与海南环岛旅游公路交叉口东南方向1539米左右",
        "tel": "",
        "category": "基础设施:公共设施:公共厕所",
        "type": 0,
        "location": {
            "lat": 19.348854,
            "lng": 110.675526
        },
        "ad_info": {
            "adcode": 469002,
            "province": "海南省",
            "city": "",
            "district": "琼海市"
        }
    },
    {
        "id": "3839807711723527303",
        "title": "博鳌镇庙街停车场公共厕所",
        "address": "海南省琼海市博鳌镇庙街停车场",
        "tel": "",
        "category": "基础设施:公共设施:公共厕所",
        "type": 0,
        "location": {
            "lat": 19.158228,
            "lng": 110.589681
        },
        "ad_info": {
            "adcode": 469002,
            "province": "海南省",
            "city": "",
            "district": "琼海市"
        }
    },
    {
        "id": "1158455307051403082",
        "title": "温泉海星田园鹅庄-洗手间",
        "address": "海南省琼海市海榆东线与爱华东路交叉口东南方向129米左右",
        "tel": "",
        "category": "基础设施:公共设施:公共厕所",
        "type": 0,
        "location": {
            "lat": 19.236467,
            "lng": 110.44226
        },
        "ad_info": {
            "adcode": 469002,
            "province": "海南省",
            "city": "",
            "district": "琼海市"
        }
    },
    {
        "id": "18307128603206424717",
        "title": "温泉海星酒楼-洗手间",
        "address": "海南省琼海市温泉海星酒楼内",
        "tel": "",
        "category": "基础设施:公共设施:公共厕所",
        "type": 0,
        "location": {
            "lat": 19.236817,
            "lng": 110.46169
        },
        "ad_info": {
            "adcode": 469002,
            "province": "海南省",
            "city": "",
            "district": "琼海市"
        }
    },
    {
        "id": "6275331249040644026",
        "title": "东屿村公共厕所",
        "address": "海南省琼海市听海路与鳌庄路交叉口东南方向108米左右",
        "tel": "",
        "category": "基础设施:公共设施:公共厕所",
        "type": 0,
        "location": {
            "lat": 19.170503,
            "lng": 110.592982
        },
        "ad_info": {
            "adcode": 469002,
            "province": "海南省",
            "city": "",
            "district": "琼海市"
        }
    },
    {
        "id": "5557402845280043696",
        "title": "一体化智慧卫生间",
        "address": "海南省琼海市珊瑚岛停车区",
        "tel": "",
        "category": "基础设施:公共设施:公共厕所",
        "type": 0,
        "location": {
            "lat": 19.207587,
            "lng": 110.617693
        },
        "ad_info": {
            "adcode": 469002,
            "province": "海南省",
            "city": "",
            "district": "琼海市"
        }
    },
    {
        "id": "13506475291590808391",
        "title": "冯家湾服务区公共厕所",
        "address": "海南省琼海市G9812海琼高速与冯家湾服务区交叉口东北340米",
        "tel": "",
        "category": "基础设施:公共设施:公共厕所",
        "type": 0,
        "location": {
            "lat": 19.386273,
            "lng": 110.657882
        },
        "ad_info": {
            "adcode": 469002,
            "province": "海南省",
            "city": "",
            "district": "琼海市"
        }
    },
    {
        "id": "5003947067131380875",
        "title": "宏达大酒店-洗手间",
        "address": "海南省琼海市银海路与银辉路交叉口东南方向51米左右",
        "tel": "",
        "category": "基础设施:公共设施:公共厕所",
        "type": 0,
        "location": {
            "lat": 19.257998,
            "lng": 110.458419
        },
        "ad_info": {
            "adcode": 469002,
            "province": "海南省",
            "city": "",
            "district": "琼海市"
        }
    },
    {
        "id": "2327458056355211439",
        "title": "琼海市教育局-洗手间",
        "address": "海南省琼海市富侨路与文明路交叉口西南方向95米左右",
        "tel": "",
        "category": "基础设施:公共设施:公共厕所",
        "type": 0,
        "location": {
            "lat": 19.243438,
            "lng": 110.467854
        },
        "ad_info": {
            "adcode": 469002,
            "province": "海南省",
            "city": "",
            "district": "琼海市"
        }
    },
    {
        "id": "9375548831211128225",
        "title": "琼海市农林局-洗手间",
        "address": "海南省琼海市S201与富海路交叉口正东方向371米左右",
        "tel": "",
        "category": "基础设施:公共设施:公共厕所",
        "type": 0,
        "location": {
            "lat": 19.258055,
            "lng": 110.48351
        },
        "ad_info": {
            "adcode": 469002,
            "province": "海南省",
            "city": "",
            "district": "琼海市"
        }
    },
    {
        "id": "6265711704745067743",
        "title": "东太服务区公共厕所",
        "address": "海南省琼海市G9813万洋高速与东太服务区交叉口西南100米",
        "tel": "",
        "category": "基础设施:公共设施:公共厕所",
        "type": 0,
        "location": {
            "lat": 19.113846,
            "lng": 110.138808
        },
        "ad_info": {
            "adcode": 469002,
            "province": "海南省",
            "city": "",
            "district": "琼海市"
        }
    },
    {
        "id": "961151617499040352",
        "title": "中原服务区公共厕所",
        "address": "海南省琼海市中原服务区",
        "tel": "",
        "category": "基础设施:公共设施:公共厕所",
        "type": 0,
        "location": {
            "lat": 19.156342,
            "lng": 110.463334
        },
        "ad_info": {
            "adcode": 469002,
            "province": "海南省",
            "city": "",
            "district": "琼海市"
        }
    },
    {
        "id": "12579713053111670960",
        "title": "培兰加油站公共厕所",
        "address": "海南省琼海市东海路与迎宾路交叉口正西方向78米左右",
        "tel": "",
        "category": "基础设施:公共设施:公共厕所",
        "type": 0,
        "location": {
            "lat": 19.130301,
            "lng": 110.557456
        },
        "ad_info": {
            "adcode": 469002,
            "province": "海南省",
            "city": "",
            "district": "琼海市"
        }
    },
    {
        "id": "1849260076454196854",
        "title": "匠心牛腩店-卫生间",
        "address": "海南省琼海市兴海中路与学海路交叉口西北方向116米左右",
        "tel": "",
        "category": "基础设施:公共设施:公共厕所",
        "type": 0,
        "location": {
            "lat": 19.248025,
            "lng": 110.478442
        },
        "ad_info": {
            "adcode": 469002,
            "province": "海南省",
            "city": "",
            "district": "琼海市"
        }
    },
    {
        "id": "6265841647787033531",
        "title": "锦绣湘江红太阳酒楼-卫生间",
        "address": "海南省琼海市兴海北路与德海东路交叉口西北方向61米左右",
        "tel": "",
        "category": "基础设施:公共设施:公共厕所",
        "type": 0,
        "location": {
            "lat": 19.256389,
            "lng": 110.474239
        },
        "ad_info": {
            "adcode": 469002,
            "province": "海南省",
            "city": "",
            "district": "琼海市"
        }
    },
    {
        "id": "6473733199973636978",
        "title": "东太服务区公共厕所",
        "address": "海南省琼海市东太服务区与G9813万洋高速交叉口东280米",
        "tel": "",
        "category": "基础设施:公共设施:公共厕所",
        "type": 0,
        "location": {
            "lat": 19.11608,
            "lng": 110.136324
        },
        "ad_info": {
            "adcode": 469002,
            "province": "海南省",
            "city": "",
            "district": "琼海市"
        }
    },
    {
        "id": "3770447363511744712",
        "title": "东红服务区公共厕所",
        "address": "海南省琼海市东红服务区与G98海南环线高速出口交叉口西北100米",
        "tel": "",
        "category": "基础设施:公共设施:公共厕所",
        "type": 0,
        "location": {
            "lat": 19.400688,
            "lng": 110.456999
        },
        "ad_info": {
            "adcode": 469002,
            "province": "海南省",
            "city": "",
            "district": "琼海市"
        }
    },
    {
        "id": "16897662312321633413",
        "title": "琼海市交通运输局洗手间",
        "address": "海南省琼海市金山路与金潭巷交叉口正东方向125米左右",
        "tel": "",
        "category": "基础设施:公共设施:公共厕所",
        "type": 0,
        "location": {
            "lat": 19.250605,
            "lng": 110.469894
        },
        "ad_info": {
            "adcode": 469002,
            "province": "海南省",
            "city": "",
            "district": "琼海市"
        }
    },
    {
        "id": "17093054813455253944",
        "title": "博鳌亚洲论坛大酒店-洗手间",
        "address": "海南省琼海市博鳌东屿岛远洋大道1号(东屿岛上)",
        "tel": "",
        "category": "基础设施:公共设施:公共厕所",
        "type": 0,
        "location": {
            "lat": 19.14574,
            "lng": 110.577212
        },
        "ad_info": {
            "adcode": 469002,
            "province": "海南省",
            "city": "",
            "district": "琼海市"
        }
    },
    {
        "id": "4852199396495371117",
        "title": "良昌美食-卫生间",
        "address": "海南省琼海市银德路与银海路交叉口正东方向167米左右",
        "tel": "",
        "category": "基础设施:公共设施:公共厕所",
        "type": 0,
        "location": {
            "lat": 19.257967,
            "lng": 110.446958
        },
        "ad_info": {
            "adcode": 469002,
            "province": "海南省",
            "city": "",
            "district": "琼海市"
        }
    },
    {
        "id": "2828950407903340838",
        "title": "青创新咖啡厅-卫生间",
        "address": "海南省琼海市东风路与爱华东路交叉口东南方向35米左右",
        "tel": "",
        "category": "基础设施:公共设施:公共厕所",
        "type": 0,
        "location": {
            "lat": 19.2368,
            "lng": 110.462473
        },
        "ad_info": {
            "adcode": 469002,
            "province": "海南省",
            "city": "",
            "district": "琼海市"
        }
    },
    {
        "id": "12991741395641033913",
        "title": "乡村厨房的味道-卫生间",
        "address": "海南省琼海市银德路与银海路交叉口正东方向244米左右",
        "tel": "",
        "category": "基础设施:公共设施:公共厕所",
        "type": 0,
        "location": {
            "lat": 19.258651,
            "lng": 110.447652
        },
        "ad_info": {
            "adcode": 469002,
            "province": "海南省",
            "city": "",
            "district": "琼海市"
        }
    },
    {
        "id": "17486821617007254706",
        "title": "东红服务区公共厕所",
        "address": "海南省琼海市琼海市大路东红服务区与G98海南环线高速出口交叉口东约80米",
        "tel": "",
        "category": "基础设施:公共设施:公共厕所",
        "type": 0,
        "location": {
            "lat": 19.400416,
            "lng": 110.455505
        },
        "ad_info": {
            "adcode": 469002,
            "province": "海南省",
            "city": "",
            "district": "琼海市"
        }
    },
    {
        "id": "7192764114313153497",
        "title": "南正村一村公共厕所",
        "address": "海南省琼海市X356与南正留恋桥交叉口正北方向687米左右",
        "tel": "",
        "category": "基础设施:公共设施:公共厕所",
        "type": 0,
        "location": {
            "lat": 19.163723,
            "lng": 110.348656
        },
        "ad_info": {
            "adcode": 469002,
            "province": "海南省",
            "city": "",
            "district": "琼海市"
        }
    },
    {
        "id": "37191001918016007",
        "title": "中原服务区公共厕所",
        "address": "海南省琼海市X350与海榆东线交叉口正南方向279米左右",
        "tel": "",
        "category": "基础设施:公共设施:公共厕所",
        "type": 0,
        "location": {
            "lat": 19.156583,
            "lng": 110.462118
        },
        "ad_info": {
            "adcode": 469002,
            "province": "海南省",
            "city": "",
            "district": "琼海市"
        }
    },
    {
        "id": "14494719244614737466",
        "title": "公共厕所",
        "address": "海南省琼海市鱼跃潭门停车区与海南环岛旅游公路交叉口北60米",
        "tel": "",
        "category": "基础设施:公共设施:公共厕所",
        "type": 0,
        "location": {
            "lat": 19.245054,
            "lng": 110.629231
        },
        "ad_info": {
            "adcode": 469002,
            "province": "海南省",
            "city": "",
            "district": "琼海市"
        }
    }
]