[
    {
        "id": "1978665014904366659",
        "title": "公共厕所",
        "address": "四川省甘孜藏族自治州康定市下桥与文昌路交叉口正东方向48米左右",
        "tel": "",
        "category": "基础设施:公共设施:公共厕所",
        "type": 0,
        "location": {
            "lat": 30.052419,
            "lng": 101.966807
        },
        "ad_info": {
            "adcode": 513301,
            "province": "四川省",
            "city": "甘孜藏族自治州",
            "district": "康定市"
        }
    },
    {
        "id": "1727724228160753116",
        "title": "公共厕所",
        "address": "四川省甘孜藏族自治州泸定县开湘路5号",
        "tel": "",
        "category": "基础设施:公共设施:公共厕所",
        "type": 0,
        "location": {
            "lat": 29.912144,
            "lng": 102.232751
        },
        "ad_info": {
            "adcode": 513322,
            "province": "四川省",
            "city": "甘孜藏族自治州",
            "district": "泸定县"
        }
    },
    {
        "id": "13319469638268890869",
        "title": "公共厕所",
        "address": "四川省甘孜藏族自治州白玉县河西街与甘白路交叉口正北方向28米左右",
        "tel": "",
        "category": "基础设施:公共设施:公共厕所",
        "type": 0,
        "location": {
            "lat": 31.206264,
            "lng": 98.82427
        },
        "ad_info": {
            "adcode": 513331,
            "province": "四川省",
            "city": "甘孜藏族自治州",
            "district": "白玉县"
        }
    },
    {
        "id": "14368590563333906785",
        "title": "公共厕所",
        "address": "四川省甘孜藏族自治州道孚县希望路与解放东街交叉口西南方向39米左右",
        "tel": "",
        "category": "基础设施:公共设施:公共厕所",
        "type": 0,
        "location": {
            "lat": 30.97745,
            "lng": 101.125167
        },
        "ad_info": {
            "adcode": 513326,
            "province": "四川省",
            "city": "甘孜藏族自治州",
            "district": "道孚县"
        }
    },
    {
        "id": "16394516582392327416",
        "title": "公共厕所",
        "address": "四川省甘孜藏族自治州丹巴县三岔河南路与中国熊猫大道交叉口正东方向328米左右",
        "tel": "",
        "category": "基础设施:公共设施:公共厕所",
        "type": 0,
        "location": {
            "lat": 30.874014,
            "lng": 101.905871
        },
        "ad_info": {
            "adcode": 513323,
            "province": "四川省",
            "city": "甘孜藏族自治州",
            "district": "丹巴县"
        }
    },
    {
        "id": "12673238301211158920",
        "title": "公共厕所",
        "address": "四川省甘孜藏族自治州雅江县梯子巷与解放街交叉口西南方向106米左右",
        "tel": "",
        "category": "基础设施:公共设施:公共厕所",
        "type": 0,
        "location": {
            "lat": 30.03163,
            "lng": 101.014577
        },
        "ad_info": {
            "adcode": 513325,
            "province": "四川省",
            "city": "甘孜藏族自治州",
            "district": "雅江县"
        }
    },
    {
        "id": "12869931807038619315",
        "title": "公共厕所",
        "address": "四川省甘孜藏族自治州巴塘县古商抱石街与茶马古道交叉口正东方向62米左右",
        "tel": "",
        "category": "基础设施:公共设施:公共厕所",
        "type": 0,
        "location": {
            "lat": 30.003416,
            "lng": 99.112942
        },
        "ad_info": {
            "adcode": 513335,
            "province": "四川省",
            "city": "甘孜藏族自治州",
            "district": "巴塘县"
        }
    },
    {
        "id": "5278636418084996145",
        "title": "公共厕所",
        "address": "四川省甘孜藏族自治州泸定县遵义路与长征大道交叉口正南方向156米左右",
        "tel": "",
        "category": "基础设施:公共设施:公共厕所",
        "type": 0,
        "location": {
            "lat": 29.911106,
            "lng": 102.235471
        },
        "ad_info": {
            "adcode": 513322,
            "province": "四川省",
            "city": "甘孜藏族自治州",
            "district": "泸定县"
        }
    },
    {
        "id": "11549636335895812765",
        "title": "公共厕所",
        "address": "四川省甘孜藏族自治州色达县和平街与金马大道东路交叉口西北方向121米左右",
        "tel": "",
        "category": "基础设施:公共设施:公共厕所",
        "type": 0,
        "location": {
            "lat": 32.267765,
            "lng": 100.333668
        },
        "ad_info": {
            "adcode": 513333,
            "province": "四川省",
            "city": "甘孜藏族自治州",
            "district": "色达县"
        }
    },
    {
        "id": "12384928117986210103",
        "title": "公共厕所",
        "address": "四川省甘孜藏族自治州九龙县弯碉路与绵九街交叉口正北方向23米左右",
        "tel": "",
        "category": "基础设施:公共设施:公共厕所",
        "type": 0,
        "location": {
            "lat": 29.00402,
            "lng": 101.504722
        },
        "ad_info": {
            "adcode": 513324,
            "province": "四川省",
            "city": "甘孜藏族自治州",
            "district": "九龙县"
        }
    },
    {
        "id": "9712295114662718985",
        "title": "公共厕所",
        "address": "四川省甘孜藏族自治州泸定县G318与勇士路交叉口正南方向199米左右",
        "tel": "",
        "category": "基础设施:公共设施:公共厕所",
        "type": 0,
        "location": {
            "lat": 29.923929,
            "lng": 102.228299
        },
        "ad_info": {
            "adcode": 513322,
            "province": "四川省",
            "city": "甘孜藏族自治州",
            "district": "泸定县"
        }
    },
    {
        "id": "491521290619818278",
        "title": "公共厕所",
        "address": "四川省甘孜藏族自治州泸定县赤水路9号",
        "tel": "",
        "category": "基础设施:公共设施:公共厕所",
        "type": 0,
        "location": {
            "lat": 29.904169,
            "lng": 102.231168
        },
        "ad_info": {
            "adcode": 513322,
            "province": "四川省",
            "city": "甘孜藏族自治州",
            "district": "泸定县"
        }
    },
    {
        "id": "11626027038965384308",
        "title": "公共厕所",
        "address": "四川省甘孜藏族自治州德格县格萨尔大街与雍珠路交叉口正西方向88米左右",
        "tel": "",
        "category": "基础设施:公共设施:公共厕所",
        "type": 0,
        "location": {
            "lat": 31.807267,
            "lng": 98.579722
        },
        "ad_info": {
            "adcode": 513330,
            "province": "四川省",
            "city": "甘孜藏族自治州",
            "district": "德格县"
        }
    },
    {
        "id": "13162575185434802440",
        "title": "公共厕所",
        "address": "四川省甘孜藏族自治州色达县团结南街10号",
        "tel": "",
        "category": "基础设施:公共设施:公共厕所",
        "type": 0,
        "location": {
            "lat": 32.268072,
            "lng": 100.330831
        },
        "ad_info": {
            "adcode": 513333,
            "province": "四川省",
            "city": "甘孜藏族自治州",
            "district": "色达县"
        }
    },
    {
        "id": "17476872124445429955",
        "title": "公共厕所",
        "address": "四川省甘孜藏族自治州德格县巴宫街13号",
        "tel": "",
        "category": "基础设施:公共设施:公共厕所",
        "type": 0,
        "location": {
            "lat": 31.804112,
            "lng": 98.580169
        },
        "ad_info": {
            "adcode": 513330,
            "province": "四川省",
            "city": "甘孜藏族自治州",
            "district": "德格县"
        }
    },
    {
        "id": "4562151758019049404",
        "title": "公共厕所(SC-GZ-0418)",
        "address": "四川省甘孜藏族自治州雅江县G318与单台隧道交叉口东南方向486米左右",
        "tel": "",
        "category": "基础设施:公共设施:公共厕所",
        "type": 0,
        "location": {
            "lat": 30.066077,
            "lng": 101.184915
        },
        "ad_info": {
            "adcode": 513325,
            "province": "四川省",
            "city": "甘孜藏族自治州",
            "district": "雅江县"
        }
    },
    {
        "id": "5633786280751198389",
        "title": "公共厕所",
        "address": "四川省甘孜藏族自治州德格县G317与雪柯河大桥交叉口西北方向656米左右",
        "tel": "",
        "category": "基础设施:公共设施:公共厕所",
        "type": 0,
        "location": {
            "lat": 31.925396,
            "lng": 99.20265
        },
        "ad_info": {
            "adcode": 513330,
            "province": "四川省",
            "city": "甘孜藏族自治州",
            "district": "德格县"
        }
    },
    {
        "id": "18073970098449704168",
        "title": "公共厕所",
        "address": "四川省甘孜藏族自治州康定市向阳街38号",
        "tel": "",
        "category": "基础设施:公共设施:公共厕所",
        "type": 0,
        "location": {
            "lat": 30.047174,
            "lng": 101.962932
        },
        "ad_info": {
            "adcode": 513301,
            "province": "四川省",
            "city": "甘孜藏族自治州",
            "district": "康定市"
        }
    },
    {
        "id": "8645783011199656729",
        "title": "公共厕所",
        "address": "四川省甘孜藏族自治州新龙县沿江东路南段59号",
        "tel": "",
        "category": "基础设施:公共设施:公共厕所",
        "type": 0,
        "location": {
            "lat": 30.940502,
            "lng": 100.313001
        },
        "ad_info": {
            "adcode": 513329,
            "province": "四川省",
            "city": "甘孜藏族自治州",
            "district": "新龙县"
        }
    },
    {
        "id": "2824048325291229579",
        "title": "公共厕所",
        "address": "四川省甘孜藏族自治州道孚县S220与团结南街交叉口正东方向573米左右",
        "tel": "",
        "category": "基础设施:公共设施:公共厕所",
        "type": 0,
        "location": {
            "lat": 30.971324,
            "lng": 101.137651
        },
        "ad_info": {
            "adcode": 513326,
            "province": "四川省",
            "city": "甘孜藏族自治州",
            "district": "道孚县"
        }
    },
    {
        "id": "12599030676242198104",
        "title": "公共厕所",
        "address": "四川省甘孜藏族自治州炉霍县建设路与步行街交叉口正东方向88米左右",
        "tel": "",
        "category": "基础设施:公共设施:公共厕所",
        "type": 0,
        "location": {
            "lat": 31.393617,
            "lng": 100.681716
        },
        "ad_info": {
            "adcode": 513327,
            "province": "四川省",
            "city": "甘孜藏族自治州",
            "district": "炉霍县"
        }
    },
    {
        "id": "15733224939572982152",
        "title": "公共厕所",
        "address": "四川省甘孜藏族自治州康定市情歌东路与情歌路交叉口正西方向188米左右",
        "tel": "",
        "category": "基础设施:公共设施:公共厕所",
        "type": 0,
        "location": {
            "lat": 30.001978,
            "lng": 101.95725
        },
        "ad_info": {
            "adcode": 513301,
            "province": "四川省",
            "city": "甘孜藏族自治州",
            "district": "康定市"
        }
    },
    {
        "id": "15556412524550002816",
        "title": "公共厕所",
        "address": "四川省甘孜藏族自治州丹巴县光明路与嘉绒步行街交叉口正西方向44米左右",
        "tel": "",
        "category": "基础设施:公共设施:公共厕所",
        "type": 0,
        "location": {
            "lat": 30.877217,
            "lng": 101.887138
        },
        "ad_info": {
            "adcode": 513323,
            "province": "四川省",
            "city": "甘孜藏族自治州",
            "district": "丹巴县"
        }
    },
    {
        "id": "14023892121849979211",
        "title": "公共厕所",
        "address": "四川省甘孜藏族自治州雅江县G318与三道桥一号隧道交叉口正西方向1451米左右",
        "tel": "",
        "category": "基础设施:公共设施:公共厕所",
        "type": 0,
        "location": {
            "lat": 30.044931,
            "lng": 101.042322
        },
        "ad_info": {
            "adcode": 513325,
            "province": "四川省",
            "city": "甘孜藏族自治州",
            "district": "雅江县"
        }
    },
    {
        "id": "10651518888065876594",
        "title": "公共厕所",
        "address": "四川省甘孜藏族自治州雅江县郑师川菜馆西南侧",
        "tel": "",
        "category": "基础设施:公共设施:公共厕所",
        "type": 0,
        "location": {
            "lat": 30.112422,
            "lng": 100.519655
        },
        "ad_info": {
            "adcode": 513325,
            "province": "四川省",
            "city": "甘孜藏族自治州",
            "district": "雅江县"
        }
    },
    {
        "id": "3498735231946343762",
        "title": "公共厕所",
        "address": "四川省甘孜藏族自治州稻城县亚丁路三段与亚丁路二段交叉口西南方向101米左右",
        "tel": "",
        "category": "基础设施:公共设施:公共厕所",
        "type": 0,
        "location": {
            "lat": 29.037357,
            "lng": 100.296989
        },
        "ad_info": {
            "adcode": 513337,
            "province": "四川省",
            "city": "甘孜藏族自治州",
            "district": "稻城县"
        }
    },
    {
        "id": "9153755946280280651",
        "title": "公共厕所",
        "address": "四川省甘孜藏族自治州康定市公主路与向阳街交叉口正北方向147米左右",
        "tel": "",
        "category": "基础设施:公共设施:公共厕所",
        "type": 0,
        "location": {
            "lat": 30.042312,
            "lng": 101.96054
        },
        "ad_info": {
            "adcode": 513301,
            "province": "四川省",
            "city": "甘孜藏族自治州",
            "district": "康定市"
        }
    },
    {
        "id": "72840533615587910",
        "title": "公共厕所",
        "address": "四川省甘孜藏族自治州得荣县041县道东50米",
        "tel": "",
        "category": "基础设施:公共设施:公共厕所",
        "type": 0,
        "location": {
            "lat": 28.642327,
            "lng": 99.279468
        },
        "ad_info": {
            "adcode": 513338,
            "province": "四川省",
            "city": "甘孜藏族自治州",
            "district": "得荣县"
        }
    },
    {
        "id": "9893220653737020242",
        "title": "公共厕所",
        "address": "四川省甘孜藏族自治州巴塘县G215与茶树山中桥交叉口西南方向313米左右",
        "tel": "",
        "category": "基础设施:公共设施:公共厕所",
        "type": 0,
        "location": {
            "lat": 29.953475,
            "lng": 99.072697
        },
        "ad_info": {
            "adcode": 513335,
            "province": "四川省",
            "city": "甘孜藏族自治州",
            "district": "巴塘县"
        }
    },
    {
        "id": "16215270452339049107",
        "title": "公共厕所",
        "address": "四川省甘孜藏族自治州雅江县沿江街60号",
        "tel": "",
        "category": "基础设施:公共设施:公共厕所",
        "type": 0,
        "location": {
            "lat": 30.023505,
            "lng": 101.012694
        },
        "ad_info": {
            "adcode": 513325,
            "province": "四川省",
            "city": "甘孜藏族自治州",
            "district": "雅江县"
        }
    },
    {
        "id": "523209756420582546",
        "title": "公共厕所",
        "address": "四川省甘孜藏族自治州巴塘县318国道",
        "tel": "",
        "category": "基础设施:公共设施:公共厕所",
        "type": 0,
        "location": {
            "lat": 30.179918,
            "lng": 99.209172
        },
        "ad_info": {
            "adcode": 513335,
            "province": "四川省",
            "city": "甘孜藏族自治州",
            "district": "巴塘县"
        }
    },
    {
        "id": "8171160632915325292",
        "title": "公共厕所",
        "address": "四川省甘孜藏族自治州丹巴县墨尔多山镇八科村",
        "tel": "",
        "category": "基础设施:公共设施:公共厕所",
        "type": 0,
        "location": {
            "lat": 30.947753,
            "lng": 101.983292
        },
        "ad_info": {
            "adcode": 513323,
            "province": "四川省",
            "city": "甘孜藏族自治州",
            "district": "丹巴县"
        }
    },
    {
        "id": "9689459160280898740",
        "title": "公共厕所",
        "address": "四川省甘孜藏族自治州雅江县解放街164号",
        "tel": "",
        "category": "基础设施:公共设施:公共厕所",
        "type": 0,
        "location": {
            "lat": 30.030461,
            "lng": 101.01388
        },
        "ad_info": {
            "adcode": 513325,
            "province": "四川省",
            "city": "甘孜藏族自治州",
            "district": "雅江县"
        }
    },
    {
        "id": "12678983073562448889",
        "title": "公共厕所",
        "address": "四川省甘孜藏族自治州理塘县团结北路与希望路交叉口正西方向104米左右",
        "tel": "",
        "category": "基础设施:公共设施:公共厕所",
        "type": 0,
        "location": {
            "lat": 29.994143,
            "lng": 100.268277
        },
        "ad_info": {
            "adcode": 513334,
            "province": "四川省",
            "city": "甘孜藏族自治州",
            "district": "理塘县"
        }
    },
    {
        "id": "4785093680561673856",
        "title": "公共厕所",
        "address": "四川省甘孜藏族自治州道孚县中国熊猫大道",
        "tel": "",
        "category": "基础设施:公共设施:公共厕所",
        "type": 0,
        "location": {
            "lat": 30.674908,
            "lng": 101.393807
        },
        "ad_info": {
            "adcode": 513326,
            "province": "四川省",
            "city": "甘孜藏族自治州",
            "district": "道孚县"
        }
    },
    {
        "id": "14444597186998011078",
        "title": "公共厕所",
        "address": "四川省甘孜藏族自治州德格县藏医街28号",
        "tel": "",
        "category": "基础设施:公共设施:公共厕所",
        "type": 0,
        "location": {
            "lat": 31.799904,
            "lng": 98.575475
        },
        "ad_info": {
            "adcode": 513330,
            "province": "四川省",
            "city": "甘孜藏族自治州",
            "district": "德格县"
        }
    },
    {
        "id": "14544393410327901153",
        "title": "公共厕所",
        "address": "四川省甘孜藏族自治州德格县G317与翠湖路交叉口西南方向1671米",
        "tel": "",
        "category": "基础设施:公共设施:公共厕所",
        "type": 0,
        "location": {
            "lat": 31.797719,
            "lng": 99.409049
        },
        "ad_info": {
            "adcode": 513330,
            "province": "四川省",
            "city": "甘孜藏族自治州",
            "district": "德格县"
        }
    },
    {
        "id": "11716883917721596204",
        "title": "公共厕所",
        "address": "四川省甘孜藏族自治州白玉县博嘎手工文化主题酒店东北侧80米",
        "tel": "",
        "category": "基础设施:公共设施:公共厕所",
        "type": 0,
        "location": {
            "lat": 31.378082,
            "lng": 98.955665
        },
        "ad_info": {
            "adcode": 513331,
            "province": "四川省",
            "city": "甘孜藏族自治州",
            "district": "白玉县"
        }
    },
    {
        "id": "15090998503939574431",
        "title": "公共厕所",
        "address": "四川省甘孜藏族自治州德格县梅朵月光民宿西侧",
        "tel": "",
        "category": "基础设施:公共设施:公共厕所",
        "type": 0,
        "location": {
            "lat": 31.810389,
            "lng": 99.423417
        },
        "ad_info": {
            "adcode": 513330,
            "province": "四川省",
            "city": "甘孜藏族自治州",
            "district": "德格县"
        }
    },
    {
        "id": "460738439725570271",
        "title": "公共厕所",
        "address": "四川省甘孜藏族自治州雅江县G318与东城街交叉口东北方向1525米左右",
        "tel": "",
        "category": "基础设施:公共设施:公共厕所",
        "type": 0,
        "location": {
            "lat": 30.040394,
            "lng": 101.03241
        },
        "ad_info": {
            "adcode": 513325,
            "province": "四川省",
            "city": "甘孜藏族自治州",
            "district": "雅江县"
        }
    },
    {
        "id": "3787591232909904018",
        "title": "公共厕所",
        "address": "四川省甘孜藏族自治州色达县解放路东段18号",
        "tel": "",
        "category": "基础设施:公共设施:公共厕所",
        "type": 0,
        "location": {
            "lat": 32.265561,
            "lng": 100.33516
        },
        "ad_info": {
            "adcode": 513333,
            "province": "四川省",
            "city": "甘孜藏族自治州",
            "district": "色达县"
        }
    },
    {
        "id": "7657621369926334448",
        "title": "公共厕所",
        "address": "四川省甘孜藏族自治州丹巴县三岔河南路与中国熊猫大道交叉口正东方向429米左右",
        "tel": "",
        "category": "基础设施:公共设施:公共厕所",
        "type": 0,
        "location": {
            "lat": 30.873383,
            "lng": 101.906779
        },
        "ad_info": {
            "adcode": 513323,
            "province": "四川省",
            "city": "甘孜藏族自治州",
            "district": "丹巴县"
        }
    },
    {
        "id": "17034076877499096687",
        "title": "公共厕所",
        "address": "四川省甘孜藏族自治州得荣县河西下街1号",
        "tel": "",
        "category": "基础设施:公共设施:公共厕所",
        "type": 0,
        "location": {
            "lat": 28.710881,
            "lng": 99.287833
        },
        "ad_info": {
            "adcode": 513338,
            "province": "四川省",
            "city": "甘孜藏族自治州",
            "district": "得荣县"
        }
    },
    {
        "id": "5168693752698149735",
        "title": "公共厕所",
        "address": "四川省甘孜藏族自治州甘孜县新区路与机场大道交叉口正西方向106米左右",
        "tel": "",
        "category": "基础设施:公共设施:公共厕所",
        "type": 0,
        "location": {
            "lat": 31.620838,
            "lng": 99.994303
        },
        "ad_info": {
            "adcode": 513328,
            "province": "四川省",
            "city": "甘孜藏族自治州",
            "district": "甘孜县"
        }
    },
    {
        "id": "7432620179050147178",
        "title": "公共厕所",
        "address": "四川省甘孜藏族自治州康定市彩虹桥与沿河东路交叉口东北方向41米左右",
        "tel": "",
        "category": "基础设施:公共设施:公共厕所",
        "type": 0,
        "location": {
            "lat": 30.050275,
            "lng": 101.964654
        },
        "ad_info": {
            "adcode": 513301,
            "province": "四川省",
            "city": "甘孜藏族自治州",
            "district": "康定市"
        }
    },
    {
        "id": "9059378882636351540",
        "title": "公共厕所",
        "address": "四川省甘孜藏族自治州甘孜县东大街22号",
        "tel": "",
        "category": "基础设施:公共设施:公共厕所",
        "type": 0,
        "location": {
            "lat": 31.618396,
            "lng": 99.993028
        },
        "ad_info": {
            "adcode": 513328,
            "province": "四川省",
            "city": "甘孜藏族自治州",
            "district": "甘孜县"
        }
    },
    {
        "id": "7296491065129054341",
        "title": "公共厕所",
        "address": "四川省甘孜藏族自治州德格县G317与S458交叉口东北方向289米左右",
        "tel": "",
        "category": "基础设施:公共设施:公共厕所",
        "type": 0,
        "location": {
            "lat": 31.923853,
            "lng": 99.212722
        },
        "ad_info": {
            "adcode": 513330,
            "province": "四川省",
            "city": "甘孜藏族自治州",
            "district": "德格县"
        }
    },
    {
        "id": "4851625898015488780",
        "title": "公共厕所",
        "address": "四川省甘孜藏族自治州雅江县G318与S220交叉口正西方向814米左右",
        "tel": "",
        "category": "基础设施:公共设施:公共厕所",
        "type": 0,
        "location": {
            "lat": 30.037322,
            "lng": 101.001932
        },
        "ad_info": {
            "adcode": 513325,
            "province": "四川省",
            "city": "甘孜藏族自治州",
            "district": "雅江县"
        }
    },
    {
        "id": "17414214027023360670",
        "title": "公共厕所",
        "address": "四川省甘孜藏族自治州炉霍县望果大道与望果大道西段交叉口西南方向43米左右",
        "tel": "",
        "category": "基础设施:公共设施:公共厕所",
        "type": 0,
        "location": {
            "lat": 31.396531,
            "lng": 100.666171
        },
        "ad_info": {
            "adcode": 513327,
            "province": "四川省",
            "city": "甘孜藏族自治州",
            "district": "炉霍县"
        }
    },
    {
        "id": "8680081185560525170",
        "title": "公共厕所",
        "address": "四川省甘孜藏族自治州道孚县303省道东50米",
        "tel": "",
        "category": "基础设施:公共设施:公共厕所",
        "type": 0,
        "location": {
            "lat": 30.936934,
            "lng": 101.181434
        },
        "ad_info": {
            "adcode": 513326,
            "province": "四川省",
            "city": "甘孜藏族自治州",
            "district": "道孚县"
        }
    },
    {
        "id": "9464075555309082258",
        "title": "公共厕所",
        "address": "四川省甘孜藏族自治州色达县S454与S455交叉口正南方向146米左右",
        "tel": "",
        "category": "基础设施:公共设施:公共厕所",
        "type": 0,
        "location": {
            "lat": 32.208117,
            "lng": 100.26069
        },
        "ad_info": {
            "adcode": 513333,
            "province": "四川省",
            "city": "甘孜藏族自治州",
            "district": "色达县"
        }
    },
    {
        "id": "564713970241335971",
        "title": "公共厕所",
        "address": "四川省甘孜藏族自治州乡城县G549与S217交叉口正南方向1678米左右",
        "tel": "",
        "category": "基础设施:公共设施:公共厕所",
        "type": 0,
        "location": {
            "lat": 29.111854,
            "lng": 100.032858
        },
        "ad_info": {
            "adcode": 513336,
            "province": "四川省",
            "city": "甘孜藏族自治州",
            "district": "乡城县"
        }
    },
    {
        "id": "8598106224585408428",
        "title": "公共厕所",
        "address": "四川省甘孜藏族自治州道孚县G248与中国熊猫大道交叉口东南方向270米左右",
        "tel": "",
        "category": "基础设施:公共设施:公共厕所",
        "type": 0,
        "location": {
            "lat": 30.47942,
            "lng": 101.489265
        },
        "ad_info": {
            "adcode": 513326,
            "province": "四川省",
            "city": "甘孜藏族自治州",
            "district": "道孚县"
        }
    },
    {
        "id": "12410322821207161641",
        "title": "公共厕所",
        "address": "四川省甘孜藏族自治州道孚县团结大道与花园路交叉口正北方向365米左右",
        "tel": "",
        "category": "基础设施:公共设施:公共厕所",
        "type": 0,
        "location": {
            "lat": 30.968174,
            "lng": 101.143886
        },
        "ad_info": {
            "adcode": 513326,
            "province": "四川省",
            "city": "甘孜藏族自治州",
            "district": "道孚县"
        }
    },
    {
        "id": "14621766118644048444",
        "title": "公共厕所",
        "address": "四川省甘孜藏族自治州道孚县熊猫大道西南侧",
        "tel": "",
        "category": "基础设施:公共设施:公共厕所",
        "type": 0,
        "location": {
            "lat": 30.879638,
            "lng": 101.238327
        },
        "ad_info": {
            "adcode": 513326,
            "province": "四川省",
            "city": "甘孜藏族自治州",
            "district": "道孚县"
        }
    },
    {
        "id": "16110323592704711741",
        "title": "公共厕所",
        "address": "四川省甘孜藏族自治州稻城县G227与机场路交叉口正南方向1705米左右",
        "tel": "",
        "category": "基础设施:公共设施:公共厕所",
        "type": 0,
        "location": {
            "lat": 29.294386,
            "lng": 100.08298
        },
        "ad_info": {
            "adcode": 513337,
            "province": "四川省",
            "city": "甘孜藏族自治州",
            "district": "稻城县"
        }
    },
    {
        "id": "8205101169202039449",
        "title": "公共厕所",
        "address": "四川省甘孜藏族自治州德格县317国道",
        "tel": "",
        "category": "基础设施:公共设施:公共厕所",
        "type": 0,
        "location": {
            "lat": 31.753981,
            "lng": 99.543357
        },
        "ad_info": {
            "adcode": 513330,
            "province": "四川省",
            "city": "甘孜藏族自治州",
            "district": "德格县"
        }
    },
    {
        "id": "13080440105299690110",
        "title": "公共厕所",
        "address": "四川省甘孜藏族自治州九龙县G248与S215交叉口西南方向46米左右",
        "tel": "",
        "category": "基础设施:公共设施:公共厕所",
        "type": 0,
        "location": {
            "lat": 28.531737,
            "lng": 101.74196
        },
        "ad_info": {
            "adcode": 513324,
            "province": "四川省",
            "city": "甘孜藏族自治州",
            "district": "九龙县"
        }
    },
    {
        "id": "3726409124221703253",
        "title": "公共厕所",
        "address": "四川省甘孜藏族自治州乡城县S217与青麦大桥交叉口正南方向688米左右",
        "tel": "",
        "category": "基础设施:公共设施:公共厕所",
        "type": 0,
        "location": {
            "lat": 28.81772,
            "lng": 99.831471
        },
        "ad_info": {
            "adcode": 513336,
            "province": "四川省",
            "city": "甘孜藏族自治州",
            "district": "乡城县"
        }
    },
    {
        "id": "16059769328492194548",
        "title": "公共厕所",
        "address": "四川省甘孜藏族自治州泸定县S211与Y002交叉口西北方向60米左右",
        "tel": "",
        "category": "基础设施:公共设施:公共厕所",
        "type": 0,
        "location": {
            "lat": 29.620771,
            "lng": 102.166677
        },
        "ad_info": {
            "adcode": 513322,
            "province": "四川省",
            "city": "甘孜藏族自治州",
            "district": "泸定县"
        }
    },
    {
        "id": "11256024273333815737",
        "title": "公共厕所",
        "address": "四川省甘孜藏族自治州炉霍县商业街与沿河西街上段交叉口西南方向73米左右",
        "tel": "",
        "category": "基础设施:公共设施:公共厕所",
        "type": 0,
        "location": {
            "lat": 31.390991,
            "lng": 100.677886
        },
        "ad_info": {
            "adcode": 513327,
            "province": "四川省",
            "city": "甘孜藏族自治州",
            "district": "炉霍县"
        }
    },
    {
        "id": "5760736415874545310",
        "title": "公共厕所",
        "address": "四川省甘孜藏族自治州泸定县Y002与安家湾大桥交叉口正南方向1855米左右",
        "tel": "",
        "category": "基础设施:公共设施:公共厕所",
        "type": 0,
        "location": {
            "lat": 29.683558,
            "lng": 102.202674
        },
        "ad_info": {
            "adcode": 513322,
            "province": "四川省",
            "city": "甘孜藏族自治州",
            "district": "泸定县"
        }
    },
    {
        "id": "12890115647619092924",
        "title": "公共厕所",
        "address": "四川省甘孜藏族自治州新龙县人民路与文江街交叉口西南方向94米左右",
        "tel": "",
        "category": "基础设施:公共设施:公共厕所",
        "type": 0,
        "location": {
            "lat": 30.937913,
            "lng": 100.31055
        },
        "ad_info": {
            "adcode": 513329,
            "province": "四川省",
            "city": "甘孜藏族自治州",
            "district": "新龙县"
        }
    },
    {
        "id": "10716802768566625810",
        "title": "公共厕所",
        "address": "四川省甘孜藏族自治州丹巴县S211",
        "tel": "",
        "category": "基础设施:公共设施:公共厕所",
        "type": 0,
        "location": {
            "lat": 31.158861,
            "lng": 101.922814
        },
        "ad_info": {
            "adcode": 513323,
            "province": "四川省",
            "city": "甘孜藏族自治州",
            "district": "丹巴县"
        }
    },
    {
        "id": "3299580804955162664",
        "title": "公共厕所",
        "address": "四川省甘孜藏族自治州乡城县",
        "tel": "",
        "category": "基础设施:公共设施:公共厕所",
        "type": 0,
        "location": {
            "lat": 28.767182,
            "lng": 99.833889
        },
        "ad_info": {
            "adcode": 513336,
            "province": "四川省",
            "city": "甘孜藏族自治州",
            "district": "乡城县"
        }
    },
    {
        "id": "13674754864727599969",
        "title": "公共厕所",
        "address": "四川省甘孜藏族自治州泸定县G318与滴水岩大桥交叉口正北方向481米左右",
        "tel": "",
        "category": "基础设施:公共设施:公共厕所",
        "type": 0,
        "location": {
            "lat": 29.835033,
            "lng": 102.251513
        },
        "ad_info": {
            "adcode": 513322,
            "province": "四川省",
            "city": "甘孜藏族自治州",
            "district": "泸定县"
        }
    },
    {
        "id": "15111409351229675896",
        "title": "公共厕所",
        "address": "四川省甘孜藏族自治州丹巴县001乡道附近甲居藏寨内",
        "tel": "",
        "category": "基础设施:公共设施:公共厕所",
        "type": 0,
        "location": {
            "lat": 30.917453,
            "lng": 101.874375
        },
        "ad_info": {
            "adcode": 513323,
            "province": "四川省",
            "city": "甘孜藏族自治州",
            "district": "丹巴县"
        }
    },
    {
        "id": "9025808761408763254",
        "title": "公共厕所",
        "address": "四川省甘孜藏族自治州九龙县绵九街1号",
        "tel": "",
        "category": "基础设施:公共设施:公共厕所",
        "type": 0,
        "location": {
            "lat": 29.004366,
            "lng": 101.503516
        },
        "ad_info": {
            "adcode": 513324,
            "province": "四川省",
            "city": "甘孜藏族自治州",
            "district": "九龙县"
        }
    },
    {
        "id": "7937957784208508700",
        "title": "公共厕所",
        "address": "四川省甘孜藏族自治州色达县G548与石门坎中桥交叉口西北方向265米左右",
        "tel": "",
        "category": "基础设施:公共设施:公共厕所",
        "type": 0,
        "location": {
            "lat": 32.007784,
            "lng": 100.634285
        },
        "ad_info": {
            "adcode": 513333,
            "province": "四川省",
            "city": "甘孜藏族自治州",
            "district": "色达县"
        }
    },
    {
        "id": "13361050327949507262",
        "title": "公共厕所",
        "address": "四川省甘孜藏族自治州德格县巴宫街与德兴路交叉口西南方向52米左右",
        "tel": "",
        "category": "基础设施:公共设施:公共厕所",
        "type": 0,
        "location": {
            "lat": 31.804969,
            "lng": 98.579225
        },
        "ad_info": {
            "adcode": 513330,
            "province": "四川省",
            "city": "甘孜藏族自治州",
            "district": "德格县"
        }
    },
    {
        "id": "12902725571540944934",
        "title": "公共厕所",
        "address": "四川省甘孜藏族自治州炉霍县中国熊猫大道与团结路东四巷交叉口西北方向56米左右",
        "tel": "",
        "category": "基础设施:公共设施:公共厕所",
        "type": 0,
        "location": {
            "lat": 31.396462,
            "lng": 100.681232
        },
        "ad_info": {
            "adcode": 513327,
            "province": "四川省",
            "city": "甘孜藏族自治州",
            "district": "炉霍县"
        }
    },
    {
        "id": "14235868984329809971",
        "title": "公共厕所",
        "address": "四川省甘孜藏族自治州康定市G318与康东大道交叉口正东方向70米左右",
        "tel": "",
        "category": "基础设施:公共设施:公共厕所",
        "type": 0,
        "location": {
            "lat": 30.055077,
            "lng": 101.98485
        },
        "ad_info": {
            "adcode": 513301,
            "province": "四川省",
            "city": "甘孜藏族自治州",
            "district": "康定市"
        }
    },
    {
        "id": "11989048431305470353",
        "title": "公共厕所",
        "address": "四川省甘孜藏族自治州乡城县G549与娘拥大桥交叉口正东方向229米左右",
        "tel": "",
        "category": "基础设施:公共设施:公共厕所",
        "type": 0,
        "location": {
            "lat": 29.045185,
            "lng": 99.891555
        },
        "ad_info": {
            "adcode": 513336,
            "province": "四川省",
            "city": "甘孜藏族自治州",
            "district": "乡城县"
        }
    },
    {
        "id": "9373169296779883207",
        "title": "公共厕所",
        "address": "四川省甘孜藏族自治州稻城县冰川石河东南侧",
        "tel": "",
        "category": "基础设施:公共设施:公共厕所",
        "type": 0,
        "location": {
            "lat": 29.294636,
            "lng": 100.083452
        },
        "ad_info": {
            "adcode": 513337,
            "province": "四川省",
            "city": "甘孜藏族自治州",
            "district": "稻城县"
        }
    },
    {
        "id": "6758396045688162236",
        "title": "公共厕所",
        "address": "四川省甘孜藏族自治州色达县G548与依日大桥交叉口正南方向349米左右",
        "tel": "",
        "category": "基础设施:公共设施:公共厕所",
        "type": 0,
        "location": {
            "lat": 31.869368,
            "lng": 100.690571
        },
        "ad_info": {
            "adcode": 513333,
            "province": "四川省",
            "city": "甘孜藏族自治州",
            "district": "色达县"
        }
    },
    {
        "id": "529249988113341649",
        "title": "公共厕所",
        "address": "四川省甘孜藏族自治州德格县城关寄宿制小学校西南侧150米",
        "tel": "",
        "category": "基础设施:公共设施:公共厕所",
        "type": 0,
        "location": {
            "lat": 31.800649,
            "lng": 98.576262
        },
        "ad_info": {
            "adcode": 513330,
            "province": "四川省",
            "city": "甘孜藏族自治州",
            "district": "德格县"
        }
    },
    {
        "id": "7337045247953803805",
        "title": "公共厕所",
        "address": "四川省甘孜藏族自治州雅江县318国道西50米",
        "tel": "",
        "category": "基础设施:公共设施:公共厕所",
        "type": 0,
        "location": {
            "lat": 30.003195,
            "lng": 100.943604
        },
        "ad_info": {
            "adcode": 513325,
            "province": "四川省",
            "city": "甘孜藏族自治州",
            "district": "雅江县"
        }
    },
    {
        "id": "7278750541241794176",
        "title": "公共厕所",
        "address": "四川省甘孜藏族自治州泸定县G318与挖角沟大桥交叉口东南方向514米左右",
        "tel": "",
        "category": "基础设施:公共设施:公共厕所",
        "type": 0,
        "location": {
            "lat": 29.826897,
            "lng": 102.229621
        },
        "ad_info": {
            "adcode": 513322,
            "province": "四川省",
            "city": "甘孜藏族自治州",
            "district": "泸定县"
        }
    },
    {
        "id": "9936730854367018281",
        "title": "公共卫生间",
        "address": "四川省甘孜藏族自治州理塘县",
        "tel": "",
        "category": "基础设施:公共设施:公共厕所",
        "type": 0,
        "location": {
            "lat": 29.990581,
            "lng": 100.268354
        },
        "ad_info": {
            "adcode": 513334,
            "province": "四川省",
            "city": "甘孜藏族自治州",
            "district": "理塘县"
        }
    },
    {
        "id": "17659537476517518977",
        "title": "公共厕所",
        "address": "四川省甘孜藏族自治州甘孜县打金滩与菜市街交叉口西南方向162米左右",
        "tel": "",
        "category": "基础设施:公共设施:公共厕所",
        "type": 0,
        "location": {
            "lat": 31.615613,
            "lng": 99.986539
        },
        "ad_info": {
            "adcode": 513328,
            "province": "四川省",
            "city": "甘孜藏族自治州",
            "district": "甘孜县"
        }
    },
    {
        "id": "2640895476508262956",
        "title": "公共厕所",
        "address": "四川省甘孜藏族自治州康定市318国道2919处",
        "tel": "",
        "category": "基础设施:公共设施:公共厕所",
        "type": 0,
        "location": {
            "lat": 30.044162,
            "lng": 101.495044
        },
        "ad_info": {
            "adcode": 513301,
            "province": "四川省",
            "city": "甘孜藏族自治州",
            "district": "康定市"
        }
    },
    {
        "id": "17737331320201290639",
        "title": "公共厕所",
        "address": "四川省甘孜藏族自治州雅江县318国道南50米",
        "tel": "",
        "category": "基础设施:公共设施:公共厕所",
        "type": 0,
        "location": {
            "lat": 29.983051,
            "lng": 100.908271
        },
        "ad_info": {
            "adcode": 513325,
            "province": "四川省",
            "city": "甘孜藏族自治州",
            "district": "雅江县"
        }
    },
    {
        "id": "8971169049033692008",
        "title": "公共厕所",
        "address": "四川省甘孜藏族自治州雅江县318国道西50米",
        "tel": "",
        "category": "基础设施:公共设施:公共厕所",
        "type": 0,
        "location": {
            "lat": 29.998954,
            "lng": 100.937903
        },
        "ad_info": {
            "adcode": 513325,
            "province": "四川省",
            "city": "甘孜藏族自治州",
            "district": "雅江县"
        }
    },
    {
        "id": "1239152072098239664",
        "title": "公共厕所",
        "address": "四川省甘孜藏族自治州雅江县318国道西50米",
        "tel": "",
        "category": "基础设施:公共设施:公共厕所",
        "type": 0,
        "location": {
            "lat": 30.001728,
            "lng": 100.942488
        },
        "ad_info": {
            "adcode": 513325,
            "province": "四川省",
            "city": "甘孜藏族自治州",
            "district": "雅江县"
        }
    },
    {
        "id": "1134790670524015170",
        "title": "公共厕所",
        "address": "四川省甘孜藏族自治州泸定县S211与海螺沟大桥交叉口西北方向94米左右",
        "tel": "",
        "category": "基础设施:公共设施:公共厕所",
        "type": 0,
        "location": {
            "lat": 29.603159,
            "lng": 102.170606
        },
        "ad_info": {
            "adcode": 513322,
            "province": "四川省",
            "city": "甘孜藏族自治州",
            "district": "泸定县"
        }
    },
    {
        "id": "7508182744854911253",
        "title": "公共厕所",
        "address": "四川省甘孜藏族自治州德格县G317与岗托桥交叉口正西方向45米",
        "tel": "",
        "category": "基础设施:公共设施:公共厕所",
        "type": 0,
        "location": {
            "lat": 31.624084,
            "lng": 98.591071
        },
        "ad_info": {
            "adcode": 513330,
            "province": "四川省",
            "city": "甘孜藏族自治州",
            "district": "德格县"
        }
    },
    {
        "id": "4259541195989102111",
        "title": "公共厕所",
        "address": "四川省甘孜藏族自治州炉霍县团结路与团结路东一巷交叉口东南方向698米左右",
        "tel": "",
        "category": "基础设施:公共设施:公共厕所",
        "type": 0,
        "location": {
            "lat": 31.385645,
            "lng": 100.686999
        },
        "ad_info": {
            "adcode": 513327,
            "province": "四川省",
            "city": "甘孜藏族自治州",
            "district": "炉霍县"
        }
    },
    {
        "id": "4898055269817305505",
        "title": "公共厕所",
        "address": "四川省甘孜藏族自治州德格县雍珠路6号",
        "tel": "",
        "category": "基础设施:公共设施:公共厕所",
        "type": 0,
        "location": {
            "lat": 31.807566,
            "lng": 98.580533
        },
        "ad_info": {
            "adcode": 513330,
            "province": "四川省",
            "city": "甘孜藏族自治州",
            "district": "德格县"
        }
    },
    {
        "id": "8855677959159319948",
        "title": "卫生间",
        "address": "四川省甘孜藏族自治州巴塘县文化综合大楼内",
        "tel": "",
        "category": "基础设施:公共设施:公共厕所",
        "type": 0,
        "location": {
            "lat": 30.002424,
            "lng": 99.108964
        },
        "ad_info": {
            "adcode": 513335,
            "province": "四川省",
            "city": "甘孜藏族自治州",
            "district": "巴塘县"
        }
    },
    {
        "id": "13911303365836836607",
        "title": "公共厕所",
        "address": "四川省甘孜藏族自治州康定市S211与若吉大桥交叉口正北方向1606米左右",
        "tel": "",
        "category": "基础设施:公共设施:公共厕所",
        "type": 0,
        "location": {
            "lat": 30.103881,
            "lng": 102.175929
        },
        "ad_info": {
            "adcode": 513301,
            "province": "四川省",
            "city": "甘孜藏族自治州",
            "district": "康定市"
        }
    },
    {
        "id": "8217239828608178136",
        "title": "公共厕所",
        "address": "四川省甘孜藏族自治州泸定县G318与S211交叉口东北方向390米左右",
        "tel": "",
        "category": "基础设施:公共设施:公共厕所",
        "type": 0,
        "location": {
            "lat": 29.825081,
            "lng": 102.223935
        },
        "ad_info": {
            "adcode": 513322,
            "province": "四川省",
            "city": "甘孜藏族自治州",
            "district": "泸定县"
        }
    },
    {
        "id": "17801152682885603030",
        "title": "公共厕所",
        "address": "四川省甘孜藏族自治州康定市西大街119号",
        "tel": "",
        "category": "基础设施:公共设施:公共厕所",
        "type": 0,
        "location": {
            "lat": 30.053104,
            "lng": 101.964948
        },
        "ad_info": {
            "adcode": 513301,
            "province": "四川省",
            "city": "甘孜藏族自治州",
            "district": "康定市"
        }
    },
    {
        "id": "5863097106827170840",
        "title": "公共厕所",
        "address": "四川省甘孜藏族自治州康定市雪山情缘民宿东南侧50米",
        "tel": "",
        "category": "基础设施:公共设施:公共厕所",
        "type": 0,
        "location": {
            "lat": 30.313789,
            "lng": 101.551165
        },
        "ad_info": {
            "adcode": 513301,
            "province": "四川省",
            "city": "甘孜藏族自治州",
            "district": "康定市"
        }
    },
    {
        "id": "10501244552440436972",
        "title": "公共厕所",
        "address": "四川省甘孜藏族自治州康定市康定藏漂单骑驿站西侧70米",
        "tel": "",
        "category": "基础设施:公共设施:公共厕所",
        "type": 0,
        "location": {
            "lat": 29.99082,
            "lng": 101.886517
        },
        "ad_info": {
            "adcode": 513301,
            "province": "四川省",
            "city": "甘孜藏族自治州",
            "district": "康定市"
        }
    },
    {
        "id": "11065223091887879092",
        "title": "公共厕所",
        "address": "四川省甘孜藏族自治州理塘县团结路北段与希望路交叉口北80米",
        "tel": "",
        "category": "基础设施:公共设施:公共厕所",
        "type": 0,
        "location": {
            "lat": 29.99505,
            "lng": 100.26945
        },
        "ad_info": {
            "adcode": 513334,
            "province": "四川省",
            "city": "甘孜藏族自治州",
            "district": "理塘县"
        }
    },
    {
        "id": "18017822265904275865",
        "title": "公共厕所",
        "address": "四川省甘孜藏族自治州康定市康东大道82号",
        "tel": "",
        "category": "基础设施:公共设施:公共厕所",
        "type": 0,
        "location": {
            "lat": 30.054376,
            "lng": 101.976987
        },
        "ad_info": {
            "adcode": 513301,
            "province": "四川省",
            "city": "甘孜藏族自治州",
            "district": "康定市"
        }
    },
    {
        "id": "9276981665295428545",
        "title": "公共厕所",
        "address": "四川省甘孜藏族自治州康定市向阳街与沿河东路交叉口东南方向112米左右",
        "tel": "",
        "category": "基础设施:公共设施:公共厕所",
        "type": 0,
        "location": {
            "lat": 30.043551,
            "lng": 101.961354
        },
        "ad_info": {
            "adcode": 513301,
            "province": "四川省",
            "city": "甘孜藏族自治州",
            "district": "康定市"
        }
    },
    {
        "id": "682548237233273147",
        "title": "公共厕所",
        "address": "四川省甘孜藏族自治州康定市炉城镇光明路西炉足忆(安觉寺附近)",
        "tel": "",
        "category": "基础设施:公共设施:公共厕所",
        "type": 0,
        "location": {
            "lat": 30.047232,
            "lng": 101.961588
        },
        "ad_info": {
            "adcode": 513301,
            "province": "四川省",
            "city": "甘孜藏族自治州",
            "district": "康定市"
        }
    },
    {
        "id": "14691618992799585975",
        "title": "公共厕所",
        "address": "四川省甘孜藏族自治州理塘县哈戈街与幸福东路交叉口正西方向25米左右",
        "tel": "",
        "category": "基础设施:公共设施:公共厕所",
        "type": 0,
        "location": {
            "lat": 29.990299,
            "lng": 100.274165
        },
        "ad_info": {
            "adcode": 513334,
            "province": "四川省",
            "city": "甘孜藏族自治州",
            "district": "理塘县"
        }
    },
    {
        "id": "7411712581221281146",
        "title": "公共厕所",
        "address": "四川省甘孜藏族自治州康定市318国道2914界桩",
        "tel": "",
        "category": "基础设施:公共设施:公共厕所",
        "type": 0,
        "location": {
            "lat": 30.035428,
            "lng": 101.547596
        },
        "ad_info": {
            "adcode": 513301,
            "province": "四川省",
            "city": "甘孜藏族自治州",
            "district": "康定市"
        }
    },
    {
        "id": "4378520639056842097",
        "title": "公共厕所",
        "address": "四川省甘孜藏族自治州康定市318国道北100米",
        "tel": "",
        "category": "基础设施:公共设施:公共厕所",
        "type": 0,
        "location": {
            "lat": 30.07266,
            "lng": 102.141981
        },
        "ad_info": {
            "adcode": 513301,
            "province": "四川省",
            "city": "甘孜藏族自治州",
            "district": "康定市"
        }
    },
    {
        "id": "2332009915148024114",
        "title": "公共厕所",
        "address": "四川省甘孜藏族自治州康定市G318与S211交叉口正南方向1297米左右",
        "tel": "",
        "category": "基础设施:公共设施:公共厕所",
        "type": 0,
        "location": {
            "lat": 30.059254,
            "lng": 102.17175
        },
        "ad_info": {
            "adcode": 513301,
            "province": "四川省",
            "city": "甘孜藏族自治州",
            "district": "康定市"
        }
    },
    {
        "id": "14122661093211344511",
        "title": "公共厕所",
        "address": "四川省甘孜藏族自治州炉霍县建设路与建设路支线交叉口西南方向21米左右",
        "tel": "",
        "category": "基础设施:公共设施:公共厕所",
        "type": 0,
        "location": {
            "lat": 31.394409,
            "lng": 100.6763
        },
        "ad_info": {
            "adcode": 513327,
            "province": "四川省",
            "city": "甘孜藏族自治州",
            "district": "炉霍县"
        }
    },
    {
        "id": "7209424738417574916",
        "title": "公共厕所",
        "address": "四川省甘孜藏族自治州九龙县团结下街9号东南方向150米",
        "tel": "",
        "category": "基础设施:公共设施:公共厕所",
        "type": 0,
        "location": {
            "lat": 28.999286,
            "lng": 101.508642
        },
        "ad_info": {
            "adcode": 513324,
            "province": "四川省",
            "city": "甘孜藏族自治州",
            "district": "九龙县"
        }
    },
    {
        "id": "14404416100441749528",
        "title": "燕子沟公共厕所",
        "address": "四川省甘孜藏族自治州泸定县市燕子沟(北侧)",
        "tel": "",
        "category": "基础设施:公共设施:公共厕所",
        "type": 0,
        "location": {
            "lat": 29.899527,
            "lng": 102.002185
        },
        "ad_info": {
            "adcode": 513322,
            "province": "四川省",
            "city": "甘孜藏族自治州",
            "district": "泸定县"
        }
    },
    {
        "id": "16419216533113710195",
        "title": "泸定服务区公共厕所",
        "address": "四川省甘孜藏族自治州泸定县G4218雅叶高速出口与泸定服务区交叉口东20米",
        "tel": "",
        "category": "基础设施:公共设施:公共厕所",
        "type": 0,
        "location": {
            "lat": 29.950554,
            "lng": 102.237727
        },
        "ad_info": {
            "adcode": 513322,
            "province": "四川省",
            "city": "甘孜藏族自治州",
            "district": "泸定县"
        }
    },
    {
        "id": "13567485970575699641",
        "title": "泸定服务区公共厕所",
        "address": "四川省甘孜藏族自治州泸定县G4218雅叶高速出口与泸定服务区交叉口东南100米",
        "tel": "",
        "category": "基础设施:公共设施:公共厕所",
        "type": 0,
        "location": {
            "lat": 29.949835,
            "lng": 102.237991
        },
        "ad_info": {
            "adcode": 513322,
            "province": "四川省",
            "city": "甘孜藏族自治州",
            "district": "泸定县"
        }
    },
    {
        "id": "8838386978802068019",
        "title": "旅游厕所",
        "address": "四川省甘孜藏族自治州康定市新市前街298号",
        "tel": "",
        "category": "基础设施:公共设施:公共厕所",
        "type": 0,
        "location": {
            "lat": 30.052953,
            "lng": 101.967318
        },
        "ad_info": {
            "adcode": 513301,
            "province": "四川省",
            "city": "甘孜藏族自治州",
            "district": "康定市"
        }
    },
    {
        "id": "3510139935146440887",
        "title": "旅游厕所",
        "address": "四川省甘孜藏族自治州白玉县甘白路",
        "tel": "",
        "category": "基础设施:公共设施:公共厕所",
        "type": 0,
        "location": {
            "lat": 31.0027,
            "lng": 99.603584
        },
        "ad_info": {
            "adcode": 513331,
            "province": "四川省",
            "city": "甘孜藏族自治州",
            "district": "白玉县"
        }
    },
    {
        "id": "14707097359436396495",
        "title": "折多山呷吧乡贡布卡村旅游公共厕所",
        "address": "四川省甘孜藏族自治州康定市青藏高原中藏药材种质资源中心西北侧230米",
        "tel": "",
        "category": "基础设施:公共设施:公共厕所",
        "type": 0,
        "location": {
            "lat": 30.07055,
            "lng": 101.790379
        },
        "ad_info": {
            "adcode": 513301,
            "province": "四川省",
            "city": "甘孜藏族自治州",
            "district": "康定市"
        }
    },
    {
        "id": "18318480500804885113",
        "title": "牛背山大桥旅游公共厕所",
        "address": "四川省甘孜藏族自治州泸定县211省道79号",
        "tel": "",
        "category": "基础设施:公共设施:公共厕所",
        "type": 0,
        "location": {
            "lat": 29.783122,
            "lng": 102.222924
        },
        "ad_info": {
            "adcode": 513322,
            "province": "四川省",
            "city": "甘孜藏族自治州",
            "district": "泸定县"
        }
    },
    {
        "id": "6916965173949157054",
        "title": "冷碛镇桥头旅游公共厕所",
        "address": "四川省甘孜藏族自治州泸定县Y002与牛背山大桥交叉口东北方向174米左右",
        "tel": "",
        "category": "基础设施:公共设施:公共厕所",
        "type": 0,
        "location": {
            "lat": 29.783027,
            "lng": 102.222848
        },
        "ad_info": {
            "adcode": 513322,
            "province": "四川省",
            "city": "甘孜藏族自治州",
            "district": "泸定县"
        }
    },
    {
        "id": "6734643571814434301",
        "title": "共享厕所",
        "address": "四川省甘孜藏族自治州理塘县幸福西路与康巴一街交叉口正西方向116米左右",
        "tel": "",
        "category": "基础设施:公共设施:公共厕所",
        "type": 0,
        "location": {
            "lat": 29.989687,
            "lng": 100.259516
        },
        "ad_info": {
            "adcode": 513334,
            "province": "四川省",
            "city": "甘孜藏族自治州",
            "district": "理塘县"
        }
    },
    {
        "id": "13531929023241662004",
        "title": "新都桥麦巴村公共厕所",
        "address": "四川省甘孜藏族自治州康定市G318",
        "tel": "",
        "category": "基础设施:公共设施:公共厕所",
        "type": 0,
        "location": {
            "lat": 30.057935,
            "lng": 101.582705
        },
        "ad_info": {
            "adcode": 513301,
            "province": "四川省",
            "city": "甘孜藏族自治州",
            "district": "康定市"
        }
    },
    {
        "id": "16766806943943250338",
        "title": "新都桥营官旅游环保公共厕所",
        "address": "四川省甘孜藏族自治州康定市318国道2914号",
        "tel": "",
        "category": "基础设施:公共设施:公共厕所",
        "type": 0,
        "location": {
            "lat": 30.022395,
            "lng": 101.526361
        },
        "ad_info": {
            "adcode": 513301,
            "province": "四川省",
            "city": "甘孜藏族自治州",
            "district": "康定市"
        }
    },
    {
        "id": "6237295314220485739",
        "title": "松岗A级旅游厕所",
        "address": "四川省甘孜藏族自治州康定市文殊路与文汇路交叉口正南方向529米左右",
        "tel": "",
        "category": "基础设施:公共设施:公共厕所",
        "type": 0,
        "location": {
            "lat": 30.311543,
            "lng": 101.520784
        },
        "ad_info": {
            "adcode": 513301,
            "province": "四川省",
            "city": "甘孜藏族自治州",
            "district": "康定市"
        }
    },
    {
        "id": "4271508423713930139",
        "title": "向阳街公共厕所",
        "address": "四川省甘孜藏族自治州康定市向阳街245号",
        "tel": "",
        "category": "基础设施:公共设施:公共厕所",
        "type": 0,
        "location": {
            "lat": 30.044378,
            "lng": 101.961224
        },
        "ad_info": {
            "adcode": 513301,
            "province": "四川省",
            "city": "甘孜藏族自治州",
            "district": "康定市"
        }
    },
    {
        "id": "16327358712892404096",
        "title": "旅游厕所",
        "address": "四川省甘孜藏族自治州理塘县人社社保就业服务窗口(濯桑乡易久村综合服务窗口)南侧50米",
        "tel": "",
        "category": "基础设施:公共设施:公共厕所",
        "type": 0,
        "location": {
            "lat": 29.705445,
            "lng": 100.39528
        },
        "ad_info": {
            "adcode": 513334,
            "province": "四川省",
            "city": "甘孜藏族自治州",
            "district": "理塘县"
        }
    },
    {
        "id": "15652330043084331200",
        "title": "公共厕所服务站",
        "address": "四川省甘孜藏族自治州理塘县城西河路北一段与长青路交叉口正东方向18米左右",
        "tel": "",
        "category": "基础设施:公共设施:公共厕所",
        "type": 0,
        "location": {
            "lat": 30.001041,
            "lng": 100.274251
        },
        "ad_info": {
            "adcode": 513334,
            "province": "四川省",
            "city": "甘孜藏族自治州",
            "district": "理塘县"
        }
    },
    {
        "id": "10829444176904800123",
        "title": "公共厕所",
        "address": "四川省甘孜藏族自治州泸定县海螺沟大道与情海路交叉口东南方向103米",
        "tel": "",
        "category": "基础设施:公共设施:公共厕所",
        "type": 0,
        "location": {
            "lat": 29.645715,
            "lng": 102.122921
        },
        "ad_info": {
            "adcode": 513322,
            "province": "四川省",
            "city": "甘孜藏族自治州",
            "district": "泸定县"
        }
    },
    {
        "id": "11507806077988817440",
        "title": "公共厕所",
        "address": "四川省甘孜藏族自治州雅江县商业步行街与滨江路交叉口西南方向351米左右",
        "tel": "",
        "category": "基础设施:公共设施:公共厕所",
        "type": 0,
        "location": {
            "lat": 30.027957,
            "lng": 101.012299
        },
        "ad_info": {
            "adcode": 513325,
            "province": "四川省",
            "city": "甘孜藏族自治州",
            "district": "雅江县"
        }
    }
]