[
    {
        "id": "2068822951984322601",
        "title": "公共厕所",
        "address": "甘肃省甘南藏族自治州夏河县玖盛大厦东侧90米",
        "tel": "",
        "category": "基础设施:公共设施:公共厕所",
        "type": 0,
        "location": {
            "lat": 35.199726,
            "lng": 102.51915
        },
        "ad_info": {
            "adcode": 623027,
            "province": "甘肃省",
            "city": "甘南藏族自治州",
            "district": "夏河县"
        }
    },
    {
        "id": "663585540857641975",
        "title": "公共厕所(GS-GN-0578)",
        "address": "甘肃省甘南藏族自治州夏河县城西1公里处拉卜楞寺内(西南角)",
        "tel": "",
        "category": "基础设施:公共设施:公共厕所",
        "type": 0,
        "location": {
            "lat": 35.18881,
            "lng": 102.504862
        },
        "ad_info": {
            "adcode": 623027,
            "province": "甘肃省",
            "city": "甘南藏族自治州",
            "district": "夏河县"
        }
    },
    {
        "id": "5313929314178680324",
        "title": "公共厕所",
        "address": "甘肃省甘南藏族自治州合作市当周街与碌曲东路交叉口东南方向55米左右",
        "tel": "",
        "category": "基础设施:公共设施:公共厕所",
        "type": 0,
        "location": {
            "lat": 34.984486,
            "lng": 102.911072
        },
        "ad_info": {
            "adcode": 623001,
            "province": "甘肃省",
            "city": "甘南藏族自治州",
            "district": "合作市"
        }
    },
    {
        "id": "3492867078897805330",
        "title": "公共厕所",
        "address": "甘肃省甘南藏族自治州合作市当周街与舟曲东路交叉口西南方向42米左右",
        "tel": "",
        "category": "基础设施:公共设施:公共厕所",
        "type": 0,
        "location": {
            "lat": 34.987295,
            "lng": 102.90995
        },
        "ad_info": {
            "adcode": 623001,
            "province": "甘肃省",
            "city": "甘南藏族自治州",
            "district": "合作市"
        }
    },
    {
        "id": "5431033954588041421",
        "title": "公共厕所",
        "address": "甘肃省甘南藏族自治州临潭县百家乐超市西侧280米",
        "tel": "",
        "category": "基础设施:公共设施:公共厕所",
        "type": 0,
        "location": {
            "lat": 34.667603,
            "lng": 103.595143
        },
        "ad_info": {
            "adcode": 623021,
            "province": "甘肃省",
            "city": "甘南藏族自治州",
            "district": "临潭县"
        }
    },
    {
        "id": "12578737475104546668",
        "title": "公共厕所",
        "address": "甘肃省甘南藏族自治州合作市当周街与腊子口东路交叉口正南方向259米左右",
        "tel": "",
        "category": "基础设施:公共设施:公共厕所",
        "type": 0,
        "location": {
            "lat": 34.964904,
            "lng": 102.908748
        },
        "ad_info": {
            "adcode": 623001,
            "province": "甘肃省",
            "city": "甘南藏族自治州",
            "district": "合作市"
        }
    },
    {
        "id": "3490181695854144453",
        "title": "洗手间",
        "address": "甘肃省甘南藏族自治州迭部县扎尕那阿弥达客栈东北侧",
        "tel": "",
        "category": "基础设施:公共设施:公共厕所",
        "type": 0,
        "location": {
            "lat": 34.236333,
            "lng": 103.189839
        },
        "ad_info": {
            "adcode": 623024,
            "province": "甘肃省",
            "city": "甘南藏族自治州",
            "district": "迭部县"
        }
    },
    {
        "id": "1374320197802873699",
        "title": "公共厕所",
        "address": "甘肃省甘南藏族自治州夏河县S312与同夏公路交叉口正东方向882米左右",
        "tel": "",
        "category": "基础设施:公共设施:公共厕所",
        "type": 0,
        "location": {
            "lat": 35.200004,
            "lng": 102.570815
        },
        "ad_info": {
            "adcode": 623027,
            "province": "甘肃省",
            "city": "甘南藏族自治州",
            "district": "夏河县"
        }
    },
    {
        "id": "10274313522730522481",
        "title": "公共厕所",
        "address": "甘肃省甘南藏族自治州夏河县G213与G316交叉口东北方向143米左右",
        "tel": "",
        "category": "基础设施:公共设施:公共厕所",
        "type": 0,
        "location": {
            "lat": 34.80592,
            "lng": 102.688243
        },
        "ad_info": {
            "adcode": 623027,
            "province": "甘肃省",
            "city": "甘南藏族自治州",
            "district": "夏河县"
        }
    },
    {
        "id": "2155829773287925396",
        "title": "公共厕所",
        "address": "甘肃省甘南藏族自治州合作市知合玛路与郎木寺路交叉口西南方向411米左右",
        "tel": "",
        "category": "基础设施:公共设施:公共厕所",
        "type": 0,
        "location": {
            "lat": 34.961853,
            "lng": 102.900825
        },
        "ad_info": {
            "adcode": 623001,
            "province": "甘肃省",
            "city": "甘南藏族自治州",
            "district": "合作市"
        }
    },
    {
        "id": "15153915095591435793",
        "title": "公共厕所",
        "address": "甘肃省甘南藏族自治州迭部县岷日路与洛大街交叉口正北方向124米左右",
        "tel": "",
        "category": "基础设施:公共设施:公共厕所",
        "type": 0,
        "location": {
            "lat": 34.052046,
            "lng": 103.22298
        },
        "ad_info": {
            "adcode": 623024,
            "province": "甘肃省",
            "city": "甘南藏族自治州",
            "district": "迭部县"
        }
    },
    {
        "id": "1378183867898235605",
        "title": "公共厕所",
        "address": "甘肃省甘南藏族自治州合作市念钦街与永曲西路交叉口正南方向221米左右",
        "tel": "",
        "category": "基础设施:公共设施:公共厕所",
        "type": 0,
        "location": {
            "lat": 34.99699,
            "lng": 102.906904
        },
        "ad_info": {
            "adcode": 623001,
            "province": "甘肃省",
            "city": "甘南藏族自治州",
            "district": "合作市"
        }
    },
    {
        "id": "15306265114422079306",
        "title": "公共厕所",
        "address": "甘肃省甘南藏族自治州合作市念钦街与桑曲西路交叉口正北方向159米左右",
        "tel": "",
        "category": "基础设施:公共设施:公共厕所",
        "type": 0,
        "location": {
            "lat": 34.99424,
            "lng": 102.906746
        },
        "ad_info": {
            "adcode": 623001,
            "province": "甘肃省",
            "city": "甘南藏族自治州",
            "district": "合作市"
        }
    },
    {
        "id": "8757693526211753792",
        "title": "公共厕所",
        "address": "甘肃省甘南藏族自治州玛曲县嘉曲路与忠干路交叉口正南方向161米左右",
        "tel": "",
        "category": "基础设施:公共设施:公共厕所",
        "type": 0,
        "location": {
            "lat": 33.996042,
            "lng": 102.07726
        },
        "ad_info": {
            "adcode": 623025,
            "province": "甘肃省",
            "city": "甘南藏族自治州",
            "district": "玛曲县"
        }
    },
    {
        "id": "9853093975520293140",
        "title": "公共厕所",
        "address": "甘肃省甘南藏族自治州合作市卓尼西路与念钦街交叉口西南方向28米左右",
        "tel": "",
        "category": "基础设施:公共设施:公共厕所",
        "type": 0,
        "location": {
            "lat": 34.971368,
            "lng": 102.905991
        },
        "ad_info": {
            "adcode": 623001,
            "province": "甘肃省",
            "city": "甘南藏族自治州",
            "district": "合作市"
        }
    },
    {
        "id": "3439932575298798071",
        "title": "公共厕所",
        "address": "甘肃省甘南藏族自治州碌曲县G213附近",
        "tel": "",
        "category": "基础设施:公共设施:公共厕所",
        "type": 0,
        "location": {
            "lat": 34.203429,
            "lng": 102.42456
        },
        "ad_info": {
            "adcode": 623026,
            "province": "甘肃省",
            "city": "甘南藏族自治州",
            "district": "碌曲县"
        }
    },
    {
        "id": "735235935045889050",
        "title": "公共厕所",
        "address": "甘肃省甘南藏族自治州合作市当周街与舟曲东路交叉口正北方向163米左右",
        "tel": "",
        "category": "基础设施:公共设施:公共厕所",
        "type": 0,
        "location": {
            "lat": 34.988831,
            "lng": 102.909688
        },
        "ad_info": {
            "adcode": 623001,
            "province": "甘肃省",
            "city": "甘南藏族自治州",
            "district": "合作市"
        }
    },
    {
        "id": "6826538750123591044",
        "title": "公共厕所",
        "address": "甘肃省甘南藏族自治州夏河县扎西奇街与风情步行街交叉口正西方向28米左右",
        "tel": "",
        "category": "基础设施:公共设施:公共厕所",
        "type": 0,
        "location": {
            "lat": 35.197883,
            "lng": 102.515889
        },
        "ad_info": {
            "adcode": 623027,
            "province": "甘肃省",
            "city": "甘南藏族自治州",
            "district": "夏河县"
        }
    },
    {
        "id": "9128375212609155274",
        "title": "公共厕所",
        "address": "甘肃省甘南藏族自治州碌曲县措宁街步行街与舟高路交叉口东北方向152米左右",
        "tel": "",
        "category": "基础设施:公共设施:公共厕所",
        "type": 0,
        "location": {
            "lat": 34.588165,
            "lng": 102.489435
        },
        "ad_info": {
            "adcode": 623026,
            "province": "甘肃省",
            "city": "甘南藏族自治州",
            "district": "碌曲县"
        }
    },
    {
        "id": "3632583384340080330",
        "title": "公共厕所",
        "address": "甘肃省甘南藏族自治州迭部县玛措美路与达拉路交叉口东南方向37米左右",
        "tel": "",
        "category": "基础设施:公共设施:公共厕所",
        "type": 0,
        "location": {
            "lat": 34.053708,
            "lng": 103.217854
        },
        "ad_info": {
            "adcode": 623024,
            "province": "甘肃省",
            "city": "甘南藏族自治州",
            "district": "迭部县"
        }
    },
    {
        "id": "13170481692849219255",
        "title": "公共厕所",
        "address": "甘肃省甘南藏族自治州碌曲县舟高路与郎木北路交叉口东北方向58米左右",
        "tel": "",
        "category": "基础设施:公共设施:公共厕所",
        "type": 0,
        "location": {
            "lat": 34.588154,
            "lng": 102.487126
        },
        "ad_info": {
            "adcode": 623026,
            "province": "甘肃省",
            "city": "甘南藏族自治州",
            "district": "碌曲县"
        }
    },
    {
        "id": "10046271614985319798",
        "title": "公共厕所",
        "address": "甘肃省甘南藏族自治州合作市卓玛东路与当周街交叉口正东方向87米左右",
        "tel": "",
        "category": "基础设施:公共设施:公共厕所",
        "type": 0,
        "location": {
            "lat": 34.9766,
            "lng": 102.910659
        },
        "ad_info": {
            "adcode": 623001,
            "province": "甘肃省",
            "city": "甘南藏族自治州",
            "district": "合作市"
        }
    },
    {
        "id": "16015570775161945241",
        "title": "公共厕所",
        "address": "甘肃省甘南藏族自治州卓尼县G248与俄吾多2号中桥交叉口东南方向1850米左右",
        "tel": "",
        "category": "基础设施:公共设施:公共厕所",
        "type": 0,
        "location": {
            "lat": 34.562885,
            "lng": 103.554892
        },
        "ad_info": {
            "adcode": 623022,
            "province": "甘肃省",
            "city": "甘南藏族自治州",
            "district": "卓尼县"
        }
    },
    {
        "id": "15893198249145052962",
        "title": "公共厕所",
        "address": "甘肃省甘南藏族自治州临潭县东环路与南大街交叉口正东方向13米左右",
        "tel": "",
        "category": "基础设施:公共设施:公共厕所",
        "type": 0,
        "location": {
            "lat": 34.682671,
            "lng": 103.359856
        },
        "ad_info": {
            "adcode": 623021,
            "province": "甘肃省",
            "city": "甘南藏族自治州",
            "district": "临潭县"
        }
    },
    {
        "id": "11174957457019630532",
        "title": "公共厕所",
        "address": "甘肃省甘南藏族自治州碌曲县313省道与035县道交叉口东南20米",
        "tel": "",
        "category": "基础设施:公共设施:公共厕所",
        "type": 0,
        "location": {
            "lat": 34.089477,
            "lng": 102.638323
        },
        "ad_info": {
            "adcode": 623026,
            "province": "甘肃省",
            "city": "甘南藏族自治州",
            "district": "碌曲县"
        }
    },
    {
        "id": "2557308609541778030",
        "title": "公共厕所",
        "address": "甘肃省甘南藏族自治州舟曲县G212与G345交叉口正西方向109米左右",
        "tel": "",
        "category": "基础设施:公共设施:公共厕所",
        "type": 0,
        "location": {
            "lat": 33.695097,
            "lng": 104.487693
        },
        "ad_info": {
            "adcode": 623023,
            "province": "甘肃省",
            "city": "甘南藏族自治州",
            "district": "舟曲县"
        }
    },
    {
        "id": "10856853292675264425",
        "title": "公共厕所",
        "address": "甘肃省甘南藏族自治州舟曲县G345与S226交叉口西北方向378米左右",
        "tel": "",
        "category": "基础设施:公共设施:公共厕所",
        "type": 0,
        "location": {
            "lat": 33.897026,
            "lng": 104.06734
        },
        "ad_info": {
            "adcode": 623023,
            "province": "甘肃省",
            "city": "甘南藏族自治州",
            "district": "舟曲县"
        }
    },
    {
        "id": "112212654250127437",
        "title": "公共厕所",
        "address": "甘肃省甘南藏族自治州合作市合作汽车站内",
        "tel": "",
        "category": "基础设施:公共设施:公共厕所",
        "type": 0,
        "location": {
            "lat": 34.998147,
            "lng": 102.905502
        },
        "ad_info": {
            "adcode": 623001,
            "province": "甘肃省",
            "city": "甘南藏族自治州",
            "district": "合作市"
        }
    },
    {
        "id": "2298794991942439603",
        "title": "公共厕所",
        "address": "甘肃省甘南藏族自治州临潭县中国邮政速递物流(G248店)西侧60米",
        "tel": "",
        "category": "基础设施:公共设施:公共厕所",
        "type": 0,
        "location": {
            "lat": 34.667046,
            "lng": 103.59525
        },
        "ad_info": {
            "adcode": 623021,
            "province": "甘肃省",
            "city": "甘南藏族自治州",
            "district": "临潭县"
        }
    },
    {
        "id": "7178637519043495119",
        "title": "公共厕所",
        "address": "甘肃省甘南藏族自治州迭部县岷日路与洛大街交叉口正北方向64米左右",
        "tel": "",
        "category": "基础设施:公共设施:公共厕所",
        "type": 0,
        "location": {
            "lat": 34.051555,
            "lng": 103.22326
        },
        "ad_info": {
            "adcode": 623024,
            "province": "甘肃省",
            "city": "甘南藏族自治州",
            "district": "迭部县"
        }
    },
    {
        "id": "224908086414904368",
        "title": "公共厕所",
        "address": "甘肃省甘南藏族自治州卓尼县噶吉街与大峪路交叉口正西方向155米左右",
        "tel": "",
        "category": "基础设施:公共设施:公共厕所",
        "type": 0,
        "location": {
            "lat": 34.585521,
            "lng": 103.503895
        },
        "ad_info": {
            "adcode": 623022,
            "province": "甘肃省",
            "city": "甘南藏族自治州",
            "district": "卓尼县"
        }
    },
    {
        "id": "1814268458708939512",
        "title": "公共厕所",
        "address": "甘肃省甘南藏族自治州临潭县G248与南滨河路交叉口东北方向811米左右",
        "tel": "",
        "category": "基础设施:公共设施:公共厕所",
        "type": 0,
        "location": {
            "lat": 34.968504,
            "lng": 103.657647
        },
        "ad_info": {
            "adcode": 623021,
            "province": "甘肃省",
            "city": "甘南藏族自治州",
            "district": "临潭县"
        }
    },
    {
        "id": "5752815202541947002",
        "title": "洗手间",
        "address": "甘肃省甘南藏族自治州卓尼县306省道东50米",
        "tel": "",
        "category": "基础设施:公共设施:公共厕所",
        "type": 0,
        "location": {
            "lat": 34.835573,
            "lng": 103.162124
        },
        "ad_info": {
            "adcode": 623022,
            "province": "甘肃省",
            "city": "甘南藏族自治州",
            "district": "卓尼县"
        }
    },
    {
        "id": "1133438101785239644",
        "title": "公共厕所",
        "address": "甘肃省甘南藏族自治州碌曲县勒多东路与铭志路交叉口西北方向69米左右",
        "tel": "",
        "category": "基础设施:公共设施:公共厕所",
        "type": 0,
        "location": {
            "lat": 34.589319,
            "lng": 102.491553
        },
        "ad_info": {
            "adcode": 623026,
            "province": "甘肃省",
            "city": "甘南藏族自治州",
            "district": "碌曲县"
        }
    },
    {
        "id": "6709753556162256753",
        "title": "公共厕所",
        "address": "甘肃省甘南藏族自治州迭部县多儿路与桑坝路交叉口正南方向58米左右",
        "tel": "",
        "category": "基础设施:公共设施:公共厕所",
        "type": 0,
        "location": {
            "lat": 34.055239,
            "lng": 103.226672
        },
        "ad_info": {
            "adcode": 623024,
            "province": "甘肃省",
            "city": "甘南藏族自治州",
            "district": "迭部县"
        }
    },
    {
        "id": "12065525099977515813",
        "title": "公共厕所",
        "address": "甘肃省甘南藏族自治州合作市博峪路与念钦街交叉口正东方向106米左右",
        "tel": "",
        "category": "基础设施:公共设施:公共厕所",
        "type": 0,
        "location": {
            "lat": 34.973943,
            "lng": 102.907665
        },
        "ad_info": {
            "adcode": 623001,
            "province": "甘肃省",
            "city": "甘南藏族自治州",
            "district": "合作市"
        }
    },
    {
        "id": "3620498588263140983",
        "title": "公共厕所",
        "address": "甘肃省甘南藏族自治州合作市桑曲东路与祖曲路交叉口西北方向80米左右",
        "tel": "",
        "category": "基础设施:公共设施:公共厕所",
        "type": 0,
        "location": {
            "lat": 34.992291,
            "lng": 102.912595
        },
        "ad_info": {
            "adcode": 623001,
            "province": "甘肃省",
            "city": "甘南藏族自治州",
            "district": "合作市"
        }
    },
    {
        "id": "5085727336905630567",
        "title": "公共厕所",
        "address": "甘肃省甘南藏族自治州临潭县花海柴火鸡东南侧160米",
        "tel": "",
        "category": "基础设施:公共设施:公共厕所",
        "type": 0,
        "location": {
            "lat": 34.708647,
            "lng": 103.296114
        },
        "ad_info": {
            "adcode": 623021,
            "province": "甘肃省",
            "city": "甘南藏族自治州",
            "district": "临潭县"
        }
    },
    {
        "id": "11280923184446876837",
        "title": "公共厕所",
        "address": "甘肃省甘南藏族自治州碌曲县S326与勒多西路交叉口西南方向1165米左右",
        "tel": "",
        "category": "基础设施:公共设施:公共厕所",
        "type": 0,
        "location": {
            "lat": 34.582438,
            "lng": 102.468156
        },
        "ad_info": {
            "adcode": 623026,
            "province": "甘肃省",
            "city": "甘南藏族自治州",
            "district": "碌曲县"
        }
    },
    {
        "id": "6641393237503530648",
        "title": "公共厕所",
        "address": "甘肃省甘南藏族自治州合作市S324与央德路交叉口正东方向434米左右",
        "tel": "",
        "category": "基础设施:公共设施:公共厕所",
        "type": 0,
        "location": {
            "lat": 35.008061,
            "lng": 102.933909
        },
        "ad_info": {
            "adcode": 623001,
            "province": "甘肃省",
            "city": "甘南藏族自治州",
            "district": "合作市"
        }
    },
    {
        "id": "9989427067080857839",
        "title": "公共厕所",
        "address": "甘肃省甘南藏族自治州合作市玛曲东路与通钦街交叉口正东方向163米左右",
        "tel": "",
        "category": "基础设施:公共设施:公共厕所",
        "type": 0,
        "location": {
            "lat": 34.98157,
            "lng": 102.916961
        },
        "ad_info": {
            "adcode": 623001,
            "province": "甘肃省",
            "city": "甘南藏族自治州",
            "district": "合作市"
        }
    },
    {
        "id": "990913566346355116",
        "title": "公共厕所",
        "address": "甘肃省甘南藏族自治州合作市团结南路与当周街交叉口正北方向245米左右",
        "tel": "",
        "category": "基础设施:公共设施:公共厕所",
        "type": 0,
        "location": {
            "lat": 34.964032,
            "lng": 102.909219
        },
        "ad_info": {
            "adcode": 623001,
            "province": "甘肃省",
            "city": "甘南藏族自治州",
            "district": "合作市"
        }
    },
    {
        "id": "5510063803617978863",
        "title": "公共厕所",
        "address": "甘肃省甘南藏族自治州舟曲县博爱医院东南侧200米",
        "tel": "",
        "category": "基础设施:公共设施:公共厕所",
        "type": 0,
        "location": {
            "lat": 33.777739,
            "lng": 104.376444
        },
        "ad_info": {
            "adcode": 623023,
            "province": "甘肃省",
            "city": "甘南藏族自治州",
            "district": "舟曲县"
        }
    },
    {
        "id": "15374288416725294973",
        "title": "公共厕所",
        "address": "甘肃省甘南藏族自治州合作市永曲东路与通钦街交叉口正西方向57米左右",
        "tel": "",
        "category": "基础设施:公共设施:公共厕所",
        "type": 0,
        "location": {
            "lat": 34.997895,
            "lng": 102.913636
        },
        "ad_info": {
            "adcode": 623001,
            "province": "甘肃省",
            "city": "甘南藏族自治州",
            "district": "合作市"
        }
    },
    {
        "id": "761054857245850395",
        "title": "洗手间",
        "address": "甘肃省甘南藏族自治州夏河县Y505与罗湾桥交叉口西南方向484米左右",
        "tel": "",
        "category": "基础设施:公共设施:公共厕所",
        "type": 0,
        "location": {
            "lat": 35.412894,
            "lng": 102.93936
        },
        "ad_info": {
            "adcode": 623027,
            "province": "甘肃省",
            "city": "甘南藏族自治州",
            "district": "夏河县"
        }
    },
    {
        "id": "1266995058959855414",
        "title": "公共厕所",
        "address": "甘肃省甘南藏族自治州玛曲县东嘎尔路与忠干路交叉口西南方向54米左右",
        "tel": "",
        "category": "基础设施:公共设施:公共厕所",
        "type": 0,
        "location": {
            "lat": 34.004673,
            "lng": 102.076423
        },
        "ad_info": {
            "adcode": 623025,
            "province": "甘肃省",
            "city": "甘南藏族自治州",
            "district": "玛曲县"
        }
    },
    {
        "id": "5190000389063287437",
        "title": "公共厕所",
        "address": "甘肃省甘南藏族自治州夏河县S312观景台停车场",
        "tel": "",
        "category": "基础设施:公共设施:公共厕所",
        "type": 0,
        "location": {
            "lat": 35.134565,
            "lng": 102.460981
        },
        "ad_info": {
            "adcode": 623027,
            "province": "甘肃省",
            "city": "甘南藏族自治州",
            "district": "夏河县"
        }
    },
    {
        "id": "13339545348880895484",
        "title": "公共厕所",
        "address": "甘肃省甘南藏族自治州合作市扎油路与那吾路交叉口正北方向16米左右",
        "tel": "",
        "category": "基础设施:公共设施:公共厕所",
        "type": 0,
        "location": {
            "lat": 35.00192,
            "lng": 102.907006
        },
        "ad_info": {
            "adcode": 623001,
            "province": "甘肃省",
            "city": "甘南藏族自治州",
            "district": "合作市"
        }
    },
    {
        "id": "508951414930532416",
        "title": "公共厕所",
        "address": "甘肃省甘南藏族自治州夏河县G568与兰磨线交叉口正北方向438米左右",
        "tel": "",
        "category": "基础设施:公共设施:公共厕所",
        "type": 0,
        "location": {
            "lat": 35.407295,
            "lng": 102.933558
        },
        "ad_info": {
            "adcode": 623027,
            "province": "甘肃省",
            "city": "甘南藏族自治州",
            "district": "夏河县"
        }
    },
    {
        "id": "15657921464082038514",
        "title": "公共厕所",
        "address": "甘肃省甘南藏族自治州舟曲县西三街路与西二街交叉口正东方向108米左右",
        "tel": "",
        "category": "基础设施:公共设施:公共厕所",
        "type": 0,
        "location": {
            "lat": 33.784889,
            "lng": 104.367665
        },
        "ad_info": {
            "adcode": 623023,
            "province": "甘肃省",
            "city": "甘南藏族自治州",
            "district": "舟曲县"
        }
    },
    {
        "id": "3843112813487536667",
        "title": "公共厕所",
        "address": "甘肃省甘南藏族自治州合作市卓玛西路与当周街交叉口正北方向105米左右",
        "tel": "",
        "category": "基础设施:公共设施:公共厕所",
        "type": 0,
        "location": {
            "lat": 34.979025,
            "lng": 102.91013
        },
        "ad_info": {
            "adcode": 623001,
            "province": "甘肃省",
            "city": "甘南藏族自治州",
            "district": "合作市"
        }
    },
    {
        "id": "1329048930351650375",
        "title": "公共厕所",
        "address": "甘肃省甘南藏族自治州夏河县桑曲东路与桑曲西路交叉口正南方向79米左右",
        "tel": "",
        "category": "基础设施:公共设施:公共厕所",
        "type": 0,
        "location": {
            "lat": 35.199556,
            "lng": 102.521479
        },
        "ad_info": {
            "adcode": 623027,
            "province": "甘肃省",
            "city": "甘南藏族自治州",
            "district": "夏河县"
        }
    },
    {
        "id": "13823671837351737245",
        "title": "公共厕所",
        "address": "甘肃省甘南藏族自治州合作市当周街与永曲东路交叉口正南方向251米左右",
        "tel": "",
        "category": "基础设施:公共设施:公共厕所",
        "type": 0,
        "location": {
            "lat": 34.996408,
            "lng": 102.912005
        },
        "ad_info": {
            "adcode": 623001,
            "province": "甘肃省",
            "city": "甘南藏族自治州",
            "district": "合作市"
        }
    },
    {
        "id": "12101773652237887362",
        "title": "公共厕所",
        "address": "甘肃省甘南藏族自治州碌曲县G213与S326交叉口正北方向1745米左右",
        "tel": "",
        "category": "基础设施:公共设施:公共厕所",
        "type": 0,
        "location": {
            "lat": 34.616329,
            "lng": 102.464119
        },
        "ad_info": {
            "adcode": 623026,
            "province": "甘肃省",
            "city": "甘南藏族自治州",
            "district": "碌曲县"
        }
    },
    {
        "id": "16991510388654384789",
        "title": "公共厕所",
        "address": "甘肃省甘南藏族自治州玛曲县古拉路与忠干路交叉口东南方向37米左右",
        "tel": "",
        "category": "基础设施:公共设施:公共厕所",
        "type": 0,
        "location": {
            "lat": 34.001189,
            "lng": 102.077239
        },
        "ad_info": {
            "adcode": 623025,
            "province": "甘肃省",
            "city": "甘南藏族自治州",
            "district": "玛曲县"
        }
    },
    {
        "id": "9443884772092777948",
        "title": "公共厕所",
        "address": "甘肃省甘南藏族自治州舟曲县翠峰山景区",
        "tel": "",
        "category": "基础设施:公共设施:公共厕所",
        "type": 0,
        "location": {
            "lat": 33.808067,
            "lng": 104.371913
        },
        "ad_info": {
            "adcode": 623023,
            "province": "甘肃省",
            "city": "甘南藏族自治州",
            "district": "舟曲县"
        }
    },
    {
        "id": "7539651086046365023",
        "title": "公共厕所",
        "address": "甘肃省甘南藏族自治州玛曲县河曲马场",
        "tel": "",
        "category": "基础设施:公共设施:公共厕所",
        "type": 0,
        "location": {
            "lat": 33.865856,
            "lng": 102.146137
        },
        "ad_info": {
            "adcode": 623025,
            "province": "甘肃省",
            "city": "甘南藏族自治州",
            "district": "玛曲县"
        }
    },
    {
        "id": "7157849638381606645",
        "title": "公共厕所",
        "address": "甘肃省甘南藏族自治州夏河县S312与X426交叉口东南方向110米左右",
        "tel": "",
        "category": "基础设施:公共设施:公共厕所",
        "type": 0,
        "location": {
            "lat": 34.855759,
            "lng": 102.139672
        },
        "ad_info": {
            "adcode": 623027,
            "province": "甘肃省",
            "city": "甘南藏族自治州",
            "district": "夏河县"
        }
    },
    {
        "id": "14632494060283665972",
        "title": "公共卫生间",
        "address": "甘肃省甘南藏族自治州卓尼县G248与俄吾多2号中桥交叉口东南方向1875米左右",
        "tel": "",
        "category": "基础设施:公共设施:公共厕所",
        "type": 0,
        "location": {
            "lat": 34.56282,
            "lng": 103.555165
        },
        "ad_info": {
            "adcode": 623022,
            "province": "甘肃省",
            "city": "甘南藏族自治州",
            "district": "卓尼县"
        }
    },
    {
        "id": "4955401974041317909",
        "title": "公共厕所",
        "address": "甘肃省甘南藏族自治州临潭县冶木河漂流北侧",
        "tel": "",
        "category": "基础设施:公共设施:公共厕所",
        "type": 0,
        "location": {
            "lat": 34.954821,
            "lng": 103.615319
        },
        "ad_info": {
            "adcode": 623021,
            "province": "甘肃省",
            "city": "甘南藏族自治州",
            "district": "临潭县"
        }
    },
    {
        "id": "13921372200947588824",
        "title": "公共厕所",
        "address": "甘肃省甘南藏族自治州临潭县冶力关桥与冶海路交叉口西北方向145米左右",
        "tel": "",
        "category": "基础设施:公共设施:公共厕所",
        "type": 0,
        "location": {
            "lat": 34.962663,
            "lng": 103.661657
        },
        "ad_info": {
            "adcode": 623021,
            "province": "甘肃省",
            "city": "甘南藏族自治州",
            "district": "临潭县"
        }
    },
    {
        "id": "17504110351171005321",
        "title": "公共厕所",
        "address": "甘肃省甘南藏族自治州卓尼县噶吉街与绍藏路交叉口正东方向31米左右",
        "tel": "",
        "category": "基础设施:公共设施:公共厕所",
        "type": 0,
        "location": {
            "lat": 34.586456,
            "lng": 103.507043
        },
        "ad_info": {
            "adcode": 623022,
            "province": "甘肃省",
            "city": "甘南藏族自治州",
            "district": "卓尼县"
        }
    },
    {
        "id": "2250892002528210513",
        "title": "公共厕所",
        "address": "甘肃省甘南藏族自治州夏河县X403(杂西段)",
        "tel": "",
        "category": "基础设施:公共设施:公共厕所",
        "type": 0,
        "location": {
            "lat": 35.310679,
            "lng": 102.504957
        },
        "ad_info": {
            "adcode": 623027,
            "province": "甘肃省",
            "city": "甘南藏族自治州",
            "district": "夏河县"
        }
    },
    {
        "id": "240046684212860433",
        "title": "公共厕所",
        "address": "甘肃省甘南藏族自治州合作市213国道与G1816乌玛高速出口交叉口西南100米",
        "tel": "",
        "category": "基础设施:公共设施:公共厕所",
        "type": 0,
        "location": {
            "lat": 34.942663,
            "lng": 102.870989
        },
        "ad_info": {
            "adcode": 623001,
            "province": "甘肃省",
            "city": "甘南藏族自治州",
            "district": "合作市"
        }
    },
    {
        "id": "2909814705420915899",
        "title": "公共厕所",
        "address": "甘肃省甘南藏族自治州玛曲县忠克观景台东侧",
        "tel": "",
        "category": "基础设施:公共设施:公共厕所",
        "type": 0,
        "location": {
            "lat": 34.062786,
            "lng": 102.163555
        },
        "ad_info": {
            "adcode": 623025,
            "province": "甘肃省",
            "city": "甘南藏族自治州",
            "district": "玛曲县"
        }
    },
    {
        "id": "16098483985024420328",
        "title": "公共厕所",
        "address": "甘肃省甘南藏族自治州合作市伊穆阁老炒东侧120米",
        "tel": "",
        "category": "基础设施:公共设施:公共厕所",
        "type": 0,
        "location": {
            "lat": 35.053218,
            "lng": 103.136249
        },
        "ad_info": {
            "adcode": 623001,
            "province": "甘肃省",
            "city": "甘南藏族自治州",
            "district": "合作市"
        }
    },
    {
        "id": "5520350533667959406",
        "title": "公共厕所",
        "address": "甘肃省甘南藏族自治州卓尼县民主路与贡保茨那路交叉口东南方向77米左右",
        "tel": "",
        "category": "基础设施:公共设施:公共厕所",
        "type": 0,
        "location": {
            "lat": 34.584715,
            "lng": 103.509586
        },
        "ad_info": {
            "adcode": 623022,
            "province": "甘肃省",
            "city": "甘南藏族自治州",
            "district": "卓尼县"
        }
    },
    {
        "id": "8645134762941355012",
        "title": "公共厕所",
        "address": "甘肃省甘南藏族自治州夏河县G568与兰磨线交叉口正北方向540米左右",
        "tel": "",
        "category": "基础设施:公共设施:公共厕所",
        "type": 0,
        "location": {
            "lat": 35.408446,
            "lng": 102.931512
        },
        "ad_info": {
            "adcode": 623027,
            "province": "甘肃省",
            "city": "甘南藏族自治州",
            "district": "夏河县"
        }
    },
    {
        "id": "2366349830228406760",
        "title": "公共厕所",
        "address": "甘肃省甘南藏族自治州合作市当周街42号",
        "tel": "",
        "category": "基础设施:公共设施:公共厕所",
        "type": 0,
        "location": {
            "lat": 34.998457,
            "lng": 102.910739
        },
        "ad_info": {
            "adcode": 623001,
            "province": "甘肃省",
            "city": "甘南藏族自治州",
            "district": "合作市"
        }
    },
    {
        "id": "11948065937263901666",
        "title": "公共厕所",
        "address": "甘肃省甘南藏族自治州合作市通钦街与那吾路交叉口西南方向344米左右",
        "tel": "",
        "category": "基础设施:公共设施:公共厕所",
        "type": 0,
        "location": {
            "lat": 35.002778,
            "lng": 102.911521
        },
        "ad_info": {
            "adcode": 623001,
            "province": "甘肃省",
            "city": "甘南藏族自治州",
            "district": "合作市"
        }
    },
    {
        "id": "1154248694478346641",
        "title": "公共厕所",
        "address": "甘肃省甘南藏族自治州夏河县阿木去乎黑力宁巴观景台",
        "tel": "",
        "category": "基础设施:公共设施:公共厕所",
        "type": 0,
        "location": {
            "lat": 34.785248,
            "lng": 102.667328
        },
        "ad_info": {
            "adcode": 623027,
            "province": "甘肃省",
            "city": "甘南藏族自治州",
            "district": "夏河县"
        }
    },
    {
        "id": "5909020636976898613",
        "title": "公共厕所",
        "address": "甘肃省甘南藏族自治州合作市央德路与那吾路交叉口西南方向221米左右",
        "tel": "",
        "category": "基础设施:公共设施:公共厕所",
        "type": 0,
        "location": {
            "lat": 35.008586,
            "lng": 102.922259
        },
        "ad_info": {
            "adcode": 623001,
            "province": "甘肃省",
            "city": "甘南藏族自治州",
            "district": "合作市"
        }
    },
    {
        "id": "5622614571452355753",
        "title": "公共厕所",
        "address": "甘肃省甘南藏族自治州玛曲县曲隆街与格萨尔西街交叉口正南方向69米左右",
        "tel": "",
        "category": "基础设施:公共设施:公共厕所",
        "type": 0,
        "location": {
            "lat": 33.99677,
            "lng": 102.074339
        },
        "ad_info": {
            "adcode": 623025,
            "province": "甘肃省",
            "city": "甘南藏族自治州",
            "district": "玛曲县"
        }
    },
    {
        "id": "17864985404685308980",
        "title": "公共厕所",
        "address": "甘肃省甘南藏族自治州迭部县G248",
        "tel": "",
        "category": "基础设施:公共设施:公共厕所",
        "type": 0,
        "location": {
            "lat": 34.194105,
            "lng": 103.197027
        },
        "ad_info": {
            "adcode": 623024,
            "province": "甘肃省",
            "city": "甘南藏族自治州",
            "district": "迭部县"
        }
    },
    {
        "id": "17392038749818834541",
        "title": "公共厕所",
        "address": "甘肃省甘南藏族自治州合作市德吉巷与祖曲路交叉口东南方向64米左右",
        "tel": "",
        "category": "基础设施:公共设施:公共厕所",
        "type": 0,
        "location": {
            "lat": 34.979438,
            "lng": 102.914865
        },
        "ad_info": {
            "adcode": 623001,
            "province": "甘肃省",
            "city": "甘南藏族自治州",
            "district": "合作市"
        }
    },
    {
        "id": "13948735939183280427",
        "title": "公共厕所",
        "address": "甘肃省甘南藏族自治州临潭县G248与Y583交叉口正东方向91米左右",
        "tel": "",
        "category": "基础设施:公共设施:公共厕所",
        "type": 0,
        "location": {
            "lat": 34.978145,
            "lng": 103.730695
        },
        "ad_info": {
            "adcode": 623021,
            "province": "甘肃省",
            "city": "甘南藏族自治州",
            "district": "临潭县"
        }
    },
    {
        "id": "13453616368524645954",
        "title": "公共厕所",
        "address": "甘肃省甘南藏族自治州玛曲县曲隆街与沃特路交叉口正北方向187米左右",
        "tel": "",
        "category": "基础设施:公共设施:公共厕所",
        "type": 0,
        "location": {
            "lat": 33.994512,
            "lng": 102.074642
        },
        "ad_info": {
            "adcode": 623025,
            "province": "甘肃省",
            "city": "甘南藏族自治州",
            "district": "玛曲县"
        }
    },
    {
        "id": "3029627601572368587",
        "title": "公共厕所",
        "address": "甘肃省甘南藏族自治州玛曲县霍尔果日观景台东北侧",
        "tel": "",
        "category": "基础设施:公共设施:公共厕所",
        "type": 0,
        "location": {
            "lat": 33.766415,
            "lng": 101.749877
        },
        "ad_info": {
            "adcode": 623025,
            "province": "甘肃省",
            "city": "甘南藏族自治州",
            "district": "玛曲县"
        }
    },
    {
        "id": "3954114301205960877",
        "title": "公共厕所",
        "address": "甘肃省甘南藏族自治州迭部县X412(江迭段)",
        "tel": "",
        "category": "基础设施:公共设施:公共厕所",
        "type": 0,
        "location": {
            "lat": 34.151468,
            "lng": 103.177819
        },
        "ad_info": {
            "adcode": 623024,
            "province": "甘肃省",
            "city": "甘南藏族自治州",
            "district": "迭部县"
        }
    },
    {
        "id": "10161762383709406803",
        "title": "公共厕所",
        "address": "甘肃省甘南藏族自治州合作市念钦街与扎油路交叉口正南方向59米左右",
        "tel": "",
        "category": "基础设施:公共设施:公共厕所",
        "type": 0,
        "location": {
            "lat": 35.000929,
            "lng": 102.906015
        },
        "ad_info": {
            "adcode": 623001,
            "province": "甘肃省",
            "city": "甘南藏族自治州",
            "district": "合作市"
        }
    },
    {
        "id": "5412039302494943268",
        "title": "公共厕所",
        "address": "甘肃省甘南藏族自治州合作市念钦街与知合玛路交叉口西南方向543米左右",
        "tel": "",
        "category": "基础设施:公共设施:公共厕所",
        "type": 0,
        "location": {
            "lat": 34.962612,
            "lng": 102.902163
        },
        "ad_info": {
            "adcode": 623001,
            "province": "甘肃省",
            "city": "甘南藏族自治州",
            "district": "合作市"
        }
    },
    {
        "id": "5799913820342768003",
        "title": "公共厕所",
        "address": "甘肃省甘南藏族自治州临潭县S306与S326交叉口西南方向229米左右",
        "tel": "",
        "category": "基础设施:公共设施:公共厕所",
        "type": 0,
        "location": {
            "lat": 34.667119,
            "lng": 103.596165
        },
        "ad_info": {
            "adcode": 623021,
            "province": "甘肃省",
            "city": "甘南藏族自治州",
            "district": "临潭县"
        }
    },
    {
        "id": "5887717015550074158",
        "title": "公共厕所",
        "address": "甘肃省甘南藏族自治州舟曲县正阳生态园西北侧90米",
        "tel": "",
        "category": "基础设施:公共设施:公共厕所",
        "type": 0,
        "location": {
            "lat": 33.708115,
            "lng": 104.453274
        },
        "ad_info": {
            "adcode": 623023,
            "province": "甘肃省",
            "city": "甘南藏族自治州",
            "district": "舟曲县"
        }
    },
    {
        "id": "946010922505643453",
        "title": "公共厕所",
        "address": "甘肃省甘南藏族自治州迭部县",
        "tel": "",
        "category": "基础设施:公共设施:公共厕所",
        "type": 0,
        "location": {
            "lat": 34.150861,
            "lng": 103.178227
        },
        "ad_info": {
            "adcode": 623024,
            "province": "甘肃省",
            "city": "甘南藏族自治州",
            "district": "迭部县"
        }
    },
    {
        "id": "16711845018867609339",
        "title": "公共厕所",
        "address": "甘肃省甘南藏族自治州玛曲县S204与S330交叉口正北方向1227米左右",
        "tel": "",
        "category": "基础设施:公共设施:公共厕所",
        "type": 0,
        "location": {
            "lat": 33.960032,
            "lng": 102.082558
        },
        "ad_info": {
            "adcode": 623025,
            "province": "甘肃省",
            "city": "甘南藏族自治州",
            "district": "玛曲县"
        }
    },
    {
        "id": "13100096270292204641",
        "title": "公共厕所",
        "address": "甘肃省甘南藏族自治州夏河县G568与S312交叉口正北方向61米左右",
        "tel": "",
        "category": "基础设施:公共设施:公共厕所",
        "type": 0,
        "location": {
            "lat": 35.224144,
            "lng": 102.825456
        },
        "ad_info": {
            "adcode": 623027,
            "province": "甘肃省",
            "city": "甘南藏族自治州",
            "district": "夏河县"
        }
    },
    {
        "id": "9569978523259005089",
        "title": "公共厕所",
        "address": "甘肃省甘南藏族自治州玛曲县外香寺院东南侧260米",
        "tel": "",
        "category": "基础设施:公共设施:公共厕所",
        "type": 0,
        "location": {
            "lat": 34.021846,
            "lng": 102.068302
        },
        "ad_info": {
            "adcode": 623025,
            "province": "甘肃省",
            "city": "甘南藏族自治州",
            "district": "玛曲县"
        }
    },
    {
        "id": "3982499635530799874",
        "title": "公共厕所",
        "address": "甘肃省甘南藏族自治州卓尼县306省道东50米",
        "tel": "",
        "category": "基础设施:公共设施:公共厕所",
        "type": 0,
        "location": {
            "lat": 34.749661,
            "lng": 103.249162
        },
        "ad_info": {
            "adcode": 623022,
            "province": "甘肃省",
            "city": "甘南藏族自治州",
            "district": "卓尼县"
        }
    },
    {
        "id": "3680118832180513429",
        "title": "公共厕所",
        "address": "甘肃省甘南藏族自治州夏河县G568与兰磨线交叉口西南方向1177米左右",
        "tel": "",
        "category": "基础设施:公共设施:公共厕所",
        "type": 0,
        "location": {
            "lat": 35.394498,
            "lng": 102.925219
        },
        "ad_info": {
            "adcode": 623027,
            "province": "甘肃省",
            "city": "甘南藏族自治州",
            "district": "夏河县"
        }
    },
    {
        "id": "15212359591071601329",
        "title": "公共厕所",
        "address": "甘肃省甘南藏族自治州夏河县G568与兰磨线交叉口正北方向141米左右",
        "tel": "",
        "category": "基础设施:公共设施:公共厕所",
        "type": 0,
        "location": {
            "lat": 35.24149,
            "lng": 102.827461
        },
        "ad_info": {
            "adcode": 623027,
            "province": "甘肃省",
            "city": "甘南藏族自治州",
            "district": "夏河县"
        }
    },
    {
        "id": "2548971099175587252",
        "title": "公共厕所",
        "address": "甘肃省甘南藏族自治州夏河县纬一路与纬四路交叉口正东方向904米左右",
        "tel": "",
        "category": "基础设施:公共设施:公共厕所",
        "type": 0,
        "location": {
            "lat": 34.812417,
            "lng": 102.702138
        },
        "ad_info": {
            "adcode": 623027,
            "province": "甘肃省",
            "city": "甘南藏族自治州",
            "district": "夏河县"
        }
    },
    {
        "id": "11877546921687603750",
        "title": "公共厕所",
        "address": "甘肃省甘南藏族自治州合作市玛曲东路与祖曲路交叉口西北方向26米左右",
        "tel": "",
        "category": "基础设施:公共设施:公共厕所",
        "type": 0,
        "location": {
            "lat": 34.982045,
            "lng": 102.914515
        },
        "ad_info": {
            "adcode": 623001,
            "province": "甘肃省",
            "city": "甘南藏族自治州",
            "district": "合作市"
        }
    },
    {
        "id": "1714448918528176503",
        "title": "冶力关森林公园-公共厕所",
        "address": "甘肃省甘南藏族自治州临潭县南滨河路与冶力关桥交叉口西南方向150米",
        "tel": "",
        "category": "基础设施:公共设施:公共厕所",
        "type": 0,
        "location": {
            "lat": 34.960081,
            "lng": 103.66116
        },
        "ad_info": {
            "adcode": 623021,
            "province": "甘肃省",
            "city": "甘南藏族自治州",
            "district": "临潭县"
        }
    },
    {
        "id": "8793487686943436543",
        "title": "玖盛国际饭店-洗手间",
        "address": "甘肃省甘南藏族自治州夏河县拉卜楞镇人民西街29号玖盛饭店2楼",
        "tel": "",
        "category": "基础设施:公共设施:公共厕所",
        "type": 0,
        "location": {
            "lat": 35.199491,
            "lng": 102.518281
        },
        "ad_info": {
            "adcode": 623027,
            "province": "甘肃省",
            "city": "甘南藏族自治州",
            "district": "夏河县"
        }
    },
    {
        "id": "10868179640410483949",
        "title": "冶力关森林公园公共厕所",
        "address": "甘肃省甘南藏族自治州临潭县南滨河路与广场西路交叉口西北方向362米左右",
        "tel": "",
        "category": "基础设施:公共设施:公共厕所",
        "type": 0,
        "location": {
            "lat": 34.96239,
            "lng": 103.658408
        },
        "ad_info": {
            "adcode": 623021,
            "province": "甘肃省",
            "city": "甘南藏族自治州",
            "district": "临潭县"
        }
    },
    {
        "id": "11233242599768345019",
        "title": "停车区公共厕所",
        "address": "甘肃省甘南藏族自治州夏河县G1816乌玛高速与停车区交叉口西220米",
        "tel": "",
        "category": "基础设施:公共设施:公共厕所",
        "type": 0,
        "location": {
            "lat": 35.048414,
            "lng": 102.862278
        },
        "ad_info": {
            "adcode": 623027,
            "province": "甘肃省",
            "city": "甘南藏族自治州",
            "district": "夏河县"
        }
    },
    {
        "id": "3286152821295622712",
        "title": "冶力关森林公园公共厕所",
        "address": "甘肃省甘南藏族自治州临潭县中国石油(临潭冶力关加油站)北侧180米",
        "tel": "",
        "category": "基础设施:公共设施:公共厕所",
        "type": 0,
        "location": {
            "lat": 34.958102,
            "lng": 103.670944
        },
        "ad_info": {
            "adcode": 623021,
            "province": "甘肃省",
            "city": "甘南藏族自治州",
            "district": "临潭县"
        }
    },
    {
        "id": "1425053219559852506",
        "title": "冶力关森林公园公共厕所",
        "address": "甘肃省甘南藏族自治州临潭县中国石油(临潭冶力关加油站)东北侧290米",
        "tel": "",
        "category": "基础设施:公共设施:公共厕所",
        "type": 0,
        "location": {
            "lat": 34.958599,
            "lng": 103.672664
        },
        "ad_info": {
            "adcode": 623021,
            "province": "甘肃省",
            "city": "甘南藏族自治州",
            "district": "临潭县"
        }
    },
    {
        "id": "392680101574045580",
        "title": "王格尔塘服务区公共厕所",
        "address": "甘肃省甘南藏族自治州夏河县G1816乌玛高速与王格尔塘服务区交叉口西北340米",
        "tel": "",
        "category": "基础设施:公共设施:公共厕所",
        "type": 0,
        "location": {
            "lat": 35.241983,
            "lng": 102.820829
        },
        "ad_info": {
            "adcode": 623027,
            "province": "甘肃省",
            "city": "甘南藏族自治州",
            "district": "夏河县"
        }
    },
    {
        "id": "8522307999279368450",
        "title": "王格尔塘服务区公共厕所",
        "address": "甘肃省甘南藏族自治州夏河县G568与兰磨线交叉口西北方向632米左右",
        "tel": "",
        "category": "基础设施:公共设施:公共厕所",
        "type": 0,
        "location": {
            "lat": 35.243764,
            "lng": 102.821575
        },
        "ad_info": {
            "adcode": 623027,
            "province": "甘肃省",
            "city": "甘南藏族自治州",
            "district": "夏河县"
        }
    },
    {
        "id": "7090597195597459559",
        "title": "公共厕所",
        "address": "甘肃省甘南藏族自治州迭部县甘肃-甘南-扎尕那景区内",
        "tel": "",
        "category": "基础设施:公共设施:公共厕所",
        "type": 0,
        "location": {
            "lat": 34.234758,
            "lng": 103.194888
        },
        "ad_info": {
            "adcode": 623024,
            "province": "甘肃省",
            "city": "甘南藏族自治州",
            "district": "迭部县"
        }
    },
    {
        "id": "860082958571613919",
        "title": "夏河停车区公共厕所",
        "address": "甘肃省甘南藏族自治州夏河县夏河停车区与S38王夏高速交叉口西南340米",
        "tel": "",
        "category": "基础设施:公共设施:公共厕所",
        "type": 0,
        "location": {
            "lat": 35.189891,
            "lng": 102.623907
        },
        "ad_info": {
            "adcode": 623027,
            "province": "甘肃省",
            "city": "甘南藏族自治州",
            "district": "夏河县"
        }
    }
]