[
    {
        "id": "868214372534011954",
        "title": "公共厕所",
        "address": "吉林省白城市通榆县团结路与繁荣大街交叉口正西方向101米左右",
        "tel": "",
        "category": "基础设施:公共设施:公共厕所",
        "type": 0,
        "location": {
            "lat": 44.809942,
            "lng": 123.084574
        },
        "ad_info": {
            "adcode": 220822,
            "province": "吉林省",
            "city": "白城市",
            "district": "通榆县"
        }
    },
    {
        "id": "10802784297163198773",
        "title": "公共厕所",
        "address": "吉林省白城市通榆县向海大街与文明路交叉口正西方向192米左右",
        "tel": "",
        "category": "基础设施:公共设施:公共厕所",
        "type": 0,
        "location": {
            "lat": 44.80753,
            "lng": 123.079936
        },
        "ad_info": {
            "adcode": 220822,
            "province": "吉林省",
            "city": "白城市",
            "district": "通榆县"
        }
    },
    {
        "id": "334249522254511572",
        "title": "公共厕所",
        "address": "吉林省白城市洮北区胜利东路与辽北路交叉口正北方向121米左右",
        "tel": "",
        "category": "基础设施:公共设施:公共厕所",
        "type": 0,
        "location": {
            "lat": 45.605662,
            "lng": 122.850222
        },
        "ad_info": {
            "adcode": 220802,
            "province": "吉林省",
            "city": "白城市",
            "district": "洮北区"
        }
    },
    {
        "id": "14186623811427456147",
        "title": "公共厕所",
        "address": "吉林省白城市通榆县富强路与文化街交叉口西北方向61米左右",
        "tel": "",
        "category": "基础设施:公共设施:公共厕所",
        "type": 0,
        "location": {
            "lat": 44.804696,
            "lng": 123.094074
        },
        "ad_info": {
            "adcode": 220822,
            "province": "吉林省",
            "city": "白城市",
            "district": "通榆县"
        }
    },
    {
        "id": "7100015446237313263",
        "title": "公共厕所",
        "address": "吉林省白城市洮北区中兴东大路与红旗街交叉口正西方向92米左右",
        "tel": "",
        "category": "基础设施:公共设施:公共厕所",
        "type": 0,
        "location": {
            "lat": 45.628319,
            "lng": 122.863047
        },
        "ad_info": {
            "adcode": 220802,
            "province": "吉林省",
            "city": "白城市",
            "district": "洮北区"
        }
    },
    {
        "id": "15189951990897145652",
        "title": "公共厕所",
        "address": "吉林省白城市镇赉县正阳南街309号",
        "tel": "",
        "category": "基础设施:公共设施:公共厕所",
        "type": 0,
        "location": {
            "lat": 45.848445,
            "lng": 123.204338
        },
        "ad_info": {
            "adcode": 220821,
            "province": "吉林省",
            "city": "白城市",
            "district": "镇赉县"
        }
    },
    {
        "id": "9143305317261475543",
        "title": "公共厕所",
        "address": "吉林省白城市洮北区幸福南大街与氧气厂路交叉口正东方向37米左右",
        "tel": "",
        "category": "基础设施:公共设施:公共厕所",
        "type": 0,
        "location": {
            "lat": 45.5993,
            "lng": 122.835508
        },
        "ad_info": {
            "adcode": 220802,
            "province": "吉林省",
            "city": "白城市",
            "district": "洮北区"
        }
    },
    {
        "id": "16808139835465664663",
        "title": "公共厕所",
        "address": "吉林省白城市镇赉县华城北街与华城南街交叉口西南方向166米左右",
        "tel": "",
        "category": "基础设施:公共设施:公共厕所",
        "type": 0,
        "location": {
            "lat": 45.851303,
            "lng": 123.21276
        },
        "ad_info": {
            "adcode": 220821,
            "province": "吉林省",
            "city": "白城市",
            "district": "镇赉县"
        }
    },
    {
        "id": "6593381301655125353",
        "title": "公共厕所",
        "address": "吉林省白城市洮北区新兴路与辽北路交叉口正西方向60米左右",
        "tel": "",
        "category": "基础设施:公共设施:公共厕所",
        "type": 0,
        "location": {
            "lat": 45.613588,
            "lng": 122.857935
        },
        "ad_info": {
            "adcode": 220802,
            "province": "吉林省",
            "city": "白城市",
            "district": "洮北区"
        }
    },
    {
        "id": "5332435129044273018",
        "title": "公共厕所",
        "address": "吉林省白城市通榆县利民路与繁荣大街交叉口正南方向118米左右",
        "tel": "",
        "category": "基础设施:公共设施:公共厕所",
        "type": 0,
        "location": {
            "lat": 44.800576,
            "lng": 123.087295
        },
        "ad_info": {
            "adcode": 220822,
            "province": "吉林省",
            "city": "白城市",
            "district": "通榆县"
        }
    },
    {
        "id": "9023940322242262627",
        "title": "公共厕所",
        "address": "吉林省白城市通榆县东郊路与开通大路交叉口东南方向35米左右",
        "tel": "",
        "category": "基础设施:公共设施:公共厕所",
        "type": 0,
        "location": {
            "lat": 44.806491,
            "lng": 123.09856
        },
        "ad_info": {
            "adcode": 220822,
            "province": "吉林省",
            "city": "白城市",
            "district": "通榆县"
        }
    },
    {
        "id": "1666931816356006810",
        "title": "公共厕所",
        "address": "吉林省白城市洮北区庆学西路与瑞光北街交叉口正南方向20米左右",
        "tel": "",
        "category": "基础设施:公共设施:公共厕所",
        "type": 0,
        "location": {
            "lat": 45.621817,
            "lng": 122.828716
        },
        "ad_info": {
            "adcode": 220802,
            "province": "吉林省",
            "city": "白城市",
            "district": "洮北区"
        }
    },
    {
        "id": "11908399168977859492",
        "title": "公共厕所",
        "address": "吉林省白城市洮北区九一三路与红旗街交叉口西北方向229米左右",
        "tel": "",
        "category": "基础设施:公共设施:公共厕所",
        "type": 0,
        "location": {
            "lat": 45.632837,
            "lng": 122.855826
        },
        "ad_info": {
            "adcode": 220802,
            "province": "吉林省",
            "city": "白城市",
            "district": "洮北区"
        }
    },
    {
        "id": "6919200388689997174",
        "title": "公共厕所",
        "address": "吉林省白城市洮北区G302与淮海街交叉口正东方向392米左右",
        "tel": "",
        "category": "基础设施:公共设施:公共厕所",
        "type": 0,
        "location": {
            "lat": 45.573172,
            "lng": 122.914743
        },
        "ad_info": {
            "adcode": 220802,
            "province": "吉林省",
            "city": "白城市",
            "district": "洮北区"
        }
    },
    {
        "id": "13012830286277246372",
        "title": "公共厕所",
        "address": "吉林省白城市洮北区中兴西大路与幸福北大街交叉口正西方向236米左右",
        "tel": "",
        "category": "基础设施:公共设施:公共厕所",
        "type": 0,
        "location": {
            "lat": 45.617401,
            "lng": 122.821859
        },
        "ad_info": {
            "adcode": 220802,
            "province": "吉林省",
            "city": "白城市",
            "district": "洮北区"
        }
    },
    {
        "id": "7107348907078619386",
        "title": "公共厕所",
        "address": "吉林省白城市洮北区民主东路与红旗街交叉口正南方向24米左右",
        "tel": "",
        "category": "基础设施:公共设施:公共厕所",
        "type": 0,
        "location": {
            "lat": 45.633155,
            "lng": 122.851547
        },
        "ad_info": {
            "adcode": 220802,
            "province": "吉林省",
            "city": "白城市",
            "district": "洮北区"
        }
    },
    {
        "id": "7681150219306775924",
        "title": "公共厕所",
        "address": "吉林省白城市通榆县S212与Y096交叉口西南方向42米左右",
        "tel": "",
        "category": "基础设施:公共设施:公共厕所",
        "type": 0,
        "location": {
            "lat": 45.077843,
            "lng": 123.249398
        },
        "ad_info": {
            "adcode": 220822,
            "province": "吉林省",
            "city": "白城市",
            "district": "通榆县"
        }
    },
    {
        "id": "3487130477729855703",
        "title": "公共厕所",
        "address": "吉林省白城市通榆县鑫悦汽车服务中心西侧170米",
        "tel": "",
        "category": "基础设施:公共设施:公共厕所",
        "type": 0,
        "location": {
            "lat": 44.828484,
            "lng": 122.428107
        },
        "ad_info": {
            "adcode": 220822,
            "province": "吉林省",
            "city": "白城市",
            "district": "通榆县"
        }
    },
    {
        "id": "12719350568324668804",
        "title": "公共厕所",
        "address": "吉林省白城市洮北区九一三路与长利街交叉口西北方向220米左右",
        "tel": "",
        "category": "基础设施:公共设施:公共厕所",
        "type": 0,
        "location": {
            "lat": 45.636343,
            "lng": 122.858733
        },
        "ad_info": {
            "adcode": 220802,
            "province": "吉林省",
            "city": "白城市",
            "district": "洮北区"
        }
    },
    {
        "id": "1603219598341610305",
        "title": "公共厕所",
        "address": "吉林省白城市洮北区S211与洮河大街交叉口正西方向225米左右",
        "tel": "",
        "category": "基础设施:公共设施:公共厕所",
        "type": 0,
        "location": {
            "lat": 45.483272,
            "lng": 123.024341
        },
        "ad_info": {
            "adcode": 220802,
            "province": "吉林省",
            "city": "白城市",
            "district": "洮北区"
        }
    },
    {
        "id": "13696122946272404671",
        "title": "公共厕所",
        "address": "吉林省白城市通榆县利民产品收购部东侧160米",
        "tel": "",
        "category": "基础设施:公共设施:公共厕所",
        "type": 0,
        "location": {
            "lat": 44.513028,
            "lng": 122.663494
        },
        "ad_info": {
            "adcode": 220822,
            "province": "吉林省",
            "city": "白城市",
            "district": "通榆县"
        }
    },
    {
        "id": "3102321721640630174",
        "title": "公共厕所",
        "address": "吉林省白城市洮北区X150与图乌公路交叉口正北方向52米左右",
        "tel": "",
        "category": "基础设施:公共设施:公共厕所",
        "type": 0,
        "location": {
            "lat": 45.581823,
            "lng": 122.794907
        },
        "ad_info": {
            "adcode": 220802,
            "province": "吉林省",
            "city": "白城市",
            "district": "洮北区"
        }
    },
    {
        "id": "15490531980092640021",
        "title": "公共厕所",
        "address": "吉林省白城市洮北区吉鹤广场与胜利西路交叉口西南方向103米左右",
        "tel": "",
        "category": "基础设施:公共设施:公共厕所",
        "type": 0,
        "location": {
            "lat": 45.597579,
            "lng": 122.824711
        },
        "ad_info": {
            "adcode": 220802,
            "province": "吉林省",
            "city": "白城市",
            "district": "洮北区"
        }
    },
    {
        "id": "4383302310769159860",
        "title": "公共厕所",
        "address": "吉林省白城市洮北区G231与G302交叉口正西方向56米左右",
        "tel": "",
        "category": "基础设施:公共设施:公共厕所",
        "type": 0,
        "location": {
            "lat": 45.70853,
            "lng": 122.87148
        },
        "ad_info": {
            "adcode": 220802,
            "province": "吉林省",
            "city": "白城市",
            "district": "洮北区"
        }
    },
    {
        "id": "15833862101070799346",
        "title": "公共厕所",
        "address": "吉林省白城市通榆县G231与双岗路交叉口东南方向69米左右",
        "tel": "",
        "category": "基础设施:公共设施:公共厕所",
        "type": 0,
        "location": {
            "lat": 45.102837,
            "lng": 122.937733
        },
        "ad_info": {
            "adcode": 220822,
            "province": "吉林省",
            "city": "白城市",
            "district": "通榆县"
        }
    },
    {
        "id": "3176265532780588406",
        "title": "公共厕所",
        "address": "吉林省白城市通榆县S212与Y096交叉口东北方向1730米左右",
        "tel": "",
        "category": "基础设施:公共设施:公共厕所",
        "type": 0,
        "location": {
            "lat": 45.08714,
            "lng": 123.267657
        },
        "ad_info": {
            "adcode": 220822,
            "province": "吉林省",
            "city": "白城市",
            "district": "通榆县"
        }
    },
    {
        "id": "16981740393267380736",
        "title": "公共厕所",
        "address": "吉林省白城市通榆县文明路与新发街交叉口正西方向86米左右",
        "tel": "",
        "category": "基础设施:公共设施:公共厕所",
        "type": 0,
        "location": {
            "lat": 44.808494,
            "lng": 123.096404
        },
        "ad_info": {
            "adcode": 220822,
            "province": "吉林省",
            "city": "白城市",
            "district": "通榆县"
        }
    },
    {
        "id": "503431611521275452",
        "title": "公共厕所",
        "address": "吉林省白城市通榆县向海大街与富强路交叉口正北方向45米左右",
        "tel": "",
        "category": "基础设施:公共设施:公共厕所",
        "type": 0,
        "location": {
            "lat": 44.803896,
            "lng": 123.08286
        },
        "ad_info": {
            "adcode": 220822,
            "province": "吉林省",
            "city": "白城市",
            "district": "通榆县"
        }
    },
    {
        "id": "11130409027582199878",
        "title": "公共厕所",
        "address": "吉林省白城市洮北区电厂北路与电厂路交叉口西南方向316米左右",
        "tel": "",
        "category": "基础设施:公共设施:公共厕所",
        "type": 0,
        "location": {
            "lat": 45.625903,
            "lng": 122.876027
        },
        "ad_info": {
            "adcode": 220802,
            "province": "吉林省",
            "city": "白城市",
            "district": "洮北区"
        }
    },
    {
        "id": "14966939968038353706",
        "title": "公共厕所",
        "address": "吉林省白城市洮北区X150与平安路交叉口西北方向273米左右",
        "tel": "",
        "category": "基础设施:公共设施:公共厕所",
        "type": 0,
        "location": {
            "lat": 45.744325,
            "lng": 122.542546
        },
        "ad_info": {
            "adcode": 220802,
            "province": "吉林省",
            "city": "白城市",
            "district": "洮北区"
        }
    },
    {
        "id": "8244752399968760271",
        "title": "公共厕所",
        "address": "吉林省白城市洮北区X150与平安路交叉口西北方向173米左右",
        "tel": "",
        "category": "基础设施:公共设施:公共厕所",
        "type": 0,
        "location": {
            "lat": 45.743566,
            "lng": 122.543257
        },
        "ad_info": {
            "adcode": 220802,
            "province": "吉林省",
            "city": "白城市",
            "district": "洮北区"
        }
    },
    {
        "id": "9940944333254309235",
        "title": "公共厕所",
        "address": "吉林省白城市洮北区代家村休闲文化广场东南侧170米",
        "tel": "",
        "category": "基础设施:公共设施:公共厕所",
        "type": 0,
        "location": {
            "lat": 45.613965,
            "lng": 122.762087
        },
        "ad_info": {
            "adcode": 220802,
            "province": "吉林省",
            "city": "白城市",
            "district": "洮北区"
        }
    },
    {
        "id": "8584118935927895855",
        "title": "公共厕所",
        "address": "吉林省白城市洮北区民主东路与红旗街交叉口东北方向271米左右",
        "tel": "",
        "category": "基础设施:公共设施:公共厕所",
        "type": 0,
        "location": {
            "lat": 45.635298,
            "lng": 122.853762
        },
        "ad_info": {
            "adcode": 220802,
            "province": "吉林省",
            "city": "白城市",
            "district": "洮北区"
        }
    },
    {
        "id": "6747757947876798605",
        "title": "公共厕所",
        "address": "吉林省白城市洮北区015乡道东50米",
        "tel": "",
        "category": "基础设施:公共设施:公共厕所",
        "type": 0,
        "location": {
            "lat": 45.562623,
            "lng": 122.770846
        },
        "ad_info": {
            "adcode": 220802,
            "province": "吉林省",
            "city": "白城市",
            "district": "洮北区"
        }
    },
    {
        "id": "15287901855995141712",
        "title": "公共厕所",
        "address": "吉林省白城市洮北区G302与Y005交叉口正西方向44米左右",
        "tel": "",
        "category": "基础设施:公共设施:公共厕所",
        "type": 0,
        "location": {
            "lat": 45.66673,
            "lng": 122.767356
        },
        "ad_info": {
            "adcode": 220802,
            "province": "吉林省",
            "city": "白城市",
            "district": "洮北区"
        }
    },
    {
        "id": "17479278370292680046",
        "title": "公共厕所",
        "address": "吉林省白城市洮北区红旗街与辽北路交叉口正东方向444米左右",
        "tel": "",
        "category": "基础设施:公共设施:公共厕所",
        "type": 0,
        "location": {
            "lat": 45.624705,
            "lng": 122.874854
        },
        "ad_info": {
            "adcode": 220802,
            "province": "吉林省",
            "city": "白城市",
            "district": "洮北区"
        }
    },
    {
        "id": "9671553963253344949",
        "title": "公共厕所",
        "address": "吉林省白城市洮北区G231中国石油加油站(永红村)",
        "tel": "",
        "category": "基础设施:公共设施:公共厕所",
        "type": 0,
        "location": {
            "lat": 45.759377,
            "lng": 122.897736
        },
        "ad_info": {
            "adcode": 220802,
            "province": "吉林省",
            "city": "白城市",
            "district": "洮北区"
        }
    },
    {
        "id": "17279336411365962956",
        "title": "公共厕所",
        "address": "吉林省白城市洮北区春天街与洮河大路交叉口东南方向90米左右",
        "tel": "",
        "category": "基础设施:公共设施:公共厕所",
        "type": 0,
        "location": {
            "lat": 45.482263,
            "lng": 123.029055
        },
        "ad_info": {
            "adcode": 220802,
            "province": "吉林省",
            "city": "白城市",
            "district": "洮北区"
        }
    },
    {
        "id": "3672531443754208233",
        "title": "公共厕所",
        "address": "吉林省白城市洮北区西青龙路与长兴胡同交叉口正东方向381米左右",
        "tel": "",
        "category": "基础设施:公共设施:公共厕所",
        "type": 0,
        "location": {
            "lat": 45.632739,
            "lng": 122.872238
        },
        "ad_info": {
            "adcode": 220802,
            "province": "吉林省",
            "city": "白城市",
            "district": "洮北区"
        }
    },
    {
        "id": "18372330096736270723",
        "title": "公共厕所",
        "address": "吉林省白城市洮北区强大路与辽北路交叉口东南方向548米左右",
        "tel": "",
        "category": "基础设施:公共设施:公共厕所",
        "type": 0,
        "location": {
            "lat": 45.619971,
            "lng": 122.873142
        },
        "ad_info": {
            "adcode": 220802,
            "province": "吉林省",
            "city": "白城市",
            "district": "洮北区"
        }
    },
    {
        "id": "13138594122051203876",
        "title": "公共厕所",
        "address": "吉林省白城市通榆县向海大街与团结路交叉口西北方向45米左右",
        "tel": "",
        "category": "基础设施:公共设施:公共厕所",
        "type": 0,
        "location": {
            "lat": 44.810107,
            "lng": 123.08142
        },
        "ad_info": {
            "adcode": 220822,
            "province": "吉林省",
            "city": "白城市",
            "district": "通榆县"
        }
    },
    {
        "id": "2773813422299198664",
        "title": "公共厕所",
        "address": "吉林省白城市洮北区友谊路与铁东街交叉口正南方向344米左右",
        "tel": "",
        "category": "基础设施:公共设施:公共厕所",
        "type": 0,
        "location": {
            "lat": 45.608205,
            "lng": 122.870281
        },
        "ad_info": {
            "adcode": 220802,
            "province": "吉林省",
            "city": "白城市",
            "district": "洮北区"
        }
    },
    {
        "id": "8150641341086235250",
        "title": "公共厕所",
        "address": "吉林省白城市洮北区九一三路与红旗街交叉口正北方向132米左右",
        "tel": "",
        "category": "基础设施:公共设施:公共厕所",
        "type": 0,
        "location": {
            "lat": 45.632304,
            "lng": 122.857599
        },
        "ad_info": {
            "adcode": 220802,
            "province": "吉林省",
            "city": "白城市",
            "district": "洮北区"
        }
    },
    {
        "id": "1915826686986831280",
        "title": "公共厕所",
        "address": "吉林省白城市镇赉县X103与X105交叉口正东方向718米左右",
        "tel": "",
        "category": "基础设施:公共设施:公共厕所",
        "type": 0,
        "location": {
            "lat": 45.947587,
            "lng": 123.627988
        },
        "ad_info": {
            "adcode": 220821,
            "province": "吉林省",
            "city": "白城市",
            "district": "镇赉县"
        }
    },
    {
        "id": "14429858295252889271",
        "title": "公共厕所",
        "address": "吉林省白城市洮北区图乌公路与新华西大路交叉口正南方向259米左右",
        "tel": "",
        "category": "基础设施:公共设施:公共厕所",
        "type": 0,
        "location": {
            "lat": 45.59548,
            "lng": 122.788735
        },
        "ad_info": {
            "adcode": 220802,
            "province": "吉林省",
            "city": "白城市",
            "district": "洮北区"
        }
    },
    {
        "id": "16221066966460701951",
        "title": "公共厕所",
        "address": "吉林省白城市洮北区许家综合商店东侧",
        "tel": "",
        "category": "基础设施:公共设施:公共厕所",
        "type": 0,
        "location": {
            "lat": 45.651617,
            "lng": 122.904212
        },
        "ad_info": {
            "adcode": 220802,
            "province": "吉林省",
            "city": "白城市",
            "district": "洮北区"
        }
    },
    {
        "id": "16053901274619480202",
        "title": "公共厕所",
        "address": "吉林省白城市洮北区红旗街与辽北路交叉口东南方向416米左右",
        "tel": "",
        "category": "基础设施:公共设施:公共厕所",
        "type": 0,
        "location": {
            "lat": 45.622225,
            "lng": 122.873067
        },
        "ad_info": {
            "adcode": 220802,
            "province": "吉林省",
            "city": "白城市",
            "district": "洮北区"
        }
    },
    {
        "id": "6547982759273296772",
        "title": "公共厕所",
        "address": "吉林省白城市镇赉县正阳南街与镇兴西路交叉口正北方向56米左右",
        "tel": "",
        "category": "基础设施:公共设施:公共厕所",
        "type": 0,
        "location": {
            "lat": 46.186442,
            "lng": 123.349285
        },
        "ad_info": {
            "adcode": 220821,
            "province": "吉林省",
            "city": "白城市",
            "district": "镇赉县"
        }
    },
    {
        "id": "14171550837017441140",
        "title": "公共厕所",
        "address": "吉林省白城市洮南市泰州北街238号",
        "tel": "",
        "category": "基础设施:公共设施:公共厕所",
        "type": 0,
        "location": {
            "lat": 45.340883,
            "lng": 122.794437
        },
        "ad_info": {
            "adcode": 220881,
            "province": "吉林省",
            "city": "白城市",
            "district": "洮南市"
        }
    },
    {
        "id": "3739278440834550324",
        "title": "公共厕所",
        "address": "吉林省白城市镇赉县G231与团结西路交叉口正东方向478米左右",
        "tel": "",
        "category": "基础设施:公共设施:公共厕所",
        "type": 0,
        "location": {
            "lat": 45.844588,
            "lng": 123.15886
        },
        "ad_info": {
            "adcode": 220821,
            "province": "吉林省",
            "city": "白城市",
            "district": "镇赉县"
        }
    },
    {
        "id": "4605757498197632871",
        "title": "公共厕所",
        "address": "吉林省白城市镇赉县新兴北街造纸厂家属房西侧约220米",
        "tel": "",
        "category": "基础设施:公共设施:公共厕所",
        "type": 0,
        "location": {
            "lat": 45.862091,
            "lng": 123.207275
        },
        "ad_info": {
            "adcode": 220821,
            "province": "吉林省",
            "city": "白城市",
            "district": "镇赉县"
        }
    },
    {
        "id": "6107662243912233049",
        "title": "公共厕所",
        "address": "吉林省白城市镇赉县兴旺畜禽养殖厂东侧50米",
        "tel": "",
        "category": "基础设施:公共设施:公共厕所",
        "type": 0,
        "location": {
            "lat": 45.832877,
            "lng": 123.242959
        },
        "ad_info": {
            "adcode": 220821,
            "province": "吉林省",
            "city": "白城市",
            "district": "镇赉县"
        }
    },
    {
        "id": "2966506822746907841",
        "title": "公共厕所",
        "address": "吉林省白城市镇赉县兴华北街与育红东路交叉口正西方向106米左右",
        "tel": "",
        "category": "基础设施:公共设施:公共厕所",
        "type": 0,
        "location": {
            "lat": 46.188483,
            "lng": 123.351402
        },
        "ad_info": {
            "adcode": 220821,
            "province": "吉林省",
            "city": "白城市",
            "district": "镇赉县"
        }
    },
    {
        "id": "9110000926509331679",
        "title": "公共厕所",
        "address": "吉林省白城市镇赉县建平乡全家围子",
        "tel": "",
        "category": "基础设施:公共设施:公共厕所",
        "type": 0,
        "location": {
            "lat": 46.024363,
            "lng": 123.132834
        },
        "ad_info": {
            "adcode": 220821,
            "province": "吉林省",
            "city": "白城市",
            "district": "镇赉县"
        }
    },
    {
        "id": "8195471483300187249",
        "title": "公共厕所",
        "address": "吉林省白城市镇赉县健康街与爱国路交叉口东南方向134米左右",
        "tel": "",
        "category": "基础设施:公共设施:公共厕所",
        "type": 0,
        "location": {
            "lat": 45.833877,
            "lng": 123.365867
        },
        "ad_info": {
            "adcode": 220821,
            "province": "吉林省",
            "city": "白城市",
            "district": "镇赉县"
        }
    },
    {
        "id": "4157314077878721256",
        "title": "公共厕所",
        "address": "吉林省白城市镇赉县C013与X103交叉口东北方向32米左右",
        "tel": "",
        "category": "基础设施:公共设施:公共厕所",
        "type": 0,
        "location": {
            "lat": 45.846546,
            "lng": 123.262075
        },
        "ad_info": {
            "adcode": 220821,
            "province": "吉林省",
            "city": "白城市",
            "district": "镇赉县"
        }
    },
    {
        "id": "2035665780863971874",
        "title": "公共厕所",
        "address": "吉林省白城市镇赉县庆生北街与建业路交叉口正西方向263米左右",
        "tel": "",
        "category": "基础设施:公共设施:公共厕所",
        "type": 0,
        "location": {
            "lat": 45.853161,
            "lng": 123.189724
        },
        "ad_info": {
            "adcode": 220821,
            "province": "吉林省",
            "city": "白城市",
            "district": "镇赉县"
        }
    },
    {
        "id": "5654422585174612667",
        "title": "公共厕所",
        "address": "吉林省白城市镇赉县兴华街与民康西路交叉口正北方向65米左右",
        "tel": "",
        "category": "基础设施:公共设施:公共厕所",
        "type": 0,
        "location": {
            "lat": 45.84105,
            "lng": 123.19108
        },
        "ad_info": {
            "adcode": 220821,
            "province": "吉林省",
            "city": "白城市",
            "district": "镇赉县"
        }
    },
    {
        "id": "11153154292551259063",
        "title": "公共厕所",
        "address": "吉林省白城市镇赉县X103与X105交叉口西南方向198米左右",
        "tel": "",
        "category": "基础设施:公共设施:公共厕所",
        "type": 0,
        "location": {
            "lat": 45.944418,
            "lng": 123.617068
        },
        "ad_info": {
            "adcode": 220821,
            "province": "吉林省",
            "city": "白城市",
            "district": "镇赉县"
        }
    },
    {
        "id": "12868975420483972314",
        "title": "公共厕所",
        "address": "吉林省白城市大安市兴华南街与德胜路交叉口正北方向44米左右",
        "tel": "",
        "category": "基础设施:公共设施:公共厕所",
        "type": 0,
        "location": {
            "lat": 45.507287,
            "lng": 124.3022
        },
        "ad_info": {
            "adcode": 220882,
            "province": "吉林省",
            "city": "白城市",
            "district": "大安市"
        }
    },
    {
        "id": "12413616133626000104",
        "title": "公共厕所",
        "address": "吉林省白城市洮南市建设东路与松辽街交叉口正东方向73米左右",
        "tel": "",
        "category": "基础设施:公共设施:公共厕所",
        "type": 0,
        "location": {
            "lat": 45.329881,
            "lng": 122.79235
        },
        "ad_info": {
            "adcode": 220881,
            "province": "吉林省",
            "city": "白城市",
            "district": "洮南市"
        }
    },
    {
        "id": "3436399006618249246",
        "title": "公共厕所",
        "address": "吉林省白城市大安市康平北街与福街交叉口东北方向130米左右",
        "tel": "",
        "category": "基础设施:公共设施:公共厕所",
        "type": 0,
        "location": {
            "lat": 45.507745,
            "lng": 124.288134
        },
        "ad_info": {
            "adcode": 220882,
            "province": "吉林省",
            "city": "白城市",
            "district": "大安市"
        }
    },
    {
        "id": "13280266857277529353",
        "title": "公共厕所",
        "address": "吉林省白城市大安市南湖东路与嫩江南街交叉口正北方向88米左右",
        "tel": "",
        "category": "基础设施:公共设施:公共厕所",
        "type": 0,
        "location": {
            "lat": 45.501474,
            "lng": 124.302488
        },
        "ad_info": {
            "adcode": 220882,
            "province": "吉林省",
            "city": "白城市",
            "district": "大安市"
        }
    },
    {
        "id": "16711599773678000469",
        "title": "公共厕所",
        "address": "吉林省白城市大安市S516与古树街交叉口东北方向104米左右",
        "tel": "",
        "category": "基础设施:公共设施:公共厕所",
        "type": 0,
        "location": {
            "lat": 45.557896,
            "lng": 123.376864
        },
        "ad_info": {
            "adcode": 220882,
            "province": "吉林省",
            "city": "白城市",
            "district": "大安市"
        }
    },
    {
        "id": "17025716119821573262",
        "title": "公共厕所",
        "address": "吉林省白城市洮南市建设东路与铁西街交叉口西北方向241米左右",
        "tel": "",
        "category": "基础设施:公共设施:公共厕所",
        "type": 0,
        "location": {
            "lat": 45.332939,
            "lng": 122.804203
        },
        "ad_info": {
            "adcode": 220881,
            "province": "吉林省",
            "city": "白城市",
            "district": "洮南市"
        }
    },
    {
        "id": "8948734637235969959",
        "title": "公共厕所",
        "address": "吉林省白城市大安市安居小区",
        "tel": "",
        "category": "基础设施:公共设施:公共厕所",
        "type": 0,
        "location": {
            "lat": 45.495918,
            "lng": 124.301328
        },
        "ad_info": {
            "adcode": 220882,
            "province": "吉林省",
            "city": "白城市",
            "district": "大安市"
        }
    },
    {
        "id": "14851373659773234575",
        "title": "公共厕所",
        "address": "吉林省白城市洮北区幸福南大街与新华西大路交叉口西南方向108米左右",
        "tel": "",
        "category": "基础设施:公共设施:公共厕所",
        "type": 0,
        "location": {
            "lat": 45.608118,
            "lng": 122.828664
        },
        "ad_info": {
            "adcode": 220802,
            "province": "吉林省",
            "city": "白城市",
            "district": "洮北区"
        }
    },
    {
        "id": "13255898652135715884",
        "title": "公共厕所",
        "address": "吉林省白城市洮北区强大路3号-8号",
        "tel": "",
        "category": "基础设施:公共设施:公共厕所",
        "type": 0,
        "location": {
            "lat": 45.621494,
            "lng": 122.860335
        },
        "ad_info": {
            "adcode": 220802,
            "province": "吉林省",
            "city": "白城市",
            "district": "洮北区"
        }
    },
    {
        "id": "14736441515227849712",
        "title": "公共厕所",
        "address": "吉林省白城市洮南市团结西路与府城街交叉口东南方向27米左右",
        "tel": "",
        "category": "基础设施:公共设施:公共厕所",
        "type": 0,
        "location": {
            "lat": 45.333692,
            "lng": 122.778422
        },
        "ad_info": {
            "adcode": 220881,
            "province": "吉林省",
            "city": "白城市",
            "district": "洮南市"
        }
    },
    {
        "id": "7421021309185780954",
        "title": "公共厕所",
        "address": "吉林省白城市洮南市光明南街与荣福东路交叉口正西方向131米左右",
        "tel": "",
        "category": "基础设施:公共设施:公共厕所",
        "type": 0,
        "location": {
            "lat": 45.336048,
            "lng": 122.784557
        },
        "ad_info": {
            "adcode": 220881,
            "province": "吉林省",
            "city": "白城市",
            "district": "洮南市"
        }
    },
    {
        "id": "8332931514928571628",
        "title": "公共厕所",
        "address": "吉林省白城市大安市安迪劳保制品厂西侧290米",
        "tel": "",
        "category": "基础设施:公共设施:公共厕所",
        "type": 0,
        "location": {
            "lat": 45.481723,
            "lng": 124.296662
        },
        "ad_info": {
            "adcode": 220882,
            "province": "吉林省",
            "city": "白城市",
            "district": "大安市"
        }
    },
    {
        "id": "10390804328795939166",
        "title": "公共厕所",
        "address": "吉林省白城市洮南市光明南街2313号",
        "tel": "",
        "category": "基础设施:公共设施:公共厕所",
        "type": 0,
        "location": {
            "lat": 45.317777,
            "lng": 122.788584
        },
        "ad_info": {
            "adcode": 220881,
            "province": "吉林省",
            "city": "白城市",
            "district": "洮南市"
        }
    },
    {
        "id": "17130182031060813724",
        "title": "公共厕所",
        "address": "吉林省白城市洮南市建设东路与铁西街交叉口东北方向51米左右",
        "tel": "",
        "category": "基础设施:公共设施:公共厕所",
        "type": 0,
        "location": {
            "lat": 45.331415,
            "lng": 122.805876
        },
        "ad_info": {
            "adcode": 220881,
            "province": "吉林省",
            "city": "白城市",
            "district": "洮南市"
        }
    },
    {
        "id": "6079856111838811951",
        "title": "公共厕所",
        "address": "吉林省白城市通榆县X111中国石油四井子加油站",
        "tel": "",
        "category": "基础设施:公共设施:公共厕所",
        "type": 0,
        "location": {
            "lat": 44.908221,
            "lng": 122.808683
        },
        "ad_info": {
            "adcode": 220822,
            "province": "吉林省",
            "city": "白城市",
            "district": "通榆县"
        }
    },
    {
        "id": "14434804318238102884",
        "title": "公共厕所",
        "address": "吉林省白城市大安市G302与Y141交叉口正东方向1290米左右",
        "tel": "",
        "category": "基础设施:公共设施:公共厕所",
        "type": 0,
        "location": {
            "lat": 45.556583,
            "lng": 123.394794
        },
        "ad_info": {
            "adcode": 220882,
            "province": "吉林省",
            "city": "白城市",
            "district": "大安市"
        }
    },
    {
        "id": "7207465028553713504",
        "title": "公共厕所",
        "address": "吉林省白城市大安市安乾线与通大线交叉口正西方向336米左右",
        "tel": "",
        "category": "基础设施:公共设施:公共厕所",
        "type": 0,
        "location": {
            "lat": 45.093136,
            "lng": 123.601772
        },
        "ad_info": {
            "adcode": 220882,
            "province": "吉林省",
            "city": "白城市",
            "district": "大安市"
        }
    },
    {
        "id": "1294981586055536171",
        "title": "公共厕所",
        "address": "吉林省白城市洮南市G231与X164交叉口正西方向81米左右",
        "tel": "",
        "category": "基础设施:公共设施:公共厕所",
        "type": 0,
        "location": {
            "lat": 45.226585,
            "lng": 122.839175
        },
        "ad_info": {
            "adcode": 220881,
            "province": "吉林省",
            "city": "白城市",
            "district": "洮南市"
        }
    },
    {
        "id": "18087653286466942361",
        "title": "公共厕所",
        "address": "吉林省白城市大安市长虹西路久铭家园",
        "tel": "",
        "category": "基础设施:公共设施:公共厕所",
        "type": 0,
        "location": {
            "lat": 45.499556,
            "lng": 124.284804
        },
        "ad_info": {
            "adcode": 220882,
            "province": "吉林省",
            "city": "白城市",
            "district": "大安市"
        }
    },
    {
        "id": "14520160746562515443",
        "title": "公共厕所",
        "address": "吉林省白城市大安市大赉北街与育才东路交叉口西北方向191米左右",
        "tel": "",
        "category": "基础设施:公共设施:公共厕所",
        "type": 0,
        "location": {
            "lat": 45.517521,
            "lng": 124.284331
        },
        "ad_info": {
            "adcode": 220882,
            "province": "吉林省",
            "city": "白城市",
            "district": "大安市"
        }
    },
    {
        "id": "14188163343209209505",
        "title": "公共厕所",
        "address": "吉林省白城市洮北区洮安东路58-1号",
        "tel": "",
        "category": "基础设施:公共设施:公共厕所",
        "type": 0,
        "location": {
            "lat": 45.618653,
            "lng": 122.842572
        },
        "ad_info": {
            "adcode": 220802,
            "province": "吉林省",
            "city": "白城市",
            "district": "洮北区"
        }
    },
    {
        "id": "14826188111834633549",
        "title": "公共厕所",
        "address": "吉林省白城市大安市嫩江北街与玉泉路交叉口正北方向87米左右",
        "tel": "",
        "category": "基础设施:公共设施:公共厕所",
        "type": 0,
        "location": {
            "lat": 45.516126,
            "lng": 124.290412
        },
        "ad_info": {
            "adcode": 220882,
            "province": "吉林省",
            "city": "白城市",
            "district": "大安市"
        }
    },
    {
        "id": "15620246996856706806",
        "title": "公共厕所",
        "address": "吉林省白城市洮南市东胜街与小康东路交叉口东北方向109米左右",
        "tel": "",
        "category": "基础设施:公共设施:公共厕所",
        "type": 0,
        "location": {
            "lat": 45.509245,
            "lng": 122.544624
        },
        "ad_info": {
            "adcode": 220881,
            "province": "吉林省",
            "city": "白城市",
            "district": "洮南市"
        }
    },
    {
        "id": "10111473329240406292",
        "title": "公共厕所",
        "address": "吉林省白城市大安市玉泉路嘉禾名苑",
        "tel": "",
        "category": "基础设施:公共设施:公共厕所",
        "type": 0,
        "location": {
            "lat": 45.514395,
            "lng": 124.287411
        },
        "ad_info": {
            "adcode": 220882,
            "province": "吉林省",
            "city": "白城市",
            "district": "大安市"
        }
    },
    {
        "id": "16173778900120701791",
        "title": "公共厕所",
        "address": "吉林省白城市洮南市108县道西50米",
        "tel": "",
        "category": "基础设施:公共设施:公共厕所",
        "type": 0,
        "location": {
            "lat": 45.484324,
            "lng": 122.439795
        },
        "ad_info": {
            "adcode": 220881,
            "province": "吉林省",
            "city": "白城市",
            "district": "洮南市"
        }
    },
    {
        "id": "2434048663128130323",
        "title": "公共厕所",
        "address": "吉林省白城市大安市长白南街广电大楼南",
        "tel": "",
        "category": "基础设施:公共设施:公共厕所",
        "type": 0,
        "location": {
            "lat": 45.493987,
            "lng": 124.293628
        },
        "ad_info": {
            "adcode": 220882,
            "province": "吉林省",
            "city": "白城市",
            "district": "大安市"
        }
    },
    {
        "id": "17663775362393690374",
        "title": "公共厕所",
        "address": "吉林省白城市大安市北江胡同与嫩江北街交叉口西南方向85米左右",
        "tel": "",
        "category": "基础设施:公共设施:公共厕所",
        "type": 0,
        "location": {
            "lat": 45.520178,
            "lng": 124.286108
        },
        "ad_info": {
            "adcode": 220882,
            "province": "吉林省",
            "city": "白城市",
            "district": "大安市"
        }
    },
    {
        "id": "18380725545700313617",
        "title": "公共厕所",
        "address": "吉林省白城市洮南市光明南街与永胜段交叉口正南方向666米左右",
        "tel": "",
        "category": "基础设施:公共设施:公共厕所",
        "type": 0,
        "location": {
            "lat": 45.319179,
            "lng": 122.788972
        },
        "ad_info": {
            "adcode": 220881,
            "province": "吉林省",
            "city": "白城市",
            "district": "洮南市"
        }
    },
    {
        "id": "8890887894457607522",
        "title": "公共厕所",
        "address": "吉林省白城市大安市兴华南街与建设路交叉口西南方向25米左右",
        "tel": "",
        "category": "基础设施:公共设施:公共厕所",
        "type": 0,
        "location": {
            "lat": 45.503163,
            "lng": 124.305043
        },
        "ad_info": {
            "adcode": 220882,
            "province": "吉林省",
            "city": "白城市",
            "district": "大安市"
        }
    },
    {
        "id": "17650474107858330204",
        "title": "公共厕所",
        "address": "吉林省白城市大安市兴华北街与永宁路交叉口正北方向122米左右",
        "tel": "",
        "category": "基础设施:公共设施:公共厕所",
        "type": 0,
        "location": {
            "lat": 45.511662,
            "lng": 124.299759
        },
        "ad_info": {
            "adcode": 220882,
            "province": "吉林省",
            "city": "白城市",
            "district": "大安市"
        }
    },
    {
        "id": "77148708393063847",
        "title": "公共厕所",
        "address": "吉林省白城市大安市南湖西路与西站街交叉口西南方向118米左右",
        "tel": "",
        "category": "基础设施:公共设施:公共厕所",
        "type": 0,
        "location": {
            "lat": 45.490864,
            "lng": 124.276114
        },
        "ad_info": {
            "adcode": 220882,
            "province": "吉林省",
            "city": "白城市",
            "district": "大安市"
        }
    },
    {
        "id": "1091293541909749350",
        "title": "公共厕所",
        "address": "吉林省白城市大安市西站街与长虹西路交叉口正南方向214米左右",
        "tel": "",
        "category": "基础设施:公共设施:公共厕所",
        "type": 0,
        "location": {
            "lat": 45.493726,
            "lng": 124.274889
        },
        "ad_info": {
            "adcode": 220882,
            "province": "吉林省",
            "city": "白城市",
            "district": "大安市"
        }
    },
    {
        "id": "2187806312303674633",
        "title": "公共厕所",
        "address": "吉林省白城市大安市体育场西北角",
        "tel": "",
        "category": "基础设施:公共设施:公共厕所",
        "type": 0,
        "location": {
            "lat": 45.516086,
            "lng": 124.278275
        },
        "ad_info": {
            "adcode": 220882,
            "province": "吉林省",
            "city": "白城市",
            "district": "大安市"
        }
    },
    {
        "id": "16123170275621090332",
        "title": "公共厕所",
        "address": "吉林省白城市大安市油田公司东侧100米",
        "tel": "",
        "category": "基础设施:公共设施:公共厕所",
        "type": 0,
        "location": {
            "lat": 45.523793,
            "lng": 123.956178
        },
        "ad_info": {
            "adcode": 220882,
            "province": "吉林省",
            "city": "白城市",
            "district": "大安市"
        }
    },
    {
        "id": "18101709314198408748",
        "title": "公共厕所",
        "address": "吉林省白城市洮南市G231与X164交叉口正南方向264米左右",
        "tel": "",
        "category": "基础设施:公共设施:公共厕所",
        "type": 0,
        "location": {
            "lat": 45.224396,
            "lng": 122.841357
        },
        "ad_info": {
            "adcode": 220881,
            "province": "吉林省",
            "city": "白城市",
            "district": "洮南市"
        }
    },
    {
        "id": "3320103936194098751",
        "title": "公共厕所",
        "address": "吉林省白城市洮南市X108中国石油加油站(聚鑫阁酒店南)",
        "tel": "",
        "category": "基础设施:公共设施:公共厕所",
        "type": 0,
        "location": {
            "lat": 45.493293,
            "lng": 122.435231
        },
        "ad_info": {
            "adcode": 220881,
            "province": "吉林省",
            "city": "白城市",
            "district": "洮南市"
        }
    },
    {
        "id": "15166570118989822856",
        "title": "公共厕所",
        "address": "吉林省白城市洮南市古树北街与富文西路交叉口西南方向134米左右",
        "tel": "",
        "category": "基础设施:公共设施:公共厕所",
        "type": 0,
        "location": {
            "lat": 45.342548,
            "lng": 122.779418
        },
        "ad_info": {
            "adcode": 220881,
            "province": "吉林省",
            "city": "白城市",
            "district": "洮南市"
        }
    },
    {
        "id": "12115558367583315695",
        "title": "公共厕所",
        "address": "吉林省白城市洮南市G231与兴业路交叉口东北方向427米左右",
        "tel": "",
        "category": "基础设施:公共设施:公共厕所",
        "type": 0,
        "location": {
            "lat": 45.32038,
            "lng": 122.802217
        },
        "ad_info": {
            "adcode": 220881,
            "province": "吉林省",
            "city": "白城市",
            "district": "洮南市"
        }
    },
    {
        "id": "17106552764389323308",
        "title": "公共厕所",
        "address": "吉林省白城市通榆县团结路与文化街交叉口正西方向144米左右",
        "tel": "",
        "category": "基础设施:公共设施:公共厕所",
        "type": 0,
        "location": {
            "lat": 44.810345,
            "lng": 123.091532
        },
        "ad_info": {
            "adcode": 220822,
            "province": "吉林省",
            "city": "白城市",
            "district": "通榆县"
        }
    },
    {
        "id": "16982136561539132278",
        "title": "公共厕所",
        "address": "吉林省白城市镇赉县庆生南街与扶余西路交叉口西北方向40米左右",
        "tel": "",
        "category": "基础设施:公共设施:公共厕所",
        "type": 0,
        "location": {
            "lat": 45.83881,
            "lng": 123.194796
        },
        "ad_info": {
            "adcode": 220821,
            "province": "吉林省",
            "city": "白城市",
            "district": "镇赉县"
        }
    },
    {
        "id": "7099246349819225473",
        "title": "公共厕所",
        "address": "吉林省白城市镇赉县华城北街与华城南街交叉口正北方向105米左右",
        "tel": "",
        "category": "基础设施:公共设施:公共厕所",
        "type": 0,
        "location": {
            "lat": 45.853287,
            "lng": 123.214384
        },
        "ad_info": {
            "adcode": 220821,
            "province": "吉林省",
            "city": "白城市",
            "district": "镇赉县"
        }
    },
    {
        "id": "12289626970823859481",
        "title": "平安停车区公共厕所",
        "address": "吉林省白城市洮北区平安停车区西50米",
        "tel": "",
        "category": "基础设施:公共设施:公共厕所",
        "type": 0,
        "location": {
            "lat": 45.747515,
            "lng": 122.515578
        },
        "ad_info": {
            "adcode": 220802,
            "province": "吉林省",
            "city": "白城市",
            "district": "洮北区"
        }
    },
    {
        "id": "11084369194247880362",
        "title": "到保服务区公共厕所",
        "address": "吉林省白城市洮北区G12珲乌高速与到保服务区交叉口西400米",
        "tel": "",
        "category": "基础设施:公共设施:公共厕所",
        "type": 0,
        "location": {
            "lat": 45.574127,
            "lng": 123.075405
        },
        "ad_info": {
            "adcode": 220802,
            "province": "吉林省",
            "city": "白城市",
            "district": "洮北区"
        }
    },
    {
        "id": "6252070085849659111",
        "title": "公共厕所",
        "address": "吉林省白城市洮南市泰州南街与荣福东路交叉口正东方向158米左右",
        "tel": "",
        "category": "基础设施:公共设施:公共厕所",
        "type": 0,
        "location": {
            "lat": 45.337167,
            "lng": 122.796423
        },
        "ad_info": {
            "adcode": 220881,
            "province": "吉林省",
            "city": "白城市",
            "district": "洮南市"
        }
    },
    {
        "id": "11329558957718174050",
        "title": "25号公共厕所",
        "address": "吉林省白城市洮南市富文西路与清泉街交叉口正西方向36米左右",
        "tel": "",
        "category": "基础设施:公共设施:公共厕所",
        "type": 0,
        "location": {
            "lat": 45.341419,
            "lng": 122.764121
        },
        "ad_info": {
            "adcode": 220881,
            "province": "吉林省",
            "city": "白城市",
            "district": "洮南市"
        }
    },
    {
        "id": "12062259022013063742",
        "title": "到保服务区公共厕所",
        "address": "吉林省白城市洮北区G12珲乌高速附近",
        "tel": "",
        "category": "基础设施:公共设施:公共厕所",
        "type": 0,
        "location": {
            "lat": 45.573285,
            "lng": 123.073372
        },
        "ad_info": {
            "adcode": 220802,
            "province": "吉林省",
            "city": "白城市",
            "district": "洮北区"
        }
    },
    {
        "id": "2135365579208315486",
        "title": "公共厕所",
        "address": "吉林省白城市大安市嫩江北街大成花园",
        "tel": "",
        "category": "基础设施:公共设施:公共厕所",
        "type": 0,
        "location": {
            "lat": 45.511092,
            "lng": 124.294558
        },
        "ad_info": {
            "adcode": 220882,
            "province": "吉林省",
            "city": "白城市",
            "district": "大安市"
        }
    },
    {
        "id": "9175927716675546860",
        "title": "公共厕所",
        "address": "吉林省白城市大安市兴华北街中广核大安基地",
        "tel": "",
        "category": "基础设施:公共设施:公共厕所",
        "type": 0,
        "location": {
            "lat": 45.509001,
            "lng": 124.30081
        },
        "ad_info": {
            "adcode": 220882,
            "province": "吉林省",
            "city": "白城市",
            "district": "大安市"
        }
    },
    {
        "id": "15276148722146763117",
        "title": "公共厕所",
        "address": "吉林省白城市镇赉县平安小区(庆余北街东)",
        "tel": "",
        "category": "基础设施:公共设施:公共厕所",
        "type": 0,
        "location": {
            "lat": 45.854941,
            "lng": 123.196534
        },
        "ad_info": {
            "adcode": 220821,
            "province": "吉林省",
            "city": "白城市",
            "district": "镇赉县"
        }
    },
    {
        "id": "5420091589936361482",
        "title": "镇赉服务区公共厕所",
        "address": "吉林省白城市镇赉县双嫩高速附近",
        "tel": "",
        "category": "基础设施:公共设施:公共厕所",
        "type": 0,
        "location": {
            "lat": 45.785627,
            "lng": 123.050119
        },
        "ad_info": {
            "adcode": 220821,
            "province": "吉林省",
            "city": "白城市",
            "district": "镇赉县"
        }
    },
    {
        "id": "9174230051651640929",
        "title": "公共厕所",
        "address": "吉林省白城市大安市大赉北街与玉泉路交叉口正东方向45米左右",
        "tel": "",
        "category": "基础设施:公共设施:公共厕所",
        "type": 0,
        "location": {
            "lat": 45.513931,
            "lng": 124.28769
        },
        "ad_info": {
            "adcode": 220882,
            "province": "吉林省",
            "city": "白城市",
            "district": "大安市"
        }
    },
    {
        "id": "1665097008779703139",
        "title": "公共厕所",
        "address": "吉林省白城市洮南市双河西路与古树北街交叉口正西方向49米左右",
        "tel": "",
        "category": "基础设施:公共设施:公共厕所",
        "type": 0,
        "location": {
            "lat": 45.348217,
            "lng": 122.779109
        },
        "ad_info": {
            "adcode": 220881,
            "province": "吉林省",
            "city": "白城市",
            "district": "洮南市"
        }
    },
    {
        "id": "15018669136506788741",
        "title": "公共厕所",
        "address": "吉林省白城市洮南市广昌东路与通达路交叉口东北方向25米左右",
        "tel": "",
        "category": "基础设施:公共设施:公共厕所",
        "type": 0,
        "location": {
            "lat": 45.341531,
            "lng": 122.80744
        },
        "ad_info": {
            "adcode": 220881,
            "province": "吉林省",
            "city": "白城市",
            "district": "洮南市"
        }
    },
    {
        "id": "3185704299768989144",
        "title": "公共厕所",
        "address": "吉林省白城市大安市嫩江湾",
        "tel": "04365348111",
        "category": "基础设施:公共设施:公共厕所",
        "type": 0,
        "location": {
            "lat": 45.519996,
            "lng": 124.306726
        },
        "ad_info": {
            "adcode": 220882,
            "province": "吉林省",
            "city": "白城市",
            "district": "大安市"
        }
    },
    {
        "id": "16288098590468018101",
        "title": "坦途服务区公共厕所",
        "address": "吉林省白城市镇赉县G231与Y076交叉口正东方向1364米左右",
        "tel": "",
        "category": "基础设施:公共设施:公共厕所",
        "type": 0,
        "location": {
            "lat": 46.167571,
            "lng": 123.358628
        },
        "ad_info": {
            "adcode": 220821,
            "province": "吉林省",
            "city": "白城市",
            "district": "镇赉县"
        }
    },
    {
        "id": "9861079455165746356",
        "title": "中国莫莫格湿地博物馆公共厕所",
        "address": "吉林省白城市镇赉县莫莫格国家级自然保护区",
        "tel": "",
        "category": "基础设施:公共设施:公共厕所",
        "type": 0,
        "location": {
            "lat": 45.935492,
            "lng": 123.581661
        },
        "ad_info": {
            "adcode": 220821,
            "province": "吉林省",
            "city": "白城市",
            "district": "镇赉县"
        }
    },
    {
        "id": "6788868038919901172",
        "title": "大安服务区公共厕所",
        "address": "吉林省白城市大安市G302与Y148交叉口正南方向572米左右",
        "tel": "",
        "category": "基础设施:公共设施:公共厕所",
        "type": 0,
        "location": {
            "lat": 45.451333,
            "lng": 124.290661
        },
        "ad_info": {
            "adcode": 220882,
            "province": "吉林省",
            "city": "白城市",
            "district": "大安市"
        }
    },
    {
        "id": "15391141266916240742",
        "title": "公共厕所",
        "address": "吉林省白城市洮南市团结西路518号",
        "tel": "",
        "category": "基础设施:公共设施:公共厕所",
        "type": 0,
        "location": {
            "lat": 45.333745,
            "lng": 122.77904
        },
        "ad_info": {
            "adcode": 220881,
            "province": "吉林省",
            "city": "白城市",
            "district": "洮南市"
        }
    },
    {
        "id": "4660553831640206899",
        "title": "1号公共厕所",
        "address": "吉林省白城市洮南市光明北街与双河东路交叉口东南方向47米左右",
        "tel": "",
        "category": "基础设施:公共设施:公共厕所",
        "type": 0,
        "location": {
            "lat": 45.348479,
            "lng": 122.784213
        },
        "ad_info": {
            "adcode": 220881,
            "province": "吉林省",
            "city": "白城市",
            "district": "洮南市"
        }
    },
    {
        "id": "14688547760726657979",
        "title": "安广服务区公共厕所",
        "address": "吉林省白城市大安市G12珲乌高速与安广服务区交叉口东400米",
        "tel": "",
        "category": "基础设施:公共设施:公共厕所",
        "type": 0,
        "location": {
            "lat": 45.578579,
            "lng": 123.670878
        },
        "ad_info": {
            "adcode": 220882,
            "province": "吉林省",
            "city": "白城市",
            "district": "大安市"
        }
    },
    {
        "id": "96365182446413857",
        "title": "9号公共厕所",
        "address": "吉林省白城市洮南市富文东路与通达路交叉口正东方向107米左右",
        "tel": "",
        "category": "基础设施:公共设施:公共厕所",
        "type": 0,
        "location": {
            "lat": 45.345189,
            "lng": 122.803737
        },
        "ad_info": {
            "adcode": 220881,
            "province": "吉林省",
            "city": "白城市",
            "district": "洮南市"
        }
    },
    {
        "id": "9187520469190799527",
        "title": "公共厕所",
        "address": "吉林省白城市洮北区海波水稻种植家庭农场西南侧150米",
        "tel": "",
        "category": "基础设施:公共设施:公共厕所",
        "type": 0,
        "location": {
            "lat": 45.487194,
            "lng": 122.721227
        },
        "ad_info": {
            "adcode": 220802,
            "province": "吉林省",
            "city": "白城市",
            "district": "洮北区"
        }
    },
    {
        "id": "8617244660247045766",
        "title": "坦途服务区公共厕所",
        "address": "吉林省白城市镇赉县G4512双嫩高速与坦途服务区交叉口南380米",
        "tel": "",
        "category": "基础设施:公共设施:公共厕所",
        "type": 0,
        "location": {
            "lat": 46.165978,
            "lng": 123.361424
        },
        "ad_info": {
            "adcode": 220821,
            "province": "吉林省",
            "city": "白城市",
            "district": "镇赉县"
        }
    },
    {
        "id": "8611859176536101966",
        "title": "公共厕所",
        "address": "吉林省白城市大安市太山镇中心校东北侧140米",
        "tel": "",
        "category": "基础设施:公共设施:公共厕所",
        "type": 0,
        "location": {
            "lat": 45.56108,
            "lng": 124.086052
        },
        "ad_info": {
            "adcode": 220882,
            "province": "吉林省",
            "city": "白城市",
            "district": "大安市"
        }
    },
    {
        "id": "7177216186870640922",
        "title": "公共厕所",
        "address": "吉林省白城市大安市大赉南街与新明路交叉口正东方向38米左右",
        "tel": "",
        "category": "基础设施:公共设施:公共厕所",
        "type": 0,
        "location": {
            "lat": 45.502186,
            "lng": 124.297706
        },
        "ad_info": {
            "adcode": 220882,
            "province": "吉林省",
            "city": "白城市",
            "district": "大安市"
        }
    },
    {
        "id": "4578270657371661083",
        "title": "公共厕所",
        "address": "吉林省白城市大安市Y140与安乾线交叉口西南方向195米左右",
        "tel": "",
        "category": "基础设施:公共设施:公共厕所",
        "type": 0,
        "location": {
            "lat": 45.45846,
            "lng": 123.72312
        },
        "ad_info": {
            "adcode": 220882,
            "province": "吉林省",
            "city": "白城市",
            "district": "大安市"
        }
    },
    {
        "id": "5860415060324682961",
        "title": "公共厕所",
        "address": "吉林省白城市大安市G302与安乾线交叉口正西方向344米左右",
        "tel": "",
        "category": "基础设施:公共设施:公共厕所",
        "type": 0,
        "location": {
            "lat": 45.584044,
            "lng": 123.753612
        },
        "ad_info": {
            "adcode": 220882,
            "province": "吉林省",
            "city": "白城市",
            "district": "大安市"
        }
    },
    {
        "id": "978779026841146183",
        "title": "公共厕所",
        "address": "吉林省白城市大安市江城西路与铁西路交叉口正北方向257米左右",
        "tel": "",
        "category": "基础设施:公共设施:公共厕所",
        "type": 0,
        "location": {
            "lat": 45.498337,
            "lng": 124.262664
        },
        "ad_info": {
            "adcode": 220882,
            "province": "吉林省",
            "city": "白城市",
            "district": "大安市"
        }
    },
    {
        "id": "12279211532222244832",
        "title": "公共厕所",
        "address": "吉林省白城市洮南市Y002与西二环交叉口正东方向169米左右",
        "tel": "",
        "category": "基础设施:公共设施:公共厕所",
        "type": 0,
        "location": {
            "lat": 45.349456,
            "lng": 122.758057
        },
        "ad_info": {
            "adcode": 220881,
            "province": "吉林省",
            "city": "白城市",
            "district": "洮南市"
        }
    },
    {
        "id": "9260653370554431569",
        "title": "公共厕所",
        "address": "吉林省白城市镇赉县G231与Y081交叉口西南方向939米左右",
        "tel": "",
        "category": "基础设施:公共设施:公共厕所",
        "type": 0,
        "location": {
            "lat": 45.810335,
            "lng": 123.033168
        },
        "ad_info": {
            "adcode": 220821,
            "province": "吉林省",
            "city": "白城市",
            "district": "镇赉县"
        }
    },
    {
        "id": "15029967544162596939",
        "title": "公共厕所",
        "address": "吉林省白城市洮北区西青龙路与长兴胡同交叉口正北方向193米左右",
        "tel": "",
        "category": "基础设施:公共设施:公共厕所",
        "type": 0,
        "location": {
            "lat": 45.63314,
            "lng": 122.868204
        },
        "ad_info": {
            "adcode": 220802,
            "province": "吉林省",
            "city": "白城市",
            "district": "洮北区"
        }
    },
    {
        "id": "1501656833468349900",
        "title": "公共厕所",
        "address": "吉林省白城市通榆县人民大路与文化街交叉口正东方向90米左右",
        "tel": "",
        "category": "基础设施:公共设施:公共厕所",
        "type": 0,
        "location": {
            "lat": 44.799693,
            "lng": 123.096324
        },
        "ad_info": {
            "adcode": 220822,
            "province": "吉林省",
            "city": "白城市",
            "district": "通榆县"
        }
    },
    {
        "id": "2146864026146196436",
        "title": "公共厕所",
        "address": "吉林省白城市通榆县向海大街与团结路交叉口正西方向195米左右",
        "tel": "",
        "category": "基础设施:公共设施:公共厕所",
        "type": 0,
        "location": {
            "lat": 44.809978,
            "lng": 123.079471
        },
        "ad_info": {
            "adcode": 220822,
            "province": "吉林省",
            "city": "白城市",
            "district": "通榆县"
        }
    },
    {
        "id": "4613245564514233320",
        "title": "公共厕所",
        "address": "吉林省白城市通榆县S212与X160交叉口正南方向115米左右",
        "tel": "",
        "category": "基础设施:公共设施:公共厕所",
        "type": 0,
        "location": {
            "lat": 44.920307,
            "lng": 123.256026
        },
        "ad_info": {
            "adcode": 220822,
            "province": "吉林省",
            "city": "白城市",
            "district": "通榆县"
        }
    },
    {
        "id": "5708526552704540473",
        "title": "公共厕所",
        "address": "吉林省白城市镇赉县凌云西路与庆生南街交叉口正西方向275米左右",
        "tel": "",
        "category": "基础设施:公共设施:公共厕所",
        "type": 0,
        "location": {
            "lat": 45.848326,
            "lng": 123.190196
        },
        "ad_info": {
            "adcode": 220821,
            "province": "吉林省",
            "city": "白城市",
            "district": "镇赉县"
        }
    },
    {
        "id": "18284201548849681600",
        "title": "公共厕所",
        "address": "吉林省白城市大安市正通路锦绣佳园小区",
        "tel": "",
        "category": "基础设施:公共设施:公共厕所",
        "type": 0,
        "location": {
            "lat": 45.51397,
            "lng": 124.295734
        },
        "ad_info": {
            "adcode": 220882,
            "province": "吉林省",
            "city": "白城市",
            "district": "大安市"
        }
    },
    {
        "id": "14987558664667935632",
        "title": "公共厕所",
        "address": "吉林省白城市通榆县文明路与站前街交叉口正北方向334米左右",
        "tel": "",
        "category": "基础设施:公共设施:公共厕所",
        "type": 0,
        "location": {
            "lat": 44.810325,
            "lng": 123.076266
        },
        "ad_info": {
            "adcode": 220822,
            "province": "吉林省",
            "city": "白城市",
            "district": "通榆县"
        }
    },
    {
        "id": "8194458150344674343",
        "title": "公共厕所",
        "address": "吉林省白城市洮北区洮安西路与瑞光南街交叉口正北方向27米左右",
        "tel": "",
        "category": "基础设施:公共设施:公共厕所",
        "type": 0,
        "location": {
            "lat": 45.615833,
            "lng": 122.83242
        },
        "ad_info": {
            "adcode": 220802,
            "province": "吉林省",
            "city": "白城市",
            "district": "洮北区"
        }
    },
    {
        "id": "514016681159475326",
        "title": "公共厕所",
        "address": "吉林省白城市洮北区乐丰盈采摘园南侧260米",
        "tel": "",
        "category": "基础设施:公共设施:公共厕所",
        "type": 0,
        "location": {
            "lat": 45.660636,
            "lng": 122.867306
        },
        "ad_info": {
            "adcode": 220802,
            "province": "吉林省",
            "city": "白城市",
            "district": "洮北区"
        }
    },
    {
        "id": "8120151971197360630",
        "title": "公共厕所",
        "address": "吉林省白城市洮南市G231与兴业路交叉口西南方向33米左右",
        "tel": "",
        "category": "基础设施:公共设施:公共厕所",
        "type": 0,
        "location": {
            "lat": 45.316698,
            "lng": 122.799533
        },
        "ad_info": {
            "adcode": 220881,
            "province": "吉林省",
            "city": "白城市",
            "district": "洮南市"
        }
    },
    {
        "id": "2950874577956782677",
        "title": "公共厕所",
        "address": "吉林省白城市洮北区剧场胡同与洮安东路交叉口正北方向98米左右",
        "tel": "",
        "category": "基础设施:公共设施:公共厕所",
        "type": 0,
        "location": {
            "lat": 45.618793,
            "lng": 122.848953
        },
        "ad_info": {
            "adcode": 220802,
            "province": "吉林省",
            "city": "白城市",
            "district": "洮北区"
        }
    },
    {
        "id": "12383549389140825276",
        "title": "公共厕所",
        "address": "吉林省白城市大安市兴华南街与德胜路交叉口西北方向32米左右",
        "tel": "",
        "category": "基础设施:公共设施:公共厕所",
        "type": 0,
        "location": {
            "lat": 45.507051,
            "lng": 124.301865
        },
        "ad_info": {
            "adcode": 220882,
            "province": "吉林省",
            "city": "白城市",
            "district": "大安市"
        }
    },
    {
        "id": "3622042649577994313",
        "title": "公共厕所",
        "address": "吉林省白城市洮北区Y015与Y057交叉口西南方向353米左右",
        "tel": "",
        "category": "基础设施:公共设施:公共厕所",
        "type": 0,
        "location": {
            "lat": 45.484691,
            "lng": 122.791065
        },
        "ad_info": {
            "adcode": 220802,
            "province": "吉林省",
            "city": "白城市",
            "district": "洮北区"
        }
    },
    {
        "id": "12245498611165264957",
        "title": "公共厕所",
        "address": "吉林省白城市洮北区Y034与富裕路交叉口正北方向102米左右",
        "tel": "",
        "category": "基础设施:公共设施:公共厕所",
        "type": 0,
        "location": {
            "lat": 45.589537,
            "lng": 122.819654
        },
        "ad_info": {
            "adcode": 220802,
            "province": "吉林省",
            "city": "白城市",
            "district": "洮北区"
        }
    },
    {
        "id": "9911777569509608409",
        "title": "公共厕所",
        "address": "吉林省白城市大安市G302与S516交叉口正西方向1361米左右",
        "tel": "",
        "category": "基础设施:公共设施:公共厕所",
        "type": 0,
        "location": {
            "lat": 45.555709,
            "lng": 123.358501
        },
        "ad_info": {
            "adcode": 220882,
            "province": "吉林省",
            "city": "白城市",
            "district": "大安市"
        }
    },
    {
        "id": "6097784973708214030",
        "title": "公共厕所",
        "address": "吉林省白城市洮北区G231与镇白公路交叉口正南方向221米左右",
        "tel": "",
        "category": "基础设施:公共设施:公共厕所",
        "type": 0,
        "location": {
            "lat": 45.655307,
            "lng": 122.868095
        },
        "ad_info": {
            "adcode": 220802,
            "province": "吉林省",
            "city": "白城市",
            "district": "洮北区"
        }
    },
    {
        "id": "5099807962717237437",
        "title": "洮南服务区公共厕所",
        "address": "吉林省白城市洮北区双嫩高速附近",
        "tel": "",
        "category": "基础设施:公共设施:公共厕所",
        "type": 0,
        "location": {
            "lat": 45.414711,
            "lng": 122.881572
        },
        "ad_info": {
            "adcode": 220802,
            "province": "吉林省",
            "city": "白城市",
            "district": "洮北区"
        }
    },
    {
        "id": "707366865428365699",
        "title": "公共厕所",
        "address": "吉林省白城市镇赉县华城南街与民康东路交叉口东南方向51米左右",
        "tel": "",
        "category": "基础设施:公共设施:公共厕所",
        "type": 0,
        "location": {
            "lat": 45.841916,
            "lng": 123.215864
        },
        "ad_info": {
            "adcode": 220821,
            "province": "吉林省",
            "city": "白城市",
            "district": "镇赉县"
        }
    },
    {
        "id": "9654593941675998584",
        "title": "公共厕所",
        "address": "吉林省白城市洮南市红旗商场西北侧240米",
        "tel": "",
        "category": "基础设施:公共设施:公共厕所",
        "type": 0,
        "location": {
            "lat": 45.746194,
            "lng": 121.76641
        },
        "ad_info": {
            "adcode": 220881,
            "province": "吉林省",
            "city": "白城市",
            "district": "洮南市"
        }
    },
    {
        "id": "13256560433597946729",
        "title": "公共厕所",
        "address": "吉林省白城市通榆县文化街与长青路交叉口东北方向26米左右",
        "tel": "",
        "category": "基础设施:公共设施:公共厕所",
        "type": 0,
        "location": {
            "lat": 44.815191,
            "lng": 123.092932
        },
        "ad_info": {
            "adcode": 220822,
            "province": "吉林省",
            "city": "白城市",
            "district": "通榆县"
        }
    },
    {
        "id": "10972715818796221022",
        "title": "公共厕所",
        "address": "吉林省白城市镇赉县第三中学校北侧180米",
        "tel": "",
        "category": "基础设施:公共设施:公共厕所",
        "type": 0,
        "location": {
            "lat": 45.856223,
            "lng": 123.216013
        },
        "ad_info": {
            "adcode": 220821,
            "province": "吉林省",
            "city": "白城市",
            "district": "镇赉县"
        }
    },
    {
        "id": "9927878495228169554",
        "title": "公共厕所",
        "address": "吉林省白城市洮北区",
        "tel": "",
        "category": "基础设施:公共设施:公共厕所",
        "type": 0,
        "location": {
            "lat": 45.772415,
            "lng": 122.53627
        },
        "ad_info": {
            "adcode": 220802,
            "province": "吉林省",
            "city": "白城市",
            "district": "洮北区"
        }
    },
    {
        "id": "7521970682771891473",
        "title": "石头井子服务区公共厕所",
        "address": "吉林省白城市洮北区珲乌高速",
        "tel": "",
        "category": "基础设施:公共设施:公共厕所",
        "type": 0,
        "location": {
            "lat": 45.890362,
            "lng": 122.363557
        },
        "ad_info": {
            "adcode": 220802,
            "province": "吉林省",
            "city": "白城市",
            "district": "洮北区"
        }
    },
    {
        "id": "17631088000125850722",
        "title": "长春岭服务区公共厕所",
        "address": "吉林省白城市通榆县中化石油吉高能源长春岭服务区加油站西北侧150米",
        "tel": "",
        "category": "基础设施:公共设施:公共厕所",
        "type": 0,
        "location": {
            "lat": 44.917853,
            "lng": 123.004665
        },
        "ad_info": {
            "adcode": 220822,
            "province": "吉林省",
            "city": "白城市",
            "district": "通榆县"
        }
    },
    {
        "id": "2211883190537781563",
        "title": "公共厕所",
        "address": "吉林省白城市洮南市110县道东50米",
        "tel": "",
        "category": "基础设施:公共设施:公共厕所",
        "type": 0,
        "location": {
            "lat": 45.148001,
            "lng": 122.602761
        },
        "ad_info": {
            "adcode": 220881,
            "province": "吉林省",
            "city": "白城市",
            "district": "洮南市"
        }
    },
    {
        "id": "7385379388877438500",
        "title": "公共厕所",
        "address": "吉林省白城市通榆县繁荣北街1663号",
        "tel": "",
        "category": "基础设施:公共设施:公共厕所",
        "type": 0,
        "location": {
            "lat": 44.820786,
            "lng": 123.083762
        },
        "ad_info": {
            "adcode": 220822,
            "province": "吉林省",
            "city": "白城市",
            "district": "通榆县"
        }
    },
    {
        "id": "11214103008996299352",
        "title": "公共厕所",
        "address": "吉林省白城市洮北区阳光休闲广场东侧",
        "tel": "",
        "category": "基础设施:公共设施:公共厕所",
        "type": 0,
        "location": {
            "lat": 45.623243,
            "lng": 122.821268
        },
        "ad_info": {
            "adcode": 220802,
            "province": "吉林省",
            "city": "白城市",
            "district": "洮北区"
        }
    },
    {
        "id": "16812914778615560294",
        "title": "公共厕所",
        "address": "吉林省白城市大安市南湖东路与康平南街交叉口东北方向116米左右",
        "tel": "",
        "category": "基础设施:公共设施:公共厕所",
        "type": 0,
        "location": {
            "lat": 45.498858,
            "lng": 124.296247
        },
        "ad_info": {
            "adcode": 220882,
            "province": "吉林省",
            "city": "白城市",
            "district": "大安市"
        }
    },
    {
        "id": "4739002760336530371",
        "title": "石头井子服务区公共厕所",
        "address": "吉林省白城市洮北区珲乌高速石头井子服务区",
        "tel": "",
        "category": "基础设施:公共设施:公共厕所",
        "type": 0,
        "location": {
            "lat": 45.889893,
            "lng": 122.366728
        },
        "ad_info": {
            "adcode": 220802,
            "province": "吉林省",
            "city": "白城市",
            "district": "洮北区"
        }
    },
    {
        "id": "5990323015542208734",
        "title": "公共厕所",
        "address": "吉林省白城市大安市育才东路17号",
        "tel": "",
        "category": "基础设施:公共设施:公共厕所",
        "type": 0,
        "location": {
            "lat": 45.514866,
            "lng": 124.281009
        },
        "ad_info": {
            "adcode": 220882,
            "province": "吉林省",
            "city": "白城市",
            "district": "大安市"
        }
    },
    {
        "id": "15916515502637104271",
        "title": "通榆服务区公共厕所",
        "address": "吉林省白城市通榆县中国石油吉高能源通榆服务区加油站东侧100米",
        "tel": "",
        "category": "基础设施:公共设施:公共厕所",
        "type": 0,
        "location": {
            "lat": 44.877998,
            "lng": 123.112863
        },
        "ad_info": {
            "adcode": 220822,
            "province": "吉林省",
            "city": "白城市",
            "district": "通榆县"
        }
    },
    {
        "id": "4241918135224350071",
        "title": "7号公共厕所",
        "address": "吉林省白城市洮南市富文东路与明渠街交叉口西北方向84米左右",
        "tel": "",
        "category": "基础设施:公共设施:公共厕所",
        "type": 0,
        "location": {
            "lat": 45.345451,
            "lng": 122.797817
        },
        "ad_info": {
            "adcode": 220881,
            "province": "吉林省",
            "city": "白城市",
            "district": "洮南市"
        }
    },
    {
        "id": "11748327534520892725",
        "title": "公共厕所",
        "address": "吉林省白城市大安市江城西路与西站街交叉口东北方向83米左右",
        "tel": "",
        "category": "基础设施:公共设施:公共厕所",
        "type": 0,
        "location": {
            "lat": 45.498683,
            "lng": 124.272699
        },
        "ad_info": {
            "adcode": 220882,
            "province": "吉林省",
            "city": "白城市",
            "district": "大安市"
        }
    },
    {
        "id": "16153043498637195112",
        "title": "3号公共厕所",
        "address": "吉林省白城市洮南市松辽北街与育英东路交叉口正南方向60米左右",
        "tel": "",
        "category": "基础设施:公共设施:公共厕所",
        "type": 0,
        "location": {
            "lat": 45.346944,
            "lng": 122.788247
        },
        "ad_info": {
            "adcode": 220881,
            "province": "吉林省",
            "city": "白城市",
            "district": "洮南市"
        }
    },
    {
        "id": "94291492276255469",
        "title": "公共厕所",
        "address": "吉林省白城市通榆县新发街与育才路交叉口正东方向224米左右",
        "tel": "",
        "category": "基础设施:公共设施:公共厕所",
        "type": 0,
        "location": {
            "lat": 44.817302,
            "lng": 123.098791
        },
        "ad_info": {
            "adcode": 220822,
            "province": "吉林省",
            "city": "白城市",
            "district": "通榆县"
        }
    },
    {
        "id": "4554055321413314501",
        "title": "公共厕所",
        "address": "吉林省白城市通榆县新发街与育才路交叉口正南方向110米左右",
        "tel": "",
        "category": "基础设施:公共设施:公共厕所",
        "type": 0,
        "location": {
            "lat": 44.816436,
            "lng": 123.09632
        },
        "ad_info": {
            "adcode": 220822,
            "province": "吉林省",
            "city": "白城市",
            "district": "通榆县"
        }
    },
    {
        "id": "3014648722075600135",
        "title": "公共厕所",
        "address": "吉林省白城市大安市南湖东路与大赉南街交叉口东南方向106米左右",
        "tel": "",
        "category": "基础设施:公共设施:公共厕所",
        "type": 0,
        "location": {
            "lat": 45.498973,
            "lng": 124.30019
        },
        "ad_info": {
            "adcode": 220882,
            "province": "吉林省",
            "city": "白城市",
            "district": "大安市"
        }
    },
    {
        "id": "3471712108807360296",
        "title": "嫩江湾服务区公共厕所",
        "address": "吉林省白城市大安市四棵树乡珲乌高速公路大安服务区",
        "tel": "",
        "category": "基础设施:公共设施:公共厕所",
        "type": 0,
        "location": {
            "lat": 45.452051,
            "lng": 124.293062
        },
        "ad_info": {
            "adcode": 220882,
            "province": "吉林省",
            "city": "白城市",
            "district": "大安市"
        }
    },
    {
        "id": "15234302919063285401",
        "title": "公共厕所",
        "address": "吉林省白城市洮北区和平北街与民主东路交叉口正南方向119米左右",
        "tel": "",
        "category": "基础设施:公共设施:公共厕所",
        "type": 0,
        "location": {
            "lat": 45.63168,
            "lng": 122.84991
        },
        "ad_info": {
            "adcode": 220802,
            "province": "吉林省",
            "city": "白城市",
            "district": "洮北区"
        }
    },
    {
        "id": "10588915651232895572",
        "title": "公共厕所",
        "address": "吉林省白城市大安市嫩江南街与长虹东路交叉口正南方向40米左右",
        "tel": "",
        "category": "基础设施:公共设施:公共厕所",
        "type": 0,
        "location": {
            "lat": 45.504195,
            "lng": 124.299682
        },
        "ad_info": {
            "adcode": 220882,
            "province": "吉林省",
            "city": "白城市",
            "district": "大安市"
        }
    },
    {
        "id": "14083652384701858828",
        "title": "新兴隆山服务区公共厕所",
        "address": "吉林省白城市通榆县中国石化吉高能源新兴隆山服务区加油站东北侧140米",
        "tel": "",
        "category": "基础设施:公共设施:公共厕所",
        "type": 0,
        "location": {
            "lat": 44.842013,
            "lng": 122.562237
        },
        "ad_info": {
            "adcode": 220822,
            "province": "吉林省",
            "city": "白城市",
            "district": "通榆县"
        }
    },
    {
        "id": "1916804185498201160",
        "title": "公共厕所",
        "address": "吉林省白城市洮北区电厂北路与电厂路交叉口西南方向222米左右",
        "tel": "",
        "category": "基础设施:公共设施:公共厕所",
        "type": 0,
        "location": {
            "lat": 45.626618,
            "lng": 122.876683
        },
        "ad_info": {
            "adcode": 220802,
            "province": "吉林省",
            "city": "白城市",
            "district": "洮北区"
        }
    },
    {
        "id": "2470886896221101941",
        "title": "无障碍公共厕所",
        "address": "吉林省白城市镇赉县团结西路与平安巷交叉口东南方向75米左右",
        "tel": "",
        "category": "基础设施:公共设施:公共厕所",
        "type": 0,
        "location": {
            "lat": 45.850742,
            "lng": 123.199525
        },
        "ad_info": {
            "adcode": 220821,
            "province": "吉林省",
            "city": "白城市",
            "district": "镇赉县"
        }
    },
    {
        "id": "10182057448788894131",
        "title": "大安市公共厕所管理处",
        "address": "吉林省白城市大安市锦华路172号",
        "tel": "",
        "category": "基础设施:公共设施:公共厕所",
        "type": 0,
        "location": {
            "lat": 45.51108,
            "lng": 124.292149
        },
        "ad_info": {
            "adcode": 220882,
            "province": "吉林省",
            "city": "白城市",
            "district": "大安市"
        }
    },
    {
        "id": "1270437026053272081",
        "title": "公共厕所",
        "address": "吉林省白城市大安市安北360户",
        "tel": "",
        "category": "基础设施:公共设施:公共厕所",
        "type": 0,
        "location": {
            "lat": 45.517289,
            "lng": 124.250393
        },
        "ad_info": {
            "adcode": 220882,
            "province": "吉林省",
            "city": "白城市",
            "district": "大安市"
        }
    },
    {
        "id": "813504715874773294",
        "title": "公共厕所",
        "address": "吉林省白城市通榆县团结路与建设街交叉口东北方向44米左右",
        "tel": "",
        "category": "基础设施:公共设施:公共厕所",
        "type": 0,
        "location": {
            "lat": 44.810606,
            "lng": 123.089989
        },
        "ad_info": {
            "adcode": 220822,
            "province": "吉林省",
            "city": "白城市",
            "district": "通榆县"
        }
    },
    {
        "id": "5465191785589227947",
        "title": "公共厕所",
        "address": "吉林省白城市大安市G302与Y158交叉口正东方向223米左右",
        "tel": "",
        "category": "基础设施:公共设施:公共厕所",
        "type": 0,
        "location": {
            "lat": 45.621092,
            "lng": 123.907803
        },
        "ad_info": {
            "adcode": 220882,
            "province": "吉林省",
            "city": "白城市",
            "district": "大安市"
        }
    },
    {
        "id": "8438284248863421510",
        "title": "通榆服务区公共厕所",
        "address": "吉林省白城市通榆县中国石油吉高能源通榆服务区加油站西侧150米",
        "tel": "",
        "category": "基础设施:公共设施:公共厕所",
        "type": 0,
        "location": {
            "lat": 44.876052,
            "lng": 123.112124
        },
        "ad_info": {
            "adcode": 220822,
            "province": "吉林省",
            "city": "白城市",
            "district": "通榆县"
        }
    },
    {
        "id": "4162304102529085459",
        "title": "27号公共厕所",
        "address": "吉林省白城市洮南市兴安南街与建设西路交叉口正北方向137米左右",
        "tel": "",
        "category": "基础设施:公共设施:公共厕所",
        "type": 0,
        "location": {
            "lat": 45.329256,
            "lng": 122.774137
        },
        "ad_info": {
            "adcode": 220881,
            "province": "吉林省",
            "city": "白城市",
            "district": "洮南市"
        }
    },
    {
        "id": "11512961662888362739",
        "title": "公共卫生间",
        "address": "吉林省白城市洮北区中兴东大路与海中胡同交叉口正北方向220米左右",
        "tel": "",
        "category": "基础设施:公共设施:公共厕所",
        "type": 0,
        "location": {
            "lat": 45.627779,
            "lng": 122.855847
        },
        "ad_info": {
            "adcode": 220802,
            "province": "吉林省",
            "city": "白城市",
            "district": "洮北区"
        }
    },
    {
        "id": "8171666206992783278",
        "title": "公共厕所",
        "address": "吉林省白城市镇赉县华城南街与民康东路交叉口正东方向535米左右",
        "tel": "",
        "category": "基础设施:公共设施:公共厕所",
        "type": 0,
        "location": {
            "lat": 45.841185,
            "lng": 123.222206
        },
        "ad_info": {
            "adcode": 220821,
            "province": "吉林省",
            "city": "白城市",
            "district": "镇赉县"
        }
    },
    {
        "id": "7644389245851149142",
        "title": "公共厕所(JL-BC-0005)",
        "address": "吉林省白城市镇赉县嫩水韵白水利风景区",
        "tel": "",
        "category": "基础设施:公共设施:公共厕所",
        "type": 0,
        "location": {
            "lat": 46.024694,
            "lng": 123.128229
        },
        "ad_info": {
            "adcode": 220821,
            "province": "吉林省",
            "city": "白城市",
            "district": "镇赉县"
        }
    },
    {
        "id": "6948564779941815144",
        "title": "公共厕所",
        "address": "吉林省白城市大安市大赉南街与安居路交叉口正西方向39米左右",
        "tel": "",
        "category": "基础设施:公共设施:公共厕所",
        "type": 0,
        "location": {
            "lat": 45.497637,
            "lng": 124.300024
        },
        "ad_info": {
            "adcode": 220882,
            "province": "吉林省",
            "city": "白城市",
            "district": "大安市"
        }
    },
    {
        "id": "8111986236407451690",
        "title": "公共厕所",
        "address": "吉林省白城市大安市万物林西侧150米",
        "tel": "",
        "category": "基础设施:公共设施:公共厕所",
        "type": 0,
        "location": {
            "lat": 45.526351,
            "lng": 124.287888
        },
        "ad_info": {
            "adcode": 220882,
            "province": "吉林省",
            "city": "白城市",
            "district": "大安市"
        }
    },
    {
        "id": "5895079614117419539",
        "title": "公共厕所",
        "address": "吉林省白城市洮南市X108中国石油瓦房加油站",
        "tel": "",
        "category": "基础设施:公共设施:公共厕所",
        "type": 0,
        "location": {
            "lat": 45.686754,
            "lng": 122.314698
        },
        "ad_info": {
            "adcode": 220881,
            "province": "吉林省",
            "city": "白城市",
            "district": "洮南市"
        }
    },
    {
        "id": "8540496381792498566",
        "title": "公共厕所",
        "address": "吉林省白城市大安市富祥三期",
        "tel": "",
        "category": "基础设施:公共设施:公共厕所",
        "type": 0,
        "location": {
            "lat": 45.518436,
            "lng": 124.275859
        },
        "ad_info": {
            "adcode": 220882,
            "province": "吉林省",
            "city": "白城市",
            "district": "大安市"
        }
    },
    {
        "id": "18020849122805641910",
        "title": "长春岭服务区公共厕所",
        "address": "吉林省白城市通榆县双嫩高速长春岭服务区",
        "tel": "",
        "category": "基础设施:公共设施:公共厕所",
        "type": 0,
        "location": {
            "lat": 44.917733,
            "lng": 123.007818
        },
        "ad_info": {
            "adcode": 220822,
            "province": "吉林省",
            "city": "白城市",
            "district": "通榆县"
        }
    },
    {
        "id": "1863957233243884190",
        "title": "平安停车区公共厕所",
        "address": "吉林省白城市洮北区平安停车区东50米",
        "tel": "",
        "category": "基础设施:公共设施:公共厕所",
        "type": 0,
        "location": {
            "lat": 45.748955,
            "lng": 122.517733
        },
        "ad_info": {
            "adcode": 220802,
            "province": "吉林省",
            "city": "白城市",
            "district": "洮北区"
        }
    },
    {
        "id": "18419632303386689282",
        "title": "公共厕所",
        "address": "吉林省白城市洮南市光明南街与永康东路交叉口东北方向209米左右",
        "tel": "",
        "category": "基础设施:公共设施:公共厕所",
        "type": 0,
        "location": {
            "lat": 45.327776,
            "lng": 122.789749
        },
        "ad_info": {
            "adcode": 220881,
            "province": "吉林省",
            "city": "白城市",
            "district": "洮南市"
        }
    },
    {
        "id": "4226005775756392337",
        "title": "新兴隆山服务区公共厕所",
        "address": "吉林省白城市通榆县中国石化吉高能源新兴隆山服务区加油站西侧130米",
        "tel": "",
        "category": "基础设施:公共设施:公共厕所",
        "type": 0,
        "location": {
            "lat": 44.839923,
            "lng": 122.562285
        },
        "ad_info": {
            "adcode": 220822,
            "province": "吉林省",
            "city": "白城市",
            "district": "通榆县"
        }
    },
    {
        "id": "4657760842620423283",
        "title": "公共厕所",
        "address": "吉林省白城市镇赉县庆生南街与育才西路交叉口正西方向48米左右",
        "tel": "",
        "category": "基础设施:公共设施:公共厕所",
        "type": 0,
        "location": {
            "lat": 45.842852,
            "lng": 123.19383
        },
        "ad_info": {
            "adcode": 220821,
            "province": "吉林省",
            "city": "白城市",
            "district": "镇赉县"
        }
    },
    {
        "id": "11599769217471050446",
        "title": "公共厕所",
        "address": "吉林省白城市洮南市通达路105号洮南市客运站",
        "tel": "",
        "category": "基础设施:公共设施:公共厕所",
        "type": 0,
        "location": {
            "lat": 45.342864,
            "lng": 122.806149
        },
        "ad_info": {
            "adcode": 220881,
            "province": "吉林省",
            "city": "白城市",
            "district": "洮南市"
        }
    },
    {
        "id": "11923337379051965141",
        "title": "公共厕所",
        "address": "吉林省白城市通榆县向海大街与富强路交叉口正西方向88米左右",
        "tel": "",
        "category": "基础设施:公共设施:公共厕所",
        "type": 0,
        "location": {
            "lat": 44.803687,
            "lng": 123.081979
        },
        "ad_info": {
            "adcode": 220822,
            "province": "吉林省",
            "city": "白城市",
            "district": "通榆县"
        }
    },
    {
        "id": "5763638934250453364",
        "title": "大安嫩江湾国家湿地公园-公共厕所",
        "address": "吉林省白城市大安市兴工路与嫩江北街交叉口东北方向991米左右",
        "tel": "",
        "category": "基础设施:公共设施:公共厕所",
        "type": 0,
        "location": {
            "lat": 45.535498,
            "lng": 124.28966
        },
        "ad_info": {
            "adcode": 220882,
            "province": "吉林省",
            "city": "白城市",
            "district": "大安市"
        }
    },
    {
        "id": "10167035938836243451",
        "title": "公共厕所",
        "address": "吉林省白城市大安市G232与G302交叉口正西方向968米左右",
        "tel": "",
        "category": "基础设施:公共设施:公共厕所",
        "type": 0,
        "location": {
            "lat": 45.470363,
            "lng": 124.265054
        },
        "ad_info": {
            "adcode": 220882,
            "province": "吉林省",
            "city": "白城市",
            "district": "大安市"
        }
    },
    {
        "id": "13144861047326898109",
        "title": "公共厕所",
        "address": "吉林省白城市大安市大赉南街南湖家园",
        "tel": "",
        "category": "基础设施:公共设施:公共厕所",
        "type": 0,
        "location": {
            "lat": 45.501588,
            "lng": 124.297253
        },
        "ad_info": {
            "adcode": 220882,
            "province": "吉林省",
            "city": "白城市",
            "district": "大安市"
        }
    },
    {
        "id": "10355979957626073934",
        "title": "公共厕所",
        "address": "吉林省白城市镇赉县庆生北街与建业路交叉口正东方向70米左右",
        "tel": "",
        "category": "基础设施:公共设施:公共厕所",
        "type": 0,
        "location": {
            "lat": 45.852798,
            "lng": 123.193992
        },
        "ad_info": {
            "adcode": 220821,
            "province": "吉林省",
            "city": "白城市",
            "district": "镇赉县"
        }
    },
    {
        "id": "16842724990789914283",
        "title": "公共厕所",
        "address": "吉林省白城市镇赉县扶余东路与新兴南街交叉口正北方向43米左右",
        "tel": "",
        "category": "基础设施:公共设施:公共厕所",
        "type": 0,
        "location": {
            "lat": 45.839791,
            "lng": 123.210427
        },
        "ad_info": {
            "adcode": 220821,
            "province": "吉林省",
            "city": "白城市",
            "district": "镇赉县"
        }
    },
    {
        "id": "12972584929920589404",
        "title": "公共厕所",
        "address": "吉林省白城市大安市嫩江北街与永宁路交叉口东南方向57米左右",
        "tel": "",
        "category": "基础设施:公共设施:公共厕所",
        "type": 0,
        "location": {
            "lat": 45.509128,
            "lng": 124.296137
        },
        "ad_info": {
            "adcode": 220882,
            "province": "吉林省",
            "city": "白城市",
            "district": "大安市"
        }
    },
    {
        "id": "17647848330527108063",
        "title": "公共厕所",
        "address": "吉林省白城市洮北区和平北街与民主东路交叉口正西方向49米左右",
        "tel": "",
        "category": "基础设施:公共设施:公共厕所",
        "type": 0,
        "location": {
            "lat": 45.632882,
            "lng": 122.849051
        },
        "ad_info": {
            "adcode": 220802,
            "province": "吉林省",
            "city": "白城市",
            "district": "洮北区"
        }
    },
    {
        "id": "7844765626530897727",
        "title": "公共厕所",
        "address": "吉林省白城市通榆县G503与通乾路交叉口正西方向182米左右",
        "tel": "",
        "category": "基础设施:公共设施:公共厕所",
        "type": 0,
        "location": {
            "lat": 44.796367,
            "lng": 123.111123
        },
        "ad_info": {
            "adcode": 220822,
            "province": "吉林省",
            "city": "白城市",
            "district": "通榆县"
        }
    },
    {
        "id": "7644389245851149142",
        "title": "公共厕所(JL-BC-0005)",
        "address": "吉林省白城市镇赉县嫩水韵白水利风景区",
        "tel": "",
        "category": "基础设施:公共设施:公共厕所",
        "type": 0,
        "location": {
            "lat": 46.024694,
            "lng": 123.128229
        },
        "ad_info": {
            "adcode": 220821,
            "province": "吉林省",
            "city": "白城市",
            "district": "镇赉县"
        }
    },
    {
        "id": "6948564779941815144",
        "title": "公共厕所",
        "address": "吉林省白城市大安市大赉南街与安居路交叉口正西方向39米左右",
        "tel": "",
        "category": "基础设施:公共设施:公共厕所",
        "type": 0,
        "location": {
            "lat": 45.497637,
            "lng": 124.300024
        },
        "ad_info": {
            "adcode": 220882,
            "province": "吉林省",
            "city": "白城市",
            "district": "大安市"
        }
    },
    {
        "id": "8111986236407451690",
        "title": "公共厕所",
        "address": "吉林省白城市大安市万物林西侧150米",
        "tel": "",
        "category": "基础设施:公共设施:公共厕所",
        "type": 0,
        "location": {
            "lat": 45.526351,
            "lng": 124.287888
        },
        "ad_info": {
            "adcode": 220882,
            "province": "吉林省",
            "city": "白城市",
            "district": "大安市"
        }
    },
    {
        "id": "5895079614117419539",
        "title": "公共厕所",
        "address": "吉林省白城市洮南市X108中国石油瓦房加油站",
        "tel": "",
        "category": "基础设施:公共设施:公共厕所",
        "type": 0,
        "location": {
            "lat": 45.686754,
            "lng": 122.314698
        },
        "ad_info": {
            "adcode": 220881,
            "province": "吉林省",
            "city": "白城市",
            "district": "洮南市"
        }
    },
    {
        "id": "8540496381792498566",
        "title": "公共厕所",
        "address": "吉林省白城市大安市富祥三期",
        "tel": "",
        "category": "基础设施:公共设施:公共厕所",
        "type": 0,
        "location": {
            "lat": 45.518436,
            "lng": 124.275859
        },
        "ad_info": {
            "adcode": 220882,
            "province": "吉林省",
            "city": "白城市",
            "district": "大安市"
        }
    },
    {
        "id": "18020849122805641910",
        "title": "长春岭服务区公共厕所",
        "address": "吉林省白城市通榆县双嫩高速长春岭服务区",
        "tel": "",
        "category": "基础设施:公共设施:公共厕所",
        "type": 0,
        "location": {
            "lat": 44.917733,
            "lng": 123.007818
        },
        "ad_info": {
            "adcode": 220822,
            "province": "吉林省",
            "city": "白城市",
            "district": "通榆县"
        }
    },
    {
        "id": "1863957233243884190",
        "title": "平安停车区公共厕所",
        "address": "吉林省白城市洮北区平安停车区东50米",
        "tel": "",
        "category": "基础设施:公共设施:公共厕所",
        "type": 0,
        "location": {
            "lat": 45.748955,
            "lng": 122.517733
        },
        "ad_info": {
            "adcode": 220802,
            "province": "吉林省",
            "city": "白城市",
            "district": "洮北区"
        }
    },
    {
        "id": "18419632303386689282",
        "title": "公共厕所",
        "address": "吉林省白城市洮南市光明南街与永康东路交叉口东北方向209米左右",
        "tel": "",
        "category": "基础设施:公共设施:公共厕所",
        "type": 0,
        "location": {
            "lat": 45.327776,
            "lng": 122.789749
        },
        "ad_info": {
            "adcode": 220881,
            "province": "吉林省",
            "city": "白城市",
            "district": "洮南市"
        }
    },
    {
        "id": "4226005775756392337",
        "title": "新兴隆山服务区公共厕所",
        "address": "吉林省白城市通榆县中国石化吉高能源新兴隆山服务区加油站西侧130米",
        "tel": "",
        "category": "基础设施:公共设施:公共厕所",
        "type": 0,
        "location": {
            "lat": 44.839923,
            "lng": 122.562285
        },
        "ad_info": {
            "adcode": 220822,
            "province": "吉林省",
            "city": "白城市",
            "district": "通榆县"
        }
    },
    {
        "id": "4657760842620423283",
        "title": "公共厕所",
        "address": "吉林省白城市镇赉县庆生南街与育才西路交叉口正西方向48米左右",
        "tel": "",
        "category": "基础设施:公共设施:公共厕所",
        "type": 0,
        "location": {
            "lat": 45.842852,
            "lng": 123.19383
        },
        "ad_info": {
            "adcode": 220821,
            "province": "吉林省",
            "city": "白城市",
            "district": "镇赉县"
        }
    },
    {
        "id": "11599769217471050446",
        "title": "公共厕所",
        "address": "吉林省白城市洮南市通达路105号洮南市客运站",
        "tel": "",
        "category": "基础设施:公共设施:公共厕所",
        "type": 0,
        "location": {
            "lat": 45.342864,
            "lng": 122.806149
        },
        "ad_info": {
            "adcode": 220881,
            "province": "吉林省",
            "city": "白城市",
            "district": "洮南市"
        }
    },
    {
        "id": "11923337379051965141",
        "title": "公共厕所",
        "address": "吉林省白城市通榆县向海大街与富强路交叉口正西方向88米左右",
        "tel": "",
        "category": "基础设施:公共设施:公共厕所",
        "type": 0,
        "location": {
            "lat": 44.803687,
            "lng": 123.081979
        },
        "ad_info": {
            "adcode": 220822,
            "province": "吉林省",
            "city": "白城市",
            "district": "通榆县"
        }
    },
    {
        "id": "5763638934250453364",
        "title": "大安嫩江湾国家湿地公园-公共厕所",
        "address": "吉林省白城市大安市兴工路与嫩江北街交叉口东北方向991米左右",
        "tel": "",
        "category": "基础设施:公共设施:公共厕所",
        "type": 0,
        "location": {
            "lat": 45.535498,
            "lng": 124.28966
        },
        "ad_info": {
            "adcode": 220882,
            "province": "吉林省",
            "city": "白城市",
            "district": "大安市"
        }
    },
    {
        "id": "10167035938836243451",
        "title": "公共厕所",
        "address": "吉林省白城市大安市G232与G302交叉口正西方向968米左右",
        "tel": "",
        "category": "基础设施:公共设施:公共厕所",
        "type": 0,
        "location": {
            "lat": 45.470363,
            "lng": 124.265054
        },
        "ad_info": {
            "adcode": 220882,
            "province": "吉林省",
            "city": "白城市",
            "district": "大安市"
        }
    },
    {
        "id": "13144861047326898109",
        "title": "公共厕所",
        "address": "吉林省白城市大安市大赉南街南湖家园",
        "tel": "",
        "category": "基础设施:公共设施:公共厕所",
        "type": 0,
        "location": {
            "lat": 45.501588,
            "lng": 124.297253
        },
        "ad_info": {
            "adcode": 220882,
            "province": "吉林省",
            "city": "白城市",
            "district": "大安市"
        }
    },
    {
        "id": "10355979957626073934",
        "title": "公共厕所",
        "address": "吉林省白城市镇赉县庆生北街与建业路交叉口正东方向70米左右",
        "tel": "",
        "category": "基础设施:公共设施:公共厕所",
        "type": 0,
        "location": {
            "lat": 45.852798,
            "lng": 123.193992
        },
        "ad_info": {
            "adcode": 220821,
            "province": "吉林省",
            "city": "白城市",
            "district": "镇赉县"
        }
    },
    {
        "id": "16842724990789914283",
        "title": "公共厕所",
        "address": "吉林省白城市镇赉县扶余东路与新兴南街交叉口正北方向43米左右",
        "tel": "",
        "category": "基础设施:公共设施:公共厕所",
        "type": 0,
        "location": {
            "lat": 45.839791,
            "lng": 123.210427
        },
        "ad_info": {
            "adcode": 220821,
            "province": "吉林省",
            "city": "白城市",
            "district": "镇赉县"
        }
    },
    {
        "id": "12972584929920589404",
        "title": "公共厕所",
        "address": "吉林省白城市大安市嫩江北街与永宁路交叉口东南方向57米左右",
        "tel": "",
        "category": "基础设施:公共设施:公共厕所",
        "type": 0,
        "location": {
            "lat": 45.509128,
            "lng": 124.296137
        },
        "ad_info": {
            "adcode": 220882,
            "province": "吉林省",
            "city": "白城市",
            "district": "大安市"
        }
    },
    {
        "id": "17647848330527108063",
        "title": "公共厕所",
        "address": "吉林省白城市洮北区和平北街与民主东路交叉口正西方向49米左右",
        "tel": "",
        "category": "基础设施:公共设施:公共厕所",
        "type": 0,
        "location": {
            "lat": 45.632882,
            "lng": 122.849051
        },
        "ad_info": {
            "adcode": 220802,
            "province": "吉林省",
            "city": "白城市",
            "district": "洮北区"
        }
    },
    {
        "id": "7844765626530897727",
        "title": "公共厕所",
        "address": "吉林省白城市通榆县G503与通乾路交叉口正西方向182米左右",
        "tel": "",
        "category": "基础设施:公共设施:公共厕所",
        "type": 0,
        "location": {
            "lat": 44.796367,
            "lng": 123.111123
        },
        "ad_info": {
            "adcode": 220822,
            "province": "吉林省",
            "city": "白城市",
            "district": "通榆县"
        }
    },
    {
        "id": "7644389245851149142",
        "title": "公共厕所(JL-BC-0005)",
        "address": "吉林省白城市镇赉县嫩水韵白水利风景区",
        "tel": "",
        "category": "基础设施:公共设施:公共厕所",
        "type": 0,
        "location": {
            "lat": 46.024694,
            "lng": 123.128229
        },
        "ad_info": {
            "adcode": 220821,
            "province": "吉林省",
            "city": "白城市",
            "district": "镇赉县"
        }
    },
    {
        "id": "6948564779941815144",
        "title": "公共厕所",
        "address": "吉林省白城市大安市大赉南街与安居路交叉口正西方向39米左右",
        "tel": "",
        "category": "基础设施:公共设施:公共厕所",
        "type": 0,
        "location": {
            "lat": 45.497637,
            "lng": 124.300024
        },
        "ad_info": {
            "adcode": 220882,
            "province": "吉林省",
            "city": "白城市",
            "district": "大安市"
        }
    },
    {
        "id": "8111986236407451690",
        "title": "公共厕所",
        "address": "吉林省白城市大安市万物林西侧150米",
        "tel": "",
        "category": "基础设施:公共设施:公共厕所",
        "type": 0,
        "location": {
            "lat": 45.526351,
            "lng": 124.287888
        },
        "ad_info": {
            "adcode": 220882,
            "province": "吉林省",
            "city": "白城市",
            "district": "大安市"
        }
    },
    {
        "id": "5895079614117419539",
        "title": "公共厕所",
        "address": "吉林省白城市洮南市X108中国石油瓦房加油站",
        "tel": "",
        "category": "基础设施:公共设施:公共厕所",
        "type": 0,
        "location": {
            "lat": 45.686754,
            "lng": 122.314698
        },
        "ad_info": {
            "adcode": 220881,
            "province": "吉林省",
            "city": "白城市",
            "district": "洮南市"
        }
    },
    {
        "id": "8540496381792498566",
        "title": "公共厕所",
        "address": "吉林省白城市大安市富祥三期",
        "tel": "",
        "category": "基础设施:公共设施:公共厕所",
        "type": 0,
        "location": {
            "lat": 45.518436,
            "lng": 124.275859
        },
        "ad_info": {
            "adcode": 220882,
            "province": "吉林省",
            "city": "白城市",
            "district": "大安市"
        }
    },
    {
        "id": "18020849122805641910",
        "title": "长春岭服务区公共厕所",
        "address": "吉林省白城市通榆县双嫩高速长春岭服务区",
        "tel": "",
        "category": "基础设施:公共设施:公共厕所",
        "type": 0,
        "location": {
            "lat": 44.917733,
            "lng": 123.007818
        },
        "ad_info": {
            "adcode": 220822,
            "province": "吉林省",
            "city": "白城市",
            "district": "通榆县"
        }
    },
    {
        "id": "1863957233243884190",
        "title": "平安停车区公共厕所",
        "address": "吉林省白城市洮北区平安停车区东50米",
        "tel": "",
        "category": "基础设施:公共设施:公共厕所",
        "type": 0,
        "location": {
            "lat": 45.748955,
            "lng": 122.517733
        },
        "ad_info": {
            "adcode": 220802,
            "province": "吉林省",
            "city": "白城市",
            "district": "洮北区"
        }
    },
    {
        "id": "18419632303386689282",
        "title": "公共厕所",
        "address": "吉林省白城市洮南市光明南街与永康东路交叉口东北方向209米左右",
        "tel": "",
        "category": "基础设施:公共设施:公共厕所",
        "type": 0,
        "location": {
            "lat": 45.327776,
            "lng": 122.789749
        },
        "ad_info": {
            "adcode": 220881,
            "province": "吉林省",
            "city": "白城市",
            "district": "洮南市"
        }
    },
    {
        "id": "4226005775756392337",
        "title": "新兴隆山服务区公共厕所",
        "address": "吉林省白城市通榆县中国石化吉高能源新兴隆山服务区加油站西侧130米",
        "tel": "",
        "category": "基础设施:公共设施:公共厕所",
        "type": 0,
        "location": {
            "lat": 44.839923,
            "lng": 122.562285
        },
        "ad_info": {
            "adcode": 220822,
            "province": "吉林省",
            "city": "白城市",
            "district": "通榆县"
        }
    },
    {
        "id": "4657760842620423283",
        "title": "公共厕所",
        "address": "吉林省白城市镇赉县庆生南街与育才西路交叉口正西方向48米左右",
        "tel": "",
        "category": "基础设施:公共设施:公共厕所",
        "type": 0,
        "location": {
            "lat": 45.842852,
            "lng": 123.19383
        },
        "ad_info": {
            "adcode": 220821,
            "province": "吉林省",
            "city": "白城市",
            "district": "镇赉县"
        }
    },
    {
        "id": "11599769217471050446",
        "title": "公共厕所",
        "address": "吉林省白城市洮南市通达路105号洮南市客运站",
        "tel": "",
        "category": "基础设施:公共设施:公共厕所",
        "type": 0,
        "location": {
            "lat": 45.342864,
            "lng": 122.806149
        },
        "ad_info": {
            "adcode": 220881,
            "province": "吉林省",
            "city": "白城市",
            "district": "洮南市"
        }
    },
    {
        "id": "11923337379051965141",
        "title": "公共厕所",
        "address": "吉林省白城市通榆县向海大街与富强路交叉口正西方向88米左右",
        "tel": "",
        "category": "基础设施:公共设施:公共厕所",
        "type": 0,
        "location": {
            "lat": 44.803687,
            "lng": 123.081979
        },
        "ad_info": {
            "adcode": 220822,
            "province": "吉林省",
            "city": "白城市",
            "district": "通榆县"
        }
    },
    {
        "id": "5763638934250453364",
        "title": "大安嫩江湾国家湿地公园-公共厕所",
        "address": "吉林省白城市大安市兴工路与嫩江北街交叉口东北方向991米左右",
        "tel": "",
        "category": "基础设施:公共设施:公共厕所",
        "type": 0,
        "location": {
            "lat": 45.535498,
            "lng": 124.28966
        },
        "ad_info": {
            "adcode": 220882,
            "province": "吉林省",
            "city": "白城市",
            "district": "大安市"
        }
    },
    {
        "id": "10167035938836243451",
        "title": "公共厕所",
        "address": "吉林省白城市大安市G232与G302交叉口正西方向968米左右",
        "tel": "",
        "category": "基础设施:公共设施:公共厕所",
        "type": 0,
        "location": {
            "lat": 45.470363,
            "lng": 124.265054
        },
        "ad_info": {
            "adcode": 220882,
            "province": "吉林省",
            "city": "白城市",
            "district": "大安市"
        }
    },
    {
        "id": "13144861047326898109",
        "title": "公共厕所",
        "address": "吉林省白城市大安市大赉南街南湖家园",
        "tel": "",
        "category": "基础设施:公共设施:公共厕所",
        "type": 0,
        "location": {
            "lat": 45.501588,
            "lng": 124.297253
        },
        "ad_info": {
            "adcode": 220882,
            "province": "吉林省",
            "city": "白城市",
            "district": "大安市"
        }
    },
    {
        "id": "10355979957626073934",
        "title": "公共厕所",
        "address": "吉林省白城市镇赉县庆生北街与建业路交叉口正东方向70米左右",
        "tel": "",
        "category": "基础设施:公共设施:公共厕所",
        "type": 0,
        "location": {
            "lat": 45.852798,
            "lng": 123.193992
        },
        "ad_info": {
            "adcode": 220821,
            "province": "吉林省",
            "city": "白城市",
            "district": "镇赉县"
        }
    },
    {
        "id": "16842724990789914283",
        "title": "公共厕所",
        "address": "吉林省白城市镇赉县扶余东路与新兴南街交叉口正北方向43米左右",
        "tel": "",
        "category": "基础设施:公共设施:公共厕所",
        "type": 0,
        "location": {
            "lat": 45.839791,
            "lng": 123.210427
        },
        "ad_info": {
            "adcode": 220821,
            "province": "吉林省",
            "city": "白城市",
            "district": "镇赉县"
        }
    },
    {
        "id": "12972584929920589404",
        "title": "公共厕所",
        "address": "吉林省白城市大安市嫩江北街与永宁路交叉口东南方向57米左右",
        "tel": "",
        "category": "基础设施:公共设施:公共厕所",
        "type": 0,
        "location": {
            "lat": 45.509128,
            "lng": 124.296137
        },
        "ad_info": {
            "adcode": 220882,
            "province": "吉林省",
            "city": "白城市",
            "district": "大安市"
        }
    },
    {
        "id": "17647848330527108063",
        "title": "公共厕所",
        "address": "吉林省白城市洮北区和平北街与民主东路交叉口正西方向49米左右",
        "tel": "",
        "category": "基础设施:公共设施:公共厕所",
        "type": 0,
        "location": {
            "lat": 45.632882,
            "lng": 122.849051
        },
        "ad_info": {
            "adcode": 220802,
            "province": "吉林省",
            "city": "白城市",
            "district": "洮北区"
        }
    },
    {
        "id": "7844765626530897727",
        "title": "公共厕所",
        "address": "吉林省白城市通榆县G503与通乾路交叉口正西方向182米左右",
        "tel": "",
        "category": "基础设施:公共设施:公共厕所",
        "type": 0,
        "location": {
            "lat": 44.796367,
            "lng": 123.111123
        },
        "ad_info": {
            "adcode": 220822,
            "province": "吉林省",
            "city": "白城市",
            "district": "通榆县"
        }
    },
    {
        "id": "7644389245851149142",
        "title": "公共厕所(JL-BC-0005)",
        "address": "吉林省白城市镇赉县嫩水韵白水利风景区",
        "tel": "",
        "category": "基础设施:公共设施:公共厕所",
        "type": 0,
        "location": {
            "lat": 46.024694,
            "lng": 123.128229
        },
        "ad_info": {
            "adcode": 220821,
            "province": "吉林省",
            "city": "白城市",
            "district": "镇赉县"
        }
    },
    {
        "id": "6948564779941815144",
        "title": "公共厕所",
        "address": "吉林省白城市大安市大赉南街与安居路交叉口正西方向39米左右",
        "tel": "",
        "category": "基础设施:公共设施:公共厕所",
        "type": 0,
        "location": {
            "lat": 45.497637,
            "lng": 124.300024
        },
        "ad_info": {
            "adcode": 220882,
            "province": "吉林省",
            "city": "白城市",
            "district": "大安市"
        }
    },
    {
        "id": "8111986236407451690",
        "title": "公共厕所",
        "address": "吉林省白城市大安市万物林西侧150米",
        "tel": "",
        "category": "基础设施:公共设施:公共厕所",
        "type": 0,
        "location": {
            "lat": 45.526351,
            "lng": 124.287888
        },
        "ad_info": {
            "adcode": 220882,
            "province": "吉林省",
            "city": "白城市",
            "district": "大安市"
        }
    },
    {
        "id": "5895079614117419539",
        "title": "公共厕所",
        "address": "吉林省白城市洮南市X108中国石油瓦房加油站",
        "tel": "",
        "category": "基础设施:公共设施:公共厕所",
        "type": 0,
        "location": {
            "lat": 45.686754,
            "lng": 122.314698
        },
        "ad_info": {
            "adcode": 220881,
            "province": "吉林省",
            "city": "白城市",
            "district": "洮南市"
        }
    },
    {
        "id": "8540496381792498566",
        "title": "公共厕所",
        "address": "吉林省白城市大安市富祥三期",
        "tel": "",
        "category": "基础设施:公共设施:公共厕所",
        "type": 0,
        "location": {
            "lat": 45.518436,
            "lng": 124.275859
        },
        "ad_info": {
            "adcode": 220882,
            "province": "吉林省",
            "city": "白城市",
            "district": "大安市"
        }
    },
    {
        "id": "18020849122805641910",
        "title": "长春岭服务区公共厕所",
        "address": "吉林省白城市通榆县双嫩高速长春岭服务区",
        "tel": "",
        "category": "基础设施:公共设施:公共厕所",
        "type": 0,
        "location": {
            "lat": 44.917733,
            "lng": 123.007818
        },
        "ad_info": {
            "adcode": 220822,
            "province": "吉林省",
            "city": "白城市",
            "district": "通榆县"
        }
    },
    {
        "id": "1863957233243884190",
        "title": "平安停车区公共厕所",
        "address": "吉林省白城市洮北区平安停车区东50米",
        "tel": "",
        "category": "基础设施:公共设施:公共厕所",
        "type": 0,
        "location": {
            "lat": 45.748955,
            "lng": 122.517733
        },
        "ad_info": {
            "adcode": 220802,
            "province": "吉林省",
            "city": "白城市",
            "district": "洮北区"
        }
    },
    {
        "id": "18419632303386689282",
        "title": "公共厕所",
        "address": "吉林省白城市洮南市光明南街与永康东路交叉口东北方向209米左右",
        "tel": "",
        "category": "基础设施:公共设施:公共厕所",
        "type": 0,
        "location": {
            "lat": 45.327776,
            "lng": 122.789749
        },
        "ad_info": {
            "adcode": 220881,
            "province": "吉林省",
            "city": "白城市",
            "district": "洮南市"
        }
    },
    {
        "id": "4226005775756392337",
        "title": "新兴隆山服务区公共厕所",
        "address": "吉林省白城市通榆县中国石化吉高能源新兴隆山服务区加油站西侧130米",
        "tel": "",
        "category": "基础设施:公共设施:公共厕所",
        "type": 0,
        "location": {
            "lat": 44.839923,
            "lng": 122.562285
        },
        "ad_info": {
            "adcode": 220822,
            "province": "吉林省",
            "city": "白城市",
            "district": "通榆县"
        }
    },
    {
        "id": "4657760842620423283",
        "title": "公共厕所",
        "address": "吉林省白城市镇赉县庆生南街与育才西路交叉口正西方向48米左右",
        "tel": "",
        "category": "基础设施:公共设施:公共厕所",
        "type": 0,
        "location": {
            "lat": 45.842852,
            "lng": 123.19383
        },
        "ad_info": {
            "adcode": 220821,
            "province": "吉林省",
            "city": "白城市",
            "district": "镇赉县"
        }
    },
    {
        "id": "11599769217471050446",
        "title": "公共厕所",
        "address": "吉林省白城市洮南市通达路105号洮南市客运站",
        "tel": "",
        "category": "基础设施:公共设施:公共厕所",
        "type": 0,
        "location": {
            "lat": 45.342864,
            "lng": 122.806149
        },
        "ad_info": {
            "adcode": 220881,
            "province": "吉林省",
            "city": "白城市",
            "district": "洮南市"
        }
    },
    {
        "id": "11923337379051965141",
        "title": "公共厕所",
        "address": "吉林省白城市通榆县向海大街与富强路交叉口正西方向88米左右",
        "tel": "",
        "category": "基础设施:公共设施:公共厕所",
        "type": 0,
        "location": {
            "lat": 44.803687,
            "lng": 123.081979
        },
        "ad_info": {
            "adcode": 220822,
            "province": "吉林省",
            "city": "白城市",
            "district": "通榆县"
        }
    },
    {
        "id": "5763638934250453364",
        "title": "大安嫩江湾国家湿地公园-公共厕所",
        "address": "吉林省白城市大安市兴工路与嫩江北街交叉口东北方向991米左右",
        "tel": "",
        "category": "基础设施:公共设施:公共厕所",
        "type": 0,
        "location": {
            "lat": 45.535498,
            "lng": 124.28966
        },
        "ad_info": {
            "adcode": 220882,
            "province": "吉林省",
            "city": "白城市",
            "district": "大安市"
        }
    },
    {
        "id": "10167035938836243451",
        "title": "公共厕所",
        "address": "吉林省白城市大安市G232与G302交叉口正西方向968米左右",
        "tel": "",
        "category": "基础设施:公共设施:公共厕所",
        "type": 0,
        "location": {
            "lat": 45.470363,
            "lng": 124.265054
        },
        "ad_info": {
            "adcode": 220882,
            "province": "吉林省",
            "city": "白城市",
            "district": "大安市"
        }
    },
    {
        "id": "13144861047326898109",
        "title": "公共厕所",
        "address": "吉林省白城市大安市大赉南街南湖家园",
        "tel": "",
        "category": "基础设施:公共设施:公共厕所",
        "type": 0,
        "location": {
            "lat": 45.501588,
            "lng": 124.297253
        },
        "ad_info": {
            "adcode": 220882,
            "province": "吉林省",
            "city": "白城市",
            "district": "大安市"
        }
    },
    {
        "id": "10355979957626073934",
        "title": "公共厕所",
        "address": "吉林省白城市镇赉县庆生北街与建业路交叉口正东方向70米左右",
        "tel": "",
        "category": "基础设施:公共设施:公共厕所",
        "type": 0,
        "location": {
            "lat": 45.852798,
            "lng": 123.193992
        },
        "ad_info": {
            "adcode": 220821,
            "province": "吉林省",
            "city": "白城市",
            "district": "镇赉县"
        }
    },
    {
        "id": "16842724990789914283",
        "title": "公共厕所",
        "address": "吉林省白城市镇赉县扶余东路与新兴南街交叉口正北方向43米左右",
        "tel": "",
        "category": "基础设施:公共设施:公共厕所",
        "type": 0,
        "location": {
            "lat": 45.839791,
            "lng": 123.210427
        },
        "ad_info": {
            "adcode": 220821,
            "province": "吉林省",
            "city": "白城市",
            "district": "镇赉县"
        }
    },
    {
        "id": "12972584929920589404",
        "title": "公共厕所",
        "address": "吉林省白城市大安市嫩江北街与永宁路交叉口东南方向57米左右",
        "tel": "",
        "category": "基础设施:公共设施:公共厕所",
        "type": 0,
        "location": {
            "lat": 45.509128,
            "lng": 124.296137
        },
        "ad_info": {
            "adcode": 220882,
            "province": "吉林省",
            "city": "白城市",
            "district": "大安市"
        }
    },
    {
        "id": "17647848330527108063",
        "title": "公共厕所",
        "address": "吉林省白城市洮北区和平北街与民主东路交叉口正西方向49米左右",
        "tel": "",
        "category": "基础设施:公共设施:公共厕所",
        "type": 0,
        "location": {
            "lat": 45.632882,
            "lng": 122.849051
        },
        "ad_info": {
            "adcode": 220802,
            "province": "吉林省",
            "city": "白城市",
            "district": "洮北区"
        }
    },
    {
        "id": "7844765626530897727",
        "title": "公共厕所",
        "address": "吉林省白城市通榆县G503与通乾路交叉口正西方向182米左右",
        "tel": "",
        "category": "基础设施:公共设施:公共厕所",
        "type": 0,
        "location": {
            "lat": 44.796367,
            "lng": 123.111123
        },
        "ad_info": {
            "adcode": 220822,
            "province": "吉林省",
            "city": "白城市",
            "district": "通榆县"
        }
    }
]