[
    {
        "id": "12201206358640461421",
        "title": "公共厕所",
        "address": "吉林省白山市临江市市府路与民主街交叉口正北方向26米左右",
        "tel": "",
        "category": "基础设施:公共设施:公共厕所",
        "type": 0,
        "location": {
            "lat": 41.810016,
            "lng": 126.918411
        },
        "ad_info": {
            "adcode": 220681,
            "province": "吉林省",
            "city": "白山市",
            "district": "临江市"
        }
    },
    {
        "id": "17860791723127027522",
        "title": "公共厕所",
        "address": "吉林省白山市浑江区东兴街与白山路交叉口正西方向124米左右",
        "tel": "",
        "category": "基础设施:公共设施:公共厕所",
        "type": 0,
        "location": {
            "lat": 41.94942,
            "lng": 126.448272
        },
        "ad_info": {
            "adcode": 220602,
            "province": "吉林省",
            "city": "白山市",
            "district": "浑江区"
        }
    },
    {
        "id": "18142207038011160910",
        "title": "公共厕所",
        "address": "吉林省白山市临江市卧虎山大街与文成街交叉口西南方向34米左右",
        "tel": "",
        "category": "基础设施:公共设施:公共厕所",
        "type": 0,
        "location": {
            "lat": 41.813054,
            "lng": 126.919406
        },
        "ad_info": {
            "adcode": 220681,
            "province": "吉林省",
            "city": "白山市",
            "district": "临江市"
        }
    },
    {
        "id": "10285518433183520655",
        "title": "公共厕所",
        "address": "吉林省白山市长白朝鲜族自治县长白三合院客栈南侧50米",
        "tel": "",
        "category": "基础设施:公共设施:公共厕所",
        "type": 0,
        "location": {
            "lat": 41.461324,
            "lng": 127.947923
        },
        "ad_info": {
            "adcode": 220623,
            "province": "吉林省",
            "city": "白山市",
            "district": "长白朝鲜族自治县"
        }
    },
    {
        "id": "14156340267991858309",
        "title": "公共厕所",
        "address": "吉林省白山市江源区兴塘路与苇塘路交叉口西北方向96米左右",
        "tel": "",
        "category": "基础设施:公共设施:公共厕所",
        "type": 0,
        "location": {
            "lat": 42.035272,
            "lng": 126.596125
        },
        "ad_info": {
            "adcode": 220605,
            "province": "吉林省",
            "city": "白山市",
            "district": "江源区"
        }
    },
    {
        "id": "5871066393260509809",
        "title": "公共厕所",
        "address": "吉林省白山市江源区X092与X094交叉口正南方向352米左右",
        "tel": "",
        "category": "基础设施:公共设施:公共厕所",
        "type": 0,
        "location": {
            "lat": 42.014827,
            "lng": 127.076197
        },
        "ad_info": {
            "adcode": 220605,
            "province": "吉林省",
            "city": "白山市",
            "district": "江源区"
        }
    },
    {
        "id": "17788157899082869709",
        "title": "公共厕所",
        "address": "吉林省白山市靖宇县爱仁儿童乐园西南侧",
        "tel": "",
        "category": "基础设施:公共设施:公共厕所",
        "type": 0,
        "location": {
            "lat": 42.383288,
            "lng": 126.859538
        },
        "ad_info": {
            "adcode": 220622,
            "province": "吉林省",
            "city": "白山市",
            "district": "靖宇县"
        }
    },
    {
        "id": "2814017732583079133",
        "title": "公共厕所",
        "address": "吉林省白山市临江市滨江路东城公园内",
        "tel": "",
        "category": "基础设施:公共设施:公共厕所",
        "type": 0,
        "location": {
            "lat": 41.814318,
            "lng": 126.928672
        },
        "ad_info": {
            "adcode": 220681,
            "province": "吉林省",
            "city": "白山市",
            "district": "临江市"
        }
    },
    {
        "id": "16850911527240272516",
        "title": "公共厕所",
        "address": "吉林省白山市江源区新开街与正岔街交叉口西北方向121米左右",
        "tel": "",
        "category": "基础设施:公共设施:公共厕所",
        "type": 0,
        "location": {
            "lat": 42.090756,
            "lng": 126.611715
        },
        "ad_info": {
            "adcode": 220605,
            "province": "吉林省",
            "city": "白山市",
            "district": "江源区"
        }
    },
    {
        "id": "11055653050864668566",
        "title": "公共厕所",
        "address": "吉林省白山市长白朝鲜族自治县中兴大桥与新兴街交叉口正东方向158米左右",
        "tel": "",
        "category": "基础设施:公共设施:公共厕所",
        "type": 0,
        "location": {
            "lat": 41.518041,
            "lng": 127.269142
        },
        "ad_info": {
            "adcode": 220623,
            "province": "吉林省",
            "city": "白山市",
            "district": "长白朝鲜族自治县"
        }
    },
    {
        "id": "2684556073629066542",
        "title": "公共厕所",
        "address": "吉林省白山市长白朝鲜族自治县",
        "tel": "",
        "category": "基础设施:公共设施:公共厕所",
        "type": 0,
        "location": {
            "lat": 41.423413,
            "lng": 127.700842
        },
        "ad_info": {
            "adcode": 220623,
            "province": "吉林省",
            "city": "白山市",
            "district": "长白朝鲜族自治县"
        }
    },
    {
        "id": "10775047862834634516",
        "title": "公共厕所",
        "address": "吉林省白山市浑江区博雅路与长白山大街交叉口正南方向54米左右",
        "tel": "",
        "category": "基础设施:公共设施:公共厕所",
        "type": 0,
        "location": {
            "lat": 41.952932,
            "lng": 126.434367
        },
        "ad_info": {
            "adcode": 220602,
            "province": "吉林省",
            "city": "白山市",
            "district": "浑江区"
        }
    },
    {
        "id": "16000599423863650345",
        "title": "公共厕所",
        "address": "吉林省白山市靖宇县滨江街与矿泉北路交叉口正东方向36米左右",
        "tel": "",
        "category": "基础设施:公共设施:公共厕所",
        "type": 0,
        "location": {
            "lat": 42.389027,
            "lng": 126.806677
        },
        "ad_info": {
            "adcode": 220622,
            "province": "吉林省",
            "city": "白山市",
            "district": "靖宇县"
        }
    },
    {
        "id": "18353891948096256420",
        "title": "公共厕所",
        "address": "吉林省白山市靖宇县G222中国石油加油站",
        "tel": "",
        "category": "基础设施:公共设施:公共厕所",
        "type": 0,
        "location": {
            "lat": 42.40271,
            "lng": 126.773872
        },
        "ad_info": {
            "adcode": 220622,
            "province": "吉林省",
            "city": "白山市",
            "district": "靖宇县"
        }
    },
    {
        "id": "2298898231493550579",
        "title": "公共厕所",
        "address": "吉林省白山市江源区靖白公路",
        "tel": "",
        "category": "基础设施:公共设施:公共厕所",
        "type": 0,
        "location": {
            "lat": 42.101802,
            "lng": 126.585558
        },
        "ad_info": {
            "adcode": 220605,
            "province": "吉林省",
            "city": "白山市",
            "district": "江源区"
        }
    },
    {
        "id": "4805372892173361730",
        "title": "公共厕所",
        "address": "吉林省白山市靖宇县和谐北路与和谐南路交叉口正东方向115米左右",
        "tel": "",
        "category": "基础设施:公共设施:公共厕所",
        "type": 0,
        "location": {
            "lat": 42.39211,
            "lng": 126.815716
        },
        "ad_info": {
            "adcode": 220622,
            "province": "吉林省",
            "city": "白山市",
            "district": "靖宇县"
        }
    },
    {
        "id": "9504432182788889898",
        "title": "公共厕所",
        "address": "吉林省白山市浑江区南平街与英才路交叉口正东方向36米左右",
        "tel": "",
        "category": "基础设施:公共设施:公共厕所",
        "type": 0,
        "location": {
            "lat": 41.939243,
            "lng": 126.43782
        },
        "ad_info": {
            "adcode": 220602,
            "province": "吉林省",
            "city": "白山市",
            "district": "浑江区"
        }
    },
    {
        "id": "6282629958921261269",
        "title": "公共厕所",
        "address": "吉林省白山市靖宇县靖白公路与鹿鸣街交叉口正南方向370米左右",
        "tel": "",
        "category": "基础设施:公共设施:公共厕所",
        "type": 0,
        "location": {
            "lat": 42.370692,
            "lng": 126.779462
        },
        "ad_info": {
            "adcode": 220622,
            "province": "吉林省",
            "city": "白山市",
            "district": "靖宇县"
        }
    },
    {
        "id": "16604974340205267788",
        "title": "公共厕所",
        "address": "吉林省白山市浑江区达山路向阳佳园",
        "tel": "",
        "category": "基础设施:公共设施:公共厕所",
        "type": 0,
        "location": {
            "lat": 41.931884,
            "lng": 126.421466
        },
        "ad_info": {
            "adcode": 220602,
            "province": "吉林省",
            "city": "白山市",
            "district": "浑江区"
        }
    },
    {
        "id": "2346785161739981981",
        "title": "公共厕所",
        "address": "吉林省白山市临江市栗富路与鸭江街交叉口正东方向1794米左右",
        "tel": "",
        "category": "基础设施:公共设施:公共厕所",
        "type": 0,
        "location": {
            "lat": 41.749801,
            "lng": 126.850893
        },
        "ad_info": {
            "adcode": 220681,
            "province": "吉林省",
            "city": "白山市",
            "district": "临江市"
        }
    },
    {
        "id": "13572656278574743796",
        "title": "公共厕所",
        "address": "吉林省白山市长白朝鲜族自治县G331与鸭绿江大街交叉口西北方向1404米左右",
        "tel": "",
        "category": "基础设施:公共设施:公共厕所",
        "type": 0,
        "location": {
            "lat": 41.495618,
            "lng": 127.282453
        },
        "ad_info": {
            "adcode": 220623,
            "province": "吉林省",
            "city": "白山市",
            "district": "长白朝鲜族自治县"
        }
    },
    {
        "id": "18197378156084568068",
        "title": "公共厕所",
        "address": "吉林省白山市临江市正阳路与鸭绿江大街交叉口东南方向164米左右",
        "tel": "",
        "category": "基础设施:公共设施:公共厕所",
        "type": 0,
        "location": {
            "lat": 41.807305,
            "lng": 126.922234
        },
        "ad_info": {
            "adcode": 220681,
            "province": "吉林省",
            "city": "白山市",
            "district": "临江市"
        }
    },
    {
        "id": "4971019499751299515",
        "title": "公共厕所",
        "address": "吉林省白山市临江市卧虎山大街与通江路交叉口正东方向41米左右",
        "tel": "",
        "category": "基础设施:公共设施:公共厕所",
        "type": 0,
        "location": {
            "lat": 41.810827,
            "lng": 126.913467
        },
        "ad_info": {
            "adcode": 220681,
            "province": "吉林省",
            "city": "白山市",
            "district": "临江市"
        }
    },
    {
        "id": "9950778144344986916",
        "title": "公共厕所",
        "address": "吉林省白山市临江市临江大街与新开路交叉口正南方向61米左右",
        "tel": "",
        "category": "基础设施:公共设施:公共厕所",
        "type": 0,
        "location": {
            "lat": 41.798107,
            "lng": 126.900724
        },
        "ad_info": {
            "adcode": 220681,
            "province": "吉林省",
            "city": "白山市",
            "district": "临江市"
        }
    },
    {
        "id": "15896004535994888048",
        "title": "公共厕所",
        "address": "吉林省白山市浑江区滨江南街与西郡路交叉口正北方向50米左右",
        "tel": "",
        "category": "基础设施:公共设施:公共厕所",
        "type": 0,
        "location": {
            "lat": 41.926705,
            "lng": 126.400181
        },
        "ad_info": {
            "adcode": 220602,
            "province": "吉林省",
            "city": "白山市",
            "district": "浑江区"
        }
    },
    {
        "id": "12260878229022528298",
        "title": "公共厕所",
        "address": "吉林省白山市江源区092县道附近",
        "tel": "",
        "category": "基础设施:公共设施:公共厕所",
        "type": 0,
        "location": {
            "lat": 42.033634,
            "lng": 127.135541
        },
        "ad_info": {
            "adcode": 220605,
            "province": "吉林省",
            "city": "白山市",
            "district": "江源区"
        }
    },
    {
        "id": "4992347958818105945",
        "title": "公共厕所",
        "address": "吉林省白山市江源区便民路与滨江南街交叉口正东方向25米左右",
        "tel": "",
        "category": "基础设施:公共设施:公共厕所",
        "type": 0,
        "location": {
            "lat": 42.045892,
            "lng": 126.584087
        },
        "ad_info": {
            "adcode": 220605,
            "province": "吉林省",
            "city": "白山市",
            "district": "江源区"
        }
    },
    {
        "id": "14329998028395504852",
        "title": "公共厕所",
        "address": "吉林省白山市临江市G331与望江隧道交叉口正东方向193米左右",
        "tel": "",
        "category": "基础设施:公共设施:公共厕所",
        "type": 0,
        "location": {
            "lat": 41.648529,
            "lng": 127.10295
        },
        "ad_info": {
            "adcode": 220681,
            "province": "吉林省",
            "city": "白山市",
            "district": "临江市"
        }
    },
    {
        "id": "185663004188622275",
        "title": "公共厕所",
        "address": "吉林省白山市江源区红石供销商店东侧150米",
        "tel": "",
        "category": "基础设施:公共设施:公共厕所",
        "type": 0,
        "location": {
            "lat": 41.937246,
            "lng": 126.524419
        },
        "ad_info": {
            "adcode": 220605,
            "province": "吉林省",
            "city": "白山市",
            "district": "江源区"
        }
    },
    {
        "id": "9334026965104473292",
        "title": "公共厕所",
        "address": "吉林省白山市长白朝鲜族自治县滨河路与通江路交叉口西南方向76米左右",
        "tel": "",
        "category": "基础设施:公共设施:公共厕所",
        "type": 0,
        "location": {
            "lat": 41.517054,
            "lng": 127.265538
        },
        "ad_info": {
            "adcode": 220623,
            "province": "吉林省",
            "city": "白山市",
            "district": "长白朝鲜族自治县"
        }
    },
    {
        "id": "11771923532847714623",
        "title": "公共厕所",
        "address": "吉林省白山市浑江区民华路与浑江大街交叉口西北方向213米左右",
        "tel": "",
        "category": "基础设施:公共设施:公共厕所",
        "type": 0,
        "location": {
            "lat": 41.922241,
            "lng": 126.398061
        },
        "ad_info": {
            "adcode": 220602,
            "province": "吉林省",
            "city": "白山市",
            "district": "浑江区"
        }
    },
    {
        "id": "11472587193347064915",
        "title": "公共厕所",
        "address": "吉林省白山市浑江区泰安湖满族风情园",
        "tel": "",
        "category": "基础设施:公共设施:公共厕所",
        "type": 0,
        "location": {
            "lat": 41.918012,
            "lng": 126.298364
        },
        "ad_info": {
            "adcode": 220602,
            "province": "吉林省",
            "city": "白山市",
            "district": "浑江区"
        }
    },
    {
        "id": "12716179957822183387",
        "title": "公共厕所",
        "address": "吉林省白山市长白朝鲜族自治县G331与七道沟大桥交叉口正东方向1239米左右",
        "tel": "",
        "category": "基础设施:公共设施:公共厕所",
        "type": 0,
        "location": {
            "lat": 41.524508,
            "lng": 127.233868
        },
        "ad_info": {
            "adcode": 220623,
            "province": "吉林省",
            "city": "白山市",
            "district": "长白朝鲜族自治县"
        }
    },
    {
        "id": "4756378228058593905",
        "title": "公共厕所",
        "address": "吉林省白山市江源区G222与浑江大桥交叉口西南方向34米左右",
        "tel": "",
        "category": "基础设施:公共设施:公共厕所",
        "type": 0,
        "location": {
            "lat": 42.01862,
            "lng": 126.574472
        },
        "ad_info": {
            "adcode": 220605,
            "province": "吉林省",
            "city": "白山市",
            "district": "江源区"
        }
    },
    {
        "id": "633813658697286241",
        "title": "公共厕所",
        "address": "吉林省白山市浑江区河口大街与站东街交叉口正东方向170米左右",
        "tel": "",
        "category": "基础设施:公共设施:公共厕所",
        "type": 0,
        "location": {
            "lat": 41.959468,
            "lng": 126.463996
        },
        "ad_info": {
            "adcode": 220602,
            "province": "吉林省",
            "city": "白山市",
            "district": "浑江区"
        }
    },
    {
        "id": "12413225313611263670",
        "title": "公共厕所",
        "address": "吉林省白山市长白朝鲜族自治县",
        "tel": "",
        "category": "基础设施:公共设施:公共厕所",
        "type": 0,
        "location": {
            "lat": 41.397026,
            "lng": 128.043727
        },
        "ad_info": {
            "adcode": 220623,
            "province": "吉林省",
            "city": "白山市",
            "district": "长白朝鲜族自治县"
        }
    },
    {
        "id": "1205696402603719315",
        "title": "公共厕所",
        "address": "吉林省白山市靖宇县X089与Y002交叉口正南方向285米左右",
        "tel": "",
        "category": "基础设施:公共设施:公共厕所",
        "type": 0,
        "location": {
            "lat": 42.285582,
            "lng": 126.926426
        },
        "ad_info": {
            "adcode": 220622,
            "province": "吉林省",
            "city": "白山市",
            "district": "靖宇县"
        }
    },
    {
        "id": "10275726208173581919",
        "title": "公共厕所",
        "address": "吉林省白山市江源区兴塘路与苇塘路交叉口西南方向179米左右",
        "tel": "",
        "category": "基础设施:公共设施:公共厕所",
        "type": 0,
        "location": {
            "lat": 42.033953,
            "lng": 126.595145
        },
        "ad_info": {
            "adcode": 220605,
            "province": "吉林省",
            "city": "白山市",
            "district": "江源区"
        }
    },
    {
        "id": "9363307168598957675",
        "title": "公共厕所",
        "address": "吉林省白山市江源区G201与Y012交叉口东南方向1641米左右",
        "tel": "",
        "category": "基础设施:公共设施:公共厕所",
        "type": 0,
        "location": {
            "lat": 42.051786,
            "lng": 126.69849
        },
        "ad_info": {
            "adcode": 220605,
            "province": "吉林省",
            "city": "白山市",
            "district": "江源区"
        }
    },
    {
        "id": "4725948510267475346",
        "title": "公共厕所",
        "address": "吉林省白山市江源区靖白公路",
        "tel": "",
        "category": "基础设施:公共设施:公共厕所",
        "type": 0,
        "location": {
            "lat": 42.102003,
            "lng": 126.583798
        },
        "ad_info": {
            "adcode": 220605,
            "province": "吉林省",
            "city": "白山市",
            "district": "江源区"
        }
    },
    {
        "id": "11522126033330840416",
        "title": "公共厕所",
        "address": "吉林省白山市浑江区滨江街与金河路交叉口东南方向29米左右",
        "tel": "",
        "category": "基础设施:公共设施:公共厕所",
        "type": 0,
        "location": {
            "lat": 41.946728,
            "lng": 126.426672
        },
        "ad_info": {
            "adcode": 220602,
            "province": "吉林省",
            "city": "白山市",
            "district": "浑江区"
        }
    },
    {
        "id": "3719214265397145364",
        "title": "公共厕所",
        "address": "吉林省白山市临江市G331与X125交叉口东南方向152米左右",
        "tel": "",
        "category": "基础设施:公共设施:公共厕所",
        "type": 0,
        "location": {
            "lat": 41.807533,
            "lng": 126.951897
        },
        "ad_info": {
            "adcode": 220681,
            "province": "吉林省",
            "city": "白山市",
            "district": "临江市"
        }
    },
    {
        "id": "17735713558621599907",
        "title": "公共厕所",
        "address": "吉林省白山市浑江区S205与西顺街交叉口正东方向496米左右",
        "tel": "",
        "category": "基础设施:公共设施:公共厕所",
        "type": 0,
        "location": {
            "lat": 41.911258,
            "lng": 126.40408
        },
        "ad_info": {
            "adcode": 220602,
            "province": "吉林省",
            "city": "白山市",
            "district": "浑江区"
        }
    },
    {
        "id": "15462789372918310703",
        "title": "公共厕所",
        "address": "吉林省白山市江源区欧亚钻石名城东北侧340米",
        "tel": "",
        "category": "基础设施:公共设施:公共厕所",
        "type": 0,
        "location": {
            "lat": 42.061552,
            "lng": 126.602288
        },
        "ad_info": {
            "adcode": 220605,
            "province": "吉林省",
            "city": "白山市",
            "district": "江源区"
        }
    },
    {
        "id": "10349498795596807304",
        "title": "公共厕所",
        "address": "吉林省白山市长白朝鲜族自治县X165与长临公路交叉口西南方向23米左右",
        "tel": "",
        "category": "基础设施:公共设施:公共厕所",
        "type": 0,
        "location": {
            "lat": 41.510739,
            "lng": 127.462856
        },
        "ad_info": {
            "adcode": 220623,
            "province": "吉林省",
            "city": "白山市",
            "district": "长白朝鲜族自治县"
        }
    },
    {
        "id": "12660601766217081056",
        "title": "公共厕所",
        "address": "吉林省白山市浑江区通江路28-3号",
        "tel": "",
        "category": "基础设施:公共设施:公共厕所",
        "type": 0,
        "location": {
            "lat": 41.936081,
            "lng": 126.417997
        },
        "ad_info": {
            "adcode": 220602,
            "province": "吉林省",
            "city": "白山市",
            "district": "浑江区"
        }
    },
    {
        "id": "9658249335570635663",
        "title": "公共厕所",
        "address": "吉林省白山市浑江区国安路3号",
        "tel": "",
        "category": "基础设施:公共设施:公共厕所",
        "type": 0,
        "location": {
            "lat": 41.918014,
            "lng": 126.39766
        },
        "ad_info": {
            "adcode": 220602,
            "province": "吉林省",
            "city": "白山市",
            "district": "浑江区"
        }
    },
    {
        "id": "4837982315377530418",
        "title": "公共厕所",
        "address": "吉林省白山市浑江区北安大街与桃源路交叉口西北方向474米左右",
        "tel": "",
        "category": "基础设施:公共设施:公共厕所",
        "type": 0,
        "location": {
            "lat": 41.956901,
            "lng": 126.420793
        },
        "ad_info": {
            "adcode": 220602,
            "province": "吉林省",
            "city": "白山市",
            "district": "浑江区"
        }
    },
    {
        "id": "8953221375602497340",
        "title": "公共厕所",
        "address": "吉林省白山市江源区S205与X165交叉口东北方向514米左右",
        "tel": "",
        "category": "基础设施:公共设施:公共厕所",
        "type": 0,
        "location": {
            "lat": 41.957473,
            "lng": 126.558027
        },
        "ad_info": {
            "adcode": 220605,
            "province": "吉林省",
            "city": "白山市",
            "district": "江源区"
        }
    },
    {
        "id": "7926826483826887133",
        "title": "公共厕所",
        "address": "吉林省白山市长白朝鲜族自治县G331与西兴街交叉口西北方向861米左右",
        "tel": "",
        "category": "基础设施:公共设施:公共厕所",
        "type": 0,
        "location": {
            "lat": 41.511624,
            "lng": 127.240569
        },
        "ad_info": {
            "adcode": 220623,
            "province": "吉林省",
            "city": "白山市",
            "district": "长白朝鲜族自治县"
        }
    },
    {
        "id": "4722302555625273889",
        "title": "公共厕所",
        "address": "吉林省白山市江源区民华街与民安路交叉口正东方向106米左右",
        "tel": "",
        "category": "基础设施:公共设施:公共厕所",
        "type": 0,
        "location": {
            "lat": 42.041941,
            "lng": 126.582838
        },
        "ad_info": {
            "adcode": 220605,
            "province": "吉林省",
            "city": "白山市",
            "district": "江源区"
        }
    },
    {
        "id": "2098503466108194139",
        "title": "公共厕所",
        "address": "吉林省白山市临江市新星路与鸭绿江大街交叉口东南方向207米左右",
        "tel": "",
        "category": "基础设施:公共设施:公共厕所",
        "type": 0,
        "location": {
            "lat": 41.807424,
            "lng": 126.923054
        },
        "ad_info": {
            "adcode": 220681,
            "province": "吉林省",
            "city": "白山市",
            "district": "临江市"
        }
    },
    {
        "id": "16746042645487590964",
        "title": "公共厕所",
        "address": "吉林省白山市临江市G331与X165交叉口正南方向1598米左右",
        "tel": "",
        "category": "基础设施:公共设施:公共厕所",
        "type": 0,
        "location": {
            "lat": 41.602589,
            "lng": 127.137373
        },
        "ad_info": {
            "adcode": 220681,
            "province": "吉林省",
            "city": "白山市",
            "district": "临江市"
        }
    },
    {
        "id": "5193136240562374419",
        "title": "公共厕所",
        "address": "吉林省白山市临江市G222与花山隧道交叉口正北方向1503米左右",
        "tel": "",
        "category": "基础设施:公共设施:公共厕所",
        "type": 0,
        "location": {
            "lat": 41.889457,
            "lng": 126.867544
        },
        "ad_info": {
            "adcode": 220681,
            "province": "吉林省",
            "city": "白山市",
            "district": "临江市"
        }
    },
    {
        "id": "12235474066783667989",
        "title": "公共厕所",
        "address": "吉林省白山市临江市C034与S204交叉口东北方向89米左右",
        "tel": "",
        "category": "基础设施:公共设施:公共厕所",
        "type": 0,
        "location": {
            "lat": 41.983206,
            "lng": 127.223669
        },
        "ad_info": {
            "adcode": 220681,
            "province": "吉林省",
            "city": "白山市",
            "district": "临江市"
        }
    },
    {
        "id": "8725582961147442843",
        "title": "公共厕所",
        "address": "吉林省白山市临江市S204林业石油加油站(乐活球吧东)",
        "tel": "",
        "category": "基础设施:公共设施:公共厕所",
        "type": 0,
        "location": {
            "lat": 41.992447,
            "lng": 127.232491
        },
        "ad_info": {
            "adcode": 220681,
            "province": "吉林省",
            "city": "白山市",
            "district": "临江市"
        }
    },
    {
        "id": "8674080739510713167",
        "title": "公共厕所",
        "address": "吉林省白山市靖宇县G222与X043交叉口正南方向1345米左右",
        "tel": "",
        "category": "基础设施:公共设施:公共厕所",
        "type": 0,
        "location": {
            "lat": 42.703386,
            "lng": 126.996842
        },
        "ad_info": {
            "adcode": 220622,
            "province": "吉林省",
            "city": "白山市",
            "district": "靖宇县"
        }
    },
    {
        "id": "8473786617540542382",
        "title": "公共厕所",
        "address": "吉林省白山市临江市世纪大街与北环街交叉口西南方向133米左右",
        "tel": "",
        "category": "基础设施:公共设施:公共厕所",
        "type": 0,
        "location": {
            "lat": 41.828786,
            "lng": 126.932934
        },
        "ad_info": {
            "adcode": 220681,
            "province": "吉林省",
            "city": "白山市",
            "district": "临江市"
        }
    },
    {
        "id": "2687133955517494857",
        "title": "公共卫生间",
        "address": "吉林省白山市浑江区东兴街与靖宇路交叉口正西方向41米左右",
        "tel": "",
        "category": "基础设施:公共设施:公共厕所",
        "type": 0,
        "location": {
            "lat": 41.947031,
            "lng": 126.445995
        },
        "ad_info": {
            "adcode": 220602,
            "province": "吉林省",
            "city": "白山市",
            "district": "浑江区"
        }
    },
    {
        "id": "3497063827860801050",
        "title": "公共厕所",
        "address": "吉林省白山市临江市世纪大街与北环街交叉口西南方向194米左右",
        "tel": "",
        "category": "基础设施:公共设施:公共厕所",
        "type": 0,
        "location": {
            "lat": 41.828457,
            "lng": 126.932329
        },
        "ad_info": {
            "adcode": 220681,
            "province": "吉林省",
            "city": "白山市",
            "district": "临江市"
        }
    },
    {
        "id": "4344910271762134969",
        "title": "公共厕所",
        "address": "吉林省白山市江源区G222与石三线交叉口正南方向344米左右",
        "tel": "",
        "category": "基础设施:公共设施:公共厕所",
        "type": 0,
        "location": {
            "lat": 42.013126,
            "lng": 126.578633
        },
        "ad_info": {
            "adcode": 220605,
            "province": "吉林省",
            "city": "白山市",
            "district": "江源区"
        }
    },
    {
        "id": "2421481456333714048",
        "title": "公共厕所",
        "address": "吉林省白山市浑江区向阳路与滨江街交叉口西南方向57米左右",
        "tel": "",
        "category": "基础设施:公共设施:公共厕所",
        "type": 0,
        "location": {
            "lat": 41.936067,
            "lng": 126.408727
        },
        "ad_info": {
            "adcode": 220602,
            "province": "吉林省",
            "city": "白山市",
            "district": "浑江区"
        }
    },
    {
        "id": "8689073413836277283",
        "title": "公共厕所",
        "address": "吉林省白山市江源区城北路与森工路交叉口正南方向185米左右",
        "tel": "",
        "category": "基础设施:公共设施:公共厕所",
        "type": 0,
        "location": {
            "lat": 42.090224,
            "lng": 126.594022
        },
        "ad_info": {
            "adcode": 220605,
            "province": "吉林省",
            "city": "白山市",
            "district": "江源区"
        }
    },
    {
        "id": "8206436603840718532",
        "title": "公共厕所",
        "address": "吉林省白山市江源区S205与X165交叉口东北方向56米左右",
        "tel": "",
        "category": "基础设施:公共设施:公共厕所",
        "type": 0,
        "location": {
            "lat": 41.954975,
            "lng": 126.5536
        },
        "ad_info": {
            "adcode": 220605,
            "province": "吉林省",
            "city": "白山市",
            "district": "江源区"
        }
    },
    {
        "id": "8576136324539069964",
        "title": "公共厕所",
        "address": "吉林省白山市浑江区桃源路与长白山大街交叉口西南方向133米左右",
        "tel": "",
        "category": "基础设施:公共设施:公共厕所",
        "type": 0,
        "location": {
            "lat": 41.949513,
            "lng": 126.426225
        },
        "ad_info": {
            "adcode": 220602,
            "province": "吉林省",
            "city": "白山市",
            "district": "浑江区"
        }
    },
    {
        "id": "7918268754889790311",
        "title": "公共厕所",
        "address": "吉林省白山市浑江区国安路与滨江南街交叉口西北方向453米左右",
        "tel": "",
        "category": "基础设施:公共设施:公共厕所",
        "type": 0,
        "location": {
            "lat": 41.923006,
            "lng": 126.393965
        },
        "ad_info": {
            "adcode": 220602,
            "province": "吉林省",
            "city": "白山市",
            "district": "浑江区"
        }
    },
    {
        "id": "17117798423319119342",
        "title": "公共厕所",
        "address": "吉林省白山市浑江区S103与光明街交叉口西北方向1489米左右",
        "tel": "",
        "category": "基础设施:公共设施:公共厕所",
        "type": 0,
        "location": {
            "lat": 41.973967,
            "lng": 126.4318
        },
        "ad_info": {
            "adcode": 220602,
            "province": "吉林省",
            "city": "白山市",
            "district": "浑江区"
        }
    },
    {
        "id": "9502062241002904677",
        "title": "公共厕所",
        "address": "吉林省白山市抚松县长白山华美胜地瑞士酒店度假村西侧220米",
        "tel": "",
        "category": "基础设施:公共设施:公共厕所",
        "type": 0,
        "location": {
            "lat": 41.969876,
            "lng": 127.526184
        },
        "ad_info": {
            "adcode": 220621,
            "province": "吉林省",
            "city": "白山市",
            "district": "抚松县"
        }
    },
    {
        "id": "7773980067361214151",
        "title": "公共厕所",
        "address": "吉林省白山市浑江区河口大街与站东街交叉口东北方向220米左右",
        "tel": "",
        "category": "基础设施:公共设施:公共厕所",
        "type": 0,
        "location": {
            "lat": 41.956974,
            "lng": 126.460971
        },
        "ad_info": {
            "adcode": 220602,
            "province": "吉林省",
            "city": "白山市",
            "district": "浑江区"
        }
    },
    {
        "id": "6480667873259189309",
        "title": "公共厕所",
        "address": "吉林省白山市浑江区南平街与英才路交叉口东南方向164米左右",
        "tel": "",
        "category": "基础设施:公共设施:公共厕所",
        "type": 0,
        "location": {
            "lat": 41.938345,
            "lng": 126.438904
        },
        "ad_info": {
            "adcode": 220602,
            "province": "吉林省",
            "city": "白山市",
            "district": "浑江区"
        }
    },
    {
        "id": "15559758746098995916",
        "title": "公共厕所",
        "address": "吉林省白山市浑江区白山路与英才路交叉口正西方向389米左右",
        "tel": "",
        "category": "基础设施:公共设施:公共厕所",
        "type": 0,
        "location": {
            "lat": 41.934887,
            "lng": 126.447399
        },
        "ad_info": {
            "adcode": 220602,
            "province": "吉林省",
            "city": "白山市",
            "district": "浑江区"
        }
    },
    {
        "id": "11309940432364660585",
        "title": "公共厕所",
        "address": "吉林省白山市浑江区喜丰路与自强街交叉口正西方向126米左右",
        "tel": "",
        "category": "基础设施:公共设施:公共厕所",
        "type": 0,
        "location": {
            "lat": 41.921685,
            "lng": 126.407991
        },
        "ad_info": {
            "adcode": 220602,
            "province": "吉林省",
            "city": "白山市",
            "district": "浑江区"
        }
    },
    {
        "id": "11190170548225958153",
        "title": "公共厕所",
        "address": "吉林省白山市抚松县安康胡同与松山大街交叉口正东方向68米左右",
        "tel": "",
        "category": "基础设施:公共设施:公共厕所",
        "type": 0,
        "location": {
            "lat": 42.322603,
            "lng": 127.282675
        },
        "ad_info": {
            "adcode": 220621,
            "province": "吉林省",
            "city": "白山市",
            "district": "抚松县"
        }
    },
    {
        "id": "753667393170138397",
        "title": "公共厕所",
        "address": "吉林省白山市抚松县G504中国石油加油站",
        "tel": "",
        "category": "基础设施:公共设施:公共厕所",
        "type": 0,
        "location": {
            "lat": 42.19517,
            "lng": 127.460844
        },
        "ad_info": {
            "adcode": 220621,
            "province": "吉林省",
            "city": "白山市",
            "district": "抚松县"
        }
    },
    {
        "id": "11510686373670382461",
        "title": "公共厕所",
        "address": "吉林省白山市浑江区S205与X078交叉口东北方向1252米左右",
        "tel": "",
        "category": "基础设施:公共设施:公共厕所",
        "type": 0,
        "location": {
            "lat": 41.892029,
            "lng": 126.350372
        },
        "ad_info": {
            "adcode": 220602,
            "province": "吉林省",
            "city": "白山市",
            "district": "浑江区"
        }
    },
    {
        "id": "15441221625557046825",
        "title": "公共厕所",
        "address": "吉林省白山市抚松县松林街与松江路交叉口西南方向44米左右",
        "tel": "",
        "category": "基础设施:公共设施:公共厕所",
        "type": 0,
        "location": {
            "lat": 42.170138,
            "lng": 127.489728
        },
        "ad_info": {
            "adcode": 220621,
            "province": "吉林省",
            "city": "白山市",
            "district": "抚松县"
        }
    },
    {
        "id": "6473444648429964548",
        "title": "公共厕所",
        "address": "吉林省白山市浑江区河口大街与站东街交叉口正东方向647米左右",
        "tel": "",
        "category": "基础设施:公共设施:公共厕所",
        "type": 0,
        "location": {
            "lat": 41.958122,
            "lng": 126.469703
        },
        "ad_info": {
            "adcode": 220602,
            "province": "吉林省",
            "city": "白山市",
            "district": "浑江区"
        }
    },
    {
        "id": "466893500733055395",
        "title": "公共厕所",
        "address": "吉林省白山市抚松县长白山仙人桥吉森康养温泉公司迎宾楼一楼",
        "tel": "",
        "category": "基础设施:公共设施:公共厕所",
        "type": 0,
        "location": {
            "lat": 42.151852,
            "lng": 127.192571
        },
        "ad_info": {
            "adcode": 220621,
            "province": "吉林省",
            "city": "白山市",
            "district": "抚松县"
        }
    },
    {
        "id": "759971806324556989",
        "title": "公共厕所",
        "address": "吉林省白山市浑江区河口大街与站东街交叉口正东方向516米左右",
        "tel": "",
        "category": "基础设施:公共设施:公共厕所",
        "type": 0,
        "location": {
            "lat": 41.957912,
            "lng": 126.468025
        },
        "ad_info": {
            "adcode": 220602,
            "province": "吉林省",
            "city": "白山市",
            "district": "浑江区"
        }
    },
    {
        "id": "15241281583471477777",
        "title": "公共厕所",
        "address": "吉林省白山市浑江区S205与X078交叉口东南方向149米左右",
        "tel": "",
        "category": "基础设施:公共设施:公共厕所",
        "type": 0,
        "location": {
            "lat": 41.864214,
            "lng": 126.311526
        },
        "ad_info": {
            "adcode": 220602,
            "province": "吉林省",
            "city": "白山市",
            "district": "浑江区"
        }
    },
    {
        "id": "8170695377015199729",
        "title": "公共厕所",
        "address": "吉林省白山市浑江区S205与Y016交叉口正北方向891米左右",
        "tel": "",
        "category": "基础设施:公共设施:公共厕所",
        "type": 0,
        "location": {
            "lat": 41.891683,
            "lng": 126.381515
        },
        "ad_info": {
            "adcode": 220602,
            "province": "吉林省",
            "city": "白山市",
            "district": "浑江区"
        }
    },
    {
        "id": "8426657009328858322",
        "title": "公共厕所",
        "address": "吉林省白山市抚松县抚松大街629号",
        "tel": "",
        "category": "基础设施:公共设施:公共厕所",
        "type": 0,
        "location": {
            "lat": 42.319094,
            "lng": 127.276217
        },
        "ad_info": {
            "adcode": 220621,
            "province": "吉林省",
            "city": "白山市",
            "district": "抚松县"
        }
    },
    {
        "id": "13009381648624281145",
        "title": "公共厕所",
        "address": "吉林省白山市浑江区085县道与088县道交叉口南240米",
        "tel": "",
        "category": "基础设施:公共设施:公共厕所",
        "type": 0,
        "location": {
            "lat": 41.660034,
            "lng": 126.513403
        },
        "ad_info": {
            "adcode": 220602,
            "province": "吉林省",
            "city": "白山市",
            "district": "浑江区"
        }
    },
    {
        "id": "9218201644265942819",
        "title": "公共厕所",
        "address": "吉林省白山市浑江区S205与Y016交叉口东北方向1623米左右",
        "tel": "",
        "category": "基础设施:公共设施:公共厕所",
        "type": 0,
        "location": {
            "lat": 41.897123,
            "lng": 126.388566
        },
        "ad_info": {
            "adcode": 220602,
            "province": "吉林省",
            "city": "白山市",
            "district": "浑江区"
        }
    },
    {
        "id": "8786982987430129835",
        "title": "公共厕所",
        "address": "吉林省白山市浑江区河口大街与站东街交叉口东北方向598米左右",
        "tel": "",
        "category": "基础设施:公共设施:公共厕所",
        "type": 0,
        "location": {
            "lat": 41.962228,
            "lng": 126.467875
        },
        "ad_info": {
            "adcode": 220602,
            "province": "吉林省",
            "city": "白山市",
            "district": "浑江区"
        }
    },
    {
        "id": "4255491848692051066",
        "title": "公共厕所",
        "address": "吉林省白山市浑江区国家矿山公园东南侧260米",
        "tel": "",
        "category": "基础设施:公共设施:公共厕所",
        "type": 0,
        "location": {
            "lat": 41.966132,
            "lng": 126.462542
        },
        "ad_info": {
            "adcode": 220602,
            "province": "吉林省",
            "city": "白山市",
            "district": "浑江区"
        }
    },
    {
        "id": "17579740300831598500",
        "title": "公共厕所",
        "address": "吉林省白山市抚松县林海路与王池大街交叉口西南方向125米左右",
        "tel": "",
        "category": "基础设施:公共设施:公共厕所",
        "type": 0,
        "location": {
            "lat": 42.148793,
            "lng": 127.516823
        },
        "ad_info": {
            "adcode": 220621,
            "province": "吉林省",
            "city": "白山市",
            "district": "抚松县"
        }
    },
    {
        "id": "4517797976430922613",
        "title": "公共厕所",
        "address": "吉林省白山市抚松县松山大街与松花江大街交叉口正南方向63米左右",
        "tel": "",
        "category": "基础设施:公共设施:公共厕所",
        "type": 0,
        "location": {
            "lat": 42.34195,
            "lng": 127.277945
        },
        "ad_info": {
            "adcode": 220621,
            "province": "吉林省",
            "city": "白山市",
            "district": "抚松县"
        }
    },
    {
        "id": "6341410983697307194",
        "title": "公共厕所",
        "address": "吉林省白山市抚松县X094与汤河口桥交叉口正南方向218米左右",
        "tel": "",
        "category": "基础设施:公共设施:公共厕所",
        "type": 0,
        "location": {
            "lat": 42.20097,
            "lng": 127.233668
        },
        "ad_info": {
            "adcode": 220621,
            "province": "吉林省",
            "city": "白山市",
            "district": "抚松县"
        }
    },
    {
        "id": "1024264126103135866",
        "title": "公共厕所",
        "address": "吉林省白山市抚松县094县道东50米",
        "tel": "",
        "category": "基础设施:公共设施:公共厕所",
        "type": 0,
        "location": {
            "lat": 42.512217,
            "lng": 127.303247
        },
        "ad_info": {
            "adcode": 220621,
            "province": "吉林省",
            "city": "白山市",
            "district": "抚松县"
        }
    },
    {
        "id": "10133700327849130483",
        "title": "公共厕所",
        "address": "吉林省白山市抚松县S304与正阳大街交叉口正南方向455米左右",
        "tel": "",
        "category": "基础设施:公共设施:公共厕所",
        "type": 0,
        "location": {
            "lat": 42.513872,
            "lng": 127.815611
        },
        "ad_info": {
            "adcode": 220621,
            "province": "吉林省",
            "city": "白山市",
            "district": "抚松县"
        }
    },
    {
        "id": "6442286568596467278",
        "title": "公共厕所",
        "address": "吉林省白山市抚松县松花江大街滨江现代城",
        "tel": "",
        "category": "基础设施:公共设施:公共厕所",
        "type": 0,
        "location": {
            "lat": 42.330887,
            "lng": 127.266811
        },
        "ad_info": {
            "adcode": 220621,
            "province": "吉林省",
            "city": "白山市",
            "district": "抚松县"
        }
    },
    {
        "id": "12339457930149223732",
        "title": "公共厕所",
        "address": "吉林省白山市抚松县抚松镇林海路中国人参博物馆",
        "tel": "",
        "category": "基础设施:公共设施:公共厕所",
        "type": 0,
        "location": {
            "lat": 42.34034,
            "lng": 127.271766
        },
        "ad_info": {
            "adcode": 220621,
            "province": "吉林省",
            "city": "白山市",
            "district": "抚松县"
        }
    },
    {
        "id": "8272263018827087727",
        "title": "公共厕所",
        "address": "吉林省白山市抚松县天池大路与温泉东街交叉口正东方向59米左右",
        "tel": "",
        "category": "基础设施:公共设施:公共厕所",
        "type": 0,
        "location": {
            "lat": 42.151304,
            "lng": 127.488478
        },
        "ad_info": {
            "adcode": 220621,
            "province": "吉林省",
            "city": "白山市",
            "district": "抚松县"
        }
    },
    {
        "id": "16752821196839949020",
        "title": "公共厕所",
        "address": "吉林省白山市抚松县S305与泉阳路交叉口正南方向790米左右",
        "tel": "",
        "category": "基础设施:公共设施:公共厕所",
        "type": 0,
        "location": {
            "lat": 42.350119,
            "lng": 127.547825
        },
        "ad_info": {
            "adcode": 220621,
            "province": "吉林省",
            "city": "白山市",
            "district": "抚松县"
        }
    },
    {
        "id": "7812888200625795282",
        "title": "公共厕所",
        "address": "吉林省白山市抚松县中国铁通(砬子河营业厅)北侧",
        "tel": "",
        "category": "基础设施:公共设施:公共厕所",
        "type": 0,
        "location": {
            "lat": 42.51816,
            "lng": 127.699658
        },
        "ad_info": {
            "adcode": 220621,
            "province": "吉林省",
            "city": "白山市",
            "district": "抚松县"
        }
    },
    {
        "id": "9739662544212778223",
        "title": "公共厕所",
        "address": "吉林省白山市抚松县G331与圆池路交叉口正东方向21米左右",
        "tel": "",
        "category": "基础设施:公共设施:公共厕所",
        "type": 0,
        "location": {
            "lat": 41.951161,
            "lng": 127.598035
        },
        "ad_info": {
            "adcode": 220621,
            "province": "吉林省",
            "city": "白山市",
            "district": "抚松县"
        }
    },
    {
        "id": "4652670577218965967",
        "title": "公共厕所",
        "address": "吉林省白山市抚松县G201与S305交叉口正西方向96米左右",
        "tel": "",
        "category": "基础设施:公共设施:公共厕所",
        "type": 0,
        "location": {
            "lat": 42.433586,
            "lng": 127.554418
        },
        "ad_info": {
            "adcode": 220621,
            "province": "吉林省",
            "city": "白山市",
            "district": "抚松县"
        }
    },
    {
        "id": "1225415486077497689",
        "title": "公共厕所",
        "address": "吉林省白山市江源区和谐大街白山市江源区人民政府西侧",
        "tel": "",
        "category": "基础设施:公共设施:公共厕所",
        "type": 0,
        "location": {
            "lat": 42.055951,
            "lng": 126.590301
        },
        "ad_info": {
            "adcode": 220605,
            "province": "吉林省",
            "city": "白山市",
            "district": "江源区"
        }
    },
    {
        "id": "5645275328310132787",
        "title": "公共厕所",
        "address": "吉林省白山市浑江区建设街与通江路交叉口正西方向35米左右",
        "tel": "",
        "category": "基础设施:公共设施:公共厕所",
        "type": 0,
        "location": {
            "lat": 41.93563,
            "lng": 126.42132
        },
        "ad_info": {
            "adcode": 220602,
            "province": "吉林省",
            "city": "白山市",
            "district": "浑江区"
        }
    },
    {
        "id": "184297775772317337",
        "title": "男卫生间",
        "address": "吉林省白山市长白朝鲜族自治县",
        "tel": "",
        "category": "基础设施:公共设施:公共厕所",
        "type": 0,
        "location": {
            "lat": 41.547555,
            "lng": 127.632621
        },
        "ad_info": {
            "adcode": 220623,
            "province": "吉林省",
            "city": "白山市",
            "district": "长白朝鲜族自治县"
        }
    },
    {
        "id": "3165080057999652791",
        "title": "公共厕所",
        "address": "吉林省白山市浑江区健民街与长安路交叉口东北方向13米左右",
        "tel": "",
        "category": "基础设施:公共设施:公共厕所",
        "type": 0,
        "location": {
            "lat": 41.941325,
            "lng": 126.424847
        },
        "ad_info": {
            "adcode": 220602,
            "province": "吉林省",
            "city": "白山市",
            "district": "浑江区"
        }
    },
    {
        "id": "7727652870628116352",
        "title": "公共厕所",
        "address": "吉林省白山市临江市森工路与河南街交叉口西北方向463米左右",
        "tel": "",
        "category": "基础设施:公共设施:公共厕所",
        "type": 0,
        "location": {
            "lat": 41.829691,
            "lng": 126.940203
        },
        "ad_info": {
            "adcode": 220681,
            "province": "吉林省",
            "city": "白山市",
            "district": "临江市"
        }
    },
    {
        "id": "18084021476581982651",
        "title": "长白山观景台公共厕所",
        "address": "吉林省白山市抚松县环山线",
        "tel": "",
        "category": "基础设施:公共设施:公共厕所",
        "type": 0,
        "location": {
            "lat": 42.334324,
            "lng": 127.866546
        },
        "ad_info": {
            "adcode": 220621,
            "province": "吉林省",
            "city": "白山市",
            "district": "抚松县"
        }
    },
    {
        "id": "8748908184960030744",
        "title": "公共厕所",
        "address": "吉林省白山市临江市新村路与站前路交叉口正西方向55米左右",
        "tel": "",
        "category": "基础设施:公共设施:公共厕所",
        "type": 0,
        "location": {
            "lat": 41.800658,
            "lng": 126.908975
        },
        "ad_info": {
            "adcode": 220681,
            "province": "吉林省",
            "city": "白山市",
            "district": "临江市"
        }
    },
    {
        "id": "16456769255444667985",
        "title": "公共厕所",
        "address": "吉林省白山市靖宇县龙岗加油站(076县道南)",
        "tel": "",
        "category": "基础设施:公共设施:公共厕所",
        "type": 0,
        "location": {
            "lat": 42.380526,
            "lng": 126.843561
        },
        "ad_info": {
            "adcode": 220622,
            "province": "吉林省",
            "city": "白山市",
            "district": "靖宇县"
        }
    },
    {
        "id": "328288690360782614",
        "title": "公共厕所",
        "address": "吉林省白山市浑江区滨江街与群生路交叉口东北方向85米左右",
        "tel": "",
        "category": "基础设施:公共设施:公共厕所",
        "type": 0,
        "location": {
            "lat": 41.935481,
            "lng": 126.408227
        },
        "ad_info": {
            "adcode": 220602,
            "province": "吉林省",
            "city": "白山市",
            "district": "浑江区"
        }
    },
    {
        "id": "318157083894550639",
        "title": "长白山国家级自然保护区-公共厕所",
        "address": "吉林省白山市抚松县松天线与环山线交叉口正西方向782米左右",
        "tel": "",
        "category": "基础设施:公共设施:公共厕所",
        "type": 0,
        "location": {
            "lat": 42.054539,
            "lng": 127.665972
        },
        "ad_info": {
            "adcode": 220621,
            "province": "吉林省",
            "city": "白山市",
            "district": "抚松县"
        }
    },
    {
        "id": "6721218304335466022",
        "title": "公共厕所",
        "address": "吉林省白山市抚松县松西胡同与西小南街交叉口正西方向47米左右",
        "tel": "",
        "category": "基础设施:公共设施:公共厕所",
        "type": 0,
        "location": {
            "lat": 42.332181,
            "lng": 127.27136
        },
        "ad_info": {
            "adcode": 220621,
            "province": "吉林省",
            "city": "白山市",
            "district": "抚松县"
        }
    },
    {
        "id": "13052027966832617638",
        "title": "靖宇服务区公共厕所",
        "address": "吉林省白山市靖宇县三道湖镇抚长高速公路服务区西北",
        "tel": "",
        "category": "基础设施:公共设施:公共厕所",
        "type": 0,
        "location": {
            "lat": 42.263264,
            "lng": 126.926587
        },
        "ad_info": {
            "adcode": 220622,
            "province": "吉林省",
            "city": "白山市",
            "district": "靖宇县"
        }
    },
    {
        "id": "9591691239209889922",
        "title": "江源服务区公共厕所",
        "address": "吉林省白山市江源区鹤大高速",
        "tel": "",
        "category": "基础设施:公共设施:公共厕所",
        "type": 0,
        "location": {
            "lat": 42.090091,
            "lng": 126.460044
        },
        "ad_info": {
            "adcode": 220605,
            "province": "吉林省",
            "city": "白山市",
            "district": "江源区"
        }
    },
    {
        "id": "5645022363631472089",
        "title": "公共厕所",
        "address": "吉林省白山市浑江区光华路与岳桦路交叉口正西方向21米左右",
        "tel": "",
        "category": "基础设施:公共设施:公共厕所",
        "type": 0,
        "location": {
            "lat": 41.96231,
            "lng": 126.410721
        },
        "ad_info": {
            "adcode": 220602,
            "province": "吉林省",
            "city": "白山市",
            "district": "浑江区"
        }
    },
    {
        "id": "10745187030768058818",
        "title": "公共厕所",
        "address": "吉林省白山市抚松县抚新路与松山大街交叉口正北方向55米左右",
        "tel": "",
        "category": "基础设施:公共设施:公共厕所",
        "type": 0,
        "location": {
            "lat": 42.321044,
            "lng": 127.281474
        },
        "ad_info": {
            "adcode": 220621,
            "province": "吉林省",
            "city": "白山市",
            "district": "抚松县"
        }
    },
    {
        "id": "4788766580021695978",
        "title": "长白山国家级自然保护区-公共厕所",
        "address": "吉林省白山市抚松县山门停车场南侧",
        "tel": "",
        "category": "基础设施:公共设施:公共厕所",
        "type": 0,
        "location": {
            "lat": 42.051468,
            "lng": 127.775911
        },
        "ad_info": {
            "adcode": 220621,
            "province": "吉林省",
            "city": "白山市",
            "district": "抚松县"
        }
    },
    {
        "id": "2269802605145173375",
        "title": "抚松服务区公共厕所",
        "address": "吉林省白山市抚松县抚松服务区(鹤大高速公路南)",
        "tel": "",
        "category": "基础设施:公共设施:公共厕所",
        "type": 0,
        "location": {
            "lat": 42.442712,
            "lng": 127.543073
        },
        "ad_info": {
            "adcode": 220621,
            "province": "吉林省",
            "city": "白山市",
            "district": "抚松县"
        }
    },
    {
        "id": "5372111433428121325",
        "title": "长白山服务区公共厕所",
        "address": "吉林省白山市抚松县G504与Y006交叉口正南方向1222米左右",
        "tel": "",
        "category": "基础设施:公共设施:公共厕所",
        "type": 0,
        "location": {
            "lat": 42.226902,
            "lng": 127.399239
        },
        "ad_info": {
            "adcode": 220621,
            "province": "吉林省",
            "city": "白山市",
            "district": "抚松县"
        }
    },
    {
        "id": "13172520354954033796",
        "title": "长白山国家级自然保护区-公共厕所",
        "address": "吉林省白山市抚松县松天线东50米",
        "tel": "",
        "category": "基础设施:公共设施:公共厕所",
        "type": 0,
        "location": {
            "lat": 42.050759,
            "lng": 127.780434
        },
        "ad_info": {
            "adcode": 220621,
            "province": "吉林省",
            "city": "白山市",
            "district": "抚松县"
        }
    },
    {
        "id": "8944192108254535626",
        "title": "抚松服务区公共厕所",
        "address": "吉林省白山市抚松县G201与S305交叉口西北方向1717米左右",
        "tel": "",
        "category": "基础设施:公共设施:公共厕所",
        "type": 0,
        "location": {
            "lat": 42.445481,
            "lng": 127.542119
        },
        "ad_info": {
            "adcode": 220621,
            "province": "吉林省",
            "city": "白山市",
            "district": "抚松县"
        }
    },
    {
        "id": "14642718961184785218",
        "title": "长白山服务区公共厕所",
        "address": "吉林省白山市抚松县长白山服务区",
        "tel": "",
        "category": "基础设施:公共设施:公共厕所",
        "type": 0,
        "location": {
            "lat": 42.226597,
            "lng": 127.396247
        },
        "ad_info": {
            "adcode": 220621,
            "province": "吉林省",
            "city": "白山市",
            "district": "抚松县"
        }
    },
    {
        "id": "8729668985020535932",
        "title": "公共厕所",
        "address": "吉林省白山市江源区G201与X092交叉口西北方向571米左右",
        "tel": "",
        "category": "基础设施:公共设施:公共厕所",
        "type": 0,
        "location": {
            "lat": 42.065805,
            "lng": 126.915092
        },
        "ad_info": {
            "adcode": 220605,
            "province": "吉林省",
            "city": "白山市",
            "district": "江源区"
        }
    },
    {
        "id": "2816000637868601829",
        "title": "公共厕所",
        "address": "吉林省白山市抚松县锦江木屋广场西南侧",
        "tel": "",
        "category": "基础设施:公共设施:公共厕所",
        "type": 0,
        "location": {
            "lat": 41.992522,
            "lng": 127.55311
        },
        "ad_info": {
            "adcode": 220621,
            "province": "吉林省",
            "city": "白山市",
            "district": "抚松县"
        }
    },
    {
        "id": "15468884954522725520",
        "title": "公共厕所",
        "address": "吉林省白山市江源区G222与X115交叉口东北方向280米左右",
        "tel": "",
        "category": "基础设施:公共设施:公共厕所",
        "type": 0,
        "location": {
            "lat": 41.966968,
            "lng": 126.581662
        },
        "ad_info": {
            "adcode": 220605,
            "province": "吉林省",
            "city": "白山市",
            "district": "江源区"
        }
    },
    {
        "id": "2163893545867517672",
        "title": "公共厕所",
        "address": "吉林省白山市抚松县201国道附近",
        "tel": "",
        "category": "基础设施:公共设施:公共厕所",
        "type": 0,
        "location": {
            "lat": 42.762687,
            "lng": 127.80483
        },
        "ad_info": {
            "adcode": 220621,
            "province": "吉林省",
            "city": "白山市",
            "district": "抚松县"
        }
    },
    {
        "id": "11735732848499587490",
        "title": "公共厕所",
        "address": "吉林省白山市浑江区中国石油老营加油站(303省道北)",
        "tel": "",
        "category": "基础设施:公共设施:公共厕所",
        "type": 0,
        "location": {
            "lat": 41.881916,
            "lng": 126.345571
        },
        "ad_info": {
            "adcode": 220602,
            "province": "吉林省",
            "city": "白山市",
            "district": "浑江区"
        }
    },
    {
        "id": "7628402868987176993",
        "title": "靖宇服务区公共厕所",
        "address": "吉林省白山市靖宇县服务区与G11鹤大高速出口交叉口北100米",
        "tel": "",
        "category": "基础设施:公共设施:公共厕所",
        "type": 0,
        "location": {
            "lat": 42.261711,
            "lng": 126.929807
        },
        "ad_info": {
            "adcode": 220622,
            "province": "吉林省",
            "city": "白山市",
            "district": "靖宇县"
        }
    },
    {
        "id": "10784909977614420104",
        "title": "公共厕所",
        "address": "吉林省白山市临江市G331与望江隧道交叉口正东方向431米左右",
        "tel": "",
        "category": "基础设施:公共设施:公共厕所",
        "type": 0,
        "location": {
            "lat": 41.64761,
            "lng": 127.105858
        },
        "ad_info": {
            "adcode": 220681,
            "province": "吉林省",
            "city": "白山市",
            "district": "临江市"
        }
    },
    {
        "id": "11969689201328573856",
        "title": "公共厕所",
        "address": "吉林省白山市长白朝鲜族自治县X165与Y023交叉口正南方向232米左右",
        "tel": "",
        "category": "基础设施:公共设施:公共厕所",
        "type": 0,
        "location": {
            "lat": 41.435106,
            "lng": 128.124712
        },
        "ad_info": {
            "adcode": 220623,
            "province": "吉林省",
            "city": "白山市",
            "district": "长白朝鲜族自治县"
        }
    },
    {
        "id": "10491438456445470169",
        "title": "公共厕所",
        "address": "吉林省白山市抚松县大安路与文安胡同交叉口正西方向48米左右",
        "tel": "",
        "category": "基础设施:公共设施:公共厕所",
        "type": 0,
        "location": {
            "lat": 42.322807,
            "lng": 127.272994
        },
        "ad_info": {
            "adcode": 220621,
            "province": "吉林省",
            "city": "白山市",
            "district": "抚松县"
        }
    },
    {
        "id": "14884489804342812880",
        "title": "江源服务区公共厕所",
        "address": "吉林省白山市江源区G11鹤大高速与江源服务区交叉口西300米充电桩旁",
        "tel": "",
        "category": "基础设施:公共设施:公共厕所",
        "type": 0,
        "location": {
            "lat": 42.088246,
            "lng": 126.461893
        },
        "ad_info": {
            "adcode": 220605,
            "province": "吉林省",
            "city": "白山市",
            "district": "江源区"
        }
    },
    {
        "id": "1294373096113267340",
        "title": "公共厕所",
        "address": "吉林省白山市临江市利生源街与大湖路交叉口东北方向237米左右",
        "tel": "",
        "category": "基础设施:公共设施:公共厕所",
        "type": 0,
        "location": {
            "lat": 41.797556,
            "lng": 127.017991
        },
        "ad_info": {
            "adcode": 220681,
            "province": "吉林省",
            "city": "白山市",
            "district": "临江市"
        }
    },
    {
        "id": "14207647569870317089",
        "title": "公共厕所",
        "address": "吉林省白山市抚松县松花江大街与鹿鸣街交叉口东北方向116米左右",
        "tel": "",
        "category": "基础设施:公共设施:公共厕所",
        "type": 0,
        "location": {
            "lat": 42.349006,
            "lng": 127.281243
        },
        "ad_info": {
            "adcode": 220621,
            "province": "吉林省",
            "city": "白山市",
            "district": "抚松县"
        }
    },
    {
        "id": "4468880183456681508",
        "title": "公共厕所",
        "address": "吉林省白山市浑江区爱民街与长安路交叉口正西方向136米左右",
        "tel": "",
        "category": "基础设施:公共设施:公共厕所",
        "type": 0,
        "location": {
            "lat": 41.943246,
            "lng": 126.421622
        },
        "ad_info": {
            "adcode": 220602,
            "province": "吉林省",
            "city": "白山市",
            "district": "浑江区"
        }
    }
]