[
    {
        "id": "1567889811629454276",
        "title": "公共厕所",
        "address": "海南省白沙黎族自治县G98海南高速大岭十四队境内",
        "tel": "",
        "category": "基础设施:公共设施:公共厕所",
        "type": 0,
        "location": {
            "lat": 19.440392,
            "lng": 109.058795
        },
        "ad_info": {
            "adcode": 469025,
            "province": "海南省",
            "city": "",
            "district": "白沙黎族自治县"
        }
    },
    {
        "id": "3594816711770568728",
        "title": "公共厕所",
        "address": "海南省白沙黎族自治县牙叉中路白沙车站",
        "tel": "",
        "category": "基础设施:公共设施:公共厕所",
        "type": 0,
        "location": {
            "lat": 19.22363,
            "lng": 109.447795
        },
        "ad_info": {
            "adcode": 469025,
            "province": "海南省",
            "city": "",
            "district": "白沙黎族自治县"
        }
    },
    {
        "id": "13535875025514860557",
        "title": "公共厕所",
        "address": "海南省白沙黎族自治县元门东路与跃进巷交叉口东南方向79米左右",
        "tel": "",
        "category": "基础设施:公共设施:公共厕所",
        "type": 0,
        "location": {
            "lat": 19.15636,
            "lng": 109.489351
        },
        "ad_info": {
            "adcode": 469025,
            "province": "海南省",
            "city": "",
            "district": "白沙黎族自治县"
        }
    },
    {
        "id": "10259307723864604517",
        "title": "公共厕所",
        "address": "海南省白沙黎族自治县S310(桥南路)",
        "tel": "",
        "category": "基础设施:公共设施:公共厕所",
        "type": 0,
        "location": {
            "lat": 19.209022,
            "lng": 109.442981
        },
        "ad_info": {
            "adcode": 469025,
            "province": "海南省",
            "city": "",
            "district": "白沙黎族自治县"
        }
    },
    {
        "id": "17621314127095309915",
        "title": "公共厕所",
        "address": "海南省白沙黎族自治县木棉路与金沙南路交叉口正西方向190米左右",
        "tel": "",
        "category": "基础设施:公共设施:公共厕所",
        "type": 0,
        "location": {
            "lat": 19.213394,
            "lng": 109.448715
        },
        "ad_info": {
            "adcode": 469025,
            "province": "海南省",
            "city": "",
            "district": "白沙黎族自治县"
        }
    },
    {
        "id": "6057698175017448303",
        "title": "公共厕所",
        "address": "海南省白沙黎族自治县桥北路与桥南路交叉口东南方向76米左右",
        "tel": "",
        "category": "基础设施:公共设施:公共厕所",
        "type": 0,
        "location": {
            "lat": 19.219944,
            "lng": 109.452881
        },
        "ad_info": {
            "adcode": 469025,
            "province": "海南省",
            "city": "",
            "district": "白沙黎族自治县"
        }
    },
    {
        "id": "6538804708390345317",
        "title": "公共厕所",
        "address": "海南省白沙黎族自治县七坊中路与七彩路交叉口正南方向867米左右",
        "tel": "",
        "category": "基础设施:公共设施:公共厕所",
        "type": 0,
        "location": {
            "lat": 19.293906,
            "lng": 109.230038
        },
        "ad_info": {
            "adcode": 469025,
            "province": "海南省",
            "city": "",
            "district": "白沙黎族自治县"
        }
    },
    {
        "id": "11923487369976090955",
        "title": "公共厕所",
        "address": "海南省白沙黎族自治县元门西路与向民街交叉口西北方向133米左右",
        "tel": "",
        "category": "基础设施:公共设施:公共厕所",
        "type": 0,
        "location": {
            "lat": 19.166271,
            "lng": 109.4762
        },
        "ad_info": {
            "adcode": 469025,
            "province": "海南省",
            "city": "",
            "district": "白沙黎族自治县"
        }
    },
    {
        "id": "6677353205146805532",
        "title": "公共厕所",
        "address": "海南省白沙黎族自治县坡生街与福马街交叉口东北方向63米左右",
        "tel": "",
        "category": "基础设施:公共设施:公共厕所",
        "type": 0,
        "location": {
            "lat": 19.207442,
            "lng": 109.561945
        },
        "ad_info": {
            "adcode": 469025,
            "province": "海南省",
            "city": "",
            "district": "白沙黎族自治县"
        }
    },
    {
        "id": "11978124566782201177",
        "title": "公共厕所",
        "address": "海南省白沙黎族自治县祥和街与金沙西路交叉口东北方向87米左右",
        "tel": "",
        "category": "基础设施:公共设施:公共厕所",
        "type": 0,
        "location": {
            "lat": 19.227564,
            "lng": 109.446465
        },
        "ad_info": {
            "adcode": 469025,
            "province": "海南省",
            "city": "",
            "district": "白沙黎族自治县"
        }
    },
    {
        "id": "14643252531445644740",
        "title": "公共厕所",
        "address": "海南省白沙黎族自治县卫生路与牙叉中路交叉口正南方向27米左右",
        "tel": "",
        "category": "基础设施:公共设施:公共厕所",
        "type": 0,
        "location": {
            "lat": 19.224145,
            "lng": 109.452281
        },
        "ad_info": {
            "adcode": 469025,
            "province": "海南省",
            "city": "",
            "district": "白沙黎族自治县"
        }
    },
    {
        "id": "12892942861766630258",
        "title": "公共厕所",
        "address": "海南省白沙黎族自治县X545与福安西路交叉口正东方向248米左右",
        "tel": "",
        "category": "基础设施:公共设施:公共厕所",
        "type": 0,
        "location": {
            "lat": 19.284868,
            "lng": 109.362133
        },
        "ad_info": {
            "adcode": 469025,
            "province": "海南省",
            "city": "",
            "district": "白沙黎族自治县"
        }
    },
    {
        "id": "15116523220338443703",
        "title": "公共厕所",
        "address": "海南省白沙黎族自治县孟果路与邦溪西路交叉口正西方向21米左右",
        "tel": "",
        "category": "基础设施:公共设施:公共厕所",
        "type": 0,
        "location": {
            "lat": 19.367458,
            "lng": 109.10541
        },
        "ad_info": {
            "adcode": 469025,
            "province": "海南省",
            "city": "",
            "district": "白沙黎族自治县"
        }
    },
    {
        "id": "15345492625090680171",
        "title": "公共厕所",
        "address": "海南省白沙黎族自治县阜龙北路与阜龙西路交叉口正北方向208米左右",
        "tel": "",
        "category": "基础设施:公共设施:公共厕所",
        "type": 0,
        "location": {
            "lat": 19.323932,
            "lng": 109.461283
        },
        "ad_info": {
            "adcode": 469025,
            "province": "海南省",
            "city": "",
            "district": "白沙黎族自治县"
        }
    },
    {
        "id": "10459402910129732418",
        "title": "公共厕所",
        "address": "海南省白沙黎族自治县S310(福安西路)",
        "tel": "",
        "category": "基础设施:公共设施:公共厕所",
        "type": 0,
        "location": {
            "lat": 19.282619,
            "lng": 109.369782
        },
        "ad_info": {
            "adcode": 469025,
            "province": "海南省",
            "city": "",
            "district": "白沙黎族自治县"
        }
    },
    {
        "id": "5703422427914999533",
        "title": "公共厕所",
        "address": "海南省白沙黎族自治县文源路与木棉路交叉口正北方向92米左右",
        "tel": "",
        "category": "基础设施:公共设施:公共厕所",
        "type": 0,
        "location": {
            "lat": 19.217565,
            "lng": 109.450449
        },
        "ad_info": {
            "adcode": 469025,
            "province": "海南省",
            "city": "",
            "district": "白沙黎族自治县"
        }
    },
    {
        "id": "17146279976803633776",
        "title": "公共厕所",
        "address": "海南省白沙黎族自治县G361与元门西路交叉口西北方向612米左右",
        "tel": "",
        "category": "基础设施:公共设施:公共厕所",
        "type": 0,
        "location": {
            "lat": 19.184942,
            "lng": 109.446927
        },
        "ad_info": {
            "adcode": 469025,
            "province": "海南省",
            "city": "",
            "district": "白沙黎族自治县"
        }
    },
    {
        "id": "16950661949207067985",
        "title": "公共厕所",
        "address": "海南省白沙黎族自治县牙叉中路与牙叉互通交叉口西北方向202米左右",
        "tel": "",
        "category": "基础设施:公共设施:公共厕所",
        "type": 0,
        "location": {
            "lat": 19.225506,
            "lng": 109.433123
        },
        "ad_info": {
            "adcode": 469025,
            "province": "海南省",
            "city": "",
            "district": "白沙黎族自治县"
        }
    },
    {
        "id": "5243583080953239230",
        "title": "公共厕所",
        "address": "海南省白沙黎族自治县环岛高速附近",
        "tel": "",
        "category": "基础设施:公共设施:公共厕所",
        "type": 0,
        "location": {
            "lat": 19.44097,
            "lng": 109.059487
        },
        "ad_info": {
            "adcode": 469025,
            "province": "海南省",
            "city": "",
            "district": "白沙黎族自治县"
        }
    },
    {
        "id": "1032981763472216274",
        "title": "公共厕所",
        "address": "海南省白沙黎族自治县凤凰街与巷北路交叉口东南方向155米左右",
        "tel": "",
        "category": "基础设施:公共设施:公共厕所",
        "type": 0,
        "location": {
            "lat": 19.226014,
            "lng": 109.452934
        },
        "ad_info": {
            "adcode": 469025,
            "province": "海南省",
            "city": "",
            "district": "白沙黎族自治县"
        }
    },
    {
        "id": "10646863174633304048",
        "title": "公共厕所",
        "address": "海南省白沙黎族自治县桥北路与桥南路交叉口正南方向33米左右",
        "tel": "",
        "category": "基础设施:公共设施:公共厕所",
        "type": 0,
        "location": {
            "lat": 19.220101,
            "lng": 109.452243
        },
        "ad_info": {
            "adcode": 469025,
            "province": "海南省",
            "city": "",
            "district": "白沙黎族自治县"
        }
    },
    {
        "id": "9519211049846479627",
        "title": "公共厕所",
        "address": "海南省白沙黎族自治县卫生路与牙叉东路交叉口西南方向198米左右",
        "tel": "",
        "category": "基础设施:公共设施:公共厕所",
        "type": 0,
        "location": {
            "lat": 19.225956,
            "lng": 109.453901
        },
        "ad_info": {
            "adcode": 469025,
            "province": "海南省",
            "city": "",
            "district": "白沙黎族自治县"
        }
    },
    {
        "id": "18283782472564410200",
        "title": "公共厕所",
        "address": "海南省白沙黎族自治县元门西路与向民街交叉口西北方向84米左右",
        "tel": "",
        "category": "基础设施:公共设施:公共厕所",
        "type": 0,
        "location": {
            "lat": 19.165956,
            "lng": 109.47653
        },
        "ad_info": {
            "adcode": 469025,
            "province": "海南省",
            "city": "",
            "district": "白沙黎族自治县"
        }
    },
    {
        "id": "208828306025870672",
        "title": "公共厕所",
        "address": "海南省白沙黎族自治县G361与福安东路交叉口东南方向893米左右",
        "tel": "",
        "category": "基础设施:公共设施:公共厕所",
        "type": 0,
        "location": {
            "lat": 19.257788,
            "lng": 109.391646
        },
        "ad_info": {
            "adcode": 469025,
            "province": "海南省",
            "city": "",
            "district": "白沙黎族自治县"
        }
    },
    {
        "id": "17838014560280285761",
        "title": "阜龙服务区公共厕所",
        "address": "海南省白沙黎族自治县海白高速与阜龙互通交叉口西北方向159米左右",
        "tel": "",
        "category": "基础设施:公共设施:公共厕所",
        "type": 0,
        "location": {
            "lat": 19.318829,
            "lng": 109.453034
        },
        "ad_info": {
            "adcode": 469025,
            "province": "海南省",
            "city": "",
            "district": "白沙黎族自治县"
        }
    }
]