[
    {
        "id": "7663717708099977476",
        "title": "公共厕所",
        "address": "甘肃省白银市白银区三合巷与纺织路交叉口东北方向151米左右",
        "tel": "",
        "category": "基础设施:公共设施:公共厕所",
        "type": 0,
        "location": {
            "lat": 36.553936,
            "lng": 104.164591
        },
        "ad_info": {
            "adcode": 620402,
            "province": "甘肃省",
            "city": "白银市",
            "district": "白银区"
        }
    },
    {
        "id": "2976812547996583028",
        "title": "公共厕所",
        "address": "甘肃省白银市白银区滨河东路与长通路交叉口正南方向304米左右",
        "tel": "",
        "category": "基础设施:公共设施:公共厕所",
        "type": 0,
        "location": {
            "lat": 36.549195,
            "lng": 104.1555
        },
        "ad_info": {
            "adcode": 620402,
            "province": "甘肃省",
            "city": "白银市",
            "district": "白银区"
        }
    },
    {
        "id": "14019363759743234134",
        "title": "公共厕所",
        "address": "甘肃省白银市白银区嘉垣步行街与四龙路交叉口正南方向108米左右",
        "tel": "",
        "category": "基础设施:公共设施:公共厕所",
        "type": 0,
        "location": {
            "lat": 36.550319,
            "lng": 104.178085
        },
        "ad_info": {
            "adcode": 620402,
            "province": "甘肃省",
            "city": "白银市",
            "district": "白银区"
        }
    },
    {
        "id": "8275619461784237541",
        "title": "公共厕所",
        "address": "甘肃省白银市靖远县北大街与滨河南路交叉口正西方向147米左右",
        "tel": "",
        "category": "基础设施:公共设施:公共厕所",
        "type": 0,
        "location": {
            "lat": 36.57716,
            "lng": 104.674357
        },
        "ad_info": {
            "adcode": 620421,
            "province": "甘肃省",
            "city": "白银市",
            "district": "靖远县"
        }
    },
    {
        "id": "4212168997554408096",
        "title": "公共厕所",
        "address": "甘肃省白银市白银区滨河东路与长安路交叉口东南方向471米左右",
        "tel": "",
        "category": "基础设施:公共设施:公共厕所",
        "type": 0,
        "location": {
            "lat": 36.537238,
            "lng": 104.161256
        },
        "ad_info": {
            "adcode": 620402,
            "province": "甘肃省",
            "city": "白银市",
            "district": "白银区"
        }
    },
    {
        "id": "7986339206814584169",
        "title": "公共厕所",
        "address": "甘肃省白银市白银区G109与上海路交叉口东南方向52米左右",
        "tel": "",
        "category": "基础设施:公共设施:公共厕所",
        "type": 0,
        "location": {
            "lat": 36.531415,
            "lng": 104.145476
        },
        "ad_info": {
            "adcode": 620402,
            "province": "甘肃省",
            "city": "白银市",
            "district": "白银区"
        }
    },
    {
        "id": "12536072513099039911",
        "title": "公共厕所",
        "address": "甘肃省白银市白银区新华路与新悦路交叉口东南方向29米左右",
        "tel": "",
        "category": "基础设施:公共设施:公共厕所",
        "type": 0,
        "location": {
            "lat": 36.531626,
            "lng": 104.19279
        },
        "ad_info": {
            "adcode": 620402,
            "province": "甘肃省",
            "city": "白银市",
            "district": "白银区"
        }
    },
    {
        "id": "17890112820953259175",
        "title": "公共厕所",
        "address": "甘肃省白银市白银区东星街与公园路交叉口正南方向102米左右",
        "tel": "",
        "category": "基础设施:公共设施:公共厕所",
        "type": 0,
        "location": {
            "lat": 36.540488,
            "lng": 104.177308
        },
        "ad_info": {
            "adcode": 620402,
            "province": "甘肃省",
            "city": "白银市",
            "district": "白银区"
        }
    },
    {
        "id": "2247389787942797962",
        "title": "公共厕所",
        "address": "甘肃省白银市靖远县靖乐东路与靖远商业步行街交叉口正南方向117米左右",
        "tel": "",
        "category": "基础设施:公共设施:公共厕所",
        "type": 0,
        "location": {
            "lat": 36.565891,
            "lng": 104.682489
        },
        "ad_info": {
            "adcode": 620421,
            "province": "甘肃省",
            "city": "白银市",
            "district": "靖远县"
        }
    },
    {
        "id": "10459812169522887936",
        "title": "公共厕所",
        "address": "甘肃省白银市白银区X324与合作六路交叉口正南方向1169米左右",
        "tel": "",
        "category": "基础设施:公共设施:公共厕所",
        "type": 0,
        "location": {
            "lat": 36.479962,
            "lng": 104.180609
        },
        "ad_info": {
            "adcode": 620402,
            "province": "甘肃省",
            "city": "白银市",
            "district": "白银区"
        }
    },
    {
        "id": "13096621427268933906",
        "title": "公共厕所",
        "address": "甘肃省白银市白银区人民路101号",
        "tel": "",
        "category": "基础设施:公共设施:公共厕所",
        "type": 0,
        "location": {
            "lat": 36.546202,
            "lng": 104.171267
        },
        "ad_info": {
            "adcode": 620402,
            "province": "甘肃省",
            "city": "白银市",
            "district": "白银区"
        }
    },
    {
        "id": "3757276972406080624",
        "title": "公共厕所",
        "address": "甘肃省白银市靖远县产业大道与民族团结大道交叉口正东方向417米左右",
        "tel": "",
        "category": "基础设施:公共设施:公共厕所",
        "type": 0,
        "location": {
            "lat": 36.561004,
            "lng": 104.652418
        },
        "ad_info": {
            "adcode": 620421,
            "province": "甘肃省",
            "city": "白银市",
            "district": "靖远县"
        }
    },
    {
        "id": "2523460256753659224",
        "title": "公共厕所",
        "address": "甘肃省白银市白银区公园路街道南环路4号",
        "tel": "",
        "category": "基础设施:公共设施:公共厕所",
        "type": 0,
        "location": {
            "lat": 36.523157,
            "lng": 104.181421
        },
        "ad_info": {
            "adcode": 620402,
            "province": "甘肃省",
            "city": "白银市",
            "district": "白银区"
        }
    },
    {
        "id": "6014847858881445051",
        "title": "公共厕所",
        "address": "甘肃省白银市白银区银凤湖",
        "tel": "",
        "category": "基础设施:公共设施:公共厕所",
        "type": 0,
        "location": {
            "lat": 36.532726,
            "lng": 104.138815
        },
        "ad_info": {
            "adcode": 620402,
            "province": "甘肃省",
            "city": "白银市",
            "district": "白银区"
        }
    },
    {
        "id": "18001940594840119918",
        "title": "公共厕所",
        "address": "甘肃省白银市白银区嘉垣步行街与四龙路交叉口东南方向59米左右",
        "tel": "",
        "category": "基础设施:公共设施:公共厕所",
        "type": 0,
        "location": {
            "lat": 36.551043,
            "lng": 104.178975
        },
        "ad_info": {
            "adcode": 620402,
            "province": "甘肃省",
            "city": "白银市",
            "district": "白银区"
        }
    },
    {
        "id": "259301080792055900",
        "title": "公共厕所",
        "address": "甘肃省白银市靖远县人民路与北大街交叉口正南方向74米左右",
        "tel": "",
        "category": "基础设施:公共设施:公共厕所",
        "type": 0,
        "location": {
            "lat": 36.570564,
            "lng": 104.678615
        },
        "ad_info": {
            "adcode": 620421,
            "province": "甘肃省",
            "city": "白银市",
            "district": "靖远县"
        }
    },
    {
        "id": "3458935530703895544",
        "title": "公共厕所",
        "address": "甘肃省白银市白银区北京路与天津路交叉口东北方向207米左右",
        "tel": "",
        "category": "基础设施:公共设施:公共厕所",
        "type": 0,
        "location": {
            "lat": 36.547525,
            "lng": 104.149563
        },
        "ad_info": {
            "adcode": 620402,
            "province": "甘肃省",
            "city": "白银市",
            "district": "白银区"
        }
    },
    {
        "id": "17472152776567709371",
        "title": "公共厕所",
        "address": "甘肃省白银市白银区工农路与建设东路交叉口西北方向171米左右",
        "tel": "",
        "category": "基础设施:公共设施:公共厕所",
        "type": 0,
        "location": {
            "lat": 36.557871,
            "lng": 104.169308
        },
        "ad_info": {
            "adcode": 620402,
            "province": "甘肃省",
            "city": "白银市",
            "district": "白银区"
        }
    },
    {
        "id": "11247239891709953654",
        "title": "公共厕所",
        "address": "甘肃省白银市白银区苹果街与诚信大道辅路交叉口正西方向262米左右",
        "tel": "",
        "category": "基础设施:公共设施:公共厕所",
        "type": 0,
        "location": {
            "lat": 36.543168,
            "lng": 104.133485
        },
        "ad_info": {
            "adcode": 620402,
            "province": "甘肃省",
            "city": "白银市",
            "district": "白银区"
        }
    },
    {
        "id": "11651560064185227675",
        "title": "公共厕所",
        "address": "甘肃省白银市白银区渔水人家农家乐",
        "tel": "",
        "category": "基础设施:公共设施:公共厕所",
        "type": 0,
        "location": {
            "lat": 36.437253,
            "lng": 104.401589
        },
        "ad_info": {
            "adcode": 620402,
            "province": "甘肃省",
            "city": "白银市",
            "district": "白银区"
        }
    },
    {
        "id": "14757372769631048645",
        "title": "公共厕所",
        "address": "甘肃省白银市白银区嘉垣步行街与文化路交叉口正北方向73米左右",
        "tel": "",
        "category": "基础设施:公共设施:公共厕所",
        "type": 0,
        "location": {
            "lat": 36.546372,
            "lng": 104.178575
        },
        "ad_info": {
            "adcode": 620402,
            "province": "甘肃省",
            "city": "白银市",
            "district": "白银区"
        }
    },
    {
        "id": "9602963997522191587",
        "title": "公共厕所",
        "address": "甘肃省白银市靖远县广场南路与永新街交叉口正北方向113米左右(永新街209号)",
        "tel": "",
        "category": "基础设施:公共设施:公共厕所",
        "type": 0,
        "location": {
            "lat": 36.569193,
            "lng": 104.675288
        },
        "ad_info": {
            "adcode": 620421,
            "province": "甘肃省",
            "city": "白银市",
            "district": "靖远县"
        }
    },
    {
        "id": "10430347872817711541",
        "title": "公共厕所",
        "address": "甘肃省白银市白银区上海路与凤凰街交叉口正东方向127米左右",
        "tel": "",
        "category": "基础设施:公共设施:公共厕所",
        "type": 0,
        "location": {
            "lat": 36.55365,
            "lng": 104.145696
        },
        "ad_info": {
            "adcode": 620402,
            "province": "甘肃省",
            "city": "白银市",
            "district": "白银区"
        }
    },
    {
        "id": "14474295205465865661",
        "title": "公共厕所",
        "address": "甘肃省白银市白银区X331与靖白段交叉口正西方向246米左右",
        "tel": "",
        "category": "基础设施:公共设施:公共厕所",
        "type": 0,
        "location": {
            "lat": 36.537293,
            "lng": 104.231785
        },
        "ad_info": {
            "adcode": 620402,
            "province": "甘肃省",
            "city": "白银市",
            "district": "白银区"
        }
    },
    {
        "id": "17820384427124490077",
        "title": "公共厕所",
        "address": "甘肃省白银市白银区中学巷与冶金路交叉口西南方向99米左右",
        "tel": "",
        "category": "基础设施:公共设施:公共厕所",
        "type": 0,
        "location": {
            "lat": 36.55416,
            "lng": 104.17461
        },
        "ad_info": {
            "adcode": 620402,
            "province": "甘肃省",
            "city": "白银市",
            "district": "白银区"
        }
    },
    {
        "id": "13082525524946248975",
        "title": "公共厕所",
        "address": "甘肃省白银市白银区嘉垣步行街与四龙路交叉口东南方向26米左右",
        "tel": "",
        "category": "基础设施:公共设施:公共厕所",
        "type": 0,
        "location": {
            "lat": 36.551081,
            "lng": 104.17854
        },
        "ad_info": {
            "adcode": 620402,
            "province": "甘肃省",
            "city": "白银市",
            "district": "白银区"
        }
    },
    {
        "id": "6470794329098136197",
        "title": "公共厕所",
        "address": "甘肃省白银市白银区会宁路与长安路交叉口正北方向175米左右",
        "tel": "",
        "category": "基础设施:公共设施:公共厕所",
        "type": 0,
        "location": {
            "lat": 36.541777,
            "lng": 104.123902
        },
        "ad_info": {
            "adcode": 620402,
            "province": "甘肃省",
            "city": "白银市",
            "district": "白银区"
        }
    },
    {
        "id": "10116076127946113502",
        "title": "公共厕所",
        "address": "甘肃省白银市白银区东星街与人民路交叉口正南方向81米左右",
        "tel": "",
        "category": "基础设施:公共设施:公共厕所",
        "type": 0,
        "location": {
            "lat": 36.540657,
            "lng": 104.172237
        },
        "ad_info": {
            "adcode": 620402,
            "province": "甘肃省",
            "city": "白银市",
            "district": "白银区"
        }
    },
    {
        "id": "11906170129508009212",
        "title": "公共厕所",
        "address": "甘肃省白银市白银区会师街与兰州路交叉口正北方向116米左右",
        "tel": "",
        "category": "基础设施:公共设施:公共厕所",
        "type": 0,
        "location": {
            "lat": 36.54261,
            "lng": 104.140495
        },
        "ad_info": {
            "adcode": 620402,
            "province": "甘肃省",
            "city": "白银市",
            "district": "白银区"
        }
    },
    {
        "id": "12171863140494230963",
        "title": "公共厕所",
        "address": "甘肃省白银市白银区中心街与步行街交叉口东北方向45米左右",
        "tel": "",
        "category": "基础设施:公共设施:公共厕所",
        "type": 0,
        "location": {
            "lat": 36.5473,
            "lng": 104.175214
        },
        "ad_info": {
            "adcode": 620402,
            "province": "甘肃省",
            "city": "白银市",
            "district": "白银区"
        }
    },
    {
        "id": "11519925360322272427",
        "title": "公共厕所",
        "address": "甘肃省白银市白银区公园路与胜利街交叉口西北方向38米左右",
        "tel": "",
        "category": "基础设施:公共设施:公共厕所",
        "type": 0,
        "location": {
            "lat": 36.542061,
            "lng": 104.176772
        },
        "ad_info": {
            "adcode": 620402,
            "province": "甘肃省",
            "city": "白银市",
            "district": "白银区"
        }
    },
    {
        "id": "11267113735436592489",
        "title": "公共厕所",
        "address": "甘肃省白银市白银区工农路与长通路交叉口正北方向245米左右",
        "tel": "",
        "category": "基础设施:公共设施:公共厕所",
        "type": 0,
        "location": {
            "lat": 36.553806,
            "lng": 104.168884
        },
        "ad_info": {
            "adcode": 620402,
            "province": "甘肃省",
            "city": "白银市",
            "district": "白银区"
        }
    },
    {
        "id": "2811335617718708505",
        "title": "公共厕所",
        "address": "甘肃省白银市白银区工农路与永丰街交叉口正南方向44米左右",
        "tel": "",
        "category": "基础设施:公共设施:公共厕所",
        "type": 0,
        "location": {
            "lat": 36.548955,
            "lng": 104.167873
        },
        "ad_info": {
            "adcode": 620402,
            "province": "甘肃省",
            "city": "白银市",
            "district": "白银区"
        }
    },
    {
        "id": "17873426653262079325",
        "title": "公共厕所",
        "address": "甘肃省白银市白银区公园路与民勤街交叉口西南方向215米左右",
        "tel": "",
        "category": "基础设施:公共设施:公共厕所",
        "type": 0,
        "location": {
            "lat": 36.534885,
            "lng": 104.175743
        },
        "ad_info": {
            "adcode": 620402,
            "province": "甘肃省",
            "city": "白银市",
            "district": "白银区"
        }
    },
    {
        "id": "12174258863885405818",
        "title": "公共厕所",
        "address": "甘肃省白银市白银区友好路三角花园内(南侧)",
        "tel": "",
        "category": "基础设施:公共设施:公共厕所",
        "type": 0,
        "location": {
            "lat": 36.55384,
            "lng": 104.174725
        },
        "ad_info": {
            "adcode": 620402,
            "province": "甘肃省",
            "city": "白银市",
            "district": "白银区"
        }
    },
    {
        "id": "17374184232480856525",
        "title": "公共厕所",
        "address": "甘肃省白银市白银区东星街与公园路交叉口正东方向47米左右",
        "tel": "",
        "category": "基础设施:公共设施:公共厕所",
        "type": 0,
        "location": {
            "lat": 36.541279,
            "lng": 104.177454
        },
        "ad_info": {
            "adcode": 620402,
            "province": "甘肃省",
            "city": "白银市",
            "district": "白银区"
        }
    },
    {
        "id": "17732212569382031433",
        "title": "公共厕所",
        "address": "甘肃省白银市白银区公园路街道公园路",
        "tel": "",
        "category": "基础设施:公共设施:公共厕所",
        "type": 0,
        "location": {
            "lat": 36.527369,
            "lng": 104.176814
        },
        "ad_info": {
            "adcode": 620402,
            "province": "甘肃省",
            "city": "白银市",
            "district": "白银区"
        }
    },
    {
        "id": "2743497214501950362",
        "title": "公共厕所",
        "address": "甘肃省白银市白银区东山路与崇文路交叉口西南方向87米左右",
        "tel": "",
        "category": "基础设施:公共设施:公共厕所",
        "type": 0,
        "location": {
            "lat": 36.539987,
            "lng": 104.184621
        },
        "ad_info": {
            "adcode": 620402,
            "province": "甘肃省",
            "city": "白银市",
            "district": "白银区"
        }
    },
    {
        "id": "9858931527158778617",
        "title": "公共厕所",
        "address": "甘肃省白银市白银区苹果街与诚信大道交叉口东南方向71米左右",
        "tel": "",
        "category": "基础设施:公共设施:公共厕所",
        "type": 0,
        "location": {
            "lat": 36.54302,
            "lng": 104.137235
        },
        "ad_info": {
            "adcode": 620402,
            "province": "甘肃省",
            "city": "白银市",
            "district": "白银区"
        }
    },
    {
        "id": "14913020409857062544",
        "title": "公共厕所",
        "address": "甘肃省白银市白银区东星街与工农路交叉口西北方向43米左右",
        "tel": "",
        "category": "基础设施:公共设施:公共厕所",
        "type": 0,
        "location": {
            "lat": 36.541659,
            "lng": 104.169209
        },
        "ad_info": {
            "adcode": 620402,
            "province": "甘肃省",
            "city": "白银市",
            "district": "白银区"
        }
    },
    {
        "id": "10655411184069210292",
        "title": "公共厕所",
        "address": "甘肃省白银市白银区永丰街五一街市场",
        "tel": "",
        "category": "基础设施:公共设施:公共厕所",
        "type": 0,
        "location": {
            "lat": 36.548812,
            "lng": 104.17072
        },
        "ad_info": {
            "adcode": 620402,
            "province": "甘肃省",
            "city": "白银市",
            "district": "白银区"
        }
    },
    {
        "id": "481307523268822876",
        "title": "公共厕所",
        "address": "甘肃省白银市靖远县G109与G341交叉口东北方向672米左右",
        "tel": "",
        "category": "基础设施:公共设施:公共厕所",
        "type": 0,
        "location": {
            "lat": 36.71081,
            "lng": 104.755274
        },
        "ad_info": {
            "adcode": 620421,
            "province": "甘肃省",
            "city": "白银市",
            "district": "靖远县"
        }
    },
    {
        "id": "11867403484858100128",
        "title": "公共厕所",
        "address": "甘肃省白银市白银区王岘东路白银汽车站",
        "tel": "",
        "category": "基础设施:公共设施:公共厕所",
        "type": 0,
        "location": {
            "lat": 36.53708,
            "lng": 104.173951
        },
        "ad_info": {
            "adcode": 620402,
            "province": "甘肃省",
            "city": "白银市",
            "district": "白银区"
        }
    },
    {
        "id": "10877607972962567251",
        "title": "公共卫生间",
        "address": "甘肃省白银市白银区崇德巷与红星路交叉口正东方向197米左右",
        "tel": "",
        "category": "基础设施:公共设施:公共厕所",
        "type": 0,
        "location": {
            "lat": 36.543901,
            "lng": 104.182893
        },
        "ad_info": {
            "adcode": 620402,
            "province": "甘肃省",
            "city": "白银市",
            "district": "白银区"
        }
    },
    {
        "id": "15894261214324993954",
        "title": "公共厕所",
        "address": "甘肃省白银市靖远县西征公园(北侧)",
        "tel": "",
        "category": "基础设施:公共设施:公共厕所",
        "type": 0,
        "location": {
            "lat": 36.675438,
            "lng": 104.525992
        },
        "ad_info": {
            "adcode": 620421,
            "province": "甘肃省",
            "city": "白银市",
            "district": "靖远县"
        }
    },
    {
        "id": "11776719323803235191",
        "title": "公共厕所",
        "address": "甘肃省白银市靖远县G341与乌兰西路交叉口正西方向489米左右",
        "tel": "",
        "category": "基础设施:公共设施:公共厕所",
        "type": 0,
        "location": {
            "lat": 36.547535,
            "lng": 104.661869
        },
        "ad_info": {
            "adcode": 620421,
            "province": "甘肃省",
            "city": "白银市",
            "district": "靖远县"
        }
    },
    {
        "id": "1863771395882774294",
        "title": "公共厕所",
        "address": "甘肃省白银市靖远县G109与利民路交叉口西北方向990米左右",
        "tel": "",
        "category": "基础设施:公共设施:公共厕所",
        "type": 0,
        "location": {
            "lat": 36.74111,
            "lng": 104.730722
        },
        "ad_info": {
            "adcode": 620421,
            "province": "甘肃省",
            "city": "白银市",
            "district": "靖远县"
        }
    },
    {
        "id": "13114817111637641916",
        "title": "公共厕所",
        "address": "甘肃省白银市靖远县G109与S308交叉口正北方向526米左右",
        "tel": "",
        "category": "基础设施:公共设施:公共厕所",
        "type": 0,
        "location": {
            "lat": 37.020968,
            "lng": 104.871982
        },
        "ad_info": {
            "adcode": 620421,
            "province": "甘肃省",
            "city": "白银市",
            "district": "靖远县"
        }
    },
    {
        "id": "1256852859030115591",
        "title": "公共厕所",
        "address": "甘肃省白银市平川区大桥路与宝积路交叉口正北方向59米左右",
        "tel": "",
        "category": "基础设施:公共设施:公共厕所",
        "type": 0,
        "location": {
            "lat": 36.721022,
            "lng": 104.847047
        },
        "ad_info": {
            "adcode": 620403,
            "province": "甘肃省",
            "city": "白银市",
            "district": "平川区"
        }
    },
    {
        "id": "17809350636069221064",
        "title": "公共厕所",
        "address": "甘肃省白银市景泰县中泉路与条山路交叉口正西方向175米左右",
        "tel": "",
        "category": "基础设施:公共设施:公共厕所",
        "type": 0,
        "location": {
            "lat": 37.190809,
            "lng": 104.063683
        },
        "ad_info": {
            "adcode": 620423,
            "province": "甘肃省",
            "city": "白银市",
            "district": "景泰县"
        }
    },
    {
        "id": "16251086683879351459",
        "title": "公共厕所",
        "address": "甘肃省白银市景泰县红水路与车站路交叉口西南方向275米左右",
        "tel": "",
        "category": "基础设施:公共设施:公共厕所",
        "type": 0,
        "location": {
            "lat": 37.194446,
            "lng": 104.056442
        },
        "ad_info": {
            "adcode": 620423,
            "province": "甘肃省",
            "city": "白银市",
            "district": "景泰县"
        }
    },
    {
        "id": "663651661345320826",
        "title": "公共厕所",
        "address": "甘肃省白银市平川区",
        "tel": "",
        "category": "基础设施:公共设施:公共厕所",
        "type": 0,
        "location": {
            "lat": 36.799871,
            "lng": 104.610981
        },
        "ad_info": {
            "adcode": 620403,
            "province": "甘肃省",
            "city": "白银市",
            "district": "平川区"
        }
    },
    {
        "id": "940961877196490532",
        "title": "公共厕所",
        "address": "甘肃省白银市景泰县Y486与泰玉路交叉口西南方向26米左右",
        "tel": "",
        "category": "基础设施:公共设施:公共厕所",
        "type": 0,
        "location": {
            "lat": 37.204578,
            "lng": 104.061284
        },
        "ad_info": {
            "adcode": 620423,
            "province": "甘肃省",
            "city": "白银市",
            "district": "景泰县"
        }
    },
    {
        "id": "11515194868709852845",
        "title": "公共厕所",
        "address": "甘肃省白银市景泰县S308与X336交叉口正西方向906米左右",
        "tel": "",
        "category": "基础设施:公共设施:公共厕所",
        "type": 0,
        "location": {
            "lat": 37.413587,
            "lng": 104.028358
        },
        "ad_info": {
            "adcode": 620423,
            "province": "甘肃省",
            "city": "白银市",
            "district": "景泰县"
        }
    },
    {
        "id": "16586651507510143917",
        "title": "公共厕所",
        "address": "甘肃省白银市景泰县G338与S308交叉口正东方向72米左右",
        "tel": "",
        "category": "基础设施:公共设施:公共厕所",
        "type": 0,
        "location": {
            "lat": 37.350166,
            "lng": 104.134629
        },
        "ad_info": {
            "adcode": 620423,
            "province": "甘肃省",
            "city": "白银市",
            "district": "景泰县"
        }
    },
    {
        "id": "3461873580072869713",
        "title": "公共厕所",
        "address": "甘肃省白银市景泰县黄河路平贵花园-A区",
        "tel": "",
        "category": "基础设施:公共设施:公共厕所",
        "type": 0,
        "location": {
            "lat": 37.198555,
            "lng": 104.061912
        },
        "ad_info": {
            "adcode": 620423,
            "province": "甘肃省",
            "city": "白银市",
            "district": "景泰县"
        }
    },
    {
        "id": "8340591086300665791",
        "title": "公共厕所",
        "address": "甘肃省白银市平川区中国石油响泉加油站(世纪大道北)",
        "tel": "",
        "category": "基础设施:公共设施:公共厕所",
        "type": 0,
        "location": {
            "lat": 36.738414,
            "lng": 104.791958
        },
        "ad_info": {
            "adcode": 620403,
            "province": "甘肃省",
            "city": "白银市",
            "district": "平川区"
        }
    },
    {
        "id": "15671435723046028209",
        "title": "公共厕所",
        "address": "甘肃省白银市平川区世纪大道与向阳路交叉口正东方向201米左右",
        "tel": "",
        "category": "基础设施:公共设施:公共厕所",
        "type": 0,
        "location": {
            "lat": 36.736113,
            "lng": 104.79436
        },
        "ad_info": {
            "adcode": 620403,
            "province": "甘肃省",
            "city": "白银市",
            "district": "平川区"
        }
    },
    {
        "id": "12989062057136403713",
        "title": "公共厕所",
        "address": "甘肃省白银市景泰县北大路与泰玉路交叉口正西方向1247米左右",
        "tel": "",
        "category": "基础设施:公共设施:公共厕所",
        "type": 0,
        "location": {
            "lat": 37.200284,
            "lng": 104.043777
        },
        "ad_info": {
            "adcode": 620423,
            "province": "甘肃省",
            "city": "白银市",
            "district": "景泰县"
        }
    },
    {
        "id": "17591830408032033447",
        "title": "公共厕所",
        "address": "甘肃省白银市会宁县会师北路与文昌路交叉口正南方向48米左右",
        "tel": "",
        "category": "基础设施:公共设施:公共厕所",
        "type": 0,
        "location": {
            "lat": 35.69844,
            "lng": 105.043448
        },
        "ad_info": {
            "adcode": 620422,
            "province": "甘肃省",
            "city": "白银市",
            "district": "会宁县"
        }
    },
    {
        "id": "12019848471993843601",
        "title": "公共厕所",
        "address": "甘肃省白银市景泰县S101与S217交叉口正北方向1199米左右",
        "tel": "",
        "category": "基础设施:公共设施:公共厕所",
        "type": 0,
        "location": {
            "lat": 36.998392,
            "lng": 104.039228
        },
        "ad_info": {
            "adcode": 620423,
            "province": "甘肃省",
            "city": "白银市",
            "district": "景泰县"
        }
    },
    {
        "id": "6634631463467626350",
        "title": "公共厕所",
        "address": "甘肃省白银市景泰县永泰路人民公园内人工湖旁边",
        "tel": "",
        "category": "基础设施:公共设施:公共厕所",
        "type": 0,
        "location": {
            "lat": 37.188766,
            "lng": 104.070688
        },
        "ad_info": {
            "adcode": 620423,
            "province": "甘肃省",
            "city": "白银市",
            "district": "景泰县"
        }
    },
    {
        "id": "13635040869422121470",
        "title": "公共厕所",
        "address": "甘肃省白银市平川区大桥路与长征东路交叉口西北方向78米左右",
        "tel": "",
        "category": "基础设施:公共设施:公共厕所",
        "type": 0,
        "location": {
            "lat": 36.723025,
            "lng": 104.846954
        },
        "ad_info": {
            "adcode": 620403,
            "province": "甘肃省",
            "city": "白银市",
            "district": "平川区"
        }
    },
    {
        "id": "5616050710753862002",
        "title": "公共厕所",
        "address": "甘肃省白银市平川区水泉镇野麻村服务中心旅游厕所",
        "tel": "",
        "category": "基础设施:公共设施:公共厕所",
        "type": 0,
        "location": {
            "lat": 36.855679,
            "lng": 104.520803
        },
        "ad_info": {
            "adcode": 620403,
            "province": "甘肃省",
            "city": "白银市",
            "district": "平川区"
        }
    },
    {
        "id": "5769901786791856756",
        "title": "公共厕所",
        "address": "甘肃省白银市会宁县文化路与滨河东路交叉口东北方向108米左右",
        "tel": "",
        "category": "基础设施:公共设施:公共厕所",
        "type": 0,
        "location": {
            "lat": 35.70422,
            "lng": 105.03719
        },
        "ad_info": {
            "adcode": 620422,
            "province": "甘肃省",
            "city": "白银市",
            "district": "会宁县"
        }
    },
    {
        "id": "14268623492721019658",
        "title": "公共厕所",
        "address": "甘肃省白银市平川区G341与X333交叉口正西方向1628米左右",
        "tel": "",
        "category": "基础设施:公共设施:公共厕所",
        "type": 0,
        "location": {
            "lat": 36.631499,
            "lng": 105.167272
        },
        "ad_info": {
            "adcode": 620403,
            "province": "甘肃省",
            "city": "白银市",
            "district": "平川区"
        }
    },
    {
        "id": "3713468275732206844",
        "title": "公共厕所",
        "address": "甘肃省白银市平川区向阳路与爱心路交叉口东北方向27米左右",
        "tel": "",
        "category": "基础设施:公共设施:公共厕所",
        "type": 0,
        "location": {
            "lat": 36.734084,
            "lng": 104.817373
        },
        "ad_info": {
            "adcode": 620403,
            "province": "甘肃省",
            "city": "白银市",
            "district": "平川区"
        }
    },
    {
        "id": "445252559474790961",
        "title": "公共厕所",
        "address": "甘肃省白银市景泰县中泉路与永泰路交叉口西北方向19米左右",
        "tel": "",
        "category": "基础设施:公共设施:公共厕所",
        "type": 0,
        "location": {
            "lat": 37.190745,
            "lng": 104.069062
        },
        "ad_info": {
            "adcode": 620423,
            "province": "甘肃省",
            "city": "白银市",
            "district": "景泰县"
        }
    },
    {
        "id": "5124938490768282899",
        "title": "公共厕所",
        "address": "甘肃省白银市景泰县振兴路与条山街交叉口东南方向34米左右",
        "tel": "",
        "category": "基础设施:公共设施:公共厕所",
        "type": 0,
        "location": {
            "lat": 37.181039,
            "lng": 104.066262
        },
        "ad_info": {
            "adcode": 620423,
            "province": "甘肃省",
            "city": "白银市",
            "district": "景泰县"
        }
    },
    {
        "id": "14582545671935503101",
        "title": "公共厕所",
        "address": "甘肃省白银市平川区广场路平川区人民广场内",
        "tel": "",
        "category": "基础设施:公共设施:公共厕所",
        "type": 0,
        "location": {
            "lat": 36.728533,
            "lng": 104.810505
        },
        "ad_info": {
            "adcode": 620403,
            "province": "甘肃省",
            "city": "白银市",
            "district": "平川区"
        }
    },
    {
        "id": "17889108666840871257",
        "title": "公共厕所",
        "address": "甘肃省白银市景泰县条山农庄自驾游营地",
        "tel": "",
        "category": "基础设施:公共设施:公共厕所",
        "type": 0,
        "location": {
            "lat": 37.186995,
            "lng": 104.00756
        },
        "ad_info": {
            "adcode": 620423,
            "province": "甘肃省",
            "city": "白银市",
            "district": "景泰县"
        }
    },
    {
        "id": "16407681264764589971",
        "title": "公共厕所",
        "address": "甘肃省白银市景泰县S217与下穿包兰铁路桥交叉口正东方向794米左右",
        "tel": "",
        "category": "基础设施:公共设施:公共厕所",
        "type": 0,
        "location": {
            "lat": 36.907823,
            "lng": 104.13014
        },
        "ad_info": {
            "adcode": 620423,
            "province": "甘肃省",
            "city": "白银市",
            "district": "景泰县"
        }
    },
    {
        "id": "740897710796362432",
        "title": "公共厕所",
        "address": "甘肃省白银市景泰县宏泰步行街与寿鹿街交叉口正西方向33米左右",
        "tel": "",
        "category": "基础设施:公共设施:公共厕所",
        "type": 0,
        "location": {
            "lat": 37.192951,
            "lng": 104.061437
        },
        "ad_info": {
            "adcode": 620423,
            "province": "甘肃省",
            "city": "白银市",
            "district": "景泰县"
        }
    },
    {
        "id": "8519455818940141913",
        "title": "公共厕所",
        "address": "甘肃省白银市会宁县S209与会州南路交叉口东北方向28米左右",
        "tel": "",
        "category": "基础设施:公共设施:公共厕所",
        "type": 0,
        "location": {
            "lat": 36.229717,
            "lng": 104.889023
        },
        "ad_info": {
            "adcode": 620422,
            "province": "甘肃省",
            "city": "白银市",
            "district": "会宁县"
        }
    },
    {
        "id": "3530093835234931537",
        "title": "公共厕所",
        "address": "甘肃省白银市会宁县兴河路与北大街交叉口正南方向403米左右",
        "tel": "",
        "category": "基础设施:公共设施:公共厕所",
        "type": 0,
        "location": {
            "lat": 36.120337,
            "lng": 104.966429
        },
        "ad_info": {
            "adcode": 620422,
            "province": "甘肃省",
            "city": "白银市",
            "district": "会宁县"
        }
    },
    {
        "id": "11561691061613386572",
        "title": "公共厕所",
        "address": "甘肃省白银市平川区308省道北50米",
        "tel": "",
        "category": "基础设施:公共设施:公共厕所",
        "type": 0,
        "location": {
            "lat": 36.640219,
            "lng": 105.074117
        },
        "ad_info": {
            "adcode": 620403,
            "province": "甘肃省",
            "city": "白银市",
            "district": "平川区"
        }
    },
    {
        "id": "11244191250998753023",
        "title": "公共厕所",
        "address": "甘肃省白银市平川区平川尚文坊文化一条街与长征西路交叉口西南方向157米左右",
        "tel": "",
        "category": "基础设施:公共设施:公共厕所",
        "type": 0,
        "location": {
            "lat": 36.729574,
            "lng": 104.807715
        },
        "ad_info": {
            "adcode": 620403,
            "province": "甘肃省",
            "city": "白银市",
            "district": "平川区"
        }
    },
    {
        "id": "9212533451066957458",
        "title": "公共厕所",
        "address": "甘肃省白银市平川区复兴路与环湖东路交叉口正北方向19米左右",
        "tel": "",
        "category": "基础设施:公共设施:公共厕所",
        "type": 0,
        "location": {
            "lat": 36.72555,
            "lng": 104.800298
        },
        "ad_info": {
            "adcode": 620403,
            "province": "甘肃省",
            "city": "白银市",
            "district": "平川区"
        }
    },
    {
        "id": "11180329661506930910",
        "title": "公共厕所",
        "address": "甘肃省白银市平川区广场路与黄峤路交叉口正西方向274米左右",
        "tel": "",
        "category": "基础设施:公共设施:公共厕所",
        "type": 0,
        "location": {
            "lat": 36.728485,
            "lng": 104.806077
        },
        "ad_info": {
            "adcode": 620403,
            "province": "甘肃省",
            "city": "白银市",
            "district": "平川区"
        }
    },
    {
        "id": "9404690170935126978",
        "title": "公共厕所",
        "address": "甘肃省白银市会宁县文星街与通宁街交叉口西北方向289米左右",
        "tel": "",
        "category": "基础设施:公共设施:公共厕所",
        "type": 0,
        "location": {
            "lat": 35.691066,
            "lng": 105.058033
        },
        "ad_info": {
            "adcode": 620422,
            "province": "甘肃省",
            "city": "白银市",
            "district": "会宁县"
        }
    },
    {
        "id": "8590285964778405986",
        "title": "公共厕所",
        "address": "甘肃省白银市平川区G341与X333交叉口西北方向304米左右",
        "tel": "",
        "category": "基础设施:公共设施:公共厕所",
        "type": 0,
        "location": {
            "lat": 36.631147,
            "lng": 105.182762
        },
        "ad_info": {
            "adcode": 620403,
            "province": "甘肃省",
            "city": "白银市",
            "district": "平川区"
        }
    },
    {
        "id": "13816298491701903314",
        "title": "公共厕所",
        "address": "甘肃省白银市平川区种田北路与长征西路交叉口东北方向45米左右",
        "tel": "",
        "category": "基础设施:公共设施:公共厕所",
        "type": 0,
        "location": {
            "lat": 36.73014,
            "lng": 104.814364
        },
        "ad_info": {
            "adcode": 620403,
            "province": "甘肃省",
            "city": "白银市",
            "district": "平川区"
        }
    },
    {
        "id": "9192153925328585730",
        "title": "公共厕所",
        "address": "甘肃省白银市平川区王家山镇幼儿园附近",
        "tel": "",
        "category": "基础设施:公共设施:公共厕所",
        "type": 0,
        "location": {
            "lat": 36.898837,
            "lng": 104.828303
        },
        "ad_info": {
            "adcode": 620403,
            "province": "甘肃省",
            "city": "白银市",
            "district": "平川区"
        }
    },
    {
        "id": "3371143896652843547",
        "title": "公共厕所",
        "address": "甘肃省白银市会宁县新添堡回族乡中心小学西侧",
        "tel": "",
        "category": "基础设施:公共设施:公共厕所",
        "type": 0,
        "location": {
            "lat": 35.589731,
            "lng": 105.138877
        },
        "ad_info": {
            "adcode": 620422,
            "province": "甘肃省",
            "city": "白银市",
            "district": "会宁县"
        }
    },
    {
        "id": "12563050379455550561",
        "title": "公共厕所",
        "address": "甘肃省白银市平川区兴平路街道向阳路52号",
        "tel": "",
        "category": "基础设施:公共设施:公共厕所",
        "type": 0,
        "location": {
            "lat": 36.733343,
            "lng": 104.821301
        },
        "ad_info": {
            "adcode": 620403,
            "province": "甘肃省",
            "city": "白银市",
            "district": "平川区"
        }
    },
    {
        "id": "9414268979788874887",
        "title": "公共厕所",
        "address": "甘肃省白银市会宁县瑞金路与长征南路交叉口正东方向51米左右",
        "tel": "",
        "category": "基础设施:公共设施:公共厕所",
        "type": 0,
        "location": {
            "lat": 35.682007,
            "lng": 105.063033
        },
        "ad_info": {
            "adcode": 620422,
            "province": "甘肃省",
            "city": "白银市",
            "district": "会宁县"
        }
    },
    {
        "id": "390450763749166047",
        "title": "公共厕所",
        "address": "甘肃省白银市景泰县G338与Y488交叉口正东方向190米左右",
        "tel": "",
        "category": "基础设施:公共设施:公共厕所",
        "type": 0,
        "location": {
            "lat": 37.169115,
            "lng": 104.06288
        },
        "ad_info": {
            "adcode": 620423,
            "province": "甘肃省",
            "city": "白银市",
            "district": "景泰县"
        }
    },
    {
        "id": "2079566154454229314",
        "title": "公共厕所",
        "address": "甘肃省白银市会宁县兴河路与北大街交叉口正南方向428米左右",
        "tel": "",
        "category": "基础设施:公共设施:公共厕所",
        "type": 0,
        "location": {
            "lat": 36.120406,
            "lng": 104.968153
        },
        "ad_info": {
            "adcode": 620422,
            "province": "甘肃省",
            "city": "白银市",
            "district": "会宁县"
        }
    },
    {
        "id": "7743249348319855154",
        "title": "公共厕所",
        "address": "甘肃省白银市会宁县天津路与振兴路交叉口正北方向70米左右",
        "tel": "",
        "category": "基础设施:公共设施:公共厕所",
        "type": 0,
        "location": {
            "lat": 35.983249,
            "lng": 105.017782
        },
        "ad_info": {
            "adcode": 620422,
            "province": "甘肃省",
            "city": "白银市",
            "district": "会宁县"
        }
    },
    {
        "id": "14519140580888469254",
        "title": "公共厕所",
        "address": "甘肃省白银市平川区水泉镇小黄湾村村口旅游厕所",
        "tel": "",
        "category": "基础设施:公共设施:公共厕所",
        "type": 0,
        "location": {
            "lat": 36.79832,
            "lng": 104.596539
        },
        "ad_info": {
            "adcode": 620403,
            "province": "甘肃省",
            "city": "白银市",
            "district": "平川区"
        }
    },
    {
        "id": "2368405496722144234",
        "title": "公共厕所",
        "address": "甘肃省白银市会宁县中国石油会宁国道加油站东侧60米",
        "tel": "",
        "category": "基础设施:公共设施:公共厕所",
        "type": 0,
        "location": {
            "lat": 35.697169,
            "lng": 105.156571
        },
        "ad_info": {
            "adcode": 620422,
            "province": "甘肃省",
            "city": "白银市",
            "district": "会宁县"
        }
    },
    {
        "id": "1246771848257687316",
        "title": "公共厕所",
        "address": "甘肃省白银市会宁县文昌路与长征中路交叉口正北方向127米左右",
        "tel": "",
        "category": "基础设施:公共设施:公共厕所",
        "type": 0,
        "location": {
            "lat": 35.703657,
            "lng": 105.047966
        },
        "ad_info": {
            "adcode": 620422,
            "province": "甘肃省",
            "city": "白银市",
            "district": "会宁县"
        }
    },
    {
        "id": "8595707758365776884",
        "title": "公共厕所",
        "address": "甘肃省白银市景泰县车站路与长城路交叉口东北方向211米左右",
        "tel": "",
        "category": "基础设施:公共设施:公共厕所",
        "type": 0,
        "location": {
            "lat": 37.188818,
            "lng": 104.055602
        },
        "ad_info": {
            "adcode": 620423,
            "province": "甘肃省",
            "city": "白银市",
            "district": "景泰县"
        }
    },
    {
        "id": "16397710178407872459",
        "title": "公共厕所",
        "address": "甘肃省白银市景泰县水上乐园附近",
        "tel": "",
        "category": "基础设施:公共设施:公共厕所",
        "type": 0,
        "location": {
            "lat": 36.899341,
            "lng": 104.322788
        },
        "ad_info": {
            "adcode": 620423,
            "province": "甘肃省",
            "city": "白银市",
            "district": "景泰县"
        }
    },
    {
        "id": "8309936495469652217",
        "title": "公共厕所",
        "address": "甘肃省白银市景泰县201省道西50米",
        "tel": "",
        "category": "基础设施:公共设施:公共厕所",
        "type": 0,
        "location": {
            "lat": 37.289609,
            "lng": 104.112904
        },
        "ad_info": {
            "adcode": 620423,
            "province": "甘肃省",
            "city": "白银市",
            "district": "景泰县"
        }
    },
    {
        "id": "12780567554493646217",
        "title": "公共厕所",
        "address": "甘肃省白银市景泰县甘肃莱蒂琴丝服装服饰有限公司东南侧270米",
        "tel": "",
        "category": "基础设施:公共设施:公共厕所",
        "type": 0,
        "location": {
            "lat": 37.166803,
            "lng": 104.292608
        },
        "ad_info": {
            "adcode": 620423,
            "province": "甘肃省",
            "city": "白银市",
            "district": "景泰县"
        }
    },
    {
        "id": "6891757044969720317",
        "title": "公共厕所",
        "address": "甘肃省白银市会宁县G247与G309交叉口东北方向140米左右",
        "tel": "",
        "category": "基础设施:公共设施:公共厕所",
        "type": 0,
        "location": {
            "lat": 35.971965,
            "lng": 105.022497
        },
        "ad_info": {
            "adcode": 620422,
            "province": "甘肃省",
            "city": "白银市",
            "district": "会宁县"
        }
    },
    {
        "id": "13955865744391532067",
        "title": "公共厕所",
        "address": "甘肃省白银市会宁县会师南路与延安街交叉口西北方向104米左右",
        "tel": "",
        "category": "基础设施:公共设施:公共厕所",
        "type": 0,
        "location": {
            "lat": 35.692608,
            "lng": 105.051803
        },
        "ad_info": {
            "adcode": 620422,
            "province": "甘肃省",
            "city": "白银市",
            "district": "会宁县"
        }
    },
    {
        "id": "12399543830989668219",
        "title": "公共厕所",
        "address": "甘肃省白银市会宁县砚台路与长征中路交叉口东南方向105米左右",
        "tel": "",
        "category": "基础设施:公共设施:公共厕所",
        "type": 0,
        "location": {
            "lat": 35.698785,
            "lng": 105.052404
        },
        "ad_info": {
            "adcode": 620422,
            "province": "甘肃省",
            "city": "白银市",
            "district": "会宁县"
        }
    },
    {
        "id": "5960934115252201948",
        "title": "公共厕所",
        "address": "甘肃省白银市会宁县北关东路与新时代商业街交叉口西南方向160米左右",
        "tel": "",
        "category": "基础设施:公共设施:公共厕所",
        "type": 0,
        "location": {
            "lat": 35.695886,
            "lng": 105.051169
        },
        "ad_info": {
            "adcode": 620422,
            "province": "甘肃省",
            "city": "白银市",
            "district": "会宁县"
        }
    },
    {
        "id": "10573096142657969714",
        "title": "公共厕所",
        "address": "甘肃省白银市会宁县枝阳街与红军北路交叉口东南方向73米左右",
        "tel": "",
        "category": "基础设施:公共设施:公共厕所",
        "type": 0,
        "location": {
            "lat": 35.694181,
            "lng": 105.053251
        },
        "ad_info": {
            "adcode": 620422,
            "province": "甘肃省",
            "city": "白银市",
            "district": "会宁县"
        }
    },
    {
        "id": "17211310208018237963",
        "title": "白银东服务区公共厕所",
        "address": "甘肃省白银市白银区产业路与清河大道交叉口西南方向630米左右",
        "tel": "",
        "category": "基础设施:公共设施:公共厕所",
        "type": 0,
        "location": {
            "lat": 36.540033,
            "lng": 104.25787
        },
        "ad_info": {
            "adcode": 620402,
            "province": "甘肃省",
            "city": "白银市",
            "district": "白银区"
        }
    },
    {
        "id": "1677681496927124704",
        "title": "无障碍公共厕所",
        "address": "甘肃省白银市白银区人民路与长通路交叉口西南方向20米左右",
        "tel": "",
        "category": "基础设施:公共设施:公共厕所",
        "type": 0,
        "location": {
            "lat": 36.551593,
            "lng": 104.172402
        },
        "ad_info": {
            "adcode": 620402,
            "province": "甘肃省",
            "city": "白银市",
            "district": "白银区"
        }
    },
    {
        "id": "11890229558342160475",
        "title": "无障碍公共厕所",
        "address": "甘肃省白银市白银区嘉垣步行街与文化路交叉口东北方向94米左右",
        "tel": "",
        "category": "基础设施:公共设施:公共厕所",
        "type": 0,
        "location": {
            "lat": 36.546153,
            "lng": 104.179275
        },
        "ad_info": {
            "adcode": 620402,
            "province": "甘肃省",
            "city": "白银市",
            "district": "白银区"
        }
    },
    {
        "id": "10921056148203769857",
        "title": "公共厕所",
        "address": "甘肃省白银市会宁县第三中学东侧290米",
        "tel": "",
        "category": "基础设施:公共设施:公共厕所",
        "type": 0,
        "location": {
            "lat": 36.12074,
            "lng": 104.966402
        },
        "ad_info": {
            "adcode": 620422,
            "province": "甘肃省",
            "city": "白银市",
            "district": "会宁县"
        }
    },
    {
        "id": "6585475093327596928",
        "title": "白银区旅游公共厕所",
        "address": "甘肃省白银市白银区水川大坪凤园花海",
        "tel": "",
        "category": "基础设施:公共设施:公共厕所",
        "type": 0,
        "location": {
            "lat": 36.393579,
            "lng": 104.284091
        },
        "ad_info": {
            "adcode": 620402,
            "province": "甘肃省",
            "city": "白银市",
            "district": "白银区"
        }
    },
    {
        "id": "11039577657341236232",
        "title": "公共厕所",
        "address": "甘肃省白银市会宁县G22(青兰高速)",
        "tel": "",
        "category": "基础设施:公共设施:公共厕所",
        "type": 0,
        "location": {
            "lat": 35.706015,
            "lng": 105.35963
        },
        "ad_info": {
            "adcode": 620422,
            "province": "甘肃省",
            "city": "白银市",
            "district": "会宁县"
        }
    },
    {
        "id": "9180029188547567452",
        "title": "公共厕所",
        "address": "甘肃省白银市会宁县G247与G309交叉口正北方向157米左右",
        "tel": "",
        "category": "基础设施:公共设施:公共厕所",
        "type": 0,
        "location": {
            "lat": 35.972274,
            "lng": 105.021934
        },
        "ad_info": {
            "adcode": 620422,
            "province": "甘肃省",
            "city": "白银市",
            "district": "会宁县"
        }
    },
    {
        "id": "2649659806677662467",
        "title": "公共厕所",
        "address": "甘肃省白银市会宁县S526与X341交叉口正南方向462米左右",
        "tel": "",
        "category": "基础设施:公共设施:公共厕所",
        "type": 0,
        "location": {
            "lat": 35.527034,
            "lng": 105.306196
        },
        "ad_info": {
            "adcode": 620422,
            "province": "甘肃省",
            "city": "白银市",
            "district": "会宁县"
        }
    },
    {
        "id": "219409673859488066",
        "title": "新墩服务区公共厕所",
        "address": "甘肃省白银市靖远县G6京藏高速与新墩服务区交叉口西320米",
        "tel": "",
        "category": "基础设施:公共设施:公共厕所",
        "type": 0,
        "location": {
            "lat": 36.75434,
            "lng": 104.745937
        },
        "ad_info": {
            "adcode": 620421,
            "province": "甘肃省",
            "city": "白银市",
            "district": "靖远县"
        }
    },
    {
        "id": "9107361232592645276",
        "title": "新墩服务区公共厕所",
        "address": "甘肃省白银市靖远县京藏高速新墩服务区",
        "tel": "",
        "category": "基础设施:公共设施:公共厕所",
        "type": 0,
        "location": {
            "lat": 36.752928,
            "lng": 104.745974
        },
        "ad_info": {
            "adcode": 620421,
            "province": "甘肃省",
            "city": "白银市",
            "district": "靖远县"
        }
    },
    {
        "id": "12315749170879296418",
        "title": "景泰服务区公共厕所",
        "address": "甘肃省白银市景泰县定武高速",
        "tel": "",
        "category": "基础设施:公共设施:公共厕所",
        "type": 0,
        "location": {
            "lat": 37.219572,
            "lng": 103.920003
        },
        "ad_info": {
            "adcode": 620423,
            "province": "甘肃省",
            "city": "白银市",
            "district": "景泰县"
        }
    },
    {
        "id": "1444370780940300295",
        "title": "喜泉服务区公共厕所",
        "address": "甘肃省白银市景泰县乌玛高速",
        "tel": "",
        "category": "基础设施:公共设施:公共厕所",
        "type": 0,
        "location": {
            "lat": 37.087297,
            "lng": 104.068049
        },
        "ad_info": {
            "adcode": 620423,
            "province": "甘肃省",
            "city": "白银市",
            "district": "景泰县"
        }
    },
    {
        "id": "5493842101222335931",
        "title": "会宁服务区公共厕所",
        "address": "甘肃省白银市会宁县会师大道与电子路交叉口正南方向319米左右",
        "tel": "",
        "category": "基础设施:公共设施:公共厕所",
        "type": 0,
        "location": {
            "lat": 35.725272,
            "lng": 104.989637
        },
        "ad_info": {
            "adcode": 620422,
            "province": "甘肃省",
            "city": "白银市",
            "district": "会宁县"
        }
    },
    {
        "id": "4874164358065144435",
        "title": "公共厕所",
        "address": "甘肃省白银市会宁县东山街与延安街交叉口西北方向98米左右",
        "tel": "",
        "category": "基础设施:公共设施:公共厕所",
        "type": 0,
        "location": {
            "lat": 35.695178,
            "lng": 105.055388
        },
        "ad_info": {
            "adcode": 620422,
            "province": "甘肃省",
            "city": "白银市",
            "district": "会宁县"
        }
    },
    {
        "id": "11278580506731467238",
        "title": "喜泉服务区公共厕所",
        "address": "甘肃省白银市景泰县中国石油公航旅集团喜泉服务区加油站东侧210米",
        "tel": "",
        "category": "基础设施:公共设施:公共厕所",
        "type": 0,
        "location": {
            "lat": 37.085122,
            "lng": 104.069044
        },
        "ad_info": {
            "adcode": 620423,
            "province": "甘肃省",
            "city": "白银市",
            "district": "景泰县"
        }
    },
    {
        "id": "10597447828216368607",
        "title": "白银东服务区公共厕所",
        "address": "甘肃省白银市白银区产业路与清河大道交叉口西南方向650米左右",
        "tel": "",
        "category": "基础设施:公共设施:公共厕所",
        "type": 0,
        "location": {
            "lat": 36.540109,
            "lng": 104.257582
        },
        "ad_info": {
            "adcode": 620402,
            "province": "甘肃省",
            "city": "白银市",
            "district": "白银区"
        }
    },
    {
        "id": "10538857943349304871",
        "title": "景泰服务区公共厕所",
        "address": "甘肃省白银市景泰县定武高速",
        "tel": "",
        "category": "基础设施:公共设施:公共厕所",
        "type": 0,
        "location": {
            "lat": 37.221668,
            "lng": 103.919879
        },
        "ad_info": {
            "adcode": 620423,
            "province": "甘肃省",
            "city": "白银市",
            "district": "景泰县"
        }
    },
    {
        "id": "161148277542805492",
        "title": "白银东服务区公共厕所",
        "address": "甘肃省白银市白银区白银东服务区与G6京藏高速交叉口西南180米",
        "tel": "",
        "category": "基础设施:公共设施:公共厕所",
        "type": 0,
        "location": {
            "lat": 36.539482,
            "lng": 104.262652
        },
        "ad_info": {
            "adcode": 620402,
            "province": "甘肃省",
            "city": "白银市",
            "district": "白银区"
        }
    },
    {
        "id": "9795344280720137238",
        "title": "会宁服务区公共厕所",
        "address": "甘肃省白银市会宁县G22青兰高速与会宁服务区交叉口西北320米",
        "tel": "",
        "category": "基础设施:公共设施:公共厕所",
        "type": 0,
        "location": {
            "lat": 35.725785,
            "lng": 104.991873
        },
        "ad_info": {
            "adcode": 620422,
            "province": "甘肃省",
            "city": "白银市",
            "district": "会宁县"
        }
    },
    {
        "id": "854294607161740760",
        "title": "公共厕所",
        "address": "甘肃省白银市平川区育才街与长征东路交叉口正西方向76米左右",
        "tel": "",
        "category": "基础设施:公共设施:公共厕所",
        "type": 0,
        "location": {
            "lat": 36.727962,
            "lng": 104.821412
        },
        "ad_info": {
            "adcode": 620403,
            "province": "甘肃省",
            "city": "白银市",
            "district": "平川区"
        }
    },
    {
        "id": "14581370767899490233",
        "title": "公共厕所",
        "address": "甘肃省白银市靖远县电力路与黄河路交叉口正西方向75米左右",
        "tel": "",
        "category": "基础设施:公共设施:公共厕所",
        "type": 0,
        "location": {
            "lat": 36.722313,
            "lng": 104.768576
        },
        "ad_info": {
            "adcode": 620421,
            "province": "甘肃省",
            "city": "白银市",
            "district": "靖远县"
        }
    },
    {
        "id": "2642896281684676498",
        "title": "公共厕所",
        "address": "甘肃省白银市白银区S217与北环路交叉口正南方向178米左右",
        "tel": "",
        "category": "基础设施:公共设施:公共厕所",
        "type": 0,
        "location": {
            "lat": 36.562308,
            "lng": 104.162175
        },
        "ad_info": {
            "adcode": 620402,
            "province": "甘肃省",
            "city": "白银市",
            "district": "白银区"
        }
    },
    {
        "id": "16637665889076246308",
        "title": "公共厕所",
        "address": "甘肃省白银市会宁县长征中路与文星街交叉口北220米",
        "tel": "",
        "category": "基础设施:公共设施:公共厕所",
        "type": 0,
        "location": {
            "lat": 35.690831,
            "lng": 105.059383
        },
        "ad_info": {
            "adcode": 620422,
            "province": "甘肃省",
            "city": "白银市",
            "district": "会宁县"
        }
    },
    {
        "id": "2606678610339760970",
        "title": "公共厕所",
        "address": "甘肃省白银市会宁县会师北路与会师南路交叉口西北方向195米左右",
        "tel": "",
        "category": "基础设施:公共设施:公共厕所",
        "type": 0,
        "location": {
            "lat": 35.695102,
            "lng": 105.049406
        },
        "ad_info": {
            "adcode": 620422,
            "province": "甘肃省",
            "city": "白银市",
            "district": "会宁县"
        }
    },
    {
        "id": "7513752622433323573",
        "title": "公共厕所",
        "address": "甘肃省白银市白银区崇德巷与红星路交叉口正北方向154米左右",
        "tel": "",
        "category": "基础设施:公共设施:公共厕所",
        "type": 0,
        "location": {
            "lat": 36.545113,
            "lng": 104.180798
        },
        "ad_info": {
            "adcode": 620402,
            "province": "甘肃省",
            "city": "白银市",
            "district": "白银区"
        }
    },
    {
        "id": "16442810059240417091",
        "title": "公共厕所",
        "address": "甘肃省白银市景泰县寿鹿街与条山路交叉口正西方向64米左右",
        "tel": "",
        "category": "基础设施:公共设施:公共厕所",
        "type": 0,
        "location": {
            "lat": 37.193016,
            "lng": 104.064831
        },
        "ad_info": {
            "adcode": 620423,
            "province": "甘肃省",
            "city": "白银市",
            "district": "景泰县"
        }
    },
    {
        "id": "15126124821232578143",
        "title": "公共厕所",
        "address": "甘肃省白银市平川区京藏高速附近",
        "tel": "",
        "category": "基础设施:公共设施:公共厕所",
        "type": 0,
        "location": {
            "lat": 36.902979,
            "lng": 104.82406
        },
        "ad_info": {
            "adcode": 620403,
            "province": "甘肃省",
            "city": "白银市",
            "district": "平川区"
        }
    },
    {
        "id": "11523942305623185814",
        "title": "公共厕所",
        "address": "甘肃省白银市平川区G109",
        "tel": "",
        "category": "基础设施:公共设施:公共厕所",
        "type": 0,
        "location": {
            "lat": 36.915444,
            "lng": 104.804728
        },
        "ad_info": {
            "adcode": 620403,
            "province": "甘肃省",
            "city": "白银市",
            "district": "平川区"
        }
    },
    {
        "id": "3529897604840634382",
        "title": "旅游厕所",
        "address": "甘肃省白银市会宁县侯川镇坪子齐靳文化广场北",
        "tel": "",
        "category": "基础设施:公共设施:公共厕所",
        "type": 0,
        "location": {
            "lat": 35.484618,
            "lng": 105.192978
        },
        "ad_info": {
            "adcode": 620422,
            "province": "甘肃省",
            "city": "白银市",
            "district": "会宁县"
        }
    }
]