[
    {
        "id": "4381987336233260724",
        "title": "公共厕所",
        "address": "广西壮族自治区百色市田阳区广场二路与解放西路三巷交叉口正西方向24米左右",
        "tel": "",
        "category": "基础设施:公共设施:公共厕所",
        "type": 0,
        "location": {
            "lat": 23.736559,
            "lng": 106.905772
        },
        "ad_info": {
            "adcode": 451003,
            "province": "广西壮族自治区",
            "city": "百色市",
            "district": "田阳区"
        }
    },
    {
        "id": "5157426188814635658",
        "title": "公共厕所",
        "address": "广西壮族自治区百色市平果市龙江路与龙江路西四巷交叉口正南方向420米左右",
        "tel": "",
        "category": "基础设施:公共设施:公共厕所",
        "type": 0,
        "location": {
            "lat": 23.316085,
            "lng": 107.565371
        },
        "ad_info": {
            "adcode": 451082,
            "province": "广西壮族自治区",
            "city": "百色市",
            "district": "平果市"
        }
    },
    {
        "id": "7071493133608982534",
        "title": "公共厕所",
        "address": "广西壮族自治区百色市平果市新兴街256-2号",
        "tel": "",
        "category": "基础设施:公共设施:公共厕所",
        "type": 0,
        "location": {
            "lat": 23.317122,
            "lng": 107.586237
        },
        "ad_info": {
            "adcode": 451082,
            "province": "广西壮族自治区",
            "city": "百色市",
            "district": "平果市"
        }
    },
    {
        "id": "17602458330360266638",
        "title": "公共厕所",
        "address": "广西壮族自治区百色市右江区城乡路81号",
        "tel": "",
        "category": "基础设施:公共设施:公共厕所",
        "type": 0,
        "location": {
            "lat": 23.89174,
            "lng": 106.61788
        },
        "ad_info": {
            "adcode": 451002,
            "province": "广西壮族自治区",
            "city": "百色市",
            "district": "右江区"
        }
    },
    {
        "id": "17394420030234832336",
        "title": "公共厕所",
        "address": "广西壮族自治区百色市平果市朝阳一巷与民生街交叉口正南方向86米左右",
        "tel": "",
        "category": "基础设施:公共设施:公共厕所",
        "type": 0,
        "location": {
            "lat": 23.31526,
            "lng": 107.582547
        },
        "ad_info": {
            "adcode": 451082,
            "province": "广西壮族自治区",
            "city": "百色市",
            "district": "平果市"
        }
    },
    {
        "id": "10190527196021950354",
        "title": "公共厕所",
        "address": "广西壮族自治区百色市右江区东州大道辅路与广州西大道辅路交叉口西北240米",
        "tel": "",
        "category": "基础设施:公共设施:公共厕所",
        "type": 0,
        "location": {
            "lat": 23.873971,
            "lng": 106.62259
        },
        "ad_info": {
            "adcode": 451002,
            "province": "广西壮族自治区",
            "city": "百色市",
            "district": "右江区"
        }
    },
    {
        "id": "6650242154500646543",
        "title": "公共厕所",
        "address": "广西壮族自治区百色市田阳区解放西路一巷与解放西路交叉口正东方向62米左右",
        "tel": "",
        "category": "基础设施:公共设施:公共厕所",
        "type": 0,
        "location": {
            "lat": 23.736023,
            "lng": 106.910349
        },
        "ad_info": {
            "adcode": 451003,
            "province": "广西壮族自治区",
            "city": "百色市",
            "district": "田阳区"
        }
    },
    {
        "id": "7070771551088046968",
        "title": "公共厕所",
        "address": "广西壮族自治区百色市田阳区广场一路与解放西路交叉口西南方向144米左右",
        "tel": "",
        "category": "基础设施:公共设施:公共厕所",
        "type": 0,
        "location": {
            "lat": 23.735652,
            "lng": 106.907966
        },
        "ad_info": {
            "adcode": 451003,
            "province": "广西壮族自治区",
            "city": "百色市",
            "district": "田阳区"
        }
    },
    {
        "id": "17908678788184549227",
        "title": "公共厕所",
        "address": "广西壮族自治区百色市右江区东旦路与城乡路交叉口东南方向139米左右",
        "tel": "",
        "category": "基础设施:公共设施:公共厕所",
        "type": 0,
        "location": {
            "lat": 23.883699,
            "lng": 106.610604
        },
        "ad_info": {
            "adcode": 451002,
            "province": "广西壮族自治区",
            "city": "百色市",
            "district": "右江区"
        }
    },
    {
        "id": "10028354840594428781",
        "title": "公共厕所",
        "address": "广西壮族自治区百色市平果市龙明街与龙江路交叉口正南方向38米左右",
        "tel": "",
        "category": "基础设施:公共设施:公共厕所",
        "type": 0,
        "location": {
            "lat": 23.325899,
            "lng": 107.560846
        },
        "ad_info": {
            "adcode": 451082,
            "province": "广西壮族自治区",
            "city": "百色市",
            "district": "平果市"
        }
    },
    {
        "id": "15811813727789004773",
        "title": "公共厕所",
        "address": "广西壮族自治区百色市右江区城东大道与城北路交叉口东南方向147米左右",
        "tel": "",
        "category": "基础设施:公共设施:公共厕所",
        "type": 0,
        "location": {
            "lat": 23.908801,
            "lng": 106.624001
        },
        "ad_info": {
            "adcode": 451002,
            "province": "广西壮族自治区",
            "city": "百色市",
            "district": "右江区"
        }
    },
    {
        "id": "3311177483443173256",
        "title": "公共厕所",
        "address": "广西壮族自治区百色市平果市贝依路与铝城大道交叉口正西方向118米左右",
        "tel": "",
        "category": "基础设施:公共设施:公共厕所",
        "type": 0,
        "location": {
            "lat": 23.330517,
            "lng": 107.582466
        },
        "ad_info": {
            "adcode": 451082,
            "province": "广西壮族自治区",
            "city": "百色市",
            "district": "平果市"
        }
    },
    {
        "id": "9043751592750103837",
        "title": "公共厕所",
        "address": "广西壮族自治区百色市右江区鸿翔路迎龙综合农贸市场",
        "tel": "",
        "category": "基础设施:公共设施:公共厕所",
        "type": 0,
        "location": {
            "lat": 23.884387,
            "lng": 106.657112
        },
        "ad_info": {
            "adcode": 451002,
            "province": "广西壮族自治区",
            "city": "百色市",
            "district": "右江区"
        }
    },
    {
        "id": "10821897401074773725",
        "title": "公共厕所",
        "address": "广西壮族自治区百色市右江区江滨三路与江滨二路交叉口正西方向310米左右",
        "tel": "",
        "category": "基础设施:公共设施:公共厕所",
        "type": 0,
        "location": {
            "lat": 23.880525,
            "lng": 106.601693
        },
        "ad_info": {
            "adcode": 451002,
            "province": "广西壮族自治区",
            "city": "百色市",
            "district": "右江区"
        }
    },
    {
        "id": "15593935581868446394",
        "title": "公共厕所",
        "address": "广西壮族自治区百色市右江区利荷路瑞嘉大酒店",
        "tel": "",
        "category": "基础设施:公共设施:公共厕所",
        "type": 0,
        "location": {
            "lat": 23.887633,
            "lng": 106.634551
        },
        "ad_info": {
            "adcode": 451002,
            "province": "广西壮族自治区",
            "city": "百色市",
            "district": "右江区"
        }
    },
    {
        "id": "9667219360792147048",
        "title": "公共厕所",
        "address": "广西壮族自治区百色市右江区福州街与翔云路交叉口东南方向342米左右",
        "tel": "",
        "category": "基础设施:公共设施:公共厕所",
        "type": 0,
        "location": {
            "lat": 23.878429,
            "lng": 106.661273
        },
        "ad_info": {
            "adcode": 451002,
            "province": "广西壮族自治区",
            "city": "百色市",
            "district": "右江区"
        }
    },
    {
        "id": "5387078209457878734",
        "title": "公共厕所",
        "address": "广西壮族自治区百色市乐业县三乐南路与三乐路交叉口正北方向38米左右",
        "tel": "",
        "category": "基础设施:公共设施:公共厕所",
        "type": 0,
        "location": {
            "lat": 24.780121,
            "lng": 106.559972
        },
        "ad_info": {
            "adcode": 451028,
            "province": "广西壮族自治区",
            "city": "百色市",
            "district": "乐业县"
        }
    },
    {
        "id": "4700804953059438381",
        "title": "公共厕所",
        "address": "广西壮族自治区百色市田阳区323国道北50米",
        "tel": "",
        "category": "基础设施:公共设施:公共厕所",
        "type": 0,
        "location": {
            "lat": 23.986828,
            "lng": 107.126258
        },
        "ad_info": {
            "adcode": 451003,
            "province": "广西壮族自治区",
            "city": "百色市",
            "district": "田阳区"
        }
    },
    {
        "id": "4937510753999079768",
        "title": "公共厕所",
        "address": "广西壮族自治区百色市右江区中山二路21号",
        "tel": "",
        "category": "基础设施:公共设施:公共厕所",
        "type": 0,
        "location": {
            "lat": 23.890714,
            "lng": 106.604866
        },
        "ad_info": {
            "adcode": 451002,
            "province": "广西壮族自治区",
            "city": "百色市",
            "district": "右江区"
        }
    },
    {
        "id": "17939715162505277414",
        "title": "公共厕所",
        "address": "广西壮族自治区百色市右江区升平巷与太平街交叉口东北方向48米左右",
        "tel": "",
        "category": "基础设施:公共设施:公共厕所",
        "type": 0,
        "location": {
            "lat": 23.900058,
            "lng": 106.623115
        },
        "ad_info": {
            "adcode": 451002,
            "province": "广西壮族自治区",
            "city": "百色市",
            "district": "右江区"
        }
    },
    {
        "id": "3811430731443993494",
        "title": "公共厕所",
        "address": "广西壮族自治区百色市隆林各族自治县龙山北路与龙山街交叉口东北方向18米左右",
        "tel": "",
        "category": "基础设施:公共设施:公共厕所",
        "type": 0,
        "location": {
            "lat": 24.780486,
            "lng": 105.345716
        },
        "ad_info": {
            "adcode": 451031,
            "province": "广西壮族自治区",
            "city": "百色市",
            "district": "隆林各族自治县"
        }
    },
    {
        "id": "10127986837154975916",
        "title": "公共厕所",
        "address": "广西壮族自治区百色市右江区中山二路与菜园屯一巷交叉口东南方向26米左右",
        "tel": "",
        "category": "基础设施:公共设施:公共厕所",
        "type": 0,
        "location": {
            "lat": 23.895253,
            "lng": 106.614428
        },
        "ad_info": {
            "adcode": 451002,
            "province": "广西壮族自治区",
            "city": "百色市",
            "district": "右江区"
        }
    },
    {
        "id": "2403113236601898218",
        "title": "公共厕所",
        "address": "广西壮族自治区百色市靖西市民权街与灵泉街交叉口正南方向151米左右",
        "tel": "",
        "category": "基础设施:公共设施:公共厕所",
        "type": 0,
        "location": {
            "lat": 23.130756,
            "lng": 106.416945
        },
        "ad_info": {
            "adcode": 451081,
            "province": "广西壮族自治区",
            "city": "百色市",
            "district": "靖西市"
        }
    },
    {
        "id": "6890361866228939299",
        "title": "公共厕所",
        "address": "广西壮族自治区百色市右江区那毕大道聚宝苑小区",
        "tel": "",
        "category": "基础设施:公共设施:公共厕所",
        "type": 0,
        "location": {
            "lat": 23.889421,
            "lng": 106.63223
        },
        "ad_info": {
            "adcode": 451002,
            "province": "广西壮族自治区",
            "city": "百色市",
            "district": "右江区"
        }
    },
    {
        "id": "14864557942867322720",
        "title": "公共厕所",
        "address": "广西壮族自治区百色市右江区中山一路与城东大道交叉口西南方向54米左右",
        "tel": "",
        "category": "基础设施:公共设施:公共厕所",
        "type": 0,
        "location": {
            "lat": 23.90353,
            "lng": 106.627471
        },
        "ad_info": {
            "adcode": 451002,
            "province": "广西壮族自治区",
            "city": "百色市",
            "district": "右江区"
        }
    },
    {
        "id": "10692540072069794755",
        "title": "公共厕所",
        "address": "广西壮族自治区百色市靖西市学前街与学前路交叉口正北方向50米左右",
        "tel": "",
        "category": "基础设施:公共设施:公共厕所",
        "type": 0,
        "location": {
            "lat": 23.134618,
            "lng": 106.416258
        },
        "ad_info": {
            "adcode": 451081,
            "province": "广西壮族自治区",
            "city": "百色市",
            "district": "靖西市"
        }
    },
    {
        "id": "15437586524893751967",
        "title": "公共厕所",
        "address": "广西壮族自治区百色市右江区城东大道与拉域三路交叉口正西方向154米左右",
        "tel": "",
        "category": "基础设施:公共设施:公共厕所",
        "type": 0,
        "location": {
            "lat": 23.895597,
            "lng": 106.64086
        },
        "ad_info": {
            "adcode": 451002,
            "province": "广西壮族自治区",
            "city": "百色市",
            "district": "右江区"
        }
    },
    {
        "id": "16744433897569763983",
        "title": "公共厕所",
        "address": "广西壮族自治区百色市右江区侨欢巷与侨盛路交叉口西北方向104米左右",
        "tel": "",
        "category": "基础设施:公共设施:公共厕所",
        "type": 0,
        "location": {
            "lat": 23.807577,
            "lng": 106.726679
        },
        "ad_info": {
            "adcode": 451002,
            "province": "广西壮族自治区",
            "city": "百色市",
            "district": "右江区"
        }
    },
    {
        "id": "2921192952687081571",
        "title": "公共厕所",
        "address": "广西壮族自治区百色市平果市工人文化宫东南侧60米",
        "tel": "",
        "category": "基础设施:公共设施:公共厕所",
        "type": 0,
        "location": {
            "lat": 23.337933,
            "lng": 107.525007
        },
        "ad_info": {
            "adcode": 451082,
            "province": "广西壮族自治区",
            "city": "百色市",
            "district": "平果市"
        }
    },
    {
        "id": "12351116176139680107",
        "title": "公共厕所",
        "address": "广西壮族自治区百色市隆林各族自治县滨河二路与迎宾二路交叉口西南方向35米左右",
        "tel": "",
        "category": "基础设施:公共设施:公共厕所",
        "type": 0,
        "location": {
            "lat": 24.77373,
            "lng": 105.35474
        },
        "ad_info": {
            "adcode": 451031,
            "province": "广西壮族自治区",
            "city": "百色市",
            "district": "隆林各族自治县"
        }
    },
    {
        "id": "1243536920774353956",
        "title": "公共厕所",
        "address": "广西壮族自治区百色市右江区太平街与江滨一路交叉口西南方向78米左右",
        "tel": "",
        "category": "基础设施:公共设施:公共厕所",
        "type": 0,
        "location": {
            "lat": 23.896655,
            "lng": 106.625681
        },
        "ad_info": {
            "adcode": 451002,
            "province": "广西壮族自治区",
            "city": "百色市",
            "district": "右江区"
        }
    },
    {
        "id": "5242616281585253492",
        "title": "公共厕所",
        "address": "广西壮族自治区百色市右江区东旦路与江滨二路交叉口正西方向231米左右",
        "tel": "",
        "category": "基础设施:公共设施:公共厕所",
        "type": 0,
        "location": {
            "lat": 23.881141,
            "lng": 106.608795
        },
        "ad_info": {
            "adcode": 451002,
            "province": "广西壮族自治区",
            "city": "百色市",
            "district": "右江区"
        }
    },
    {
        "id": "9063589409108060198",
        "title": "公共厕所",
        "address": "广西壮族自治区百色市右江区玉屏巷百色市水利局",
        "tel": "",
        "category": "基础设施:公共设施:公共厕所",
        "type": 0,
        "location": {
            "lat": 23.901394,
            "lng": 106.613765
        },
        "ad_info": {
            "adcode": 451002,
            "province": "广西壮族自治区",
            "city": "百色市",
            "district": "右江区"
        }
    },
    {
        "id": "13877794316301765847",
        "title": "公共厕所",
        "address": "广西壮族自治区百色市平果市514省道与S52武平高速入口交叉口西140米",
        "tel": "",
        "category": "基础设施:公共设施:公共厕所",
        "type": 0,
        "location": {
            "lat": 23.424385,
            "lng": 107.712212
        },
        "ad_info": {
            "adcode": 451082,
            "province": "广西壮族自治区",
            "city": "百色市",
            "district": "平果市"
        }
    },
    {
        "id": "500977009665662522",
        "title": "公共厕所",
        "address": "广西壮族自治区百色市德保县德盛路北三巷与德盛路交叉口北240米",
        "tel": "",
        "category": "基础设施:公共设施:公共厕所",
        "type": 0,
        "location": {
            "lat": 23.323629,
            "lng": 106.621739
        },
        "ad_info": {
            "adcode": 451024,
            "province": "广西壮族自治区",
            "city": "百色市",
            "district": "德保县"
        }
    },
    {
        "id": "5439767651347903879",
        "title": "公共厕所",
        "address": "广西壮族自治区百色市右江区东州大道与经五路交叉口正东方向212米左右",
        "tel": "",
        "category": "基础设施:公共设施:公共厕所",
        "type": 0,
        "location": {
            "lat": 23.872201,
            "lng": 106.634523
        },
        "ad_info": {
            "adcode": 451002,
            "province": "广西壮族自治区",
            "city": "百色市",
            "district": "右江区"
        }
    },
    {
        "id": "6753057984012491115",
        "title": "公共厕所",
        "address": "广西壮族自治区百色市平果市上马头街与龙明街交叉口正北方向26米左右",
        "tel": "",
        "category": "基础设施:公共设施:公共厕所",
        "type": 0,
        "location": {
            "lat": 23.327959,
            "lng": 107.566135
        },
        "ad_info": {
            "adcode": 451082,
            "province": "广西壮族自治区",
            "city": "百色市",
            "district": "平果市"
        }
    },
    {
        "id": "9305778731560826450",
        "title": "公共厕所",
        "address": "广西壮族自治区百色市右江区江滨一路a3号",
        "tel": "",
        "category": "基础设施:公共设施:公共厕所",
        "type": 0,
        "location": {
            "lat": 23.899897,
            "lng": 106.628232
        },
        "ad_info": {
            "adcode": 451002,
            "province": "广西壮族自治区",
            "city": "百色市",
            "district": "右江区"
        }
    },
    {
        "id": "12712778528999880164",
        "title": "公共厕所",
        "address": "广西壮族自治区百色市右江区江滨二路与西园路交叉口西南方向214米左右",
        "tel": "",
        "category": "基础设施:公共设施:公共厕所",
        "type": 0,
        "location": {
            "lat": 23.887825,
            "lng": 106.620223
        },
        "ad_info": {
            "adcode": 451002,
            "province": "广西壮族自治区",
            "city": "百色市",
            "district": "右江区"
        }
    },
    {
        "id": "1974219465410400000",
        "title": "公共厕所",
        "address": "广西壮族自治区百色市右江区崇贤巷与新兴路交叉口东南方向76米左右",
        "tel": "",
        "category": "基础设施:公共设施:公共厕所",
        "type": 0,
        "location": {
            "lat": 23.892732,
            "lng": 106.623283
        },
        "ad_info": {
            "adcode": 451002,
            "province": "广西壮族自治区",
            "city": "百色市",
            "district": "右江区"
        }
    },
    {
        "id": "15105665073653993835",
        "title": "公共厕所",
        "address": "广西壮族自治区百色市田阳区电喷油泵油嘴增压器北侧60米",
        "tel": "",
        "category": "基础设施:公共设施:公共厕所",
        "type": 0,
        "location": {
            "lat": 23.771827,
            "lng": 106.853
        },
        "ad_info": {
            "adcode": 451003,
            "province": "广西壮族自治区",
            "city": "百色市",
            "district": "田阳区"
        }
    },
    {
        "id": "16930436812281401889",
        "title": "公共厕所",
        "address": "广西壮族自治区百色市田阳区S307与陇含村公路交叉口西南方向491米左右",
        "tel": "",
        "category": "基础设施:公共设施:公共厕所",
        "type": 0,
        "location": {
            "lat": 23.638714,
            "lng": 106.708032
        },
        "ad_info": {
            "adcode": 451003,
            "province": "广西壮族自治区",
            "city": "百色市",
            "district": "田阳区"
        }
    },
    {
        "id": "2136325646528566513",
        "title": "公共厕所",
        "address": "广西壮族自治区百色市那坡县睦边大道与睦边路四巷交叉口东南方向175米左右",
        "tel": "",
        "category": "基础设施:公共设施:公共厕所",
        "type": 0,
        "location": {
            "lat": 23.390928,
            "lng": 105.833731
        },
        "ad_info": {
            "adcode": 451026,
            "province": "广西壮族自治区",
            "city": "百色市",
            "district": "那坡县"
        }
    },
    {
        "id": "8512716699632454351",
        "title": "公共厕所",
        "address": "广西壮族自治区百色市凌云县天河巷与太平巷交叉口正南方向81米左右",
        "tel": "",
        "category": "基础设施:公共设施:公共厕所",
        "type": 0,
        "location": {
            "lat": 24.342993,
            "lng": 106.569209
        },
        "ad_info": {
            "adcode": 451027,
            "province": "广西壮族自治区",
            "city": "百色市",
            "district": "凌云县"
        }
    },
    {
        "id": "2911799923354272618",
        "title": "公共厕所",
        "address": "广西壮族自治区百色市田阳区G323与规划路3交叉口东北方向473米左右",
        "tel": "",
        "category": "基础设施:公共设施:公共厕所",
        "type": 0,
        "location": {
            "lat": 23.763501,
            "lng": 106.941189
        },
        "ad_info": {
            "adcode": 451003,
            "province": "广西壮族自治区",
            "city": "百色市",
            "district": "田阳区"
        }
    },
    {
        "id": "16772017851097577929",
        "title": "公共厕所",
        "address": "广西壮族自治区百色市右江区百城街道百胜街地税局169号旁",
        "tel": "",
        "category": "基础设施:公共设施:公共厕所",
        "type": 0,
        "location": {
            "lat": 23.904256,
            "lng": 106.62616
        },
        "ad_info": {
            "adcode": 451002,
            "province": "广西壮族自治区",
            "city": "百色市",
            "district": "右江区"
        }
    },
    {
        "id": "14627304195348134149",
        "title": "公共厕所",
        "address": "广西壮族自治区百色市西林县",
        "tel": "",
        "category": "基础设施:公共设施:公共厕所",
        "type": 0,
        "location": {
            "lat": 24.474076,
            "lng": 104.889961
        },
        "ad_info": {
            "adcode": 451030,
            "province": "广西壮族自治区",
            "city": "百色市",
            "district": "西林县"
        }
    },
    {
        "id": "8584134037947549866",
        "title": "公共厕所",
        "address": "广西壮族自治区百色市靖西市绣球大道与金山路交叉口西南方向64米左右",
        "tel": "",
        "category": "基础设施:公共设施:公共厕所",
        "type": 0,
        "location": {
            "lat": 23.140383,
            "lng": 106.416802
        },
        "ad_info": {
            "adcode": 451081,
            "province": "广西壮族自治区",
            "city": "百色市",
            "district": "靖西市"
        }
    },
    {
        "id": "8792242239224340565",
        "title": "公共厕所",
        "address": "广西壮族自治区百色市右江区东合一路与江滨二路交叉口东北方向118米左右",
        "tel": "",
        "category": "基础设施:公共设施:公共厕所",
        "type": 0,
        "location": {
            "lat": 23.884393,
            "lng": 106.615714
        },
        "ad_info": {
            "adcode": 451002,
            "province": "广西壮族自治区",
            "city": "百色市",
            "district": "右江区"
        }
    },
    {
        "id": "2341347960908274366",
        "title": "公共厕所",
        "address": "广西壮族自治区百色市右江区城东大道114号",
        "tel": "",
        "category": "基础设施:公共设施:公共厕所",
        "type": 0,
        "location": {
            "lat": 23.901445,
            "lng": 106.63793
        },
        "ad_info": {
            "adcode": 451002,
            "province": "广西壮族自治区",
            "city": "百色市",
            "district": "右江区"
        }
    },
    {
        "id": "13695604099038743002",
        "title": "公共厕所",
        "address": "广西壮族自治区百色市凌云县升平路与西溪一巷交叉口东北方向45米左右",
        "tel": "",
        "category": "基础设施:公共设施:公共厕所",
        "type": 0,
        "location": {
            "lat": 24.345817,
            "lng": 106.565811
        },
        "ad_info": {
            "adcode": 451027,
            "province": "广西壮族自治区",
            "city": "百色市",
            "district": "凌云县"
        }
    },
    {
        "id": "10280724481320165547",
        "title": "公共厕所",
        "address": "广西壮族自治区百色市靖西市古龙路与绣球大道交叉口正东方向237米左右",
        "tel": "",
        "category": "基础设施:公共设施:公共厕所",
        "type": 0,
        "location": {
            "lat": 23.118923,
            "lng": 106.43077
        },
        "ad_info": {
            "adcode": 451081,
            "province": "广西壮族自治区",
            "city": "百色市",
            "district": "靖西市"
        }
    },
    {
        "id": "6905000154478823647",
        "title": "公共厕所",
        "address": "广西壮族自治区百色市右江区东州大道辅路与规划路交叉口正北方向103米左右",
        "tel": "",
        "category": "基础设施:公共设施:公共厕所",
        "type": 0,
        "location": {
            "lat": 23.872711,
            "lng": 106.63133
        },
        "ad_info": {
            "adcode": 451002,
            "province": "广西壮族自治区",
            "city": "百色市",
            "district": "右江区"
        }
    },
    {
        "id": "17750111232129205203",
        "title": "公共厕所",
        "address": "广西壮族自治区百色市田阳区百育镇初级中学东南侧190米",
        "tel": "",
        "category": "基础设施:公共设施:公共厕所",
        "type": 0,
        "location": {
            "lat": 23.665238,
            "lng": 106.99648
        },
        "ad_info": {
            "adcode": 451003,
            "province": "广西壮族自治区",
            "city": "百色市",
            "district": "田阳区"
        }
    },
    {
        "id": "17985307462457001664",
        "title": "公共厕所",
        "address": "广西壮族自治区百色市右江区崇信巷与新兴路交叉口正东方向29米左右",
        "tel": "",
        "category": "基础设施:公共设施:公共厕所",
        "type": 0,
        "location": {
            "lat": 23.898651,
            "lng": 106.61652
        },
        "ad_info": {
            "adcode": 451002,
            "province": "广西壮族自治区",
            "city": "百色市",
            "district": "右江区"
        }
    },
    {
        "id": "9640923119808254844",
        "title": "公共厕所",
        "address": "广西壮族自治区百色市右江区逻索路与龙景东路交叉口西南方向98米左右",
        "tel": "",
        "category": "基础设施:公共设施:公共厕所",
        "type": 0,
        "location": {
            "lat": 23.89245,
            "lng": 106.632131
        },
        "ad_info": {
            "adcode": 451002,
            "province": "广西壮族自治区",
            "city": "百色市",
            "district": "右江区"
        }
    },
    {
        "id": "11315886795993274623",
        "title": "公共厕所",
        "address": "广西壮族自治区百色市平果市新新街118中环商业广场",
        "tel": "",
        "category": "基础设施:公共设施:公共厕所",
        "type": 0,
        "location": {
            "lat": 23.319011,
            "lng": 107.58133
        },
        "ad_info": {
            "adcode": 451082,
            "province": "广西壮族自治区",
            "city": "百色市",
            "district": "平果市"
        }
    },
    {
        "id": "7457660275316342787",
        "title": "公共厕所",
        "address": "广西壮族自治区百色市右江区菜园屯一巷与金怡巷交叉口西北方向88米左右",
        "tel": "",
        "category": "基础设施:公共设施:公共厕所",
        "type": 0,
        "location": {
            "lat": 23.898092,
            "lng": 106.614683
        },
        "ad_info": {
            "adcode": 451002,
            "province": "广西壮族自治区",
            "city": "百色市",
            "district": "右江区"
        }
    },
    {
        "id": "12738014032062504922",
        "title": "卫生间",
        "address": "广西壮族自治区百色市靖西市金山路与龙潭路交叉口东北方向297米左右",
        "tel": "",
        "category": "基础设施:公共设施:公共厕所",
        "type": 0,
        "location": {
            "lat": 23.144343,
            "lng": 106.421648
        },
        "ad_info": {
            "adcode": 451081,
            "province": "广西壮族自治区",
            "city": "百色市",
            "district": "靖西市"
        }
    },
    {
        "id": "17180382303743889003",
        "title": "公共厕所",
        "address": "广西壮族自治区百色市乐业县G212与百合桥交叉口东北方向1068米左右",
        "tel": "",
        "category": "基础设施:公共设施:公共厕所",
        "type": 0,
        "location": {
            "lat": 24.605432,
            "lng": 106.66218
        },
        "ad_info": {
            "adcode": 451028,
            "province": "广西壮族自治区",
            "city": "百色市",
            "district": "乐业县"
        }
    },
    {
        "id": "12434633778121235897",
        "title": "公共厕所",
        "address": "广西壮族自治区百色市田阳区布洛陀大道与百东路交叉口西北方向78米左右",
        "tel": "",
        "category": "基础设施:公共设施:公共厕所",
        "type": 0,
        "location": {
            "lat": 23.740474,
            "lng": 106.919016
        },
        "ad_info": {
            "adcode": 451003,
            "province": "广西壮族自治区",
            "city": "百色市",
            "district": "田阳区"
        }
    },
    {
        "id": "4053686036204399690",
        "title": "公共厕所",
        "address": "广西壮族自治区百色市靖西市凤凰路与绣球大道交叉口东南方向525米左右",
        "tel": "",
        "category": "基础设施:公共设施:公共厕所",
        "type": 0,
        "location": {
            "lat": 23.111957,
            "lng": 106.428924
        },
        "ad_info": {
            "adcode": 451081,
            "province": "广西壮族自治区",
            "city": "百色市",
            "district": "靖西市"
        }
    },
    {
        "id": "15449539837017430313",
        "title": "公共厕所",
        "address": "广西壮族自治区百色市靖西市双拥路与绣球大道交叉口正北方向82米左右",
        "tel": "",
        "category": "基础设施:公共设施:公共厕所",
        "type": 0,
        "location": {
            "lat": 23.128618,
            "lng": 106.426572
        },
        "ad_info": {
            "adcode": 451081,
            "province": "广西壮族自治区",
            "city": "百色市",
            "district": "靖西市"
        }
    },
    {
        "id": "1571485995661420498",
        "title": "公共厕所",
        "address": "广西壮族自治区百色市靖西市凤凰路78号",
        "tel": "",
        "category": "基础设施:公共设施:公共厕所",
        "type": 0,
        "location": {
            "lat": 23.148097,
            "lng": 106.407105
        },
        "ad_info": {
            "adcode": 451081,
            "province": "广西壮族自治区",
            "city": "百色市",
            "district": "靖西市"
        }
    },
    {
        "id": "17768972195073137437",
        "title": "公共厕所",
        "address": "广西壮族自治区百色市右江区东笋路23号西北方向90米",
        "tel": "",
        "category": "基础设施:公共设施:公共厕所",
        "type": 0,
        "location": {
            "lat": 23.884332,
            "lng": 106.575098
        },
        "ad_info": {
            "adcode": 451002,
            "province": "广西壮族自治区",
            "city": "百色市",
            "district": "右江区"
        }
    },
    {
        "id": "10047333272170160255",
        "title": "公共厕所",
        "address": "广西壮族自治区百色市西林县迎宾四巷与迎宾路交叉口正北方向116米左右",
        "tel": "",
        "category": "基础设施:公共设施:公共厕所",
        "type": 0,
        "location": {
            "lat": 24.482733,
            "lng": 105.103758
        },
        "ad_info": {
            "adcode": 451030,
            "province": "广西壮族自治区",
            "city": "百色市",
            "district": "西林县"
        }
    },
    {
        "id": "4319004529133473511",
        "title": "公共厕所",
        "address": "广西壮族自治区百色市凌云县新秀路与西灵一巷交叉口西南方向85米左右",
        "tel": "",
        "category": "基础设施:公共设施:公共厕所",
        "type": 0,
        "location": {
            "lat": 24.345822,
            "lng": 106.561663
        },
        "ad_info": {
            "adcode": 451027,
            "province": "广西壮族自治区",
            "city": "百色市",
            "district": "凌云县"
        }
    },
    {
        "id": "7310416578157954502",
        "title": "公共厕所",
        "address": "广西壮族自治区百色市乐业县站前路与迎宾大道交叉口正南方向582米左右",
        "tel": "",
        "category": "基础设施:公共设施:公共厕所",
        "type": 0,
        "location": {
            "lat": 24.76,
            "lng": 106.550937
        },
        "ad_info": {
            "adcode": 451028,
            "province": "广西壮族自治区",
            "city": "百色市",
            "district": "乐业县"
        }
    },
    {
        "id": "8781601355023735895",
        "title": "公共厕所",
        "address": "广西壮族自治区百色市凌云县上吉路与前进路交叉口正北方向62米左右",
        "tel": "",
        "category": "基础设施:公共设施:公共厕所",
        "type": 0,
        "location": {
            "lat": 24.346489,
            "lng": 106.56965
        },
        "ad_info": {
            "adcode": 451027,
            "province": "广西壮族自治区",
            "city": "百色市",
            "district": "凌云县"
        }
    },
    {
        "id": "3592425486884249656",
        "title": "公共厕所",
        "address": "广西壮族自治区百色市凌云县安居巷与迎晖路交叉口东南方向350米左右",
        "tel": "",
        "category": "基础设施:公共设施:公共厕所",
        "type": 0,
        "location": {
            "lat": 24.33181,
            "lng": 106.56998
        },
        "ad_info": {
            "adcode": 451027,
            "province": "广西壮族自治区",
            "city": "百色市",
            "district": "凌云县"
        }
    },
    {
        "id": "1827670724625984273",
        "title": "公共厕所",
        "address": "广西壮族自治区百色市田阳区桑园街与民族街交叉口西北方向86米左右",
        "tel": "",
        "category": "基础设施:公共设施:公共厕所",
        "type": 0,
        "location": {
            "lat": 23.737147,
            "lng": 106.913319
        },
        "ad_info": {
            "adcode": 451003,
            "province": "广西壮族自治区",
            "city": "百色市",
            "district": "田阳区"
        }
    },
    {
        "id": "1061819141620986023",
        "title": "公共厕所",
        "address": "广西壮族自治区百色市田阳区百乐路与布洛陀大道交叉口北460米",
        "tel": "",
        "category": "基础设施:公共设施:公共厕所",
        "type": 0,
        "location": {
            "lat": 23.743866,
            "lng": 106.919052
        },
        "ad_info": {
            "adcode": 451003,
            "province": "广西壮族自治区",
            "city": "百色市",
            "district": "田阳区"
        }
    },
    {
        "id": "2707460583054373883",
        "title": "公共厕所",
        "address": "广西壮族自治区百色市平果市亿鑫商业街与教育路交叉口正南方向83米左右",
        "tel": "",
        "category": "基础设施:公共设施:公共厕所",
        "type": 0,
        "location": {
            "lat": 23.323782,
            "lng": 107.589518
        },
        "ad_info": {
            "adcode": 451082,
            "province": "广西壮族自治区",
            "city": "百色市",
            "district": "平果市"
        }
    },
    {
        "id": "4886593901770079477",
        "title": "恒基广场洗手间",
        "address": "广西壮族自治区百色市右江区中山二路与金怡巷交叉口正北方向66米左右",
        "tel": "",
        "category": "基础设施:公共设施:公共厕所",
        "type": 0,
        "location": {
            "lat": 23.897588,
            "lng": 106.616139
        },
        "ad_info": {
            "adcode": 451002,
            "province": "广西壮族自治区",
            "city": "百色市",
            "district": "右江区"
        }
    },
    {
        "id": "3361865518440457112",
        "title": "森林广场公共厕所",
        "address": "广西壮族自治区百色市右江区新兴路百色人民公园",
        "tel": "",
        "category": "基础设施:公共设施:公共厕所",
        "type": 0,
        "location": {
            "lat": 23.8957,
            "lng": 106.617159
        },
        "ad_info": {
            "adcode": 451002,
            "province": "广西壮族自治区",
            "city": "百色市",
            "district": "右江区"
        }
    },
    {
        "id": "5817004805448024856",
        "title": "公共厕所",
        "address": "广西壮族自治区百色市凌云县G212与X844交叉口西南方向1555米左右",
        "tel": "",
        "category": "基础设施:公共设施:公共厕所",
        "type": 0,
        "location": {
            "lat": 24.171017,
            "lng": 106.597464
        },
        "ad_info": {
            "adcode": 451027,
            "province": "广西壮族自治区",
            "city": "百色市",
            "district": "凌云县"
        }
    },
    {
        "id": "15716329616674296435",
        "title": "公共厕所",
        "address": "广西壮族自治区百色市田阳区扁桃路与阳光路交叉口正西方向49米左右",
        "tel": "",
        "category": "基础设施:公共设施:公共厕所",
        "type": 0,
        "location": {
            "lat": 23.732556,
            "lng": 106.902722
        },
        "ad_info": {
            "adcode": 451003,
            "province": "广西壮族自治区",
            "city": "百色市",
            "district": "田阳区"
        }
    },
    {
        "id": "8516099327647083513",
        "title": "公共厕所",
        "address": "广西壮族自治区百色市右江区东州大道与城东大道交叉口正东方向178米左右",
        "tel": "",
        "category": "基础设施:公共设施:公共厕所",
        "type": 0,
        "location": {
            "lat": 23.879111,
            "lng": 106.655711
        },
        "ad_info": {
            "adcode": 451002,
            "province": "广西壮族自治区",
            "city": "百色市",
            "district": "右江区"
        }
    },
    {
        "id": "16852010629065582422",
        "title": "公共厕所",
        "address": "广西壮族自治区百色市平果市平中路与平中路四巷交叉口正东方向35米左右",
        "tel": "",
        "category": "基础设施:公共设施:公共厕所",
        "type": 0,
        "location": {
            "lat": 23.323729,
            "lng": 107.585195
        },
        "ad_info": {
            "adcode": 451082,
            "province": "广西壮族自治区",
            "city": "百色市",
            "district": "平果市"
        }
    },
    {
        "id": "11806372253023895135",
        "title": "公共厕所",
        "address": "广西壮族自治区百色市右江区平安路与城东大道辅路交叉口东北220米",
        "tel": "",
        "category": "基础设施:公共设施:公共厕所",
        "type": 0,
        "location": {
            "lat": 23.870794,
            "lng": 106.660137
        },
        "ad_info": {
            "adcode": 451002,
            "province": "广西壮族自治区",
            "city": "百色市",
            "district": "右江区"
        }
    },
    {
        "id": "996704457960136267",
        "title": "公共厕所",
        "address": "广西壮族自治区百色市那坡县伏必街与那中路交叉口西南方向144米左右",
        "tel": "",
        "category": "基础设施:公共设施:公共厕所",
        "type": 0,
        "location": {
            "lat": 23.408246,
            "lng": 105.84086
        },
        "ad_info": {
            "adcode": 451026,
            "province": "广西壮族自治区",
            "city": "百色市",
            "district": "那坡县"
        }
    },
    {
        "id": "7963799140883261469",
        "title": "公共厕所",
        "address": "广西壮族自治区百色市右江区东州大道与环岛一路交叉口正北方向51米左右",
        "tel": "",
        "category": "基础设施:公共设施:公共厕所",
        "type": 0,
        "location": {
            "lat": 23.880405,
            "lng": 106.615726
        },
        "ad_info": {
            "adcode": 451002,
            "province": "广西壮族自治区",
            "city": "百色市",
            "district": "右江区"
        }
    },
    {
        "id": "7238719244689838294",
        "title": "公共厕所",
        "address": "广西壮族自治区百色市右江区东合二路与中山二路交叉口正北方向107米左右",
        "tel": "",
        "category": "基础设施:公共设施:公共厕所",
        "type": 0,
        "location": {
            "lat": 23.893633,
            "lng": 106.6106
        },
        "ad_info": {
            "adcode": 451002,
            "province": "广西壮族自治区",
            "city": "百色市",
            "district": "右江区"
        }
    },
    {
        "id": "9993445712924916847",
        "title": "公共厕所",
        "address": "广西壮族自治区百色市德保县莲城大街29号",
        "tel": "",
        "category": "基础设施:公共设施:公共厕所",
        "type": 0,
        "location": {
            "lat": 23.324098,
            "lng": 106.614413
        },
        "ad_info": {
            "adcode": 451024,
            "province": "广西壮族自治区",
            "city": "百色市",
            "district": "德保县"
        }
    },
    {
        "id": "3356668163090109475",
        "title": "公共厕所",
        "address": "广西壮族自治区百色市右江区东笋路与建华路交叉口正南方向217米左右",
        "tel": "",
        "category": "基础设施:公共设施:公共厕所",
        "type": 0,
        "location": {
            "lat": 23.885361,
            "lng": 106.60124
        },
        "ad_info": {
            "adcode": 451002,
            "province": "广西壮族自治区",
            "city": "百色市",
            "district": "右江区"
        }
    },
    {
        "id": "3990737545531471763",
        "title": "公共厕所",
        "address": "广西壮族自治区百色市平果市二中路与富强路交叉口正西方向35米左右",
        "tel": "",
        "category": "基础设施:公共设施:公共厕所",
        "type": 0,
        "location": {
            "lat": 23.326172,
            "lng": 107.577541
        },
        "ad_info": {
            "adcode": 451082,
            "province": "广西壮族自治区",
            "city": "百色市",
            "district": "平果市"
        }
    },
    {
        "id": "787932283589266772",
        "title": "公共厕所",
        "address": "广西壮族自治区百色市平果市二中路与新兴路交叉口正南方向53米左右",
        "tel": "",
        "category": "基础设施:公共设施:公共厕所",
        "type": 0,
        "location": {
            "lat": 23.324866,
            "lng": 107.573759
        },
        "ad_info": {
            "adcode": 451082,
            "province": "广西壮族自治区",
            "city": "百色市",
            "district": "平果市"
        }
    },
    {
        "id": "16390745236195854603",
        "title": "公共厕所",
        "address": "广西壮族自治区百色市隆林各族自治县兴隆路与迎宾路交叉口正南方向73米左右",
        "tel": "",
        "category": "基础设施:公共设施:公共厕所",
        "type": 0,
        "location": {
            "lat": 24.780848,
            "lng": 105.3435
        },
        "ad_info": {
            "adcode": 451031,
            "province": "广西壮族自治区",
            "city": "百色市",
            "district": "隆林各族自治县"
        }
    },
    {
        "id": "15020114756690771320",
        "title": "百色服务区公共厕所",
        "address": "广西壮族自治区百色市右江区汇贤路与聚贤路交叉口西北方向427米左右",
        "tel": "",
        "category": "基础设施:公共设施:公共厕所",
        "type": 0,
        "location": {
            "lat": 23.767339,
            "lng": 106.741366
        },
        "ad_info": {
            "adcode": 451002,
            "province": "广西壮族自治区",
            "city": "百色市",
            "district": "右江区"
        }
    },
    {
        "id": "16655570477367880859",
        "title": "公共厕所",
        "address": "广西壮族自治区百色市靖西市三元路102号",
        "tel": "",
        "category": "基础设施:公共设施:公共厕所",
        "type": 0,
        "location": {
            "lat": 23.134789,
            "lng": 106.426147
        },
        "ad_info": {
            "adcode": 451081,
            "province": "广西壮族自治区",
            "city": "百色市",
            "district": "靖西市"
        }
    },
    {
        "id": "15409226980205546135",
        "title": "公共厕所",
        "address": "广西壮族自治区百色市田东县G324与Y110交叉口东南方向553米左右",
        "tel": "",
        "category": "基础设施:公共设施:公共厕所",
        "type": 0,
        "location": {
            "lat": 23.617189,
            "lng": 107.058528
        },
        "ad_info": {
            "adcode": 451022,
            "province": "广西壮族自治区",
            "city": "百色市",
            "district": "田东县"
        }
    },
    {
        "id": "2186483094263837354",
        "title": "公共厕所",
        "address": "广西壮族自治区百色市田东县东宁大道与庆平路交叉口正北方向38米左右",
        "tel": "",
        "category": "基础设施:公共设施:公共厕所",
        "type": 0,
        "location": {
            "lat": 23.601546,
            "lng": 107.12553
        },
        "ad_info": {
            "adcode": 451022,
            "province": "广西壮族自治区",
            "city": "百色市",
            "district": "田东县"
        }
    },
    {
        "id": "5057884968639407811",
        "title": "公共厕所",
        "address": "广西壮族自治区百色市田东县田东广场内",
        "tel": "",
        "category": "基础设施:公共设施:公共厕所",
        "type": 0,
        "location": {
            "lat": 23.59758,
            "lng": 107.131047
        },
        "ad_info": {
            "adcode": 451022,
            "province": "广西壮族自治区",
            "city": "百色市",
            "district": "田东县"
        }
    },
    {
        "id": "16495936410913057201",
        "title": "公共厕所",
        "address": "广西壮族自治区百色市西林县鲤城路49号",
        "tel": "",
        "category": "基础设施:公共设施:公共厕所",
        "type": 0,
        "location": {
            "lat": 24.489211,
            "lng": 105.096336
        },
        "ad_info": {
            "adcode": 451030,
            "province": "广西壮族自治区",
            "city": "百色市",
            "district": "西林县"
        }
    },
    {
        "id": "16304136367353417449",
        "title": "公共厕所",
        "address": "广西壮族自治区百色市田林县新安街13号",
        "tel": "",
        "category": "基础设施:公共设施:公共厕所",
        "type": 0,
        "location": {
            "lat": 24.293791,
            "lng": 106.227401
        },
        "ad_info": {
            "adcode": 451029,
            "province": "广西壮族自治区",
            "city": "百色市",
            "district": "田林县"
        }
    },
    {
        "id": "4844590301736899",
        "title": "平果服务区公共厕所",
        "address": "广西壮族自治区百色市平果市平那高速与武平高速交叉口正东方向280米左右",
        "tel": "",
        "category": "基础设施:公共设施:公共厕所",
        "type": 0,
        "location": {
            "lat": 23.369334,
            "lng": 107.597336
        },
        "ad_info": {
            "adcode": 451082,
            "province": "广西壮族自治区",
            "city": "百色市",
            "district": "平果市"
        }
    },
    {
        "id": "13763452058179820054",
        "title": "公共厕所",
        "address": "广西壮族自治区百色市田东县东宁西路金鑫巷与东鑫巷交叉口正东方向83米左右",
        "tel": "",
        "category": "基础设施:公共设施:公共厕所",
        "type": 0,
        "location": {
            "lat": 23.59995,
            "lng": 107.123387
        },
        "ad_info": {
            "adcode": 451022,
            "province": "广西壮族自治区",
            "city": "百色市",
            "district": "田东县"
        }
    },
    {
        "id": "14381976875750932591",
        "title": "乐业服务区公共厕所",
        "address": "广西壮族自治区百色市乐业县G69银百高速与乐业服务区交叉口东南180米",
        "tel": "",
        "category": "基础设施:公共设施:公共厕所",
        "type": 0,
        "location": {
            "lat": 24.886414,
            "lng": 106.64374
        },
        "ad_info": {
            "adcode": 451028,
            "province": "广西壮族自治区",
            "city": "百色市",
            "district": "乐业县"
        }
    },
    {
        "id": "4823419195513756890",
        "title": "公共厕所",
        "address": "广西壮族自治区百色市凌云县凌霄路与纳光路交叉口正南方向87米左右",
        "tel": "",
        "category": "基础设施:公共设施:公共厕所",
        "type": 0,
        "location": {
            "lat": 24.339609,
            "lng": 106.567843
        },
        "ad_info": {
            "adcode": 451027,
            "province": "广西壮族自治区",
            "city": "百色市",
            "district": "凌云县"
        }
    },
    {
        "id": "13472844879358536916",
        "title": "公共厕所",
        "address": "广西壮族自治区百色市田东县G324与民贤路交叉口东南方向74米左右",
        "tel": "",
        "category": "基础设施:公共设施:公共厕所",
        "type": 0,
        "location": {
            "lat": 23.504727,
            "lng": 107.340728
        },
        "ad_info": {
            "adcode": 451022,
            "province": "广西壮族自治区",
            "city": "百色市",
            "district": "田东县"
        }
    },
    {
        "id": "15844536549425392760",
        "title": "那坡服务区公共厕所",
        "address": "广西壮族自治区百色市那坡县G359与合那高速交叉口正北方向715米左右",
        "tel": "",
        "category": "基础设施:公共设施:公共厕所",
        "type": 0,
        "location": {
            "lat": 23.316174,
            "lng": 105.941811
        },
        "ad_info": {
            "adcode": 451026,
            "province": "广西壮族自治区",
            "city": "百色市",
            "district": "那坡县"
        }
    },
    {
        "id": "5463536714933747741",
        "title": "公共厕所",
        "address": "广西壮族自治区百色市田林县永安路与迎宾路交叉口正西方向58米左右",
        "tel": "",
        "category": "基础设施:公共设施:公共厕所",
        "type": 0,
        "location": {
            "lat": 24.289401,
            "lng": 106.23478
        },
        "ad_info": {
            "adcode": 451029,
            "province": "广西壮族自治区",
            "city": "百色市",
            "district": "田林县"
        }
    },
    {
        "id": "12918937902237425017",
        "title": "公共厕所",
        "address": "广西壮族自治区百色市田林县利周中学东侧190米",
        "tel": "",
        "category": "基础设施:公共设施:公共厕所",
        "type": 0,
        "location": {
            "lat": 24.304999,
            "lng": 106.338895
        },
        "ad_info": {
            "adcode": 451029,
            "province": "广西壮族自治区",
            "city": "百色市",
            "district": "田林县"
        }
    },
    {
        "id": "244889010068539908",
        "title": "公共厕所",
        "address": "广西壮族自治区百色市田林县G324与S321交叉口正东方向468米左右",
        "tel": "",
        "category": "基础设施:公共设施:公共厕所",
        "type": 0,
        "location": {
            "lat": 24.440629,
            "lng": 106.068204
        },
        "ad_info": {
            "adcode": 451029,
            "province": "广西壮族自治区",
            "city": "百色市",
            "district": "田林县"
        }
    },
    {
        "id": "12714835346036690782",
        "title": "通灵服务区公共厕所",
        "address": "广西壮族自治区百色市靖西市同德乡合那高速公路通灵服务区",
        "tel": "",
        "category": "基础设施:公共设施:公共厕所",
        "type": 0,
        "location": {
            "lat": 23.008444,
            "lng": 106.585577
        },
        "ad_info": {
            "adcode": 451081,
            "province": "广西壮族自治区",
            "city": "百色市",
            "district": "靖西市"
        }
    },
    {
        "id": "10304772173481588218",
        "title": "那迷服务区公共厕所",
        "address": "广西壮族自治区百色市右江区G78汕昆高速与那迷服务区交叉口南260米",
        "tel": "",
        "category": "基础设施:公共设施:公共厕所",
        "type": 0,
        "location": {
            "lat": 24.112565,
            "lng": 106.430215
        },
        "ad_info": {
            "adcode": 451002,
            "province": "广西壮族自治区",
            "city": "百色市",
            "district": "右江区"
        }
    },
    {
        "id": "4280983105841738243",
        "title": "那迷服务区第二公共厕所",
        "address": "广西壮族自治区百色市右江区那迷服务区与G78汕昆高速交叉口东120米",
        "tel": "",
        "category": "基础设施:公共设施:公共厕所",
        "type": 0,
        "location": {
            "lat": 24.11441,
            "lng": 106.430398
        },
        "ad_info": {
            "adcode": 451002,
            "province": "广西壮族自治区",
            "city": "百色市",
            "district": "右江区"
        }
    },
    {
        "id": "974246151046809213",
        "title": "靖西服务区公共厕所",
        "address": "广西壮族自治区百色市靖西市合那高速靖西服务区",
        "tel": "",
        "category": "基础设施:公共设施:公共厕所",
        "type": 0,
        "location": {
            "lat": 23.080622,
            "lng": 106.392333
        },
        "ad_info": {
            "adcode": 451081,
            "province": "广西壮族自治区",
            "city": "百色市",
            "district": "靖西市"
        }
    },
    {
        "id": "4738068155844818881",
        "title": "通灵服务区公共厕所",
        "address": "广西壮族自治区百色市靖西市同德乡合那高速公路通灵服务区",
        "tel": "",
        "category": "基础设施:公共设施:公共厕所",
        "type": 0,
        "location": {
            "lat": 23.007269,
            "lng": 106.587323
        },
        "ad_info": {
            "adcode": 451081,
            "province": "广西壮族自治区",
            "city": "百色市",
            "district": "靖西市"
        }
    },
    {
        "id": "9859150886565768490",
        "title": "公共厕所",
        "address": "广西壮族自治区百色市田林县东丈路与南堤路交叉口正西方向103米左右",
        "tel": "",
        "category": "基础设施:公共设施:公共厕所",
        "type": 0,
        "location": {
            "lat": 24.290996,
            "lng": 106.227987
        },
        "ad_info": {
            "adcode": 451029,
            "province": "广西壮族自治区",
            "city": "百色市",
            "district": "田林县"
        }
    },
    {
        "id": "8342785357259271665",
        "title": "公共厕所",
        "address": "广西壮族自治区百色市田林县G324与百花寨路交叉口正东方向98米左右",
        "tel": "",
        "category": "基础设施:公共设施:公共厕所",
        "type": 0,
        "location": {
            "lat": 24.311366,
            "lng": 106.21464
        },
        "ad_info": {
            "adcode": 451029,
            "province": "广西壮族自治区",
            "city": "百色市",
            "district": "田林县"
        }
    },
    {
        "id": "12189271862018879915",
        "title": "那迷服务区公共厕所",
        "address": "广西壮族自治区百色市右江区G78汕昆高速与那迷服务区交叉口东南240米",
        "tel": "",
        "category": "基础设施:公共设施:公共厕所",
        "type": 0,
        "location": {
            "lat": 24.113582,
            "lng": 106.431398
        },
        "ad_info": {
            "adcode": 451002,
            "province": "广西壮族自治区",
            "city": "百色市",
            "district": "右江区"
        }
    },
    {
        "id": "10367279625359834806",
        "title": "凌云服务区公共厕所",
        "address": "广西壮族自治区百色市凌云县广西交投凌云服务区加油站东南侧210米",
        "tel": "",
        "category": "基础设施:公共设施:公共厕所",
        "type": 0,
        "location": {
            "lat": 24.518554,
            "lng": 106.634357
        },
        "ad_info": {
            "adcode": 451027,
            "province": "广西壮族自治区",
            "city": "百色市",
            "district": "凌云县"
        }
    },
    {
        "id": "12666265485844574412",
        "title": "龙邦服务区公共厕所",
        "address": "广西壮族自治区百色市靖西市G212与银百高速交叉口西北方向643米左右",
        "tel": "",
        "category": "基础设施:公共设施:公共厕所",
        "type": 0,
        "location": {
            "lat": 22.940953,
            "lng": 106.316166
        },
        "ad_info": {
            "adcode": 451081,
            "province": "广西壮族自治区",
            "city": "百色市",
            "district": "靖西市"
        }
    },
    {
        "id": "6367748497053323238",
        "title": "靖西服务区第二公共厕所",
        "address": "广西壮族自治区百色市靖西市S60合那高速北100米",
        "tel": "",
        "category": "基础设施:公共设施:公共厕所",
        "type": 0,
        "location": {
            "lat": 23.081028,
            "lng": 106.39108
        },
        "ad_info": {
            "adcode": 451081,
            "province": "广西壮族自治区",
            "city": "百色市",
            "district": "靖西市"
        }
    },
    {
        "id": "12422375094098840858",
        "title": "靖西服务区第二公共厕所",
        "address": "广西壮族自治区百色市靖西市S60合那高速南50米",
        "tel": "",
        "category": "基础设施:公共设施:公共厕所",
        "type": 0,
        "location": {
            "lat": 23.079599,
            "lng": 106.391825
        },
        "ad_info": {
            "adcode": 451081,
            "province": "广西壮族自治区",
            "city": "百色市",
            "district": "靖西市"
        }
    },
    {
        "id": "10874515541097749787",
        "title": "田东服务区公共厕所",
        "address": "广西壮族自治区百色市田东县广昆高速田东服务区",
        "tel": "",
        "category": "基础设施:公共设施:公共厕所",
        "type": 0,
        "location": {
            "lat": 23.567228,
            "lng": 107.190211
        },
        "ad_info": {
            "adcode": 451022,
            "province": "广西壮族自治区",
            "city": "百色市",
            "district": "田东县"
        }
    },
    {
        "id": "5584550487265089906",
        "title": "旧州服务区第二公共厕所",
        "address": "广西壮族自治区百色市田林县G324与X796交叉口正东方向1319米左右",
        "tel": "",
        "category": "基础设施:公共设施:公共厕所",
        "type": 0,
        "location": {
            "lat": 24.643976,
            "lng": 105.823013
        },
        "ad_info": {
            "adcode": 451029,
            "province": "广西壮族自治区",
            "city": "百色市",
            "district": "田林县"
        }
    },
    {
        "id": "15334233305062596649",
        "title": "旧州服务区公共厕所",
        "address": "广西壮族自治区百色市田林县旧州镇汕昆高速公路旧州服务区",
        "tel": "",
        "category": "基础设施:公共设施:公共厕所",
        "type": 0,
        "location": {
            "lat": 24.643469,
            "lng": 105.823967
        },
        "ad_info": {
            "adcode": 451029,
            "province": "广西壮族自治区",
            "city": "百色市",
            "district": "田林县"
        }
    },
    {
        "id": "5194605199065463409",
        "title": "公共厕所",
        "address": "广西壮族自治区百色市靖西市其荣路与德爱南路交叉口西南方向945米左右",
        "tel": "",
        "category": "基础设施:公共设施:公共厕所",
        "type": 0,
        "location": {
            "lat": 23.147226,
            "lng": 106.391923
        },
        "ad_info": {
            "adcode": 451081,
            "province": "广西壮族自治区",
            "city": "百色市",
            "district": "靖西市"
        }
    },
    {
        "id": "9446560942260149140",
        "title": "公共厕所",
        "address": "广西壮族自治区百色市田东县324国道北50米",
        "tel": "",
        "category": "基础设施:公共设施:公共厕所",
        "type": 0,
        "location": {
            "lat": 23.589513,
            "lng": 107.200733
        },
        "ad_info": {
            "adcode": 451022,
            "province": "广西壮族自治区",
            "city": "百色市",
            "district": "田东县"
        }
    },
    {
        "id": "7243855626302511755",
        "title": "公共厕所",
        "address": "广西壮族自治区百色市田林县富源泉路与新市街交叉口正东方向196米左右",
        "tel": "",
        "category": "基础设施:公共设施:公共厕所",
        "type": 0,
        "location": {
            "lat": 24.296412,
            "lng": 106.229205
        },
        "ad_info": {
            "adcode": 451029,
            "province": "广西壮族自治区",
            "city": "百色市",
            "district": "田林县"
        }
    },
    {
        "id": "17771079290571503180",
        "title": "公共厕所",
        "address": "广西壮族自治区百色市那坡县滨河一路与睦边大道交叉口正西方向692米左右",
        "tel": "",
        "category": "基础设施:公共设施:公共厕所",
        "type": 0,
        "location": {
            "lat": 23.384041,
            "lng": 105.82878
        },
        "ad_info": {
            "adcode": 451026,
            "province": "广西壮族自治区",
            "city": "百色市",
            "district": "那坡县"
        }
    },
    {
        "id": "6926658213017694923",
        "title": "发达服务区公共厕所",
        "address": "广西壮族自治区百色市右江区广昆高速公路",
        "tel": "",
        "category": "基础设施:公共设施:公共厕所",
        "type": 0,
        "location": {
            "lat": 23.922041,
            "lng": 106.246029
        },
        "ad_info": {
            "adcode": 451002,
            "province": "广西壮族自治区",
            "city": "百色市",
            "district": "右江区"
        }
    },
    {
        "id": "13907753263665320383",
        "title": "公共厕所",
        "address": "广西壮族自治区百色市田阳区布洛陀大道与江滨路交叉口东北方向125米左右",
        "tel": "",
        "category": "基础设施:公共设施:公共厕所",
        "type": 0,
        "location": {
            "lat": 23.728015,
            "lng": 106.924831
        },
        "ad_info": {
            "adcode": 451003,
            "province": "广西壮族自治区",
            "city": "百色市",
            "district": "田阳区"
        }
    },
    {
        "id": "14386204421514606717",
        "title": "公共厕所",
        "address": "广西壮族自治区百色市德保县吉星路与响水路交叉口正西方向75米左右",
        "tel": "",
        "category": "基础设施:公共设施:公共厕所",
        "type": 0,
        "location": {
            "lat": 23.320708,
            "lng": 106.610027
        },
        "ad_info": {
            "adcode": 451024,
            "province": "广西壮族自治区",
            "city": "百色市",
            "district": "德保县"
        }
    },
    {
        "id": "13795401842931124717",
        "title": "旧州服务区公共厕所",
        "address": "广西壮族自治区百色市田林县G324与X796交叉口正东方向1341米左右",
        "tel": "",
        "category": "基础设施:公共设施:公共厕所",
        "type": 0,
        "location": {
            "lat": 24.64241,
            "lng": 105.822812
        },
        "ad_info": {
            "adcode": 451029,
            "province": "广西壮族自治区",
            "city": "百色市",
            "district": "田林县"
        }
    },
    {
        "id": "15131718381500344457",
        "title": "公共厕所",
        "address": "广西壮族自治区百色市凌云县G212与X844交叉口正南方向712米左右",
        "tel": "",
        "category": "基础设施:公共设施:公共厕所",
        "type": 0,
        "location": {
            "lat": 24.280938,
            "lng": 106.638013
        },
        "ad_info": {
            "adcode": 451027,
            "province": "广西壮族自治区",
            "city": "百色市",
            "district": "凌云县"
        }
    },
    {
        "id": "81204400417459885",
        "title": "公共厕所",
        "address": "广西壮族自治区百色市平果市中旺石化茂能加油站(古朴小学西南)西南侧60米",
        "tel": "",
        "category": "基础设施:公共设施:公共厕所",
        "type": 0,
        "location": {
            "lat": 23.335129,
            "lng": 107.620345
        },
        "ad_info": {
            "adcode": 451082,
            "province": "广西壮族自治区",
            "city": "百色市",
            "district": "平果市"
        }
    },
    {
        "id": "10252350112548433815",
        "title": "公共厕所",
        "address": "广西壮族自治区百色市隆林各族自治县兴隆路与民权路交叉口东南方向133米左右",
        "tel": "",
        "category": "基础设施:公共设施:公共厕所",
        "type": 0,
        "location": {
            "lat": 24.769487,
            "lng": 105.342554
        },
        "ad_info": {
            "adcode": 451031,
            "province": "广西壮族自治区",
            "city": "百色市",
            "district": "隆林各族自治县"
        }
    },
    {
        "id": "7881954007376319502",
        "title": "公共厕所",
        "address": "广西壮族自治区百色市靖西市G219与G359交叉口正南方向173米左右",
        "tel": "",
        "category": "基础设施:公共设施:公共厕所",
        "type": 0,
        "location": {
            "lat": 22.95394,
            "lng": 106.710702
        },
        "ad_info": {
            "adcode": 451081,
            "province": "广西壮族自治区",
            "city": "百色市",
            "district": "靖西市"
        }
    },
    {
        "id": "9261659256640093764",
        "title": "公共厕所",
        "address": "广西壮族自治区百色市右江区前龙巷与城东大道交叉口东南方向94米左右",
        "tel": "",
        "category": "基础设施:公共设施:公共厕所",
        "type": 0,
        "location": {
            "lat": 23.905763,
            "lng": 106.627716
        },
        "ad_info": {
            "adcode": 451002,
            "province": "广西壮族自治区",
            "city": "百色市",
            "district": "右江区"
        }
    },
    {
        "id": "1389905853600551816",
        "title": "公共厕所",
        "address": "广西壮族自治区百色市田东县人民路与金合巷交叉口东南方向70米左右",
        "tel": "",
        "category": "基础设施:公共设施:公共厕所",
        "type": 0,
        "location": {
            "lat": 23.602587,
            "lng": 107.123647
        },
        "ad_info": {
            "adcode": 451022,
            "province": "广西壮族自治区",
            "city": "百色市",
            "district": "田东县"
        }
    },
    {
        "id": "4443753054274986128",
        "title": "公共厕所",
        "address": "广西壮族自治区百色市右江区G323与城东大道辅路交叉口正北方向97米",
        "tel": "",
        "category": "基础设施:公共设施:公共厕所",
        "type": 0,
        "location": {
            "lat": 23.85946,
            "lng": 106.665744
        },
        "ad_info": {
            "adcode": 451002,
            "province": "广西壮族自治区",
            "city": "百色市",
            "district": "右江区"
        }
    },
    {
        "id": "4262154895309326232",
        "title": "公共厕所",
        "address": "广西壮族自治区百色市西林县迎宾四巷与迎宾路交叉口西北方向105米左右",
        "tel": "",
        "category": "基础设施:公共设施:公共厕所",
        "type": 0,
        "location": {
            "lat": 24.482501,
            "lng": 105.103403
        },
        "ad_info": {
            "adcode": 451030,
            "province": "广西壮族自治区",
            "city": "百色市",
            "district": "西林县"
        }
    },
    {
        "id": "9437450861432237090",
        "title": "公共厕所",
        "address": "广西壮族自治区百色市平果市新兴路北六巷与新兴路北六巷二里交叉口正东方向62米左右",
        "tel": "",
        "category": "基础设施:公共设施:公共厕所",
        "type": 0,
        "location": {
            "lat": 23.322793,
            "lng": 107.595875
        },
        "ad_info": {
            "adcode": 451082,
            "province": "广西壮族自治区",
            "city": "百色市",
            "district": "平果市"
        }
    },
    {
        "id": "17912905436512899826",
        "title": "公共厕所",
        "address": "广西壮族自治区百色市平果市江滨路与西街交叉口西南方向38米左右",
        "tel": "",
        "category": "基础设施:公共设施:公共厕所",
        "type": 0,
        "location": {
            "lat": 23.314648,
            "lng": 107.577479
        },
        "ad_info": {
            "adcode": 451082,
            "province": "广西壮族自治区",
            "city": "百色市",
            "district": "平果市"
        }
    },
    {
        "id": "15787077891483515550",
        "title": "公共厕所",
        "address": "广西壮族自治区百色市平果市贝依路与铝城大道交叉口正东方向55米左右",
        "tel": "",
        "category": "基础设施:公共设施:公共厕所",
        "type": 0,
        "location": {
            "lat": 23.330857,
            "lng": 107.584118
        },
        "ad_info": {
            "adcode": 451082,
            "province": "广西壮族自治区",
            "city": "百色市",
            "district": "平果市"
        }
    },
    {
        "id": "12294502320837081120",
        "title": "公共厕所",
        "address": "广西壮族自治区百色市平果市迎宾大道与驮金大道交叉口西南方向89米左右",
        "tel": "",
        "category": "基础设施:公共设施:公共厕所",
        "type": 0,
        "location": {
            "lat": 23.306216,
            "lng": 107.59858
        },
        "ad_info": {
            "adcode": 451082,
            "province": "广西壮族自治区",
            "city": "百色市",
            "district": "平果市"
        }
    },
    {
        "id": "7583146127902227018",
        "title": "公共厕所",
        "address": "广西壮族自治区百色市田东县人民广场",
        "tel": "",
        "category": "基础设施:公共设施:公共厕所",
        "type": 0,
        "location": {
            "lat": 23.59428,
            "lng": 107.130232
        },
        "ad_info": {
            "adcode": 451022,
            "province": "广西壮族自治区",
            "city": "百色市",
            "district": "田东县"
        }
    },
    {
        "id": "1240626551985908899",
        "title": "公共厕所",
        "address": "广西壮族自治区百色市靖西市凤凰路与绣球大道交叉口东南方向214米左右",
        "tel": "",
        "category": "基础设施:公共设施:公共厕所",
        "type": 0,
        "location": {
            "lat": 23.113722,
            "lng": 106.426361
        },
        "ad_info": {
            "adcode": 451081,
            "province": "广西壮族自治区",
            "city": "百色市",
            "district": "靖西市"
        }
    },
    {
        "id": "12538231145597757456",
        "title": "公共厕所",
        "address": "广西壮族自治区百色市乐业县乐天路与同乐南路交叉口正东方向28米左右",
        "tel": "",
        "category": "基础设施:公共设施:公共厕所",
        "type": 0,
        "location": {
            "lat": 24.782183,
            "lng": 106.558442
        },
        "ad_info": {
            "adcode": 451028,
            "province": "广西壮族自治区",
            "city": "百色市",
            "district": "乐业县"
        }
    },
    {
        "id": "10206873119265032634",
        "title": "公共厕所",
        "address": "广西壮族自治区百色市田林县G324与绕城路交叉口东南方向1030米左右",
        "tel": "",
        "category": "基础设施:公共设施:公共厕所",
        "type": 0,
        "location": {
            "lat": 24.276465,
            "lng": 106.251227
        },
        "ad_info": {
            "adcode": 451029,
            "province": "广西壮族自治区",
            "city": "百色市",
            "district": "田林县"
        }
    },
    {
        "id": "6382866953384653635",
        "title": "卫生间",
        "address": "广西壮族自治区百色市那坡县卧虹二巷与民中路交叉口东南方向194米左右",
        "tel": "",
        "category": "基础设施:公共设施:公共厕所",
        "type": 0,
        "location": {
            "lat": 23.411977,
            "lng": 105.843166
        },
        "ad_info": {
            "adcode": 451026,
            "province": "广西壮族自治区",
            "city": "百色市",
            "district": "那坡县"
        }
    },
    {
        "id": "13973373586043208021",
        "title": "公共厕所",
        "address": "广西壮族自治区百色市田林县汕昆高速与田西高速交叉口东南方向1336米左右",
        "tel": "",
        "category": "基础设施:公共设施:公共厕所",
        "type": 0,
        "location": {
            "lat": 24.4093,
            "lng": 106.104719
        },
        "ad_info": {
            "adcode": 451029,
            "province": "广西壮族自治区",
            "city": "百色市",
            "district": "田林县"
        }
    },
    {
        "id": "15448010361736384025",
        "title": "公共厕所",
        "address": "广西壮族自治区百色市田东县东宁西路与东宁路交叉口正西方向469米左右",
        "tel": "",
        "category": "基础设施:公共设施:公共厕所",
        "type": 0,
        "location": {
            "lat": 23.603693,
            "lng": 107.094096
        },
        "ad_info": {
            "adcode": 451022,
            "province": "广西壮族自治区",
            "city": "百色市",
            "district": "田东县"
        }
    },
    {
        "id": "2163185201548976335",
        "title": "公共厕所",
        "address": "广西壮族自治区百色市平果市韦德科口腔诊所东北侧160米",
        "tel": "",
        "category": "基础设施:公共设施:公共厕所",
        "type": 0,
        "location": {
            "lat": 23.341729,
            "lng": 107.525354
        },
        "ad_info": {
            "adcode": 451082,
            "province": "广西壮族自治区",
            "city": "百色市",
            "district": "平果市"
        }
    },
    {
        "id": "10082775795952283352",
        "title": "公共厕所",
        "address": "广西壮族自治区百色市田阳区210省道西50米",
        "tel": "",
        "category": "基础设施:公共设施:公共厕所",
        "type": 0,
        "location": {
            "lat": 23.511713,
            "lng": 106.837959
        },
        "ad_info": {
            "adcode": 451003,
            "province": "广西壮族自治区",
            "city": "百色市",
            "district": "田阳区"
        }
    },
    {
        "id": "18092773558610979857",
        "title": "公共厕所",
        "address": "广西壮族自治区百色市田阳区G212与大列村公路交叉口西南方向1884米左右",
        "tel": "",
        "category": "基础设施:公共设施:公共厕所",
        "type": 0,
        "location": {
            "lat": 23.516435,
            "lng": 106.849447
        },
        "ad_info": {
            "adcode": 451003,
            "province": "广西壮族自治区",
            "city": "百色市",
            "district": "田阳区"
        }
    },
    {
        "id": "13800821216883464367",
        "title": "公共厕所",
        "address": "广西壮族自治区百色市西林县火亮山三巷与火亮山路交叉口西南方向293米左右",
        "tel": "",
        "category": "基础设施:公共设施:公共厕所",
        "type": 0,
        "location": {
            "lat": 24.485231,
            "lng": 105.088161
        },
        "ad_info": {
            "adcode": 451030,
            "province": "广西壮族自治区",
            "city": "百色市",
            "district": "西林县"
        }
    },
    {
        "id": "11626772232565167584",
        "title": "公共厕所",
        "address": "广西壮族自治区百色市平果市亿鑫商业街与城龙路交叉口正东方向111米左右",
        "tel": "",
        "category": "基础设施:公共设施:公共厕所",
        "type": 0,
        "location": {
            "lat": 23.322728,
            "lng": 107.591208
        },
        "ad_info": {
            "adcode": 451082,
            "province": "广西壮族自治区",
            "city": "百色市",
            "district": "平果市"
        }
    },
    {
        "id": "7644215735631038965",
        "title": "公共厕所",
        "address": "广西壮族自治区百色市田阳区解放东路中国石化三雷加油站",
        "tel": "",
        "category": "基础设施:公共设施:公共厕所",
        "type": 0,
        "location": {
            "lat": 23.748509,
            "lng": 106.935352
        },
        "ad_info": {
            "adcode": 451003,
            "province": "广西壮族自治区",
            "city": "百色市",
            "district": "田阳区"
        }
    },
    {
        "id": "18212038094328299224",
        "title": "公共厕所",
        "address": "广西壮族自治区百色市德保县德保体育馆(象山路南)",
        "tel": "",
        "category": "基础设施:公共设施:公共厕所",
        "type": 0,
        "location": {
            "lat": 23.3259,
            "lng": 106.626871
        },
        "ad_info": {
            "adcode": 451024,
            "province": "广西壮族自治区",
            "city": "百色市",
            "district": "德保县"
        }
    },
    {
        "id": "985670207228181960",
        "title": "公共厕所",
        "address": "广西壮族自治区百色市乐业县三乐路与英华路交叉口正北方向35米左右",
        "tel": "",
        "category": "基础设施:公共设施:公共厕所",
        "type": 0,
        "location": {
            "lat": 24.782651,
            "lng": 106.561142
        },
        "ad_info": {
            "adcode": 451028,
            "province": "广西壮族自治区",
            "city": "百色市",
            "district": "乐业县"
        }
    },
    {
        "id": "13208163805145021786",
        "title": "公共厕所",
        "address": "广西壮族自治区百色市右江区文体巷百色市体育广场(东侧)",
        "tel": "",
        "category": "基础设施:公共设施:公共厕所",
        "type": 0,
        "location": {
            "lat": 23.89654,
            "lng": 106.61957
        },
        "ad_info": {
            "adcode": 451002,
            "province": "广西壮族自治区",
            "city": "百色市",
            "district": "右江区"
        }
    },
    {
        "id": "9425160804491979229",
        "title": "公共厕所",
        "address": "广西壮族自治区百色市平果市七星路与七里路交叉口正北方向25米左右",
        "tel": "",
        "category": "基础设施:公共设施:公共厕所",
        "type": 0,
        "location": {
            "lat": 23.324128,
            "lng": 107.602699
        },
        "ad_info": {
            "adcode": 451082,
            "province": "广西壮族自治区",
            "city": "百色市",
            "district": "平果市"
        }
    },
    {
        "id": "1316597867867087702",
        "title": "公共厕所",
        "address": "广西壮族自治区百色市右江区百色廉政教育展厅东北侧250米",
        "tel": "",
        "category": "基础设施:公共设施:公共厕所",
        "type": 0,
        "location": {
            "lat": 23.905971,
            "lng": 106.638657
        },
        "ad_info": {
            "adcode": 451002,
            "province": "广西壮族自治区",
            "city": "百色市",
            "district": "右江区"
        }
    },
    {
        "id": "6916114194407035327",
        "title": "公共厕所",
        "address": "广西壮族自治区百色市靖西市城东路1323号(贵苑私房菜对面)",
        "tel": "",
        "category": "基础设施:公共设施:公共厕所",
        "type": 0,
        "location": {
            "lat": 23.121771,
            "lng": 106.42708
        },
        "ad_info": {
            "adcode": 451081,
            "province": "广西壮族自治区",
            "city": "百色市",
            "district": "靖西市"
        }
    },
    {
        "id": "2322968601540555045",
        "title": "公共厕所",
        "address": "广西壮族自治区百色市平果市中国石化广西百色平果那厘加油站西北侧210米",
        "tel": "",
        "category": "基础设施:公共设施:公共厕所",
        "type": 0,
        "location": {
            "lat": 23.368037,
            "lng": 107.496612
        },
        "ad_info": {
            "adcode": 451082,
            "province": "广西壮族自治区",
            "city": "百色市",
            "district": "平果市"
        }
    },
    {
        "id": "4237345316603192374",
        "title": "公共厕所",
        "address": "广西壮族自治区百色市田阳区G212与那坡镇互通交叉口东北方向187米左右",
        "tel": "",
        "category": "基础设施:公共设施:公共厕所",
        "type": 0,
        "location": {
            "lat": 23.723923,
            "lng": 106.808128
        },
        "ad_info": {
            "adcode": 451003,
            "province": "广西壮族自治区",
            "city": "百色市",
            "district": "田阳区"
        }
    },
    {
        "id": "13191434584624318650",
        "title": "公共厕所",
        "address": "广西壮族自治区百色市靖西市绣球大道锦绣古镇(东北角)",
        "tel": "",
        "category": "基础设施:公共设施:公共厕所",
        "type": 0,
        "location": {
            "lat": 23.1244,
            "lng": 106.42916
        },
        "ad_info": {
            "adcode": 451081,
            "province": "广西壮族自治区",
            "city": "百色市",
            "district": "靖西市"
        }
    },
    {
        "id": "5243032482777576296",
        "title": "坡洪服务区公共厕所",
        "address": "广西壮族自治区百色市田阳区G69银百高速附近",
        "tel": "",
        "category": "基础设施:公共设施:公共厕所",
        "type": 0,
        "location": {
            "lat": 23.595518,
            "lng": 106.635138
        },
        "ad_info": {
            "adcode": 451003,
            "province": "广西壮族自治区",
            "city": "百色市",
            "district": "田阳区"
        }
    },
    {
        "id": "15036989694084545095",
        "title": "公共厕所",
        "address": "广西壮族自治区百色市德保县上甲街与莲城大街交叉口西北方向76米左右",
        "tel": "",
        "category": "基础设施:公共设施:公共厕所",
        "type": 0,
        "location": {
            "lat": 23.326397,
            "lng": 106.604518
        },
        "ad_info": {
            "adcode": 451024,
            "province": "广西壮族自治区",
            "city": "百色市",
            "district": "德保县"
        }
    },
    {
        "id": "14133762070951325554",
        "title": "坡洪服务区公共厕所",
        "address": "广西壮族自治区百色市田阳区G69银百高速附近",
        "tel": "",
        "category": "基础设施:公共设施:公共厕所",
        "type": 0,
        "location": {
            "lat": 23.596409,
            "lng": 106.633595
        },
        "ad_info": {
            "adcode": 451003,
            "province": "广西壮族自治区",
            "city": "百色市",
            "district": "田阳区"
        }
    },
    {
        "id": "17325750004907429481",
        "title": "公共厕所",
        "address": "广西壮族自治区百色市右江区G323与龙旺大道交叉口正南方向637米左右",
        "tel": "",
        "category": "基础设施:公共设施:公共厕所",
        "type": 0,
        "location": {
            "lat": 23.868757,
            "lng": 106.607521
        },
        "ad_info": {
            "adcode": 451002,
            "province": "广西壮族自治区",
            "city": "百色市",
            "district": "右江区"
        }
    },
    {
        "id": "13794345955751027572",
        "title": "公共厕所",
        "address": "广西壮族自治区百色市田林县南堤路与河南路交叉口正北方向163米左右",
        "tel": "",
        "category": "基础设施:公共设施:公共厕所",
        "type": 0,
        "location": {
            "lat": 24.291178,
            "lng": 106.231247
        },
        "ad_info": {
            "adcode": 451029,
            "province": "广西壮族自治区",
            "city": "百色市",
            "district": "田林县"
        }
    },
    {
        "id": "16882190367120947177",
        "title": "公共厕所",
        "address": "广西壮族自治区百色市靖西市其荣路与绣球大道交叉口正东方向83米左右",
        "tel": "",
        "category": "基础设施:公共设施:公共厕所",
        "type": 0,
        "location": {
            "lat": 23.15617,
            "lng": 106.402949
        },
        "ad_info": {
            "adcode": 451081,
            "province": "广西壮族自治区",
            "city": "百色市",
            "district": "靖西市"
        }
    },
    {
        "id": "2248932039934339620",
        "title": "公共厕所",
        "address": "广西壮族自治区百色市右江区百色星河水上乐园售票处南侧",
        "tel": "",
        "category": "基础设施:公共设施:公共厕所",
        "type": 0,
        "location": {
            "lat": 23.785309,
            "lng": 106.732456
        },
        "ad_info": {
            "adcode": 451002,
            "province": "广西壮族自治区",
            "city": "百色市",
            "district": "右江区"
        }
    },
    {
        "id": "8445517853886345186",
        "title": "公共厕所",
        "address": "广西壮族自治区百色市德保县S216与环城北路交叉口正东方向363米左右",
        "tel": "",
        "category": "基础设施:公共设施:公共厕所",
        "type": 0,
        "location": {
            "lat": 23.330532,
            "lng": 106.595094
        },
        "ad_info": {
            "adcode": 451024,
            "province": "广西壮族自治区",
            "city": "百色市",
            "district": "德保县"
        }
    },
    {
        "id": "11006865458308756542",
        "title": "南华公园公共厕所",
        "address": "广西壮族自治区百色市田东县南中巷13号",
        "tel": "",
        "category": "基础设施:公共设施:公共厕所",
        "type": 0,
        "location": {
            "lat": 23.600693,
            "lng": 107.121301
        },
        "ad_info": {
            "adcode": 451022,
            "province": "广西壮族自治区",
            "city": "百色市",
            "district": "田东县"
        }
    },
    {
        "id": "13764372388094212090",
        "title": "百色北停车区公共厕所",
        "address": "广西壮族自治区百色市右江区百色北停车区加油站东北侧110米",
        "tel": "",
        "category": "基础设施:公共设施:公共厕所",
        "type": 0,
        "location": {
            "lat": 23.956797,
            "lng": 106.748527
        },
        "ad_info": {
            "adcode": 451002,
            "province": "广西壮族自治区",
            "city": "百色市",
            "district": "右江区"
        }
    },
    {
        "id": "3262041198981975520",
        "title": "邦香停车区公共厕所",
        "address": "广西壮族自治区百色市平果市邦香停车区(武平高速公路南)附近",
        "tel": "",
        "category": "基础设施:公共设施:公共厕所",
        "type": 0,
        "location": {
            "lat": 23.440941,
            "lng": 107.879082
        },
        "ad_info": {
            "adcode": 451082,
            "province": "广西壮族自治区",
            "city": "百色市",
            "district": "平果市"
        }
    },
    {
        "id": "2416325344430430316",
        "title": "感驮岩旅游公共厕所",
        "address": "广西壮族自治区百色市那坡县卧虹二巷与民中路交叉口东南方向176米左右",
        "tel": "",
        "category": "基础设施:公共设施:公共厕所",
        "type": 0,
        "location": {
            "lat": 23.412239,
            "lng": 105.843181
        },
        "ad_info": {
            "adcode": 451026,
            "province": "广西壮族自治区",
            "city": "百色市",
            "district": "那坡县"
        }
    },
    {
        "id": "13037264691205262960",
        "title": "西林服务区公共厕所",
        "address": "广西壮族自治区百色市西林县田西高速西林服务区北区加油站东北侧120米",
        "tel": "",
        "category": "基础设施:公共设施:公共厕所",
        "type": 0,
        "location": {
            "lat": 24.485491,
            "lng": 105.026272
        },
        "ad_info": {
            "adcode": 451030,
            "province": "广西壮族自治区",
            "city": "百色市",
            "district": "西林县"
        }
    },
    {
        "id": "291913593604626531",
        "title": "公共厕所",
        "address": "广西壮族自治区百色市田阳区五村镇巴某村",
        "tel": "",
        "category": "基础设施:公共设施:公共厕所",
        "type": 0,
        "location": {
            "lat": 23.523553,
            "lng": 106.755206
        },
        "ad_info": {
            "adcode": 451003,
            "province": "广西壮族自治区",
            "city": "百色市",
            "district": "田阳区"
        }
    },
    {
        "id": "609921812341228379",
        "title": "榜圩服务区公共厕所",
        "address": "广西壮族自治区百色市平果市榜圩服务区南侧",
        "tel": "",
        "category": "基础设施:公共设施:公共厕所",
        "type": 0,
        "location": {
            "lat": 23.734007,
            "lng": 107.573727
        },
        "ad_info": {
            "adcode": 451082,
            "province": "广西壮族自治区",
            "city": "百色市",
            "district": "平果市"
        }
    },
    {
        "id": "2092040891358492413",
        "title": "田阳停车区公共厕所",
        "address": "广西壮族自治区百色市田阳区田阳停车区西50米",
        "tel": "",
        "category": "基础设施:公共设施:公共厕所",
        "type": 0,
        "location": {
            "lat": 23.637199,
            "lng": 106.979518
        },
        "ad_info": {
            "adcode": 451003,
            "province": "广西壮族自治区",
            "city": "百色市",
            "district": "田阳区"
        }
    },
    {
        "id": "1381248628294272834",
        "title": "公共厕所",
        "address": "广西壮族自治区百色市田林县富林路与河南路交叉口西南方向103米左右",
        "tel": "",
        "category": "基础设施:公共设施:公共厕所",
        "type": 0,
        "location": {
            "lat": 24.285979,
            "lng": 106.234093
        },
        "ad_info": {
            "adcode": 451029,
            "province": "广西壮族自治区",
            "city": "百色市",
            "district": "田林县"
        }
    },
    {
        "id": "11322671105887495958",
        "title": "马蚌服务区公共厕所",
        "address": "广西壮族自治区百色市西林县西林田西高速马蚌服务区北区加油站东北侧130米",
        "tel": "",
        "category": "基础设施:公共设施:公共厕所",
        "type": 0,
        "location": {
            "lat": 24.607365,
            "lng": 104.613986
        },
        "ad_info": {
            "adcode": 451030,
            "province": "广西壮族自治区",
            "city": "百色市",
            "district": "西林县"
        }
    },
    {
        "id": "14440335299062616873",
        "title": "上央停车区公共厕所",
        "address": "广西壮族自治区百色市德保县上央停车区与G69银百高速交叉口西320米",
        "tel": "",
        "category": "基础设施:公共设施:公共厕所",
        "type": 0,
        "location": {
            "lat": 23.404088,
            "lng": 106.646273
        },
        "ad_info": {
            "adcode": 451024,
            "province": "广西壮族自治区",
            "city": "百色市",
            "district": "德保县"
        }
    },
    {
        "id": "10004070261114725127",
        "title": "公共厕所",
        "address": "广西壮族自治区百色市右江区那毕大道与龙景西路交叉口正东方向153米左右",
        "tel": "",
        "category": "基础设施:公共设施:公共厕所",
        "type": 0,
        "location": {
            "lat": 23.88988,
            "lng": 106.63199
        },
        "ad_info": {
            "adcode": 451002,
            "province": "广西壮族自治区",
            "city": "百色市",
            "district": "右江区"
        }
    },
    {
        "id": "4429344799206653985",
        "title": "公共厕所",
        "address": "广西壮族自治区百色市右江区西园路与那东巷交叉口正北方向126米左右",
        "tel": "",
        "category": "基础设施:公共设施:公共厕所",
        "type": 0,
        "location": {
            "lat": 23.893146,
            "lng": 106.616289
        },
        "ad_info": {
            "adcode": 451002,
            "province": "广西壮族自治区",
            "city": "百色市",
            "district": "右江区"
        }
    },
    {
        "id": "9771482092548640953",
        "title": "那音停车区公共厕所",
        "address": "广西壮族自治区百色市田阳区那音停车区南50米",
        "tel": "",
        "category": "基础设施:公共设施:公共厕所",
        "type": 0,
        "location": {
            "lat": 23.739013,
            "lng": 106.734319
        },
        "ad_info": {
            "adcode": 451003,
            "province": "广西壮族自治区",
            "city": "百色市",
            "district": "田阳区"
        }
    },
    {
        "id": "10081089695623831335",
        "title": "西林服务区公共厕所",
        "address": "广西壮族自治区百色市西林县西林服务区与贺西高速交叉口西南方向286米左右",
        "tel": "",
        "category": "基础设施:公共设施:公共厕所",
        "type": 0,
        "location": {
            "lat": 24.481661,
            "lng": 105.022534
        },
        "ad_info": {
            "adcode": 451030,
            "province": "广西壮族自治区",
            "city": "百色市",
            "district": "西林县"
        }
    },
    {
        "id": "1352895941982545602",
        "title": "公共厕所",
        "address": "广西壮族自治区百色市右江区那毕大道与龙景西路交叉口正东方向158米左右",
        "tel": "",
        "category": "基础设施:公共设施:公共厕所",
        "type": 0,
        "location": {
            "lat": 23.889157,
            "lng": 106.631966
        },
        "ad_info": {
            "adcode": 451002,
            "province": "广西壮族自治区",
            "city": "百色市",
            "district": "右江区"
        }
    },
    {
        "id": "10268670952353614747",
        "title": "化峒停车区公共厕所",
        "address": "广西壮族自治区百色市靖西市S60合那高速与化峒停车区交叉口西280米",
        "tel": "",
        "category": "基础设施:公共设施:公共厕所",
        "type": 0,
        "location": {
            "lat": 23.040394,
            "lng": 106.463987
        },
        "ad_info": {
            "adcode": 451081,
            "province": "广西壮族自治区",
            "city": "百色市",
            "district": "靖西市"
        }
    },
    {
        "id": "10984220884767276250",
        "title": "公共厕所",
        "address": "广西壮族自治区百色市田东县第二小学东侧110米",
        "tel": "",
        "category": "基础设施:公共设施:公共厕所",
        "type": 0,
        "location": {
            "lat": 23.59943,
            "lng": 107.123965
        },
        "ad_info": {
            "adcode": 451022,
            "province": "广西壮族自治区",
            "city": "百色市",
            "district": "田东县"
        }
    },
    {
        "id": "186105556082707255",
        "title": "雷圩瀑布公共卫生间",
        "address": "广西壮族自治区百色市田阳区五村镇雷圩村琴雷屯东南方位500米处",
        "tel": "15177041990",
        "category": "基础设施:公共设施:公共厕所",
        "type": 0,
        "location": {
            "lat": 23.507968,
            "lng": 106.785259
        },
        "ad_info": {
            "adcode": 451003,
            "province": "广西壮族自治区",
            "city": "百色市",
            "district": "田阳区"
        }
    },
    {
        "id": "15094559812492906735",
        "title": "公共厕所",
        "address": "广西壮族自治区百色市田东县中和路与中山路交叉口正西方向72米左右",
        "tel": "",
        "category": "基础设施:公共设施:公共厕所",
        "type": 0,
        "location": {
            "lat": 23.598861,
            "lng": 107.115337
        },
        "ad_info": {
            "adcode": 451022,
            "province": "广西壮族自治区",
            "city": "百色市",
            "district": "田东县"
        }
    },
    {
        "id": "9772460663549792434",
        "title": "马蚌服务区公共厕所",
        "address": "广西壮族自治区百色市西林县中国石化广西百色田西高速马蚌服务区南区加油加气站西南侧140米",
        "tel": "",
        "category": "基础设施:公共设施:公共厕所",
        "type": 0,
        "location": {
            "lat": 24.623678,
            "lng": 104.587993
        },
        "ad_info": {
            "adcode": 451030,
            "province": "广西壮族自治区",
            "city": "百色市",
            "district": "西林县"
        }
    },
    {
        "id": "5166050048219396298",
        "title": "公共厕所",
        "address": "广西壮族自治区百色市平果市朝阳路与迎宾大道交叉口正西方向1009米左右",
        "tel": "",
        "category": "基础设施:公共设施:公共厕所",
        "type": 0,
        "location": {
            "lat": 23.297907,
            "lng": 107.58126
        },
        "ad_info": {
            "adcode": 451082,
            "province": "广西壮族自治区",
            "city": "百色市",
            "district": "平果市"
        }
    },
    {
        "id": "12000309658154308935",
        "title": "公共厕所",
        "address": "广西壮族自治区百色市德保县樵夫田园东南侧240米",
        "tel": "",
        "category": "基础设施:公共设施:公共厕所",
        "type": 0,
        "location": {
            "lat": 23.164972,
            "lng": 106.674216
        },
        "ad_info": {
            "adcode": 451024,
            "province": "广西壮族自治区",
            "city": "百色市",
            "district": "德保县"
        }
    },
    {
        "id": "12261803773469917785",
        "title": "渠来停车区公共厕所",
        "address": "广西壮族自治区百色市靖西市渠来停车区东50米",
        "tel": "",
        "category": "基础设施:公共设施:公共厕所",
        "type": 0,
        "location": {
            "lat": 23.151077,
            "lng": 106.506418
        },
        "ad_info": {
            "adcode": 451081,
            "province": "广西壮族自治区",
            "city": "百色市",
            "district": "靖西市"
        }
    },
    {
        "id": "5990696144992295825",
        "title": "公共厕所",
        "address": "广西壮族自治区百色市靖西市万吉路与绣球大道交叉口西北方向381米左右",
        "tel": "",
        "category": "基础设施:公共设施:公共厕所",
        "type": 0,
        "location": {
            "lat": 23.171433,
            "lng": 106.391465
        },
        "ad_info": {
            "adcode": 451081,
            "province": "广西壮族自治区",
            "city": "百色市",
            "district": "靖西市"
        }
    },
    {
        "id": "5664415797093449814",
        "title": "隆林停车区公共厕所",
        "address": "广西壮族自治区百色市隆林各族自治县板坝互通与隆广高速交叉口东北方向542米左右",
        "tel": "",
        "category": "基础设施:公共设施:公共厕所",
        "type": 0,
        "location": {
            "lat": 24.77561,
            "lng": 105.529128
        },
        "ad_info": {
            "adcode": 451031,
            "province": "广西壮族自治区",
            "city": "百色市",
            "district": "隆林各族自治县"
        }
    },
    {
        "id": "6346855542380309080",
        "title": "公共厕所",
        "address": "广西壮族自治区百色市平果市坡造镇中心卫生院东侧220米",
        "tel": "",
        "category": "基础设施:公共设施:公共厕所",
        "type": 0,
        "location": {
            "lat": 23.439548,
            "lng": 107.712176
        },
        "ad_info": {
            "adcode": 451082,
            "province": "广西壮族自治区",
            "city": "百色市",
            "district": "平果市"
        }
    },
    {
        "id": "3094485821589236191",
        "title": "公共厕所",
        "address": "广西壮族自治区百色市靖西市凤凰路与绣球大道交叉口东南方向406米左右",
        "tel": "",
        "category": "基础设施:公共设施:公共厕所",
        "type": 0,
        "location": {
            "lat": 23.113132,
            "lng": 106.428533
        },
        "ad_info": {
            "adcode": 451081,
            "province": "广西壮族自治区",
            "city": "百色市",
            "district": "靖西市"
        }
    },
    {
        "id": "17023358202043187658",
        "title": "公共厕所",
        "address": "广西壮族自治区百色市平果市太平镇吉林村局鲁屯304号",
        "tel": "",
        "category": "基础设施:公共设施:公共厕所",
        "type": 0,
        "location": {
            "lat": 23.568974,
            "lng": 107.445371
        },
        "ad_info": {
            "adcode": 451082,
            "province": "广西壮族自治区",
            "city": "百色市",
            "district": "平果市"
        }
    },
    {
        "id": "4960864314974573332",
        "title": "公共厕所",
        "address": "广西壮族自治区百色市平果市铝城大道辅路与铭城大道南六巷交叉口正东方向159米左右",
        "tel": "",
        "category": "基础设施:公共设施:公共厕所",
        "type": 0,
        "location": {
            "lat": 23.330341,
            "lng": 107.603842
        },
        "ad_info": {
            "adcode": 451082,
            "province": "广西壮族自治区",
            "city": "百色市",
            "district": "平果市"
        }
    },
    {
        "id": "18183394984971036338",
        "title": "那音停车区公共厕所",
        "address": "广西壮族自治区百色市田阳区那音停车区北50米",
        "tel": "",
        "category": "基础设施:公共设施:公共厕所",
        "type": 0,
        "location": {
            "lat": 23.740582,
            "lng": 106.734853
        },
        "ad_info": {
            "adcode": 451003,
            "province": "广西壮族自治区",
            "city": "百色市",
            "district": "田阳区"
        }
    },
    {
        "id": "10004070261114725127",
        "title": "公共厕所",
        "address": "广西壮族自治区百色市右江区那毕大道与龙景西路交叉口正东方向153米左右",
        "tel": "",
        "category": "基础设施:公共设施:公共厕所",
        "type": 0,
        "location": {
            "lat": 23.88988,
            "lng": 106.63199
        },
        "ad_info": {
            "adcode": 451002,
            "province": "广西壮族自治区",
            "city": "百色市",
            "district": "右江区"
        }
    },
    {
        "id": "4429344799206653985",
        "title": "公共厕所",
        "address": "广西壮族自治区百色市右江区西园路与那东巷交叉口正北方向126米左右",
        "tel": "",
        "category": "基础设施:公共设施:公共厕所",
        "type": 0,
        "location": {
            "lat": 23.893146,
            "lng": 106.616289
        },
        "ad_info": {
            "adcode": 451002,
            "province": "广西壮族自治区",
            "city": "百色市",
            "district": "右江区"
        }
    },
    {
        "id": "9771482092548640953",
        "title": "那音停车区公共厕所",
        "address": "广西壮族自治区百色市田阳区那音停车区南50米",
        "tel": "",
        "category": "基础设施:公共设施:公共厕所",
        "type": 0,
        "location": {
            "lat": 23.739013,
            "lng": 106.734319
        },
        "ad_info": {
            "adcode": 451003,
            "province": "广西壮族自治区",
            "city": "百色市",
            "district": "田阳区"
        }
    },
    {
        "id": "10081089695623831335",
        "title": "西林服务区公共厕所",
        "address": "广西壮族自治区百色市西林县西林服务区与贺西高速交叉口西南方向286米左右",
        "tel": "",
        "category": "基础设施:公共设施:公共厕所",
        "type": 0,
        "location": {
            "lat": 24.481661,
            "lng": 105.022534
        },
        "ad_info": {
            "adcode": 451030,
            "province": "广西壮族自治区",
            "city": "百色市",
            "district": "西林县"
        }
    },
    {
        "id": "1352895941982545602",
        "title": "公共厕所",
        "address": "广西壮族自治区百色市右江区那毕大道与龙景西路交叉口正东方向158米左右",
        "tel": "",
        "category": "基础设施:公共设施:公共厕所",
        "type": 0,
        "location": {
            "lat": 23.889157,
            "lng": 106.631966
        },
        "ad_info": {
            "adcode": 451002,
            "province": "广西壮族自治区",
            "city": "百色市",
            "district": "右江区"
        }
    },
    {
        "id": "10268670952353614747",
        "title": "化峒停车区公共厕所",
        "address": "广西壮族自治区百色市靖西市S60合那高速与化峒停车区交叉口西280米",
        "tel": "",
        "category": "基础设施:公共设施:公共厕所",
        "type": 0,
        "location": {
            "lat": 23.040394,
            "lng": 106.463987
        },
        "ad_info": {
            "adcode": 451081,
            "province": "广西壮族自治区",
            "city": "百色市",
            "district": "靖西市"
        }
    },
    {
        "id": "10984220884767276250",
        "title": "公共厕所",
        "address": "广西壮族自治区百色市田东县第二小学东侧110米",
        "tel": "",
        "category": "基础设施:公共设施:公共厕所",
        "type": 0,
        "location": {
            "lat": 23.59943,
            "lng": 107.123965
        },
        "ad_info": {
            "adcode": 451022,
            "province": "广西壮族自治区",
            "city": "百色市",
            "district": "田东县"
        }
    },
    {
        "id": "186105556082707255",
        "title": "雷圩瀑布公共卫生间",
        "address": "广西壮族自治区百色市田阳区五村镇雷圩村琴雷屯东南方位500米处",
        "tel": "15177041990",
        "category": "基础设施:公共设施:公共厕所",
        "type": 0,
        "location": {
            "lat": 23.507968,
            "lng": 106.785259
        },
        "ad_info": {
            "adcode": 451003,
            "province": "广西壮族自治区",
            "city": "百色市",
            "district": "田阳区"
        }
    },
    {
        "id": "15094559812492906735",
        "title": "公共厕所",
        "address": "广西壮族自治区百色市田东县中和路与中山路交叉口正西方向72米左右",
        "tel": "",
        "category": "基础设施:公共设施:公共厕所",
        "type": 0,
        "location": {
            "lat": 23.598861,
            "lng": 107.115337
        },
        "ad_info": {
            "adcode": 451022,
            "province": "广西壮族自治区",
            "city": "百色市",
            "district": "田东县"
        }
    },
    {
        "id": "9772460663549792434",
        "title": "马蚌服务区公共厕所",
        "address": "广西壮族自治区百色市西林县中国石化广西百色田西高速马蚌服务区南区加油加气站西南侧140米",
        "tel": "",
        "category": "基础设施:公共设施:公共厕所",
        "type": 0,
        "location": {
            "lat": 24.623678,
            "lng": 104.587993
        },
        "ad_info": {
            "adcode": 451030,
            "province": "广西壮族自治区",
            "city": "百色市",
            "district": "西林县"
        }
    },
    {
        "id": "5166050048219396298",
        "title": "公共厕所",
        "address": "广西壮族自治区百色市平果市朝阳路与迎宾大道交叉口正西方向1009米左右",
        "tel": "",
        "category": "基础设施:公共设施:公共厕所",
        "type": 0,
        "location": {
            "lat": 23.297907,
            "lng": 107.58126
        },
        "ad_info": {
            "adcode": 451082,
            "province": "广西壮族自治区",
            "city": "百色市",
            "district": "平果市"
        }
    },
    {
        "id": "12000309658154308935",
        "title": "公共厕所",
        "address": "广西壮族自治区百色市德保县樵夫田园东南侧240米",
        "tel": "",
        "category": "基础设施:公共设施:公共厕所",
        "type": 0,
        "location": {
            "lat": 23.164972,
            "lng": 106.674216
        },
        "ad_info": {
            "adcode": 451024,
            "province": "广西壮族自治区",
            "city": "百色市",
            "district": "德保县"
        }
    },
    {
        "id": "12261803773469917785",
        "title": "渠来停车区公共厕所",
        "address": "广西壮族自治区百色市靖西市渠来停车区东50米",
        "tel": "",
        "category": "基础设施:公共设施:公共厕所",
        "type": 0,
        "location": {
            "lat": 23.151077,
            "lng": 106.506418
        },
        "ad_info": {
            "adcode": 451081,
            "province": "广西壮族自治区",
            "city": "百色市",
            "district": "靖西市"
        }
    },
    {
        "id": "5990696144992295825",
        "title": "公共厕所",
        "address": "广西壮族自治区百色市靖西市万吉路与绣球大道交叉口西北方向381米左右",
        "tel": "",
        "category": "基础设施:公共设施:公共厕所",
        "type": 0,
        "location": {
            "lat": 23.171433,
            "lng": 106.391465
        },
        "ad_info": {
            "adcode": 451081,
            "province": "广西壮族自治区",
            "city": "百色市",
            "district": "靖西市"
        }
    },
    {
        "id": "5664415797093449814",
        "title": "隆林停车区公共厕所",
        "address": "广西壮族自治区百色市隆林各族自治县板坝互通与隆广高速交叉口东北方向542米左右",
        "tel": "",
        "category": "基础设施:公共设施:公共厕所",
        "type": 0,
        "location": {
            "lat": 24.77561,
            "lng": 105.529128
        },
        "ad_info": {
            "adcode": 451031,
            "province": "广西壮族自治区",
            "city": "百色市",
            "district": "隆林各族自治县"
        }
    },
    {
        "id": "6346855542380309080",
        "title": "公共厕所",
        "address": "广西壮族自治区百色市平果市坡造镇中心卫生院东侧220米",
        "tel": "",
        "category": "基础设施:公共设施:公共厕所",
        "type": 0,
        "location": {
            "lat": 23.439548,
            "lng": 107.712176
        },
        "ad_info": {
            "adcode": 451082,
            "province": "广西壮族自治区",
            "city": "百色市",
            "district": "平果市"
        }
    },
    {
        "id": "3094485821589236191",
        "title": "公共厕所",
        "address": "广西壮族自治区百色市靖西市凤凰路与绣球大道交叉口东南方向406米左右",
        "tel": "",
        "category": "基础设施:公共设施:公共厕所",
        "type": 0,
        "location": {
            "lat": 23.113132,
            "lng": 106.428533
        },
        "ad_info": {
            "adcode": 451081,
            "province": "广西壮族自治区",
            "city": "百色市",
            "district": "靖西市"
        }
    },
    {
        "id": "17023358202043187658",
        "title": "公共厕所",
        "address": "广西壮族自治区百色市平果市太平镇吉林村局鲁屯304号",
        "tel": "",
        "category": "基础设施:公共设施:公共厕所",
        "type": 0,
        "location": {
            "lat": 23.568974,
            "lng": 107.445371
        },
        "ad_info": {
            "adcode": 451082,
            "province": "广西壮族自治区",
            "city": "百色市",
            "district": "平果市"
        }
    },
    {
        "id": "4960864314974573332",
        "title": "公共厕所",
        "address": "广西壮族自治区百色市平果市铝城大道辅路与铭城大道南六巷交叉口正东方向159米左右",
        "tel": "",
        "category": "基础设施:公共设施:公共厕所",
        "type": 0,
        "location": {
            "lat": 23.330341,
            "lng": 107.603842
        },
        "ad_info": {
            "adcode": 451082,
            "province": "广西壮族自治区",
            "city": "百色市",
            "district": "平果市"
        }
    },
    {
        "id": "18183394984971036338",
        "title": "那音停车区公共厕所",
        "address": "广西壮族自治区百色市田阳区那音停车区北50米",
        "tel": "",
        "category": "基础设施:公共设施:公共厕所",
        "type": 0,
        "location": {
            "lat": 23.740582,
            "lng": 106.734853
        },
        "ad_info": {
            "adcode": 451003,
            "province": "广西壮族自治区",
            "city": "百色市",
            "district": "田阳区"
        }
    },
    {
        "id": "10004070261114725127",
        "title": "公共厕所",
        "address": "广西壮族自治区百色市右江区那毕大道与龙景西路交叉口正东方向153米左右",
        "tel": "",
        "category": "基础设施:公共设施:公共厕所",
        "type": 0,
        "location": {
            "lat": 23.88988,
            "lng": 106.63199
        },
        "ad_info": {
            "adcode": 451002,
            "province": "广西壮族自治区",
            "city": "百色市",
            "district": "右江区"
        }
    },
    {
        "id": "4429344799206653985",
        "title": "公共厕所",
        "address": "广西壮族自治区百色市右江区西园路与那东巷交叉口正北方向126米左右",
        "tel": "",
        "category": "基础设施:公共设施:公共厕所",
        "type": 0,
        "location": {
            "lat": 23.893146,
            "lng": 106.616289
        },
        "ad_info": {
            "adcode": 451002,
            "province": "广西壮族自治区",
            "city": "百色市",
            "district": "右江区"
        }
    },
    {
        "id": "9771482092548640953",
        "title": "那音停车区公共厕所",
        "address": "广西壮族自治区百色市田阳区那音停车区南50米",
        "tel": "",
        "category": "基础设施:公共设施:公共厕所",
        "type": 0,
        "location": {
            "lat": 23.739013,
            "lng": 106.734319
        },
        "ad_info": {
            "adcode": 451003,
            "province": "广西壮族自治区",
            "city": "百色市",
            "district": "田阳区"
        }
    },
    {
        "id": "10081089695623831335",
        "title": "西林服务区公共厕所",
        "address": "广西壮族自治区百色市西林县西林服务区与贺西高速交叉口西南方向286米左右",
        "tel": "",
        "category": "基础设施:公共设施:公共厕所",
        "type": 0,
        "location": {
            "lat": 24.481661,
            "lng": 105.022534
        },
        "ad_info": {
            "adcode": 451030,
            "province": "广西壮族自治区",
            "city": "百色市",
            "district": "西林县"
        }
    },
    {
        "id": "1352895941982545602",
        "title": "公共厕所",
        "address": "广西壮族自治区百色市右江区那毕大道与龙景西路交叉口正东方向158米左右",
        "tel": "",
        "category": "基础设施:公共设施:公共厕所",
        "type": 0,
        "location": {
            "lat": 23.889157,
            "lng": 106.631966
        },
        "ad_info": {
            "adcode": 451002,
            "province": "广西壮族自治区",
            "city": "百色市",
            "district": "右江区"
        }
    },
    {
        "id": "10268670952353614747",
        "title": "化峒停车区公共厕所",
        "address": "广西壮族自治区百色市靖西市S60合那高速与化峒停车区交叉口西280米",
        "tel": "",
        "category": "基础设施:公共设施:公共厕所",
        "type": 0,
        "location": {
            "lat": 23.040394,
            "lng": 106.463987
        },
        "ad_info": {
            "adcode": 451081,
            "province": "广西壮族自治区",
            "city": "百色市",
            "district": "靖西市"
        }
    },
    {
        "id": "10984220884767276250",
        "title": "公共厕所",
        "address": "广西壮族自治区百色市田东县第二小学东侧110米",
        "tel": "",
        "category": "基础设施:公共设施:公共厕所",
        "type": 0,
        "location": {
            "lat": 23.59943,
            "lng": 107.123965
        },
        "ad_info": {
            "adcode": 451022,
            "province": "广西壮族自治区",
            "city": "百色市",
            "district": "田东县"
        }
    },
    {
        "id": "186105556082707255",
        "title": "雷圩瀑布公共卫生间",
        "address": "广西壮族自治区百色市田阳区五村镇雷圩村琴雷屯东南方位500米处",
        "tel": "15177041990",
        "category": "基础设施:公共设施:公共厕所",
        "type": 0,
        "location": {
            "lat": 23.507968,
            "lng": 106.785259
        },
        "ad_info": {
            "adcode": 451003,
            "province": "广西壮族自治区",
            "city": "百色市",
            "district": "田阳区"
        }
    },
    {
        "id": "15094559812492906735",
        "title": "公共厕所",
        "address": "广西壮族自治区百色市田东县中和路与中山路交叉口正西方向72米左右",
        "tel": "",
        "category": "基础设施:公共设施:公共厕所",
        "type": 0,
        "location": {
            "lat": 23.598861,
            "lng": 107.115337
        },
        "ad_info": {
            "adcode": 451022,
            "province": "广西壮族自治区",
            "city": "百色市",
            "district": "田东县"
        }
    },
    {
        "id": "9772460663549792434",
        "title": "马蚌服务区公共厕所",
        "address": "广西壮族自治区百色市西林县中国石化广西百色田西高速马蚌服务区南区加油加气站西南侧140米",
        "tel": "",
        "category": "基础设施:公共设施:公共厕所",
        "type": 0,
        "location": {
            "lat": 24.623678,
            "lng": 104.587993
        },
        "ad_info": {
            "adcode": 451030,
            "province": "广西壮族自治区",
            "city": "百色市",
            "district": "西林县"
        }
    },
    {
        "id": "5166050048219396298",
        "title": "公共厕所",
        "address": "广西壮族自治区百色市平果市朝阳路与迎宾大道交叉口正西方向1009米左右",
        "tel": "",
        "category": "基础设施:公共设施:公共厕所",
        "type": 0,
        "location": {
            "lat": 23.297907,
            "lng": 107.58126
        },
        "ad_info": {
            "adcode": 451082,
            "province": "广西壮族自治区",
            "city": "百色市",
            "district": "平果市"
        }
    },
    {
        "id": "12000309658154308935",
        "title": "公共厕所",
        "address": "广西壮族自治区百色市德保县樵夫田园东南侧240米",
        "tel": "",
        "category": "基础设施:公共设施:公共厕所",
        "type": 0,
        "location": {
            "lat": 23.164972,
            "lng": 106.674216
        },
        "ad_info": {
            "adcode": 451024,
            "province": "广西壮族自治区",
            "city": "百色市",
            "district": "德保县"
        }
    },
    {
        "id": "12261803773469917785",
        "title": "渠来停车区公共厕所",
        "address": "广西壮族自治区百色市靖西市渠来停车区东50米",
        "tel": "",
        "category": "基础设施:公共设施:公共厕所",
        "type": 0,
        "location": {
            "lat": 23.151077,
            "lng": 106.506418
        },
        "ad_info": {
            "adcode": 451081,
            "province": "广西壮族自治区",
            "city": "百色市",
            "district": "靖西市"
        }
    },
    {
        "id": "5990696144992295825",
        "title": "公共厕所",
        "address": "广西壮族自治区百色市靖西市万吉路与绣球大道交叉口西北方向381米左右",
        "tel": "",
        "category": "基础设施:公共设施:公共厕所",
        "type": 0,
        "location": {
            "lat": 23.171433,
            "lng": 106.391465
        },
        "ad_info": {
            "adcode": 451081,
            "province": "广西壮族自治区",
            "city": "百色市",
            "district": "靖西市"
        }
    },
    {
        "id": "5664415797093449814",
        "title": "隆林停车区公共厕所",
        "address": "广西壮族自治区百色市隆林各族自治县板坝互通与隆广高速交叉口东北方向542米左右",
        "tel": "",
        "category": "基础设施:公共设施:公共厕所",
        "type": 0,
        "location": {
            "lat": 24.77561,
            "lng": 105.529128
        },
        "ad_info": {
            "adcode": 451031,
            "province": "广西壮族自治区",
            "city": "百色市",
            "district": "隆林各族自治县"
        }
    },
    {
        "id": "6346855542380309080",
        "title": "公共厕所",
        "address": "广西壮族自治区百色市平果市坡造镇中心卫生院东侧220米",
        "tel": "",
        "category": "基础设施:公共设施:公共厕所",
        "type": 0,
        "location": {
            "lat": 23.439548,
            "lng": 107.712176
        },
        "ad_info": {
            "adcode": 451082,
            "province": "广西壮族自治区",
            "city": "百色市",
            "district": "平果市"
        }
    },
    {
        "id": "3094485821589236191",
        "title": "公共厕所",
        "address": "广西壮族自治区百色市靖西市凤凰路与绣球大道交叉口东南方向406米左右",
        "tel": "",
        "category": "基础设施:公共设施:公共厕所",
        "type": 0,
        "location": {
            "lat": 23.113132,
            "lng": 106.428533
        },
        "ad_info": {
            "adcode": 451081,
            "province": "广西壮族自治区",
            "city": "百色市",
            "district": "靖西市"
        }
    },
    {
        "id": "17023358202043187658",
        "title": "公共厕所",
        "address": "广西壮族自治区百色市平果市太平镇吉林村局鲁屯304号",
        "tel": "",
        "category": "基础设施:公共设施:公共厕所",
        "type": 0,
        "location": {
            "lat": 23.568974,
            "lng": 107.445371
        },
        "ad_info": {
            "adcode": 451082,
            "province": "广西壮族自治区",
            "city": "百色市",
            "district": "平果市"
        }
    },
    {
        "id": "4960864314974573332",
        "title": "公共厕所",
        "address": "广西壮族自治区百色市平果市铝城大道辅路与铭城大道南六巷交叉口正东方向159米左右",
        "tel": "",
        "category": "基础设施:公共设施:公共厕所",
        "type": 0,
        "location": {
            "lat": 23.330341,
            "lng": 107.603842
        },
        "ad_info": {
            "adcode": 451082,
            "province": "广西壮族自治区",
            "city": "百色市",
            "district": "平果市"
        }
    },
    {
        "id": "18183394984971036338",
        "title": "那音停车区公共厕所",
        "address": "广西壮族自治区百色市田阳区那音停车区北50米",
        "tel": "",
        "category": "基础设施:公共设施:公共厕所",
        "type": 0,
        "location": {
            "lat": 23.740582,
            "lng": 106.734853
        },
        "ad_info": {
            "adcode": 451003,
            "province": "广西壮族自治区",
            "city": "百色市",
            "district": "田阳区"
        }
    },
    {
        "id": "10004070261114725127",
        "title": "公共厕所",
        "address": "广西壮族自治区百色市右江区那毕大道与龙景西路交叉口正东方向153米左右",
        "tel": "",
        "category": "基础设施:公共设施:公共厕所",
        "type": 0,
        "location": {
            "lat": 23.88988,
            "lng": 106.63199
        },
        "ad_info": {
            "adcode": 451002,
            "province": "广西壮族自治区",
            "city": "百色市",
            "district": "右江区"
        }
    },
    {
        "id": "4429344799206653985",
        "title": "公共厕所",
        "address": "广西壮族自治区百色市右江区西园路与那东巷交叉口正北方向126米左右",
        "tel": "",
        "category": "基础设施:公共设施:公共厕所",
        "type": 0,
        "location": {
            "lat": 23.893146,
            "lng": 106.616289
        },
        "ad_info": {
            "adcode": 451002,
            "province": "广西壮族自治区",
            "city": "百色市",
            "district": "右江区"
        }
    },
    {
        "id": "9771482092548640953",
        "title": "那音停车区公共厕所",
        "address": "广西壮族自治区百色市田阳区那音停车区南50米",
        "tel": "",
        "category": "基础设施:公共设施:公共厕所",
        "type": 0,
        "location": {
            "lat": 23.739013,
            "lng": 106.734319
        },
        "ad_info": {
            "adcode": 451003,
            "province": "广西壮族自治区",
            "city": "百色市",
            "district": "田阳区"
        }
    },
    {
        "id": "10081089695623831335",
        "title": "西林服务区公共厕所",
        "address": "广西壮族自治区百色市西林县西林服务区与贺西高速交叉口西南方向286米左右",
        "tel": "",
        "category": "基础设施:公共设施:公共厕所",
        "type": 0,
        "location": {
            "lat": 24.481661,
            "lng": 105.022534
        },
        "ad_info": {
            "adcode": 451030,
            "province": "广西壮族自治区",
            "city": "百色市",
            "district": "西林县"
        }
    },
    {
        "id": "1352895941982545602",
        "title": "公共厕所",
        "address": "广西壮族自治区百色市右江区那毕大道与龙景西路交叉口正东方向158米左右",
        "tel": "",
        "category": "基础设施:公共设施:公共厕所",
        "type": 0,
        "location": {
            "lat": 23.889157,
            "lng": 106.631966
        },
        "ad_info": {
            "adcode": 451002,
            "province": "广西壮族自治区",
            "city": "百色市",
            "district": "右江区"
        }
    },
    {
        "id": "10268670952353614747",
        "title": "化峒停车区公共厕所",
        "address": "广西壮族自治区百色市靖西市S60合那高速与化峒停车区交叉口西280米",
        "tel": "",
        "category": "基础设施:公共设施:公共厕所",
        "type": 0,
        "location": {
            "lat": 23.040394,
            "lng": 106.463987
        },
        "ad_info": {
            "adcode": 451081,
            "province": "广西壮族自治区",
            "city": "百色市",
            "district": "靖西市"
        }
    },
    {
        "id": "10984220884767276250",
        "title": "公共厕所",
        "address": "广西壮族自治区百色市田东县第二小学东侧110米",
        "tel": "",
        "category": "基础设施:公共设施:公共厕所",
        "type": 0,
        "location": {
            "lat": 23.59943,
            "lng": 107.123965
        },
        "ad_info": {
            "adcode": 451022,
            "province": "广西壮族自治区",
            "city": "百色市",
            "district": "田东县"
        }
    },
    {
        "id": "186105556082707255",
        "title": "雷圩瀑布公共卫生间",
        "address": "广西壮族自治区百色市田阳区五村镇雷圩村琴雷屯东南方位500米处",
        "tel": "15177041990",
        "category": "基础设施:公共设施:公共厕所",
        "type": 0,
        "location": {
            "lat": 23.507968,
            "lng": 106.785259
        },
        "ad_info": {
            "adcode": 451003,
            "province": "广西壮族自治区",
            "city": "百色市",
            "district": "田阳区"
        }
    },
    {
        "id": "15094559812492906735",
        "title": "公共厕所",
        "address": "广西壮族自治区百色市田东县中和路与中山路交叉口正西方向72米左右",
        "tel": "",
        "category": "基础设施:公共设施:公共厕所",
        "type": 0,
        "location": {
            "lat": 23.598861,
            "lng": 107.115337
        },
        "ad_info": {
            "adcode": 451022,
            "province": "广西壮族自治区",
            "city": "百色市",
            "district": "田东县"
        }
    },
    {
        "id": "9772460663549792434",
        "title": "马蚌服务区公共厕所",
        "address": "广西壮族自治区百色市西林县中国石化广西百色田西高速马蚌服务区南区加油加气站西南侧140米",
        "tel": "",
        "category": "基础设施:公共设施:公共厕所",
        "type": 0,
        "location": {
            "lat": 24.623678,
            "lng": 104.587993
        },
        "ad_info": {
            "adcode": 451030,
            "province": "广西壮族自治区",
            "city": "百色市",
            "district": "西林县"
        }
    },
    {
        "id": "5166050048219396298",
        "title": "公共厕所",
        "address": "广西壮族自治区百色市平果市朝阳路与迎宾大道交叉口正西方向1009米左右",
        "tel": "",
        "category": "基础设施:公共设施:公共厕所",
        "type": 0,
        "location": {
            "lat": 23.297907,
            "lng": 107.58126
        },
        "ad_info": {
            "adcode": 451082,
            "province": "广西壮族自治区",
            "city": "百色市",
            "district": "平果市"
        }
    },
    {
        "id": "12000309658154308935",
        "title": "公共厕所",
        "address": "广西壮族自治区百色市德保县樵夫田园东南侧240米",
        "tel": "",
        "category": "基础设施:公共设施:公共厕所",
        "type": 0,
        "location": {
            "lat": 23.164972,
            "lng": 106.674216
        },
        "ad_info": {
            "adcode": 451024,
            "province": "广西壮族自治区",
            "city": "百色市",
            "district": "德保县"
        }
    },
    {
        "id": "12261803773469917785",
        "title": "渠来停车区公共厕所",
        "address": "广西壮族自治区百色市靖西市渠来停车区东50米",
        "tel": "",
        "category": "基础设施:公共设施:公共厕所",
        "type": 0,
        "location": {
            "lat": 23.151077,
            "lng": 106.506418
        },
        "ad_info": {
            "adcode": 451081,
            "province": "广西壮族自治区",
            "city": "百色市",
            "district": "靖西市"
        }
    },
    {
        "id": "5990696144992295825",
        "title": "公共厕所",
        "address": "广西壮族自治区百色市靖西市万吉路与绣球大道交叉口西北方向381米左右",
        "tel": "",
        "category": "基础设施:公共设施:公共厕所",
        "type": 0,
        "location": {
            "lat": 23.171433,
            "lng": 106.391465
        },
        "ad_info": {
            "adcode": 451081,
            "province": "广西壮族自治区",
            "city": "百色市",
            "district": "靖西市"
        }
    },
    {
        "id": "5664415797093449814",
        "title": "隆林停车区公共厕所",
        "address": "广西壮族自治区百色市隆林各族自治县板坝互通与隆广高速交叉口东北方向542米左右",
        "tel": "",
        "category": "基础设施:公共设施:公共厕所",
        "type": 0,
        "location": {
            "lat": 24.77561,
            "lng": 105.529128
        },
        "ad_info": {
            "adcode": 451031,
            "province": "广西壮族自治区",
            "city": "百色市",
            "district": "隆林各族自治县"
        }
    },
    {
        "id": "6346855542380309080",
        "title": "公共厕所",
        "address": "广西壮族自治区百色市平果市坡造镇中心卫生院东侧220米",
        "tel": "",
        "category": "基础设施:公共设施:公共厕所",
        "type": 0,
        "location": {
            "lat": 23.439548,
            "lng": 107.712176
        },
        "ad_info": {
            "adcode": 451082,
            "province": "广西壮族自治区",
            "city": "百色市",
            "district": "平果市"
        }
    },
    {
        "id": "3094485821589236191",
        "title": "公共厕所",
        "address": "广西壮族自治区百色市靖西市凤凰路与绣球大道交叉口东南方向406米左右",
        "tel": "",
        "category": "基础设施:公共设施:公共厕所",
        "type": 0,
        "location": {
            "lat": 23.113132,
            "lng": 106.428533
        },
        "ad_info": {
            "adcode": 451081,
            "province": "广西壮族自治区",
            "city": "百色市",
            "district": "靖西市"
        }
    },
    {
        "id": "17023358202043187658",
        "title": "公共厕所",
        "address": "广西壮族自治区百色市平果市太平镇吉林村局鲁屯304号",
        "tel": "",
        "category": "基础设施:公共设施:公共厕所",
        "type": 0,
        "location": {
            "lat": 23.568974,
            "lng": 107.445371
        },
        "ad_info": {
            "adcode": 451082,
            "province": "广西壮族自治区",
            "city": "百色市",
            "district": "平果市"
        }
    },
    {
        "id": "4960864314974573332",
        "title": "公共厕所",
        "address": "广西壮族自治区百色市平果市铝城大道辅路与铭城大道南六巷交叉口正东方向159米左右",
        "tel": "",
        "category": "基础设施:公共设施:公共厕所",
        "type": 0,
        "location": {
            "lat": 23.330341,
            "lng": 107.603842
        },
        "ad_info": {
            "adcode": 451082,
            "province": "广西壮族自治区",
            "city": "百色市",
            "district": "平果市"
        }
    },
    {
        "id": "18183394984971036338",
        "title": "那音停车区公共厕所",
        "address": "广西壮族自治区百色市田阳区那音停车区北50米",
        "tel": "",
        "category": "基础设施:公共设施:公共厕所",
        "type": 0,
        "location": {
            "lat": 23.740582,
            "lng": 106.734853
        },
        "ad_info": {
            "adcode": 451003,
            "province": "广西壮族自治区",
            "city": "百色市",
            "district": "田阳区"
        }
    },
    {
        "id": "10004070261114725127",
        "title": "公共厕所",
        "address": "广西壮族自治区百色市右江区那毕大道与龙景西路交叉口正东方向153米左右",
        "tel": "",
        "category": "基础设施:公共设施:公共厕所",
        "type": 0,
        "location": {
            "lat": 23.88988,
            "lng": 106.63199
        },
        "ad_info": {
            "adcode": 451002,
            "province": "广西壮族自治区",
            "city": "百色市",
            "district": "右江区"
        }
    },
    {
        "id": "4429344799206653985",
        "title": "公共厕所",
        "address": "广西壮族自治区百色市右江区西园路与那东巷交叉口正北方向126米左右",
        "tel": "",
        "category": "基础设施:公共设施:公共厕所",
        "type": 0,
        "location": {
            "lat": 23.893146,
            "lng": 106.616289
        },
        "ad_info": {
            "adcode": 451002,
            "province": "广西壮族自治区",
            "city": "百色市",
            "district": "右江区"
        }
    },
    {
        "id": "9771482092548640953",
        "title": "那音停车区公共厕所",
        "address": "广西壮族自治区百色市田阳区那音停车区南50米",
        "tel": "",
        "category": "基础设施:公共设施:公共厕所",
        "type": 0,
        "location": {
            "lat": 23.739013,
            "lng": 106.734319
        },
        "ad_info": {
            "adcode": 451003,
            "province": "广西壮族自治区",
            "city": "百色市",
            "district": "田阳区"
        }
    },
    {
        "id": "10081089695623831335",
        "title": "西林服务区公共厕所",
        "address": "广西壮族自治区百色市西林县西林服务区与贺西高速交叉口西南方向286米左右",
        "tel": "",
        "category": "基础设施:公共设施:公共厕所",
        "type": 0,
        "location": {
            "lat": 24.481661,
            "lng": 105.022534
        },
        "ad_info": {
            "adcode": 451030,
            "province": "广西壮族自治区",
            "city": "百色市",
            "district": "西林县"
        }
    },
    {
        "id": "1352895941982545602",
        "title": "公共厕所",
        "address": "广西壮族自治区百色市右江区那毕大道与龙景西路交叉口正东方向158米左右",
        "tel": "",
        "category": "基础设施:公共设施:公共厕所",
        "type": 0,
        "location": {
            "lat": 23.889157,
            "lng": 106.631966
        },
        "ad_info": {
            "adcode": 451002,
            "province": "广西壮族自治区",
            "city": "百色市",
            "district": "右江区"
        }
    },
    {
        "id": "10268670952353614747",
        "title": "化峒停车区公共厕所",
        "address": "广西壮族自治区百色市靖西市S60合那高速与化峒停车区交叉口西280米",
        "tel": "",
        "category": "基础设施:公共设施:公共厕所",
        "type": 0,
        "location": {
            "lat": 23.040394,
            "lng": 106.463987
        },
        "ad_info": {
            "adcode": 451081,
            "province": "广西壮族自治区",
            "city": "百色市",
            "district": "靖西市"
        }
    },
    {
        "id": "10984220884767276250",
        "title": "公共厕所",
        "address": "广西壮族自治区百色市田东县第二小学东侧110米",
        "tel": "",
        "category": "基础设施:公共设施:公共厕所",
        "type": 0,
        "location": {
            "lat": 23.59943,
            "lng": 107.123965
        },
        "ad_info": {
            "adcode": 451022,
            "province": "广西壮族自治区",
            "city": "百色市",
            "district": "田东县"
        }
    },
    {
        "id": "186105556082707255",
        "title": "雷圩瀑布公共卫生间",
        "address": "广西壮族自治区百色市田阳区五村镇雷圩村琴雷屯东南方位500米处",
        "tel": "15177041990",
        "category": "基础设施:公共设施:公共厕所",
        "type": 0,
        "location": {
            "lat": 23.507968,
            "lng": 106.785259
        },
        "ad_info": {
            "adcode": 451003,
            "province": "广西壮族自治区",
            "city": "百色市",
            "district": "田阳区"
        }
    },
    {
        "id": "15094559812492906735",
        "title": "公共厕所",
        "address": "广西壮族自治区百色市田东县中和路与中山路交叉口正西方向72米左右",
        "tel": "",
        "category": "基础设施:公共设施:公共厕所",
        "type": 0,
        "location": {
            "lat": 23.598861,
            "lng": 107.115337
        },
        "ad_info": {
            "adcode": 451022,
            "province": "广西壮族自治区",
            "city": "百色市",
            "district": "田东县"
        }
    },
    {
        "id": "9772460663549792434",
        "title": "马蚌服务区公共厕所",
        "address": "广西壮族自治区百色市西林县中国石化广西百色田西高速马蚌服务区南区加油加气站西南侧140米",
        "tel": "",
        "category": "基础设施:公共设施:公共厕所",
        "type": 0,
        "location": {
            "lat": 24.623678,
            "lng": 104.587993
        },
        "ad_info": {
            "adcode": 451030,
            "province": "广西壮族自治区",
            "city": "百色市",
            "district": "西林县"
        }
    },
    {
        "id": "5166050048219396298",
        "title": "公共厕所",
        "address": "广西壮族自治区百色市平果市朝阳路与迎宾大道交叉口正西方向1009米左右",
        "tel": "",
        "category": "基础设施:公共设施:公共厕所",
        "type": 0,
        "location": {
            "lat": 23.297907,
            "lng": 107.58126
        },
        "ad_info": {
            "adcode": 451082,
            "province": "广西壮族自治区",
            "city": "百色市",
            "district": "平果市"
        }
    },
    {
        "id": "12000309658154308935",
        "title": "公共厕所",
        "address": "广西壮族自治区百色市德保县樵夫田园东南侧240米",
        "tel": "",
        "category": "基础设施:公共设施:公共厕所",
        "type": 0,
        "location": {
            "lat": 23.164972,
            "lng": 106.674216
        },
        "ad_info": {
            "adcode": 451024,
            "province": "广西壮族自治区",
            "city": "百色市",
            "district": "德保县"
        }
    },
    {
        "id": "12261803773469917785",
        "title": "渠来停车区公共厕所",
        "address": "广西壮族自治区百色市靖西市渠来停车区东50米",
        "tel": "",
        "category": "基础设施:公共设施:公共厕所",
        "type": 0,
        "location": {
            "lat": 23.151077,
            "lng": 106.506418
        },
        "ad_info": {
            "adcode": 451081,
            "province": "广西壮族自治区",
            "city": "百色市",
            "district": "靖西市"
        }
    },
    {
        "id": "5990696144992295825",
        "title": "公共厕所",
        "address": "广西壮族自治区百色市靖西市万吉路与绣球大道交叉口西北方向381米左右",
        "tel": "",
        "category": "基础设施:公共设施:公共厕所",
        "type": 0,
        "location": {
            "lat": 23.171433,
            "lng": 106.391465
        },
        "ad_info": {
            "adcode": 451081,
            "province": "广西壮族自治区",
            "city": "百色市",
            "district": "靖西市"
        }
    },
    {
        "id": "5664415797093449814",
        "title": "隆林停车区公共厕所",
        "address": "广西壮族自治区百色市隆林各族自治县板坝互通与隆广高速交叉口东北方向542米左右",
        "tel": "",
        "category": "基础设施:公共设施:公共厕所",
        "type": 0,
        "location": {
            "lat": 24.77561,
            "lng": 105.529128
        },
        "ad_info": {
            "adcode": 451031,
            "province": "广西壮族自治区",
            "city": "百色市",
            "district": "隆林各族自治县"
        }
    },
    {
        "id": "6346855542380309080",
        "title": "公共厕所",
        "address": "广西壮族自治区百色市平果市坡造镇中心卫生院东侧220米",
        "tel": "",
        "category": "基础设施:公共设施:公共厕所",
        "type": 0,
        "location": {
            "lat": 23.439548,
            "lng": 107.712176
        },
        "ad_info": {
            "adcode": 451082,
            "province": "广西壮族自治区",
            "city": "百色市",
            "district": "平果市"
        }
    },
    {
        "id": "3094485821589236191",
        "title": "公共厕所",
        "address": "广西壮族自治区百色市靖西市凤凰路与绣球大道交叉口东南方向406米左右",
        "tel": "",
        "category": "基础设施:公共设施:公共厕所",
        "type": 0,
        "location": {
            "lat": 23.113132,
            "lng": 106.428533
        },
        "ad_info": {
            "adcode": 451081,
            "province": "广西壮族自治区",
            "city": "百色市",
            "district": "靖西市"
        }
    },
    {
        "id": "17023358202043187658",
        "title": "公共厕所",
        "address": "广西壮族自治区百色市平果市太平镇吉林村局鲁屯304号",
        "tel": "",
        "category": "基础设施:公共设施:公共厕所",
        "type": 0,
        "location": {
            "lat": 23.568974,
            "lng": 107.445371
        },
        "ad_info": {
            "adcode": 451082,
            "province": "广西壮族自治区",
            "city": "百色市",
            "district": "平果市"
        }
    },
    {
        "id": "4960864314974573332",
        "title": "公共厕所",
        "address": "广西壮族自治区百色市平果市铝城大道辅路与铭城大道南六巷交叉口正东方向159米左右",
        "tel": "",
        "category": "基础设施:公共设施:公共厕所",
        "type": 0,
        "location": {
            "lat": 23.330341,
            "lng": 107.603842
        },
        "ad_info": {
            "adcode": 451082,
            "province": "广西壮族自治区",
            "city": "百色市",
            "district": "平果市"
        }
    },
    {
        "id": "18183394984971036338",
        "title": "那音停车区公共厕所",
        "address": "广西壮族自治区百色市田阳区那音停车区北50米",
        "tel": "",
        "category": "基础设施:公共设施:公共厕所",
        "type": 0,
        "location": {
            "lat": 23.740582,
            "lng": 106.734853
        },
        "ad_info": {
            "adcode": 451003,
            "province": "广西壮族自治区",
            "city": "百色市",
            "district": "田阳区"
        }
    },
    {
        "id": "10004070261114725127",
        "title": "公共厕所",
        "address": "广西壮族自治区百色市右江区那毕大道与龙景西路交叉口正东方向153米左右",
        "tel": "",
        "category": "基础设施:公共设施:公共厕所",
        "type": 0,
        "location": {
            "lat": 23.88988,
            "lng": 106.63199
        },
        "ad_info": {
            "adcode": 451002,
            "province": "广西壮族自治区",
            "city": "百色市",
            "district": "右江区"
        }
    },
    {
        "id": "4429344799206653985",
        "title": "公共厕所",
        "address": "广西壮族自治区百色市右江区西园路与那东巷交叉口正北方向126米左右",
        "tel": "",
        "category": "基础设施:公共设施:公共厕所",
        "type": 0,
        "location": {
            "lat": 23.893146,
            "lng": 106.616289
        },
        "ad_info": {
            "adcode": 451002,
            "province": "广西壮族自治区",
            "city": "百色市",
            "district": "右江区"
        }
    },
    {
        "id": "9771482092548640953",
        "title": "那音停车区公共厕所",
        "address": "广西壮族自治区百色市田阳区那音停车区南50米",
        "tel": "",
        "category": "基础设施:公共设施:公共厕所",
        "type": 0,
        "location": {
            "lat": 23.739013,
            "lng": 106.734319
        },
        "ad_info": {
            "adcode": 451003,
            "province": "广西壮族自治区",
            "city": "百色市",
            "district": "田阳区"
        }
    },
    {
        "id": "10081089695623831335",
        "title": "西林服务区公共厕所",
        "address": "广西壮族自治区百色市西林县西林服务区与贺西高速交叉口西南方向286米左右",
        "tel": "",
        "category": "基础设施:公共设施:公共厕所",
        "type": 0,
        "location": {
            "lat": 24.481661,
            "lng": 105.022534
        },
        "ad_info": {
            "adcode": 451030,
            "province": "广西壮族自治区",
            "city": "百色市",
            "district": "西林县"
        }
    },
    {
        "id": "1352895941982545602",
        "title": "公共厕所",
        "address": "广西壮族自治区百色市右江区那毕大道与龙景西路交叉口正东方向158米左右",
        "tel": "",
        "category": "基础设施:公共设施:公共厕所",
        "type": 0,
        "location": {
            "lat": 23.889157,
            "lng": 106.631966
        },
        "ad_info": {
            "adcode": 451002,
            "province": "广西壮族自治区",
            "city": "百色市",
            "district": "右江区"
        }
    },
    {
        "id": "10268670952353614747",
        "title": "化峒停车区公共厕所",
        "address": "广西壮族自治区百色市靖西市S60合那高速与化峒停车区交叉口西280米",
        "tel": "",
        "category": "基础设施:公共设施:公共厕所",
        "type": 0,
        "location": {
            "lat": 23.040394,
            "lng": 106.463987
        },
        "ad_info": {
            "adcode": 451081,
            "province": "广西壮族自治区",
            "city": "百色市",
            "district": "靖西市"
        }
    },
    {
        "id": "10984220884767276250",
        "title": "公共厕所",
        "address": "广西壮族自治区百色市田东县第二小学东侧110米",
        "tel": "",
        "category": "基础设施:公共设施:公共厕所",
        "type": 0,
        "location": {
            "lat": 23.59943,
            "lng": 107.123965
        },
        "ad_info": {
            "adcode": 451022,
            "province": "广西壮族自治区",
            "city": "百色市",
            "district": "田东县"
        }
    },
    {
        "id": "186105556082707255",
        "title": "雷圩瀑布公共卫生间",
        "address": "广西壮族自治区百色市田阳区五村镇雷圩村琴雷屯东南方位500米处",
        "tel": "15177041990",
        "category": "基础设施:公共设施:公共厕所",
        "type": 0,
        "location": {
            "lat": 23.507968,
            "lng": 106.785259
        },
        "ad_info": {
            "adcode": 451003,
            "province": "广西壮族自治区",
            "city": "百色市",
            "district": "田阳区"
        }
    },
    {
        "id": "15094559812492906735",
        "title": "公共厕所",
        "address": "广西壮族自治区百色市田东县中和路与中山路交叉口正西方向72米左右",
        "tel": "",
        "category": "基础设施:公共设施:公共厕所",
        "type": 0,
        "location": {
            "lat": 23.598861,
            "lng": 107.115337
        },
        "ad_info": {
            "adcode": 451022,
            "province": "广西壮族自治区",
            "city": "百色市",
            "district": "田东县"
        }
    },
    {
        "id": "9772460663549792434",
        "title": "马蚌服务区公共厕所",
        "address": "广西壮族自治区百色市西林县中国石化广西百色田西高速马蚌服务区南区加油加气站西南侧140米",
        "tel": "",
        "category": "基础设施:公共设施:公共厕所",
        "type": 0,
        "location": {
            "lat": 24.623678,
            "lng": 104.587993
        },
        "ad_info": {
            "adcode": 451030,
            "province": "广西壮族自治区",
            "city": "百色市",
            "district": "西林县"
        }
    },
    {
        "id": "5166050048219396298",
        "title": "公共厕所",
        "address": "广西壮族自治区百色市平果市朝阳路与迎宾大道交叉口正西方向1009米左右",
        "tel": "",
        "category": "基础设施:公共设施:公共厕所",
        "type": 0,
        "location": {
            "lat": 23.297907,
            "lng": 107.58126
        },
        "ad_info": {
            "adcode": 451082,
            "province": "广西壮族自治区",
            "city": "百色市",
            "district": "平果市"
        }
    },
    {
        "id": "12000309658154308935",
        "title": "公共厕所",
        "address": "广西壮族自治区百色市德保县樵夫田园东南侧240米",
        "tel": "",
        "category": "基础设施:公共设施:公共厕所",
        "type": 0,
        "location": {
            "lat": 23.164972,
            "lng": 106.674216
        },
        "ad_info": {
            "adcode": 451024,
            "province": "广西壮族自治区",
            "city": "百色市",
            "district": "德保县"
        }
    },
    {
        "id": "12261803773469917785",
        "title": "渠来停车区公共厕所",
        "address": "广西壮族自治区百色市靖西市渠来停车区东50米",
        "tel": "",
        "category": "基础设施:公共设施:公共厕所",
        "type": 0,
        "location": {
            "lat": 23.151077,
            "lng": 106.506418
        },
        "ad_info": {
            "adcode": 451081,
            "province": "广西壮族自治区",
            "city": "百色市",
            "district": "靖西市"
        }
    },
    {
        "id": "5990696144992295825",
        "title": "公共厕所",
        "address": "广西壮族自治区百色市靖西市万吉路与绣球大道交叉口西北方向381米左右",
        "tel": "",
        "category": "基础设施:公共设施:公共厕所",
        "type": 0,
        "location": {
            "lat": 23.171433,
            "lng": 106.391465
        },
        "ad_info": {
            "adcode": 451081,
            "province": "广西壮族自治区",
            "city": "百色市",
            "district": "靖西市"
        }
    },
    {
        "id": "5664415797093449814",
        "title": "隆林停车区公共厕所",
        "address": "广西壮族自治区百色市隆林各族自治县板坝互通与隆广高速交叉口东北方向542米左右",
        "tel": "",
        "category": "基础设施:公共设施:公共厕所",
        "type": 0,
        "location": {
            "lat": 24.77561,
            "lng": 105.529128
        },
        "ad_info": {
            "adcode": 451031,
            "province": "广西壮族自治区",
            "city": "百色市",
            "district": "隆林各族自治县"
        }
    },
    {
        "id": "6346855542380309080",
        "title": "公共厕所",
        "address": "广西壮族自治区百色市平果市坡造镇中心卫生院东侧220米",
        "tel": "",
        "category": "基础设施:公共设施:公共厕所",
        "type": 0,
        "location": {
            "lat": 23.439548,
            "lng": 107.712176
        },
        "ad_info": {
            "adcode": 451082,
            "province": "广西壮族自治区",
            "city": "百色市",
            "district": "平果市"
        }
    },
    {
        "id": "3094485821589236191",
        "title": "公共厕所",
        "address": "广西壮族自治区百色市靖西市凤凰路与绣球大道交叉口东南方向406米左右",
        "tel": "",
        "category": "基础设施:公共设施:公共厕所",
        "type": 0,
        "location": {
            "lat": 23.113132,
            "lng": 106.428533
        },
        "ad_info": {
            "adcode": 451081,
            "province": "广西壮族自治区",
            "city": "百色市",
            "district": "靖西市"
        }
    },
    {
        "id": "17023358202043187658",
        "title": "公共厕所",
        "address": "广西壮族自治区百色市平果市太平镇吉林村局鲁屯304号",
        "tel": "",
        "category": "基础设施:公共设施:公共厕所",
        "type": 0,
        "location": {
            "lat": 23.568974,
            "lng": 107.445371
        },
        "ad_info": {
            "adcode": 451082,
            "province": "广西壮族自治区",
            "city": "百色市",
            "district": "平果市"
        }
    },
    {
        "id": "4960864314974573332",
        "title": "公共厕所",
        "address": "广西壮族自治区百色市平果市铝城大道辅路与铭城大道南六巷交叉口正东方向159米左右",
        "tel": "",
        "category": "基础设施:公共设施:公共厕所",
        "type": 0,
        "location": {
            "lat": 23.330341,
            "lng": 107.603842
        },
        "ad_info": {
            "adcode": 451082,
            "province": "广西壮族自治区",
            "city": "百色市",
            "district": "平果市"
        }
    },
    {
        "id": "18183394984971036338",
        "title": "那音停车区公共厕所",
        "address": "广西壮族自治区百色市田阳区那音停车区北50米",
        "tel": "",
        "category": "基础设施:公共设施:公共厕所",
        "type": 0,
        "location": {
            "lat": 23.740582,
            "lng": 106.734853
        },
        "ad_info": {
            "adcode": 451003,
            "province": "广西壮族自治区",
            "city": "百色市",
            "district": "田阳区"
        }
    },
    {
        "id": "10004070261114725127",
        "title": "公共厕所",
        "address": "广西壮族自治区百色市右江区那毕大道与龙景西路交叉口正东方向153米左右",
        "tel": "",
        "category": "基础设施:公共设施:公共厕所",
        "type": 0,
        "location": {
            "lat": 23.88988,
            "lng": 106.63199
        },
        "ad_info": {
            "adcode": 451002,
            "province": "广西壮族自治区",
            "city": "百色市",
            "district": "右江区"
        }
    },
    {
        "id": "4429344799206653985",
        "title": "公共厕所",
        "address": "广西壮族自治区百色市右江区西园路与那东巷交叉口正北方向126米左右",
        "tel": "",
        "category": "基础设施:公共设施:公共厕所",
        "type": 0,
        "location": {
            "lat": 23.893146,
            "lng": 106.616289
        },
        "ad_info": {
            "adcode": 451002,
            "province": "广西壮族自治区",
            "city": "百色市",
            "district": "右江区"
        }
    },
    {
        "id": "9771482092548640953",
        "title": "那音停车区公共厕所",
        "address": "广西壮族自治区百色市田阳区那音停车区南50米",
        "tel": "",
        "category": "基础设施:公共设施:公共厕所",
        "type": 0,
        "location": {
            "lat": 23.739013,
            "lng": 106.734319
        },
        "ad_info": {
            "adcode": 451003,
            "province": "广西壮族自治区",
            "city": "百色市",
            "district": "田阳区"
        }
    },
    {
        "id": "10081089695623831335",
        "title": "西林服务区公共厕所",
        "address": "广西壮族自治区百色市西林县西林服务区与贺西高速交叉口西南方向286米左右",
        "tel": "",
        "category": "基础设施:公共设施:公共厕所",
        "type": 0,
        "location": {
            "lat": 24.481661,
            "lng": 105.022534
        },
        "ad_info": {
            "adcode": 451030,
            "province": "广西壮族自治区",
            "city": "百色市",
            "district": "西林县"
        }
    },
    {
        "id": "1352895941982545602",
        "title": "公共厕所",
        "address": "广西壮族自治区百色市右江区那毕大道与龙景西路交叉口正东方向158米左右",
        "tel": "",
        "category": "基础设施:公共设施:公共厕所",
        "type": 0,
        "location": {
            "lat": 23.889157,
            "lng": 106.631966
        },
        "ad_info": {
            "adcode": 451002,
            "province": "广西壮族自治区",
            "city": "百色市",
            "district": "右江区"
        }
    },
    {
        "id": "10268670952353614747",
        "title": "化峒停车区公共厕所",
        "address": "广西壮族自治区百色市靖西市S60合那高速与化峒停车区交叉口西280米",
        "tel": "",
        "category": "基础设施:公共设施:公共厕所",
        "type": 0,
        "location": {
            "lat": 23.040394,
            "lng": 106.463987
        },
        "ad_info": {
            "adcode": 451081,
            "province": "广西壮族自治区",
            "city": "百色市",
            "district": "靖西市"
        }
    },
    {
        "id": "10984220884767276250",
        "title": "公共厕所",
        "address": "广西壮族自治区百色市田东县第二小学东侧110米",
        "tel": "",
        "category": "基础设施:公共设施:公共厕所",
        "type": 0,
        "location": {
            "lat": 23.59943,
            "lng": 107.123965
        },
        "ad_info": {
            "adcode": 451022,
            "province": "广西壮族自治区",
            "city": "百色市",
            "district": "田东县"
        }
    },
    {
        "id": "186105556082707255",
        "title": "雷圩瀑布公共卫生间",
        "address": "广西壮族自治区百色市田阳区五村镇雷圩村琴雷屯东南方位500米处",
        "tel": "15177041990",
        "category": "基础设施:公共设施:公共厕所",
        "type": 0,
        "location": {
            "lat": 23.507968,
            "lng": 106.785259
        },
        "ad_info": {
            "adcode": 451003,
            "province": "广西壮族自治区",
            "city": "百色市",
            "district": "田阳区"
        }
    },
    {
        "id": "15094559812492906735",
        "title": "公共厕所",
        "address": "广西壮族自治区百色市田东县中和路与中山路交叉口正西方向72米左右",
        "tel": "",
        "category": "基础设施:公共设施:公共厕所",
        "type": 0,
        "location": {
            "lat": 23.598861,
            "lng": 107.115337
        },
        "ad_info": {
            "adcode": 451022,
            "province": "广西壮族自治区",
            "city": "百色市",
            "district": "田东县"
        }
    },
    {
        "id": "9772460663549792434",
        "title": "马蚌服务区公共厕所",
        "address": "广西壮族自治区百色市西林县中国石化广西百色田西高速马蚌服务区南区加油加气站西南侧140米",
        "tel": "",
        "category": "基础设施:公共设施:公共厕所",
        "type": 0,
        "location": {
            "lat": 24.623678,
            "lng": 104.587993
        },
        "ad_info": {
            "adcode": 451030,
            "province": "广西壮族自治区",
            "city": "百色市",
            "district": "西林县"
        }
    },
    {
        "id": "5166050048219396298",
        "title": "公共厕所",
        "address": "广西壮族自治区百色市平果市朝阳路与迎宾大道交叉口正西方向1009米左右",
        "tel": "",
        "category": "基础设施:公共设施:公共厕所",
        "type": 0,
        "location": {
            "lat": 23.297907,
            "lng": 107.58126
        },
        "ad_info": {
            "adcode": 451082,
            "province": "广西壮族自治区",
            "city": "百色市",
            "district": "平果市"
        }
    },
    {
        "id": "12000309658154308935",
        "title": "公共厕所",
        "address": "广西壮族自治区百色市德保县樵夫田园东南侧240米",
        "tel": "",
        "category": "基础设施:公共设施:公共厕所",
        "type": 0,
        "location": {
            "lat": 23.164972,
            "lng": 106.674216
        },
        "ad_info": {
            "adcode": 451024,
            "province": "广西壮族自治区",
            "city": "百色市",
            "district": "德保县"
        }
    },
    {
        "id": "12261803773469917785",
        "title": "渠来停车区公共厕所",
        "address": "广西壮族自治区百色市靖西市渠来停车区东50米",
        "tel": "",
        "category": "基础设施:公共设施:公共厕所",
        "type": 0,
        "location": {
            "lat": 23.151077,
            "lng": 106.506418
        },
        "ad_info": {
            "adcode": 451081,
            "province": "广西壮族自治区",
            "city": "百色市",
            "district": "靖西市"
        }
    },
    {
        "id": "5990696144992295825",
        "title": "公共厕所",
        "address": "广西壮族自治区百色市靖西市万吉路与绣球大道交叉口西北方向381米左右",
        "tel": "",
        "category": "基础设施:公共设施:公共厕所",
        "type": 0,
        "location": {
            "lat": 23.171433,
            "lng": 106.391465
        },
        "ad_info": {
            "adcode": 451081,
            "province": "广西壮族自治区",
            "city": "百色市",
            "district": "靖西市"
        }
    },
    {
        "id": "5664415797093449814",
        "title": "隆林停车区公共厕所",
        "address": "广西壮族自治区百色市隆林各族自治县板坝互通与隆广高速交叉口东北方向542米左右",
        "tel": "",
        "category": "基础设施:公共设施:公共厕所",
        "type": 0,
        "location": {
            "lat": 24.77561,
            "lng": 105.529128
        },
        "ad_info": {
            "adcode": 451031,
            "province": "广西壮族自治区",
            "city": "百色市",
            "district": "隆林各族自治县"
        }
    },
    {
        "id": "6346855542380309080",
        "title": "公共厕所",
        "address": "广西壮族自治区百色市平果市坡造镇中心卫生院东侧220米",
        "tel": "",
        "category": "基础设施:公共设施:公共厕所",
        "type": 0,
        "location": {
            "lat": 23.439548,
            "lng": 107.712176
        },
        "ad_info": {
            "adcode": 451082,
            "province": "广西壮族自治区",
            "city": "百色市",
            "district": "平果市"
        }
    },
    {
        "id": "3094485821589236191",
        "title": "公共厕所",
        "address": "广西壮族自治区百色市靖西市凤凰路与绣球大道交叉口东南方向406米左右",
        "tel": "",
        "category": "基础设施:公共设施:公共厕所",
        "type": 0,
        "location": {
            "lat": 23.113132,
            "lng": 106.428533
        },
        "ad_info": {
            "adcode": 451081,
            "province": "广西壮族自治区",
            "city": "百色市",
            "district": "靖西市"
        }
    },
    {
        "id": "17023358202043187658",
        "title": "公共厕所",
        "address": "广西壮族自治区百色市平果市太平镇吉林村局鲁屯304号",
        "tel": "",
        "category": "基础设施:公共设施:公共厕所",
        "type": 0,
        "location": {
            "lat": 23.568974,
            "lng": 107.445371
        },
        "ad_info": {
            "adcode": 451082,
            "province": "广西壮族自治区",
            "city": "百色市",
            "district": "平果市"
        }
    },
    {
        "id": "4960864314974573332",
        "title": "公共厕所",
        "address": "广西壮族自治区百色市平果市铝城大道辅路与铭城大道南六巷交叉口正东方向159米左右",
        "tel": "",
        "category": "基础设施:公共设施:公共厕所",
        "type": 0,
        "location": {
            "lat": 23.330341,
            "lng": 107.603842
        },
        "ad_info": {
            "adcode": 451082,
            "province": "广西壮族自治区",
            "city": "百色市",
            "district": "平果市"
        }
    },
    {
        "id": "18183394984971036338",
        "title": "那音停车区公共厕所",
        "address": "广西壮族自治区百色市田阳区那音停车区北50米",
        "tel": "",
        "category": "基础设施:公共设施:公共厕所",
        "type": 0,
        "location": {
            "lat": 23.740582,
            "lng": 106.734853
        },
        "ad_info": {
            "adcode": 451003,
            "province": "广西壮族自治区",
            "city": "百色市",
            "district": "田阳区"
        }
    }
]