[
    {
        "id": "4828313363729506814",
        "title": "公共厕所",
        "address": "湖南省益阳市桃江县居士巷与桃花路交叉口正北方向22米左右",
        "tel": "",
        "category": "基础设施:公共设施:公共厕所",
        "type": 0,
        "location": {
            "lat": 28.521407,
            "lng": 112.133534
        },
        "ad_info": {
            "adcode": 430922,
            "province": "湖南省",
            "city": "益阳市",
            "district": "桃江县"
        }
    },
    {
        "id": "15980315256848938412",
        "title": "公共厕所",
        "address": "湖南省益阳市赫山区益阳大道益阳海洋城",
        "tel": "",
        "category": "基础设施:公共设施:公共厕所",
        "type": 0,
        "location": {
            "lat": 28.565766,
            "lng": 112.370029
        },
        "ad_info": {
            "adcode": 430903,
            "province": "湖南省",
            "city": "益阳市",
            "district": "赫山区"
        }
    },
    {
        "id": "283311955862540405",
        "title": "公共厕所",
        "address": "湖南省益阳市安化县林家村移民楼茶马广场F2层",
        "tel": "",
        "category": "基础设施:公共设施:公共厕所",
        "type": 0,
        "location": {
            "lat": 28.370263,
            "lng": 111.21992
        },
        "ad_info": {
            "adcode": 430923,
            "province": "湖南省",
            "city": "益阳市",
            "district": "安化县"
        }
    },
    {
        "id": "9643905944127889987",
        "title": "公共厕所",
        "address": "湖南省益阳市安化县安化五中西侧110米",
        "tel": "",
        "category": "基础设施:公共设施:公共厕所",
        "type": 0,
        "location": {
            "lat": 28.122964,
            "lng": 110.896703
        },
        "ad_info": {
            "adcode": 430923,
            "province": "湖南省",
            "city": "益阳市",
            "district": "安化县"
        }
    },
    {
        "id": "13277618073275958172",
        "title": "公共厕所",
        "address": "湖南省益阳市资阳区幸福渠东路与幸福路交叉口东南方向167米左右",
        "tel": "",
        "category": "基础设施:公共设施:公共厕所",
        "type": 0,
        "location": {
            "lat": 28.608132,
            "lng": 112.355161
        },
        "ad_info": {
            "adcode": 430902,
            "province": "湖南省",
            "city": "益阳市",
            "district": "资阳区"
        }
    },
    {
        "id": "13946679780521147859",
        "title": "公共厕所",
        "address": "湖南省益阳市赫山区益鑫泰(秀峰东路南)",
        "tel": "",
        "category": "基础设施:公共设施:公共厕所",
        "type": 0,
        "location": {
            "lat": 28.569898,
            "lng": 112.376135
        },
        "ad_info": {
            "adcode": 430903,
            "province": "湖南省",
            "city": "益阳市",
            "district": "赫山区"
        }
    },
    {
        "id": "1904007795742990238",
        "title": "公共厕所",
        "address": "湖南省益阳市资阳区幸福渠西路与幸福路交叉口正南方向111米左右",
        "tel": "",
        "category": "基础设施:公共设施:公共厕所",
        "type": 0,
        "location": {
            "lat": 28.600351,
            "lng": 112.333328
        },
        "ad_info": {
            "adcode": 430902,
            "province": "湖南省",
            "city": "益阳市",
            "district": "资阳区"
        }
    },
    {
        "id": "14350985521043709592",
        "title": "公共厕所",
        "address": "湖南省益阳市赫山区丰茂路与全洲路交叉口东南方向203米左右",
        "tel": "",
        "category": "基础设施:公共设施:公共厕所",
        "type": 0,
        "location": {
            "lat": 28.577627,
            "lng": 112.39169
        },
        "ad_info": {
            "adcode": 430903,
            "province": "湖南省",
            "city": "益阳市",
            "district": "赫山区"
        }
    },
    {
        "id": "6968484897593172550",
        "title": "公共厕所",
        "address": "湖南省益阳市安化县S308与金鹊路交叉口西北方向205米左右",
        "tel": "",
        "category": "基础设施:公共设施:公共厕所",
        "type": 0,
        "location": {
            "lat": 28.384585,
            "lng": 111.300487
        },
        "ad_info": {
            "adcode": 430923,
            "province": "湖南省",
            "city": "益阳市",
            "district": "安化县"
        }
    },
    {
        "id": "8760306052616707815",
        "title": "公共厕所",
        "address": "湖南省益阳市桃江县修山镇中心学校东侧300米",
        "tel": "",
        "category": "基础设施:公共设施:公共厕所",
        "type": 0,
        "location": {
            "lat": 28.591304,
            "lng": 112.039465
        },
        "ad_info": {
            "adcode": 430922,
            "province": "湖南省",
            "city": "益阳市",
            "district": "桃江县"
        }
    },
    {
        "id": "11076455852391202465",
        "title": "公共厕所",
        "address": "湖南省益阳市安化县G536与沿江路交叉口正东方向78米左右",
        "tel": "",
        "category": "基础设施:公共设施:公共厕所",
        "type": 0,
        "location": {
            "lat": 28.372461,
            "lng": 111.207807
        },
        "ad_info": {
            "adcode": 430923,
            "province": "湖南省",
            "city": "益阳市",
            "district": "安化县"
        }
    },
    {
        "id": "11689626872690327324",
        "title": "公共厕所",
        "address": "湖南省益阳市赫山区学府路湖南城市学院",
        "tel": "",
        "category": "基础设施:公共设施:公共厕所",
        "type": 0,
        "location": {
            "lat": 28.543902,
            "lng": 112.3907
        },
        "ad_info": {
            "adcode": 430903,
            "province": "湖南省",
            "city": "益阳市",
            "district": "赫山区"
        }
    },
    {
        "id": "12962390406047080752",
        "title": "公共厕所",
        "address": "湖南省益阳市赫山区大桃北路与金大巷交叉口东南方向81米左右",
        "tel": "",
        "category": "基础设施:公共设施:公共厕所",
        "type": 0,
        "location": {
            "lat": 28.579392,
            "lng": 112.359523
        },
        "ad_info": {
            "adcode": 430903,
            "province": "湖南省",
            "city": "益阳市",
            "district": "赫山区"
        }
    },
    {
        "id": "2293559599055799336",
        "title": "公共厕所",
        "address": "湖南省益阳市赫山区大桃北路与桃花仑西路交叉口正北方向245米左右",
        "tel": "",
        "category": "基础设施:公共设施:公共厕所",
        "type": 0,
        "location": {
            "lat": 28.584108,
            "lng": 112.357551
        },
        "ad_info": {
            "adcode": 430903,
            "province": "湖南省",
            "city": "益阳市",
            "district": "赫山区"
        }
    },
    {
        "id": "9019088499456275379",
        "title": "公共厕所",
        "address": "湖南省益阳市安化县陶澍大道与林家路交叉口东240米",
        "tel": "",
        "category": "基础设施:公共设施:公共厕所",
        "type": 0,
        "location": {
            "lat": 28.369242,
            "lng": 111.226033
        },
        "ad_info": {
            "adcode": 430923,
            "province": "湖南省",
            "city": "益阳市",
            "district": "安化县"
        }
    },
    {
        "id": "15028472948226451872",
        "title": "公共厕所",
        "address": "湖南省益阳市资阳区文昌路与金花湖路交叉口西北方向179米左右",
        "tel": "",
        "category": "基础设施:公共设施:公共厕所",
        "type": 0,
        "location": {
            "lat": 28.59966,
            "lng": 112.348727
        },
        "ad_info": {
            "adcode": 430902,
            "province": "湖南省",
            "city": "益阳市",
            "district": "资阳区"
        }
    },
    {
        "id": "14330436495256998638",
        "title": "公共厕所",
        "address": "湖南省益阳市赫山区丰维巷与迎宾西路交叉口东南方向191米左右",
        "tel": "",
        "category": "基础设施:公共设施:公共厕所",
        "type": 0,
        "location": {
            "lat": 28.539391,
            "lng": 112.341079
        },
        "ad_info": {
            "adcode": 430903,
            "province": "湖南省",
            "city": "益阳市",
            "district": "赫山区"
        }
    },
    {
        "id": "16118820331362848801",
        "title": "公共厕所",
        "address": "湖南省益阳市赫山区桃花仑东路益阳赫山汽车东站",
        "tel": "",
        "category": "基础设施:公共设施:公共厕所",
        "type": 0,
        "location": {
            "lat": 28.561724,
            "lng": 112.39743
        },
        "ad_info": {
            "adcode": 430903,
            "province": "湖南省",
            "city": "益阳市",
            "district": "赫山区"
        }
    },
    {
        "id": "10845118175804975026",
        "title": "公共厕所",
        "address": "湖南省益阳市赫山区同心巷与青年路交叉口正南方向44米左右",
        "tel": "",
        "category": "基础设施:公共设施:公共厕所",
        "type": 0,
        "location": {
            "lat": 28.57822,
            "lng": 112.379381
        },
        "ad_info": {
            "adcode": 430903,
            "province": "湖南省",
            "city": "益阳市",
            "district": "赫山区"
        }
    },
    {
        "id": "6699263269117985384",
        "title": "公共厕所",
        "address": "湖南省益阳市赫山区朝阳路与粮油路交叉口东北方向76米左右",
        "tel": "",
        "category": "基础设施:公共设施:公共厕所",
        "type": 0,
        "location": {
            "lat": 28.440769,
            "lng": 112.44041
        },
        "ad_info": {
            "adcode": 430903,
            "province": "湖南省",
            "city": "益阳市",
            "district": "赫山区"
        }
    },
    {
        "id": "14111855722098476562",
        "title": "公共厕所",
        "address": "湖南省益阳市资阳区幸福路与沿池巷交叉口正北方向49米左右",
        "tel": "",
        "category": "基础设施:公共设施:公共厕所",
        "type": 0,
        "location": {
            "lat": 28.588591,
            "lng": 112.328014
        },
        "ad_info": {
            "adcode": 430902,
            "province": "湖南省",
            "city": "益阳市",
            "district": "资阳区"
        }
    },
    {
        "id": "5909643355650401078",
        "title": "公共厕所",
        "address": "湖南省益阳市赫山区桃花仑东路与龙泥路交叉口西南方向168米左右",
        "tel": "",
        "category": "基础设施:公共设施:公共厕所",
        "type": 0,
        "location": {
            "lat": 28.55112,
            "lng": 112.405589
        },
        "ad_info": {
            "adcode": 430903,
            "province": "湖南省",
            "city": "益阳市",
            "district": "赫山区"
        }
    },
    {
        "id": "6815997119282241732",
        "title": "公共厕所",
        "address": "湖南省益阳市赫山区023县道与沧泥路交叉口东260米",
        "tel": "",
        "category": "基础设施:公共设施:公共厕所",
        "type": 0,
        "location": {
            "lat": 28.433017,
            "lng": 112.441587
        },
        "ad_info": {
            "adcode": 430903,
            "province": "湖南省",
            "city": "益阳市",
            "district": "赫山区"
        }
    },
    {
        "id": "8454896774525898335",
        "title": "公共厕所",
        "address": "湖南省益阳市赫山区教育路与益阳商业步行街交叉口正北方向27米左右",
        "tel": "",
        "category": "基础设施:公共设施:公共厕所",
        "type": 0,
        "location": {
            "lat": 28.58117,
            "lng": 112.368698
        },
        "ad_info": {
            "adcode": 430903,
            "province": "湖南省",
            "city": "益阳市",
            "district": "赫山区"
        }
    },
    {
        "id": "8778380613076190968",
        "title": "公共厕所",
        "address": "湖南省益阳市赫山区秀峰东路与秀峰西路交叉口西南方向116米左右",
        "tel": "",
        "category": "基础设施:公共设施:公共厕所",
        "type": 0,
        "location": {
            "lat": 28.57045,
            "lng": 112.362612
        },
        "ad_info": {
            "adcode": 430903,
            "province": "湖南省",
            "city": "益阳市",
            "district": "赫山区"
        }
    },
    {
        "id": "14133811677603406659",
        "title": "公共厕所",
        "address": "湖南省益阳市赫山区栖霞路63号",
        "tel": "",
        "category": "基础设施:公共设施:公共厕所",
        "type": 0,
        "location": {
            "lat": 28.577678,
            "lng": 112.338142
        },
        "ad_info": {
            "adcode": 430903,
            "province": "湖南省",
            "city": "益阳市",
            "district": "赫山区"
        }
    },
    {
        "id": "6255211834463628054",
        "title": "公共厕所",
        "address": "湖南省益阳市安化县X047与萸江路交叉口西北方向1403米左右",
        "tel": "",
        "category": "基础设施:公共设施:公共厕所",
        "type": 0,
        "location": {
            "lat": 28.401451,
            "lng": 111.217139
        },
        "ad_info": {
            "adcode": 430923,
            "province": "湖南省",
            "city": "益阳市",
            "district": "安化县"
        }
    },
    {
        "id": "14824339140530972602",
        "title": "公共厕所",
        "address": "湖南省益阳市安化县G207与清塘街交叉口正北方向328米左右",
        "tel": "",
        "category": "基础设施:公共设施:公共厕所",
        "type": 0,
        "location": {
            "lat": 28.062734,
            "lng": 111.758876
        },
        "ad_info": {
            "adcode": 430923,
            "province": "湖南省",
            "city": "益阳市",
            "district": "安化县"
        }
    },
    {
        "id": "16502970444014588730",
        "title": "公共厕所",
        "address": "湖南省益阳市赫山区文武路与桃花仑东路交叉口东南方向61米左右",
        "tel": "",
        "category": "基础设施:公共设施:公共厕所",
        "type": 0,
        "location": {
            "lat": 28.579375,
            "lng": 112.368141
        },
        "ad_info": {
            "adcode": 430903,
            "province": "湖南省",
            "city": "益阳市",
            "district": "赫山区"
        }
    },
    {
        "id": "16930563355765590884",
        "title": "公共厕所",
        "address": "湖南省益阳市赫山区同升小区6北(大风车幼儿园西)",
        "tel": "",
        "category": "基础设施:公共设施:公共厕所",
        "type": 0,
        "location": {
            "lat": 28.5586,
            "lng": 112.394347
        },
        "ad_info": {
            "adcode": 430903,
            "province": "湖南省",
            "city": "益阳市",
            "district": "赫山区"
        }
    },
    {
        "id": "11426216323061223488",
        "title": "公共厕所",
        "address": "湖南省益阳市赫山区桃花仑东路与赫山北路交叉口西南方向92米左右",
        "tel": "",
        "category": "基础设施:公共设施:公共厕所",
        "type": 0,
        "location": {
            "lat": 28.576565,
            "lng": 112.373368
        },
        "ad_info": {
            "adcode": 430903,
            "province": "湖南省",
            "city": "益阳市",
            "district": "赫山区"
        }
    },
    {
        "id": "18280811453776358412",
        "title": "公共厕所",
        "address": "湖南省益阳市赫山区桃花仑东路银城大市场",
        "tel": "",
        "category": "基础设施:公共设施:公共厕所",
        "type": 0,
        "location": {
            "lat": 28.564513,
            "lng": 112.394811
        },
        "ad_info": {
            "adcode": 430903,
            "province": "湖南省",
            "city": "益阳市",
            "district": "赫山区"
        }
    },
    {
        "id": "10473194828085534858",
        "title": "公共厕所",
        "address": "湖南省益阳市赫山区益阳大道与龙泰巷交叉口西南方向154米左右",
        "tel": "",
        "category": "基础设施:公共设施:公共厕所",
        "type": 0,
        "location": {
            "lat": 28.565674,
            "lng": 112.349935
        },
        "ad_info": {
            "adcode": 430903,
            "province": "湖南省",
            "city": "益阳市",
            "district": "赫山区"
        }
    },
    {
        "id": "3179397714278094465",
        "title": "公共厕所",
        "address": "湖南省益阳市赫山区金山南路与鹿角园路交叉口西南方向136米左右",
        "tel": "",
        "category": "基础设施:公共设施:公共厕所",
        "type": 0,
        "location": {
            "lat": 28.545757,
            "lng": 112.341982
        },
        "ad_info": {
            "adcode": 430903,
            "province": "湖南省",
            "city": "益阳市",
            "district": "赫山区"
        }
    },
    {
        "id": "11515980403380527810",
        "title": "公共厕所",
        "address": "湖南省益阳市赫山区龙岭工业园帅家冲村",
        "tel": "",
        "category": "基础设施:公共设施:公共厕所",
        "type": 0,
        "location": {
            "lat": 28.541403,
            "lng": 112.397042
        },
        "ad_info": {
            "adcode": 430903,
            "province": "湖南省",
            "city": "益阳市",
            "district": "赫山区"
        }
    },
    {
        "id": "1925238273536580647",
        "title": "公共厕所",
        "address": "湖南省益阳市赫山区重塘冲巷与金山北路交叉口正南方向56米左右",
        "tel": "",
        "category": "基础设施:公共设施:公共厕所",
        "type": 0,
        "location": {
            "lat": 28.569671,
            "lng": 112.342122
        },
        "ad_info": {
            "adcode": 430903,
            "province": "湖南省",
            "city": "益阳市",
            "district": "赫山区"
        }
    },
    {
        "id": "11630387408458354578",
        "title": "公共厕所",
        "address": "湖南省益阳市赫山区双拥路与建筑路交叉口正西方向232米左右",
        "tel": "",
        "category": "基础设施:公共设施:公共厕所",
        "type": 0,
        "location": {
            "lat": 28.585414,
            "lng": 112.341029
        },
        "ad_info": {
            "adcode": 430903,
            "province": "湖南省",
            "city": "益阳市",
            "district": "赫山区"
        }
    },
    {
        "id": "8864580987873870026",
        "title": "公共厕所",
        "address": "湖南省益阳市安化县G536与仙娘路交叉口正北方向47米左右",
        "tel": "",
        "category": "基础设施:公共设施:公共厕所",
        "type": 0,
        "location": {
            "lat": 28.363487,
            "lng": 111.043451
        },
        "ad_info": {
            "adcode": 430923,
            "province": "湖南省",
            "city": "益阳市",
            "district": "安化县"
        }
    },
    {
        "id": "5594797540916892386",
        "title": "公共厕所",
        "address": "湖南省益阳市赫山区益阳大道中国石化加油站益阳市广场站",
        "tel": "",
        "category": "基础设施:公共设施:公共厕所",
        "type": 0,
        "location": {
            "lat": 28.562335,
            "lng": 112.401032
        },
        "ad_info": {
            "adcode": 430903,
            "province": "湖南省",
            "city": "益阳市",
            "district": "赫山区"
        }
    },
    {
        "id": "16922995034860713855",
        "title": "公共厕所",
        "address": "湖南省益阳市资阳区五一西路与福兴街交叉口正西方向49米左右",
        "tel": "",
        "category": "基础设施:公共设施:公共厕所",
        "type": 0,
        "location": {
            "lat": 28.590174,
            "lng": 112.33096
        },
        "ad_info": {
            "adcode": 430902,
            "province": "湖南省",
            "city": "益阳市",
            "district": "资阳区"
        }
    },
    {
        "id": "15603871611613368766",
        "title": "公共厕所",
        "address": "湖南省益阳市赫山区达人巷与陆贾山路交叉口西南方向21米左右",
        "tel": "",
        "category": "基础设施:公共设施:公共厕所",
        "type": 0,
        "location": {
            "lat": 28.583656,
            "lng": 112.360776
        },
        "ad_info": {
            "adcode": 430903,
            "province": "湖南省",
            "city": "益阳市",
            "district": "赫山区"
        }
    },
    {
        "id": "7291097129095505889",
        "title": "公共厕所",
        "address": "湖南省益阳市赫山区栖霞路与金山北路交叉口东南方向96米左右",
        "tel": "",
        "category": "基础设施:公共设施:公共厕所",
        "type": 0,
        "location": {
            "lat": 28.576969,
            "lng": 112.340569
        },
        "ad_info": {
            "adcode": 430903,
            "province": "湖南省",
            "city": "益阳市",
            "district": "赫山区"
        }
    },
    {
        "id": "11492181664983188978",
        "title": "公共厕所",
        "address": "湖南省益阳市桃江县浮邱山乡禁牌学校东侧100米",
        "tel": "",
        "category": "基础设施:公共设施:公共厕所",
        "type": 0,
        "location": {
            "lat": 28.520397,
            "lng": 112.046263
        },
        "ad_info": {
            "adcode": 430922,
            "province": "湖南省",
            "city": "益阳市",
            "district": "桃江县"
        }
    },
    {
        "id": "15371140858813404698",
        "title": "公共厕所",
        "address": "湖南省益阳市资阳区幸福渠东路与贺家桥北路交叉口西北方向89米左右",
        "tel": "",
        "category": "基础设施:公共设施:公共厕所",
        "type": 0,
        "location": {
            "lat": 28.604501,
            "lng": 112.339471
        },
        "ad_info": {
            "adcode": 430902,
            "province": "湖南省",
            "city": "益阳市",
            "district": "资阳区"
        }
    },
    {
        "id": "9362284920740573560",
        "title": "公共厕所",
        "address": "湖南省益阳市赫山区桃花仑东路与赫山北路交叉口西南方向121米左右",
        "tel": "",
        "category": "基础设施:公共设施:公共厕所",
        "type": 0,
        "location": {
            "lat": 28.576238,
            "lng": 112.373313
        },
        "ad_info": {
            "adcode": 430903,
            "province": "湖南省",
            "city": "益阳市",
            "district": "赫山区"
        }
    },
    {
        "id": "13393714843532883827",
        "title": "公共厕所",
        "address": "湖南省益阳市安化县G207与仙红路交叉口西南方向79米左右",
        "tel": "",
        "category": "基础设施:公共设施:公共厕所",
        "type": 0,
        "location": {
            "lat": 28.24883,
            "lng": 111.716492
        },
        "ad_info": {
            "adcode": 430923,
            "province": "湖南省",
            "city": "益阳市",
            "district": "安化县"
        }
    },
    {
        "id": "3444719456954216861",
        "title": "公共厕所",
        "address": "湖南省益阳市赫山区体育路与格林路交叉口正东方向133米左右",
        "tel": "",
        "category": "基础设施:公共设施:公共厕所",
        "type": 0,
        "location": {
            "lat": 28.574245,
            "lng": 112.374983
        },
        "ad_info": {
            "adcode": 430903,
            "province": "湖南省",
            "city": "益阳市",
            "district": "赫山区"
        }
    },
    {
        "id": "3324546166684878139",
        "title": "公共厕所",
        "address": "湖南省益阳市沅江市琼湖西路与金桔路交叉口正北方向61米左右",
        "tel": "",
        "category": "基础设施:公共设施:公共厕所",
        "type": 0,
        "location": {
            "lat": 28.838996,
            "lng": 112.358908
        },
        "ad_info": {
            "adcode": 430981,
            "province": "湖南省",
            "city": "益阳市",
            "district": "沅江市"
        }
    },
    {
        "id": "1620091912385311651",
        "title": "公共厕所",
        "address": "湖南省益阳市赫山区团圆路与迎宾东路交叉口西南方向213米左右",
        "tel": "",
        "category": "基础设施:公共设施:公共厕所",
        "type": 0,
        "location": {
            "lat": 28.534512,
            "lng": 112.373655
        },
        "ad_info": {
            "adcode": 430903,
            "province": "湖南省",
            "city": "益阳市",
            "district": "赫山区"
        }
    },
    {
        "id": "11763273505668936159",
        "title": "公共厕所",
        "address": "湖南省益阳市南县丁家城路",
        "tel": "",
        "category": "基础设施:公共设施:公共厕所",
        "type": 0,
        "location": {
            "lat": 29.355945,
            "lng": 112.404597
        },
        "ad_info": {
            "adcode": 430921,
            "province": "湖南省",
            "city": "益阳市",
            "district": "南县"
        }
    },
    {
        "id": "9397469243432687130",
        "title": "公共厕所",
        "address": "湖南省益阳市资阳区致富北路与资阳东路交叉口正东方向218米左右",
        "tel": "",
        "category": "基础设施:公共设施:公共厕所",
        "type": 0,
        "location": {
            "lat": 28.61057,
            "lng": 112.335075
        },
        "ad_info": {
            "adcode": 430902,
            "province": "湖南省",
            "city": "益阳市",
            "district": "资阳区"
        }
    },
    {
        "id": "12882480161857866835",
        "title": "公共厕所",
        "address": "湖南省益阳市资阳区五一东路与天主堂巷交叉口正南方向45米左右",
        "tel": "",
        "category": "基础设施:公共设施:公共厕所",
        "type": 0,
        "location": {
            "lat": 28.590737,
            "lng": 112.339335
        },
        "ad_info": {
            "adcode": 430902,
            "province": "湖南省",
            "city": "益阳市",
            "district": "资阳区"
        }
    },
    {
        "id": "37589233642538441",
        "title": "公共厕所",
        "address": "湖南省益阳市赫山区秋果路金广茗厦",
        "tel": "",
        "category": "基础设施:公共设施:公共厕所",
        "type": 0,
        "location": {
            "lat": 28.574559,
            "lng": 112.351628
        },
        "ad_info": {
            "adcode": 430903,
            "province": "湖南省",
            "city": "益阳市",
            "district": "赫山区"
        }
    },
    {
        "id": "2341123224405685216",
        "title": "公共厕所",
        "address": "湖南省益阳市赫山区园丁巷与滨江路交叉口东南方向24米左右",
        "tel": "",
        "category": "基础设施:公共设施:公共厕所",
        "type": 0,
        "location": {
            "lat": 28.585799,
            "lng": 112.354529
        },
        "ad_info": {
            "adcode": 430903,
            "province": "湖南省",
            "city": "益阳市",
            "district": "赫山区"
        }
    },
    {
        "id": "14808776667193716740",
        "title": "公共厕所",
        "address": "湖南省益阳市沅江市光明路与桔城大道交叉口正东方向55米左右",
        "tel": "",
        "category": "基础设施:公共设施:公共厕所",
        "type": 0,
        "location": {
            "lat": 28.836782,
            "lng": 112.360378
        },
        "ad_info": {
            "adcode": 430981,
            "province": "湖南省",
            "city": "益阳市",
            "district": "沅江市"
        }
    },
    {
        "id": "18407445999018509372",
        "title": "公共厕所",
        "address": "湖南省益阳市赫山区康富南路与梅林路交叉口正北方向297米左右",
        "tel": "",
        "category": "基础设施:公共设施:公共厕所",
        "type": 0,
        "location": {
            "lat": 28.535628,
            "lng": 112.350729
        },
        "ad_info": {
            "adcode": 430903,
            "province": "湖南省",
            "city": "益阳市",
            "district": "赫山区"
        }
    },
    {
        "id": "17028104282447688798",
        "title": "公共厕所",
        "address": "湖南省益阳市赫山区荷花路与金山南路交叉口正西方向47米左右",
        "tel": "",
        "category": "基础设施:公共设施:公共厕所",
        "type": 0,
        "location": {
            "lat": 28.562529,
            "lng": 112.342856
        },
        "ad_info": {
            "adcode": 430903,
            "province": "湖南省",
            "city": "益阳市",
            "district": "赫山区"
        }
    },
    {
        "id": "11865592783699104067",
        "title": "公共厕所",
        "address": "湖南省益阳市资阳区工人路3号",
        "tel": "",
        "category": "基础设施:公共设施:公共厕所",
        "type": 0,
        "location": {
            "lat": 28.592875,
            "lng": 112.324182
        },
        "ad_info": {
            "adcode": 430902,
            "province": "湖南省",
            "city": "益阳市",
            "district": "资阳区"
        }
    },
    {
        "id": "13932836577893042044",
        "title": "公共厕所",
        "address": "湖南省益阳市赫山区桃花仑东路与金泰路交叉口正西方向59米左右",
        "tel": "",
        "category": "基础设施:公共设施:公共厕所",
        "type": 0,
        "location": {
            "lat": 28.570338,
            "lng": 112.38584
        },
        "ad_info": {
            "adcode": 430903,
            "province": "湖南省",
            "city": "益阳市",
            "district": "赫山区"
        }
    },
    {
        "id": "14347464388332911774",
        "title": "公共厕所",
        "address": "湖南省益阳市赫山区十洲路与萝溪路交叉口正东方向35米左右",
        "tel": "",
        "category": "基础设施:公共设施:公共厕所",
        "type": 0,
        "location": {
            "lat": 28.58341,
            "lng": 112.384693
        },
        "ad_info": {
            "adcode": 430903,
            "province": "湖南省",
            "city": "益阳市",
            "district": "赫山区"
        }
    },
    {
        "id": "13755794258024470354",
        "title": "公共厕所",
        "address": "湖南省益阳市赫山区桃花仑东路与梓山东路交叉口东北方向124米左右",
        "tel": "",
        "category": "基础设施:公共设施:公共厕所",
        "type": 0,
        "location": {
            "lat": 28.556505,
            "lng": 112.404096
        },
        "ad_info": {
            "adcode": 430903,
            "province": "湖南省",
            "city": "益阳市",
            "district": "赫山区"
        }
    },
    {
        "id": "14166313661612818278",
        "title": "公共厕所",
        "address": "湖南省益阳市赫山区七星路与会龙路交叉口西北方向242米左右",
        "tel": "",
        "category": "基础设施:公共设施:公共厕所",
        "type": 0,
        "location": {
            "lat": 28.584182,
            "lng": 112.306239
        },
        "ad_info": {
            "adcode": 430903,
            "province": "湖南省",
            "city": "益阳市",
            "district": "赫山区"
        }
    },
    {
        "id": "17447760194574498017",
        "title": "公共厕所",
        "address": "湖南省益阳市南县华通燃气东方CNG加气站南侧90米",
        "tel": "",
        "category": "基础设施:公共设施:公共厕所",
        "type": 0,
        "location": {
            "lat": 29.378319,
            "lng": 112.398374
        },
        "ad_info": {
            "adcode": 430921,
            "province": "湖南省",
            "city": "益阳市",
            "district": "南县"
        }
    },
    {
        "id": "383413805096267617",
        "title": "公共厕所(江南镇锡潭村永锡桥)",
        "address": "湖南省益阳市安化县X042与X045交叉口西南方向963米左右",
        "tel": "",
        "category": "基础设施:公共设施:公共厕所",
        "type": 0,
        "location": {
            "lat": 28.281004,
            "lng": 111.424569
        },
        "ad_info": {
            "adcode": 430923,
            "province": "湖南省",
            "city": "益阳市",
            "district": "安化县"
        }
    },
    {
        "id": "12529001540401131735",
        "title": "公共厕所",
        "address": "湖南省益阳市资阳区五一西路与前进巷交叉口东北方向113米左右",
        "tel": "",
        "category": "基础设施:公共设施:公共厕所",
        "type": 0,
        "location": {
            "lat": 28.594308,
            "lng": 112.320131
        },
        "ad_info": {
            "adcode": 430902,
            "province": "湖南省",
            "city": "益阳市",
            "district": "资阳区"
        }
    },
    {
        "id": "8015692276240210126",
        "title": "公共厕所",
        "address": "湖南省益阳市赫山区云雾山路辅路与站前大道交叉口西北方向270米左右",
        "tel": "",
        "category": "基础设施:公共设施:公共厕所",
        "type": 0,
        "location": {
            "lat": 28.527047,
            "lng": 112.326671
        },
        "ad_info": {
            "adcode": 430903,
            "province": "湖南省",
            "city": "益阳市",
            "district": "赫山区"
        }
    },
    {
        "id": "16023527750451259945",
        "title": "公共厕所",
        "address": "湖南省益阳市赫山区秀渠巷与秀渠路交叉口东北方向128米左右",
        "tel": "",
        "category": "基础设施:公共设施:公共厕所",
        "type": 0,
        "location": {
            "lat": 28.574829,
            "lng": 112.344322
        },
        "ad_info": {
            "adcode": 430903,
            "province": "湖南省",
            "city": "益阳市",
            "district": "赫山区"
        }
    },
    {
        "id": "9856810730446483455",
        "title": "公共厕所",
        "address": "湖南省益阳市资阳区古城路与西门巷交叉口正东方向156米左右",
        "tel": "",
        "category": "基础设施:公共设施:公共厕所",
        "type": 0,
        "location": {
            "lat": 28.590549,
            "lng": 112.347898
        },
        "ad_info": {
            "adcode": 430902,
            "province": "湖南省",
            "city": "益阳市",
            "district": "资阳区"
        }
    },
    {
        "id": "6476842109559447472",
        "title": "公共厕所",
        "address": "湖南省益阳市资阳区三益南街与学仕巷交叉口东南方向41米左右",
        "tel": "",
        "category": "基础设施:公共设施:公共厕所",
        "type": 0,
        "location": {
            "lat": 28.59705,
            "lng": 112.324694
        },
        "ad_info": {
            "adcode": 430902,
            "province": "湖南省",
            "city": "益阳市",
            "district": "资阳区"
        }
    },
    {
        "id": "3785560350706502384",
        "title": "公共厕所",
        "address": "湖南省益阳市资阳区三益北街与五福西路交叉口东南方向209米左右",
        "tel": "",
        "category": "基础设施:公共设施:公共厕所",
        "type": 0,
        "location": {
            "lat": 28.603453,
            "lng": 112.327072
        },
        "ad_info": {
            "adcode": 430902,
            "province": "湖南省",
            "city": "益阳市",
            "district": "资阳区"
        }
    },
    {
        "id": "14644996991798394448",
        "title": "公共厕所",
        "address": "湖南省益阳市南县月湖路与永红路交叉口西南方向81米左右",
        "tel": "",
        "category": "基础设施:公共设施:公共厕所",
        "type": 0,
        "location": {
            "lat": 29.365387,
            "lng": 112.405175
        },
        "ad_info": {
            "adcode": 430921,
            "province": "湖南省",
            "city": "益阳市",
            "district": "南县"
        }
    },
    {
        "id": "12389547875616744014",
        "title": "公共厕所",
        "address": "湖南省益阳市桃江县胜利街与滨江路交叉口西180米",
        "tel": "",
        "category": "基础设施:公共设施:公共厕所",
        "type": 0,
        "location": {
            "lat": 28.524421,
            "lng": 112.132061
        },
        "ad_info": {
            "adcode": 430922,
            "province": "湖南省",
            "city": "益阳市",
            "district": "桃江县"
        }
    },
    {
        "id": "11377709496679498914",
        "title": "公共厕所",
        "address": "湖南省益阳市资阳区三益北街与文苑路交叉口正东方向221米左右",
        "tel": "",
        "category": "基础设施:公共设施:公共厕所",
        "type": 0,
        "location": {
            "lat": 28.601539,
            "lng": 112.327488
        },
        "ad_info": {
            "adcode": 430902,
            "province": "湖南省",
            "city": "益阳市",
            "district": "资阳区"
        }
    },
    {
        "id": "3577263798616685526",
        "title": "公共厕所",
        "address": "湖南省益阳市资阳区人民路与金花湖西路交叉口西南方向33米左右",
        "tel": "",
        "category": "基础设施:公共设施:公共厕所",
        "type": 0,
        "location": {
            "lat": 28.592175,
            "lng": 112.329301
        },
        "ad_info": {
            "adcode": 430902,
            "province": "湖南省",
            "city": "益阳市",
            "district": "资阳区"
        }
    },
    {
        "id": "3176025006032322320",
        "title": "公共厕所",
        "address": "湖南省益阳市南县创业路与友谊路交叉口东北方向62米左右",
        "tel": "",
        "category": "基础设施:公共设施:公共厕所",
        "type": 0,
        "location": {
            "lat": 29.195005,
            "lng": 112.643424
        },
        "ad_info": {
            "adcode": 430921,
            "province": "湖南省",
            "city": "益阳市",
            "district": "南县"
        }
    },
    {
        "id": "14807969973812713874",
        "title": "公共厕所",
        "address": "湖南省益阳市桃江县",
        "tel": "",
        "category": "基础设施:公共设施:公共厕所",
        "type": 0,
        "location": {
            "lat": 28.589925,
            "lng": 111.748324
        },
        "ad_info": {
            "adcode": 430922,
            "province": "湖南省",
            "city": "益阳市",
            "district": "桃江县"
        }
    },
    {
        "id": "1784450524666130892",
        "title": "公共厕所",
        "address": "湖南省益阳市赫山区金山南路益阳铁路家园",
        "tel": "",
        "category": "基础设施:公共设施:公共厕所",
        "type": 0,
        "location": {
            "lat": 28.545853,
            "lng": 112.341351
        },
        "ad_info": {
            "adcode": 430903,
            "province": "湖南省",
            "city": "益阳市",
            "district": "赫山区"
        }
    },
    {
        "id": "4948581738795106583",
        "title": "公共厕所",
        "address": "湖南省益阳市资阳区五一西路与学园巷交叉口正西方向30米左右",
        "tel": "",
        "category": "基础设施:公共设施:公共厕所",
        "type": 0,
        "location": {
            "lat": 28.592304,
            "lng": 112.318878
        },
        "ad_info": {
            "adcode": 430902,
            "province": "湖南省",
            "city": "益阳市",
            "district": "资阳区"
        }
    },
    {
        "id": "15067204588896576664",
        "title": "公共厕所",
        "address": "湖南省益阳市沅江市建设路与石矶湖路交叉口东北方向55米左右",
        "tel": "",
        "category": "基础设施:公共设施:公共厕所",
        "type": 0,
        "location": {
            "lat": 28.825895,
            "lng": 112.389649
        },
        "ad_info": {
            "adcode": 430981,
            "province": "湖南省",
            "city": "益阳市",
            "district": "沅江市"
        }
    },
    {
        "id": "7069563191208044314",
        "title": "公共厕所",
        "address": "湖南省益阳市资阳区资江西路799号",
        "tel": "",
        "category": "基础设施:公共设施:公共厕所",
        "type": 0,
        "location": {
            "lat": 28.589439,
            "lng": 112.318803
        },
        "ad_info": {
            "adcode": 430902,
            "province": "湖南省",
            "city": "益阳市",
            "district": "资阳区"
        }
    },
    {
        "id": "11614550712547322766",
        "title": "公共厕所",
        "address": "湖南省益阳市赫山区达人巷与陆贾山路交叉口西北方向278米左右",
        "tel": "",
        "category": "基础设施:公共设施:公共厕所",
        "type": 0,
        "location": {
            "lat": 28.586243,
            "lng": 112.361561
        },
        "ad_info": {
            "adcode": 430903,
            "province": "湖南省",
            "city": "益阳市",
            "district": "赫山区"
        }
    },
    {
        "id": "602326237710665719",
        "title": "公共厕所",
        "address": "湖南省益阳市桃江县S206与康富路交叉口西北方向294米左右",
        "tel": "",
        "category": "基础设施:公共设施:公共厕所",
        "type": 0,
        "location": {
            "lat": 28.356678,
            "lng": 112.183413
        },
        "ad_info": {
            "adcode": 430922,
            "province": "湖南省",
            "city": "益阳市",
            "district": "桃江县"
        }
    },
    {
        "id": "18179841124427023748",
        "title": "公共厕所",
        "address": "湖南省益阳市资阳区人民路与金花湖西路交叉口正南方向70米左右",
        "tel": "",
        "category": "基础设施:公共设施:公共厕所",
        "type": 0,
        "location": {
            "lat": 28.591845,
            "lng": 112.329237
        },
        "ad_info": {
            "adcode": 430902,
            "province": "湖南省",
            "city": "益阳市",
            "district": "资阳区"
        }
    },
    {
        "id": "6648549054385800162",
        "title": "公共厕所",
        "address": "湖南省益阳市资阳区五一东路与明星池巷交叉口东北方向155米左右",
        "tel": "",
        "category": "基础设施:公共设施:公共厕所",
        "type": 0,
        "location": {
            "lat": 28.594311,
            "lng": 112.352116
        },
        "ad_info": {
            "adcode": 430902,
            "province": "湖南省",
            "city": "益阳市",
            "district": "资阳区"
        }
    },
    {
        "id": "490880201322169987",
        "title": "公共厕所",
        "address": "湖南省益阳市资阳区五一东路与北门巷交叉口正东方向30米左右",
        "tel": "",
        "category": "基础设施:公共设施:公共厕所",
        "type": 0,
        "location": {
            "lat": 28.592784,
            "lng": 112.349217
        },
        "ad_info": {
            "adcode": 430902,
            "province": "湖南省",
            "city": "益阳市",
            "district": "资阳区"
        }
    },
    {
        "id": "3753907848580134749",
        "title": "公共厕所",
        "address": "湖南省益阳市赫山区益缝小区16号楼东北(平安巷南)",
        "tel": "",
        "category": "基础设施:公共设施:公共厕所",
        "type": 0,
        "location": {
            "lat": 28.567836,
            "lng": 112.380238
        },
        "ad_info": {
            "adcode": 430903,
            "province": "湖南省",
            "city": "益阳市",
            "district": "赫山区"
        }
    },
    {
        "id": "16483586081056175214",
        "title": "公共厕所",
        "address": "湖南省益阳市资阳区紫薇村北停车场",
        "tel": "",
        "category": "基础设施:公共设施:公共厕所",
        "type": 0,
        "location": {
            "lat": 28.662021,
            "lng": 112.311998
        },
        "ad_info": {
            "adcode": 430902,
            "province": "湖南省",
            "city": "益阳市",
            "district": "资阳区"
        }
    },
    {
        "id": "10281010717511734251",
        "title": "公共厕所",
        "address": "湖南省益阳市资阳区幸福路与沿池巷交叉口西南方向128米左右",
        "tel": "",
        "category": "基础设施:公共设施:公共厕所",
        "type": 0,
        "location": {
            "lat": 28.587248,
            "lng": 112.327261
        },
        "ad_info": {
            "adcode": 430902,
            "province": "湖南省",
            "city": "益阳市",
            "district": "资阳区"
        }
    },
    {
        "id": "4389172618697031710",
        "title": "公共厕所",
        "address": "湖南省益阳市资阳区资江西路835号",
        "tel": "",
        "category": "基础设施:公共设施:公共厕所",
        "type": 0,
        "location": {
            "lat": 28.590175,
            "lng": 112.31797
        },
        "ad_info": {
            "adcode": 430902,
            "province": "湖南省",
            "city": "益阳市",
            "district": "资阳区"
        }
    },
    {
        "id": "131036894597846834",
        "title": "公共厕所",
        "address": "湖南省益阳市赫山区G319与五里牌桥交叉口西北方向1151米左右",
        "tel": "",
        "category": "基础设施:公共设施:公共厕所",
        "type": 0,
        "location": {
            "lat": 28.345284,
            "lng": 112.479448
        },
        "ad_info": {
            "adcode": 430903,
            "province": "湖南省",
            "city": "益阳市",
            "district": "赫山区"
        }
    },
    {
        "id": "11887676138229148904",
        "title": "公共厕所",
        "address": "湖南省益阳市赫山区会宾巷与会龙路交叉口正西方向176米左右",
        "tel": "",
        "category": "基础设施:公共设施:公共厕所",
        "type": 0,
        "location": {
            "lat": 28.577103,
            "lng": 112.315231
        },
        "ad_info": {
            "adcode": 430903,
            "province": "湖南省",
            "city": "益阳市",
            "district": "赫山区"
        }
    },
    {
        "id": "3319003745706842181",
        "title": "公共厕所",
        "address": "湖南省益阳市赫山区会龙路与志溪路交叉口正东方向294米左右",
        "tel": "",
        "category": "基础设施:公共设施:公共厕所",
        "type": 0,
        "location": {
            "lat": 28.582237,
            "lng": 112.31189
        },
        "ad_info": {
            "adcode": 430903,
            "province": "湖南省",
            "city": "益阳市",
            "district": "赫山区"
        }
    },
    {
        "id": "17566058636042620478",
        "title": "公共厕所",
        "address": "湖南省益阳市南县盛蓓南县立达中学",
        "tel": "",
        "category": "基础设施:公共设施:公共厕所",
        "type": 0,
        "location": {
            "lat": 29.362713,
            "lng": 112.41986
        },
        "ad_info": {
            "adcode": 430921,
            "province": "湖南省",
            "city": "益阳市",
            "district": "南县"
        }
    },
    {
        "id": "4519507676700866713",
        "title": "公共厕所",
        "address": "湖南省益阳市资阳区北门巷26号",
        "tel": "",
        "category": "基础设施:公共设施:公共厕所",
        "type": 0,
        "location": {
            "lat": 28.592072,
            "lng": 112.349653
        },
        "ad_info": {
            "adcode": 430902,
            "province": "湖南省",
            "city": "益阳市",
            "district": "资阳区"
        }
    },
    {
        "id": "15236434587670012055",
        "title": "公共厕所",
        "address": "湖南省益阳市南县三王庙路与兴盛东路交叉口正北方向65米左右",
        "tel": "",
        "category": "基础设施:公共设施:公共厕所",
        "type": 0,
        "location": {
            "lat": 29.361675,
            "lng": 112.405809
        },
        "ad_info": {
            "adcode": 430921,
            "province": "湖南省",
            "city": "益阳市",
            "district": "南县"
        }
    },
    {
        "id": "2540969698240173142",
        "title": "公共厕所",
        "address": "湖南省益阳市南县S202与Y802交叉口西北方向766米左右",
        "tel": "",
        "category": "基础设施:公共设施:公共厕所",
        "type": 0,
        "location": {
            "lat": 29.222785,
            "lng": 112.636171
        },
        "ad_info": {
            "adcode": 430921,
            "province": "湖南省",
            "city": "益阳市",
            "district": "南县"
        }
    },
    {
        "id": "9508350553927562263",
        "title": "公共厕所",
        "address": "湖南省益阳市南县九都山南路与兴盛西路交叉口正西方向218米左右",
        "tel": "",
        "category": "基础设施:公共设施:公共厕所",
        "type": 0,
        "location": {
            "lat": 29.361153,
            "lng": 112.390916
        },
        "ad_info": {
            "adcode": 430921,
            "province": "湖南省",
            "city": "益阳市",
            "district": "南县"
        }
    },
    {
        "id": "12151637605743900570",
        "title": "公共厕所",
        "address": "湖南省益阳市沅江市洞庭路与科技路交叉口西南方向111米左右",
        "tel": "",
        "category": "基础设施:公共设施:公共厕所",
        "type": 0,
        "location": {
            "lat": 28.833447,
            "lng": 112.38425
        },
        "ad_info": {
            "adcode": 430981,
            "province": "湖南省",
            "city": "益阳市",
            "district": "沅江市"
        }
    },
    {
        "id": "12674868273907859595",
        "title": "公共厕所",
        "address": "湖南省益阳市沅江市庆云山路与琼湖东路交叉口正西方向175米左右",
        "tel": "",
        "category": "基础设施:公共设施:公共厕所",
        "type": 0,
        "location": {
            "lat": 28.837753,
            "lng": 112.381425
        },
        "ad_info": {
            "adcode": 430981,
            "province": "湖南省",
            "city": "益阳市",
            "district": "沅江市"
        }
    },
    {
        "id": "106236144878533569",
        "title": "公共厕所",
        "address": "湖南省益阳市赫山区康富北路与金星巷交叉口正北方向66米左右",
        "tel": "",
        "category": "基础设施:公共设施:公共厕所",
        "type": 0,
        "location": {
            "lat": 28.569096,
            "lng": 112.353154
        },
        "ad_info": {
            "adcode": 430903,
            "province": "湖南省",
            "city": "益阳市",
            "district": "赫山区"
        }
    },
    {
        "id": "14406463887856298187",
        "title": "公共厕所",
        "address": "湖南省益阳市南县兴盛东路与扬清路交叉口东南方向68米左右",
        "tel": "",
        "category": "基础设施:公共设施:公共厕所",
        "type": 0,
        "location": {
            "lat": 29.363149,
            "lng": 112.425242
        },
        "ad_info": {
            "adcode": 430921,
            "province": "湖南省",
            "city": "益阳市",
            "district": "南县"
        }
    },
    {
        "id": "16728913725406399516",
        "title": "公共厕所",
        "address": "湖南省益阳市南县G234与北常路交叉口正北方向885米左右",
        "tel": "",
        "category": "基础设施:公共设施:公共厕所",
        "type": 0,
        "location": {
            "lat": 29.29634,
            "lng": 112.385043
        },
        "ad_info": {
            "adcode": 430921,
            "province": "湖南省",
            "city": "益阳市",
            "district": "南县"
        }
    },
    {
        "id": "1339162820597722210",
        "title": "公共厕所",
        "address": "湖南省益阳市南县东正街与大兴坊巷交叉口西南方向19米左右",
        "tel": "",
        "category": "基础设施:公共设施:公共厕所",
        "type": 0,
        "location": {
            "lat": 29.372728,
            "lng": 112.414288
        },
        "ad_info": {
            "adcode": 430921,
            "province": "湖南省",
            "city": "益阳市",
            "district": "南县"
        }
    },
    {
        "id": "14135421413127776768",
        "title": "安化服务区公共厕所",
        "address": "湖南省益阳市安化县平洞高速服务区",
        "tel": "",
        "category": "基础设施:公共设施:公共厕所",
        "type": 0,
        "location": {
            "lat": 28.433665,
            "lng": 111.301515
        },
        "ad_info": {
            "adcode": 430923,
            "province": "湖南省",
            "city": "益阳市",
            "district": "安化县"
        }
    },
    {
        "id": "10000897467528131583",
        "title": "公共厕所",
        "address": "湖南省益阳市南县S202与S313交叉口西北方向442米左右",
        "tel": "",
        "category": "基础设施:公共设施:公共厕所",
        "type": 0,
        "location": {
            "lat": 29.064172,
            "lng": 112.346638
        },
        "ad_info": {
            "adcode": 430921,
            "province": "湖南省",
            "city": "益阳市",
            "district": "南县"
        }
    },
    {
        "id": "10266009911308409899",
        "title": "公共厕所",
        "address": "湖南省益阳市赫山区海棠路益阳市市场监督管理局",
        "tel": "",
        "category": "基础设施:公共设施:公共厕所",
        "type": 0,
        "location": {
            "lat": 28.560806,
            "lng": 112.345605
        },
        "ad_info": {
            "adcode": 430903,
            "province": "湖南省",
            "city": "益阳市",
            "district": "赫山区"
        }
    },
    {
        "id": "8372774376873228530",
        "title": "公共厕所",
        "address": "湖南省益阳市赫山区滨江路353号",
        "tel": "",
        "category": "基础设施:公共设施:公共厕所",
        "type": 0,
        "location": {
            "lat": 28.588201,
            "lng": 112.358632
        },
        "ad_info": {
            "adcode": 430903,
            "province": "湖南省",
            "city": "益阳市",
            "district": "赫山区"
        }
    },
    {
        "id": "7273055208623773407",
        "title": "公共厕所",
        "address": "湖南省益阳市沅江市X011与Y737交叉口正北方向596米左右",
        "tel": "",
        "category": "基础设施:公共设施:公共厕所",
        "type": 0,
        "location": {
            "lat": 28.76575,
            "lng": 112.35336
        },
        "ad_info": {
            "adcode": 430981,
            "province": "湖南省",
            "city": "益阳市",
            "district": "沅江市"
        }
    },
    {
        "id": "17786387695283823374",
        "title": "益阳服务区-公共厕所",
        "address": "湖南省益阳市赫山区S326与民兵桥交叉口正南方向1280米左右",
        "tel": "",
        "category": "基础设施:公共设施:公共厕所",
        "type": 0,
        "location": {
            "lat": 28.524763,
            "lng": 112.454921
        },
        "ad_info": {
            "adcode": 430903,
            "province": "湖南省",
            "city": "益阳市",
            "district": "赫山区"
        }
    },
    {
        "id": "13280632653454540691",
        "title": "肯德基(桥北餐厅)-洗手间",
        "address": "湖南省益阳市资阳区马良南路华信国际大酒店(长春东路店)",
        "tel": "",
        "category": "基础设施:公共设施:公共厕所",
        "type": 0,
        "location": {
            "lat": 28.597927,
            "lng": 112.334564
        },
        "ad_info": {
            "adcode": 430902,
            "province": "湖南省",
            "city": "益阳市",
            "district": "资阳区"
        }
    },
    {
        "id": "13032446333504985150",
        "title": "公共厕所",
        "address": "湖南省益阳市赫山区秀峰西路与秋果路交叉口西南方向154米左右",
        "tel": "",
        "category": "基础设施:公共设施:公共厕所",
        "type": 0,
        "location": {
            "lat": 28.572216,
            "lng": 112.347601
        },
        "ad_info": {
            "adcode": 430903,
            "province": "湖南省",
            "city": "益阳市",
            "district": "赫山区"
        }
    },
    {
        "id": "6585429244978851702",
        "title": "森威厕所蹲位·公共卫生间隔断批发",
        "address": "湖南省益阳市赫山区益阳市银城大市场D3栋",
        "tel": "18711196688",
        "category": "基础设施:公共设施:公共厕所",
        "type": 0,
        "location": {
            "lat": 28.565667,
            "lng": 112.397153
        },
        "ad_info": {
            "adcode": 430903,
            "province": "湖南省",
            "city": "益阳市",
            "district": "赫山区"
        }
    },
    {
        "id": "8287193832465910490",
        "title": "肯德基(金鸿餐厅)-洗手间",
        "address": "湖南省益阳市赫山区桃花仑东路与步步高巷交叉口西北方向67米左右",
        "tel": "",
        "category": "基础设施:公共设施:公共厕所",
        "type": 0,
        "location": {
            "lat": 28.578722,
            "lng": 112.371301
        },
        "ad_info": {
            "adcode": 430903,
            "province": "湖南省",
            "city": "益阳市",
            "district": "赫山区"
        }
    },
    {
        "id": "49148053653375427",
        "title": "安化服务区公共厕所",
        "address": "湖南省益阳市安化县益溆高速附近",
        "tel": "",
        "category": "基础设施:公共设施:公共厕所",
        "type": 0,
        "location": {
            "lat": 28.431683,
            "lng": 111.300563
        },
        "ad_info": {
            "adcode": 430923,
            "province": "湖南省",
            "city": "益阳市",
            "district": "安化县"
        }
    },
    {
        "id": "7180593800368904484",
        "title": "浮邱山服务区公共厕所",
        "address": "湖南省益阳市桃江县浮邱山服务区北侧",
        "tel": "",
        "category": "基础设施:公共设施:公共厕所",
        "type": 0,
        "location": {
            "lat": 28.482764,
            "lng": 112.090818
        },
        "ad_info": {
            "adcode": 430922,
            "province": "湖南省",
            "city": "益阳市",
            "district": "桃江县"
        }
    },
    {
        "id": "12907183004177714253",
        "title": "梅城服务区公共厕所",
        "address": "湖南省益阳市安化县G55二广高速与梅城服务区交叉口西北360米",
        "tel": "",
        "category": "基础设施:公共设施:公共厕所",
        "type": 0,
        "location": {
            "lat": 28.122816,
            "lng": 111.703728
        },
        "ad_info": {
            "adcode": 430923,
            "province": "湖南省",
            "city": "益阳市",
            "district": "安化县"
        }
    },
    {
        "id": "5731445022957988409",
        "title": "公共厕所垃圾中转站",
        "address": "湖南省益阳市南县永红路与英烈巷交叉口正东方向74米左右",
        "tel": "",
        "category": "基础设施:公共设施:公共厕所",
        "type": 0,
        "location": {
            "lat": 29.366115,
            "lng": 112.414123
        },
        "ad_info": {
            "adcode": 430921,
            "province": "湖南省",
            "city": "益阳市",
            "district": "南县"
        }
    },
    {
        "id": "1305300137221784888",
        "title": "益阳南服务区公共厕所",
        "address": "湖南省益阳市赫山区X026与银城南路交叉口东北方向1855米左右",
        "tel": "",
        "category": "基础设施:公共设施:公共厕所",
        "type": 0,
        "location": {
            "lat": 28.478542,
            "lng": 112.338873
        },
        "ad_info": {
            "adcode": 430903,
            "province": "湖南省",
            "city": "益阳市",
            "district": "赫山区"
        }
    },
    {
        "id": "873347056197934592",
        "title": "马迹塘服务区公共厕所",
        "address": "湖南省益阳市桃江县马迹塘服务区东北侧",
        "tel": "",
        "category": "基础设施:公共设施:公共厕所",
        "type": 0,
        "location": {
            "lat": 28.411192,
            "lng": 111.769942
        },
        "ad_info": {
            "adcode": 430922,
            "province": "湖南省",
            "city": "益阳市",
            "district": "桃江县"
        }
    },
    {
        "id": "15563514561865117698",
        "title": "益阳南服务区公共厕所",
        "address": "湖南省益阳市赫山区平洞高速与长浏高速交叉口正西方向1822米左右",
        "tel": "",
        "category": "基础设施:公共设施:公共厕所",
        "type": 0,
        "location": {
            "lat": 28.479093,
            "lng": 112.340527
        },
        "ad_info": {
            "adcode": 430903,
            "province": "湖南省",
            "city": "益阳市",
            "district": "赫山区"
        }
    },
    {
        "id": "12165044791497448457",
        "title": "公共厕所",
        "address": "湖南省益阳市桃江县桃花路与育英巷交叉口西北方向117米左右",
        "tel": "",
        "category": "基础设施:公共设施:公共厕所",
        "type": 0,
        "location": {
            "lat": 28.527652,
            "lng": 112.13974
        },
        "ad_info": {
            "adcode": 430922,
            "province": "湖南省",
            "city": "益阳市",
            "district": "桃江县"
        }
    },
    {
        "id": "7362244465533837683",
        "title": "公共厕所",
        "address": "湖南省益阳市赫山区秋果路与虎形山巷交叉口正西方向12米左右",
        "tel": "",
        "category": "基础设施:公共设施:公共厕所",
        "type": 0,
        "location": {
            "lat": 28.574035,
            "lng": 112.350205
        },
        "ad_info": {
            "adcode": 430903,
            "province": "湖南省",
            "city": "益阳市",
            "district": "赫山区"
        }
    },
    {
        "id": "11224853942357027636",
        "title": "公共厕所",
        "address": "湖南省益阳市南县昌盛路与迎宾路交叉口正南方向338米左右",
        "tel": "",
        "category": "基础设施:公共设施:公共厕所",
        "type": 0,
        "location": {
            "lat": 29.280251,
            "lng": 112.387726
        },
        "ad_info": {
            "adcode": 430921,
            "province": "湖南省",
            "city": "益阳市",
            "district": "南县"
        }
    },
    {
        "id": "75450780583771190",
        "title": "公共厕所",
        "address": "湖南省益阳市安化县柘溪镇唐溪茶场一工区",
        "tel": "",
        "category": "基础设施:公共设施:公共厕所",
        "type": 0,
        "location": {
            "lat": 28.304298,
            "lng": 111.123161
        },
        "ad_info": {
            "adcode": 430923,
            "province": "湖南省",
            "city": "益阳市",
            "district": "安化县"
        }
    },
    {
        "id": "2729297740082934496",
        "title": "古楼服务区公共厕所",
        "address": "湖南省益阳市安化县古楼服务区与G59呼北高速交叉口西300米",
        "tel": "",
        "category": "基础设施:公共设施:公共厕所",
        "type": 0,
        "location": {
            "lat": 28.16021,
            "lng": 111.072084
        },
        "ad_info": {
            "adcode": 430923,
            "province": "湖南省",
            "city": "益阳市",
            "district": "安化县"
        }
    },
    {
        "id": "16341207770826757791",
        "title": "无障碍公共厕所",
        "address": "湖南省益阳市赫山区迎宾西路与怡园路交叉口东40米",
        "tel": "",
        "category": "基础设施:公共设施:公共厕所",
        "type": 0,
        "location": {
            "lat": 28.540522,
            "lng": 112.34838
        },
        "ad_info": {
            "adcode": 430903,
            "province": "湖南省",
            "city": "益阳市",
            "district": "赫山区"
        }
    },
    {
        "id": "10120154752754112199",
        "title": "公共厕所",
        "address": "湖南省益阳市资阳区贺家桥路与金花湖路交叉口正北方向239米左右",
        "tel": "",
        "category": "基础设施:公共设施:公共厕所",
        "type": 0,
        "location": {
            "lat": 28.598186,
            "lng": 112.3427
        },
        "ad_info": {
            "adcode": 430902,
            "province": "湖南省",
            "city": "益阳市",
            "district": "资阳区"
        }
    },
    {
        "id": "7127835694938667078",
        "title": "公共厕所",
        "address": "湖南省益阳市赫山区双居巷与桃花仑西路交叉口正南方向295米左右",
        "tel": "",
        "category": "基础设施:公共设施:公共厕所",
        "type": 0,
        "location": {
            "lat": 28.578618,
            "lng": 112.343934
        },
        "ad_info": {
            "adcode": 430903,
            "province": "湖南省",
            "city": "益阳市",
            "district": "赫山区"
        }
    },
    {
        "id": "11754111314063167179",
        "title": "公共厕所",
        "address": "湖南省益阳市安化县S308与金鹊路交叉口西北方向86米左右",
        "tel": "",
        "category": "基础设施:公共设施:公共厕所",
        "type": 0,
        "location": {
            "lat": 28.38455,
            "lng": 111.302009
        },
        "ad_info": {
            "adcode": 430923,
            "province": "湖南省",
            "city": "益阳市",
            "district": "安化县"
        }
    },
    {
        "id": "8306611863385430039",
        "title": "公共厕所",
        "address": "湖南省益阳市赫山区团圆北路与海苑巷交叉口东北方向70米左右",
        "tel": "",
        "category": "基础设施:公共设施:公共厕所",
        "type": 0,
        "location": {
            "lat": 28.566563,
            "lng": 112.385591
        },
        "ad_info": {
            "adcode": 430903,
            "province": "湖南省",
            "city": "益阳市",
            "district": "赫山区"
        }
    },
    {
        "id": "15128767839642034612",
        "title": "公共厕所",
        "address": "湖南省益阳市赫山区岳家桥镇中心卫生院东北侧130米",
        "tel": "",
        "category": "基础设施:公共设施:公共厕所",
        "type": 0,
        "location": {
            "lat": 28.326588,
            "lng": 112.416276
        },
        "ad_info": {
            "adcode": 430903,
            "province": "湖南省",
            "city": "益阳市",
            "district": "赫山区"
        }
    },
    {
        "id": "2751712775798143695",
        "title": "公共厕所(云雾天宫景区)",
        "address": "湖南省益阳市安化县清塘铺镇云雾山村云雾天宫景区",
        "tel": "",
        "category": "基础设施:公共设施:公共厕所",
        "type": 0,
        "location": {
            "lat": 28.183106,
            "lng": 111.826781
        },
        "ad_info": {
            "adcode": 430923,
            "province": "湖南省",
            "city": "益阳市",
            "district": "安化县"
        }
    },
    {
        "id": "10896737575546718334",
        "title": "公共厕所",
        "address": "湖南省益阳市赫山区双拥路与滨江路交叉口西南方向51米左右",
        "tel": "",
        "category": "基础设施:公共设施:公共厕所",
        "type": 0,
        "location": {
            "lat": 28.584485,
            "lng": 112.337674
        },
        "ad_info": {
            "adcode": 430903,
            "province": "湖南省",
            "city": "益阳市",
            "district": "赫山区"
        }
    },
    {
        "id": "16143917759283803130",
        "title": "公共厕所",
        "address": "湖南省益阳市赫山区益阳大道(东)与罗溪路交叉口西南160米",
        "tel": "",
        "category": "基础设施:公共设施:公共厕所",
        "type": 0,
        "location": {
            "lat": 28.563788,
            "lng": 112.373851
        },
        "ad_info": {
            "adcode": 430903,
            "province": "湖南省",
            "city": "益阳市",
            "district": "赫山区"
        }
    },
    {
        "id": "6654628722413213423",
        "title": "公共厕所",
        "address": "湖南省益阳市赫山区S206与S538交叉口西南方向370米左右",
        "tel": "",
        "category": "基础设施:公共设施:公共厕所",
        "type": 0,
        "location": {
            "lat": 28.281473,
            "lng": 112.339532
        },
        "ad_info": {
            "adcode": 430903,
            "province": "湖南省",
            "city": "益阳市",
            "district": "赫山区"
        }
    },
    {
        "id": "3212074631417657323",
        "title": "公共厕所",
        "address": "湖南省益阳市赫山区学府路与春城大道交叉口正北方向166米左右",
        "tel": "",
        "category": "基础设施:公共设施:公共厕所",
        "type": 0,
        "location": {
            "lat": 28.545702,
            "lng": 112.387498
        },
        "ad_info": {
            "adcode": 430903,
            "province": "湖南省",
            "city": "益阳市",
            "district": "赫山区"
        }
    },
    {
        "id": "7769544404065726964",
        "title": "公共厕所",
        "address": "湖南省益阳市沅江市G234与九臂樟路交叉口正北方向1150米左右",
        "tel": "",
        "category": "基础设施:公共设施:公共厕所",
        "type": 0,
        "location": {
            "lat": 28.951908,
            "lng": 112.30097
        },
        "ad_info": {
            "adcode": 430981,
            "province": "湖南省",
            "city": "益阳市",
            "district": "沅江市"
        }
    },
    {
        "id": "7969804213298355139",
        "title": "公共厕所",
        "address": "湖南省益阳市资阳区古城路与资江西路交叉口西南方向41米左右",
        "tel": "",
        "category": "基础设施:公共设施:公共厕所",
        "type": 0,
        "location": {
            "lat": 28.595652,
            "lng": 112.317716
        },
        "ad_info": {
            "adcode": 430902,
            "province": "湖南省",
            "city": "益阳市",
            "district": "资阳区"
        }
    },
    {
        "id": "12369525928802285043",
        "title": "无障碍洗手间",
        "address": "湖南省益阳市赫山区会龙路与龙山路交叉口东北方向20米左右",
        "tel": "",
        "category": "基础设施:公共设施:公共厕所",
        "type": 0,
        "location": {
            "lat": 28.577041,
            "lng": 112.32138
        },
        "ad_info": {
            "adcode": 430903,
            "province": "湖南省",
            "city": "益阳市",
            "district": "赫山区"
        }
    },
    {
        "id": "15053061718206044017",
        "title": "公共厕所",
        "address": "湖南省益阳市安化县平洞高速与羊角塘互通交叉口正北方向603米左右",
        "tel": "",
        "category": "基础设施:公共设施:公共厕所",
        "type": 0,
        "location": {
            "lat": 28.511715,
            "lng": 111.629403
        },
        "ad_info": {
            "adcode": 430923,
            "province": "湖南省",
            "city": "益阳市",
            "district": "安化县"
        }
    },
    {
        "id": "11764522934464043341",
        "title": "公共厕所(助农研学实践教育基地)",
        "address": "湖南省益阳市南县麻河口镇东胜村稻梦田园",
        "tel": "",
        "category": "基础设施:公共设施:公共厕所",
        "type": 0,
        "location": {
            "lat": 29.356469,
            "lng": 112.315378
        },
        "ad_info": {
            "adcode": 430921,
            "province": "湖南省",
            "city": "益阳市",
            "district": "南县"
        }
    },
    {
        "id": "13018986688341033768",
        "title": "公共厕所",
        "address": "湖南省益阳市赫山区学府路与春城大道交叉口西北方向187米左右",
        "tel": "",
        "category": "基础设施:公共设施:公共厕所",
        "type": 0,
        "location": {
            "lat": 28.545788,
            "lng": 112.387102
        },
        "ad_info": {
            "adcode": 430903,
            "province": "湖南省",
            "city": "益阳市",
            "district": "赫山区"
        }
    },
    {
        "id": "18221403788050504316",
        "title": "公共厕所",
        "address": "湖南省益阳市南县九都山南路与兴盛西路交叉口正西方向231米左右",
        "tel": "",
        "category": "基础设施:公共设施:公共厕所",
        "type": 0,
        "location": {
            "lat": 29.361374,
            "lng": 112.390819
        },
        "ad_info": {
            "adcode": 430921,
            "province": "湖南省",
            "city": "益阳市",
            "district": "南县"
        }
    },
    {
        "id": "2127092705700394150",
        "title": "公共厕所",
        "address": "湖南省益阳市赫山区秀渠巷与秀渠路交叉口正北方向108米左右",
        "tel": "",
        "category": "基础设施:公共设施:公共厕所",
        "type": 0,
        "location": {
            "lat": 28.575327,
            "lng": 112.342849
        },
        "ad_info": {
            "adcode": 430903,
            "province": "湖南省",
            "city": "益阳市",
            "district": "赫山区"
        }
    },
    {
        "id": "4048461397391918523",
        "title": "公共厕所",
        "address": "湖南省益阳市资阳区古城路与资江东路交叉口西南方向26米左右",
        "tel": "",
        "category": "基础设施:公共设施:公共厕所",
        "type": 0,
        "location": {
            "lat": 28.597029,
            "lng": 112.362511
        },
        "ad_info": {
            "adcode": 430902,
            "province": "湖南省",
            "city": "益阳市",
            "district": "资阳区"
        }
    },
    {
        "id": "14010402422148379587",
        "title": "马迹塘服务区公共厕所",
        "address": "湖南省益阳市桃江县马迹塘服务区西侧",
        "tel": "",
        "category": "基础设施:公共设施:公共厕所",
        "type": 0,
        "location": {
            "lat": 28.41205,
            "lng": 111.767426
        },
        "ad_info": {
            "adcode": 430922,
            "province": "湖南省",
            "city": "益阳市",
            "district": "桃江县"
        }
    },
    {
        "id": "17650041414342622289",
        "title": "公共厕所",
        "address": "湖南省益阳市赫山区滨江路与龙山路交叉口正南方向136米左右",
        "tel": "",
        "category": "基础设施:公共设施:公共厕所",
        "type": 0,
        "location": {
            "lat": 28.582241,
            "lng": 112.323161
        },
        "ad_info": {
            "adcode": 430903,
            "province": "湖南省",
            "city": "益阳市",
            "district": "赫山区"
        }
    },
    {
        "id": "12413970677775270363",
        "title": "公共厕所(厂窖惨案遗址旅游)",
        "address": "湖南省益阳市南县厂窖镇德伏村",
        "tel": "",
        "category": "基础设施:公共设施:公共厕所",
        "type": 0,
        "location": {
            "lat": 29.186399,
            "lng": 112.232335
        },
        "ad_info": {
            "adcode": 430921,
            "province": "湖南省",
            "city": "益阳市",
            "district": "南县"
        }
    },
    {
        "id": "12427680868781413150",
        "title": "公共厕所",
        "address": "湖南省益阳市安化县G207与S328交叉口正南方向183米左右",
        "tel": "",
        "category": "基础设施:公共设施:公共厕所",
        "type": 0,
        "location": {
            "lat": 28.140479,
            "lng": 111.654129
        },
        "ad_info": {
            "adcode": 430923,
            "province": "湖南省",
            "city": "益阳市",
            "district": "安化县"
        }
    },
    {
        "id": "1556503086181568880",
        "title": "公共厕所",
        "address": "湖南省益阳市赫山区朝阳康复医院南侧200米",
        "tel": "",
        "category": "基础设施:公共设施:公共厕所",
        "type": 0,
        "location": {
            "lat": 28.538591,
            "lng": 112.343691
        },
        "ad_info": {
            "adcode": 430903,
            "province": "湖南省",
            "city": "益阳市",
            "district": "赫山区"
        }
    },
    {
        "id": "17939980362766512527",
        "title": "公共厕所",
        "address": "湖南省益阳市安化县G536与雪峰湖大道交叉口正东方向120米左右",
        "tel": "",
        "category": "基础设施:公共设施:公共厕所",
        "type": 0,
        "location": {
            "lat": 28.36849,
            "lng": 111.208223
        },
        "ad_info": {
            "adcode": 430923,
            "province": "湖南省",
            "city": "益阳市",
            "district": "安化县"
        }
    },
    {
        "id": "17300027888514028098",
        "title": "洗手间",
        "address": "湖南省益阳市赫山区格林路格林花园",
        "tel": "",
        "category": "基础设施:公共设施:公共厕所",
        "type": 0,
        "location": {
            "lat": 28.573773,
            "lng": 112.372384
        },
        "ad_info": {
            "adcode": 430903,
            "province": "湖南省",
            "city": "益阳市",
            "district": "赫山区"
        }
    },
    {
        "id": "10236105697683616080",
        "title": "公共厕所",
        "address": "湖南省益阳市赫山区桃花仑东路与梓山东路交叉口正东方向188米左右",
        "tel": "",
        "category": "基础设施:公共设施:公共厕所",
        "type": 0,
        "location": {
            "lat": 28.556573,
            "lng": 112.404771
        },
        "ad_info": {
            "adcode": 430903,
            "province": "湖南省",
            "city": "益阳市",
            "district": "赫山区"
        }
    },
    {
        "id": "5832444973499161185",
        "title": "公共厕所",
        "address": "湖南省益阳市赫山区康富南路与欣园路交叉口东南方向372米左右",
        "tel": "",
        "category": "基础设施:公共设施:公共厕所",
        "type": 0,
        "location": {
            "lat": 28.55683,
            "lng": 112.356278
        },
        "ad_info": {
            "adcode": 430903,
            "province": "湖南省",
            "city": "益阳市",
            "district": "赫山区"
        }
    },
    {
        "id": "185053282477120774",
        "title": "公共厕所",
        "address": "湖南省益阳市赫山区白鹿路111号",
        "tel": "",
        "category": "基础设施:公共设施:公共厕所",
        "type": 0,
        "location": {
            "lat": 28.584913,
            "lng": 112.337319
        },
        "ad_info": {
            "adcode": 430903,
            "province": "湖南省",
            "city": "益阳市",
            "district": "赫山区"
        }
    },
    {
        "id": "12978242439779999165",
        "title": "公共厕所",
        "address": "湖南省益阳市资阳区古城路与沿江路交叉口正东方向312米左右",
        "tel": "",
        "category": "基础设施:公共设施:公共厕所",
        "type": 0,
        "location": {
            "lat": 28.615518,
            "lng": 112.319817
        },
        "ad_info": {
            "adcode": 430902,
            "province": "湖南省",
            "city": "益阳市",
            "district": "资阳区"
        }
    },
    {
        "id": "10213682231400080047",
        "title": "公共厕所",
        "address": "湖南省益阳市桃江县资江路与金鸭路交叉口东北方向45米左右",
        "tel": "",
        "category": "基础设施:公共设施:公共厕所",
        "type": 0,
        "location": {
            "lat": 28.513842,
            "lng": 112.140855
        },
        "ad_info": {
            "adcode": 430922,
            "province": "湖南省",
            "city": "益阳市",
            "district": "桃江县"
        }
    },
    {
        "id": "8943272530514227816",
        "title": "公共厕所",
        "address": "湖南省益阳市安化县黄沙坪老街安化礼物直营店二楼",
        "tel": "",
        "category": "基础设施:公共设施:公共厕所",
        "type": 0,
        "location": {
            "lat": 28.369937,
            "lng": 111.268719
        },
        "ad_info": {
            "adcode": 430923,
            "province": "湖南省",
            "city": "益阳市",
            "district": "安化县"
        }
    },
    {
        "id": "11420420177931770326",
        "title": "公共厕所",
        "address": "湖南省益阳市赫山区会龙路与七星路交叉口西北360米",
        "tel": "",
        "category": "基础设施:公共设施:公共厕所",
        "type": 0,
        "location": {
            "lat": 28.584771,
            "lng": 112.305192
        },
        "ad_info": {
            "adcode": 430903,
            "province": "湖南省",
            "city": "益阳市",
            "district": "赫山区"
        }
    },
    {
        "id": "248424522757341934",
        "title": "公共厕所",
        "address": "湖南省益阳市沅江市永兴路与金橙路交叉口西北方向21米左右",
        "tel": "",
        "category": "基础设施:公共设施:公共厕所",
        "type": 0,
        "location": {
            "lat": 28.839624,
            "lng": 112.362786
        },
        "ad_info": {
            "adcode": 430981,
            "province": "湖南省",
            "city": "益阳市",
            "district": "沅江市"
        }
    },
    {
        "id": "14613501160323819945",
        "title": "公共厕所",
        "address": "湖南省益阳市桃江县G207与S317交叉口西南方向70米左右",
        "tel": "",
        "category": "基础设施:公共设施:公共厕所",
        "type": 0,
        "location": {
            "lat": 28.531944,
            "lng": 111.720825
        },
        "ad_info": {
            "adcode": 430922,
            "province": "湖南省",
            "city": "益阳市",
            "district": "桃江县"
        }
    },
    {
        "id": "17545329800286829786",
        "title": "公共厕所",
        "address": "湖南省益阳市赫山区同升巷与龙凤巷交叉口西北方向145米左右",
        "tel": "",
        "category": "基础设施:公共设施:公共厕所",
        "type": 0,
        "location": {
            "lat": 28.560343,
            "lng": 112.394058
        },
        "ad_info": {
            "adcode": 430903,
            "province": "湖南省",
            "city": "益阳市",
            "district": "赫山区"
        }
    },
    {
        "id": "138947635007229360",
        "title": "公共厕所",
        "address": "湖南省益阳市桃江县兴旺路112号",
        "tel": "",
        "category": "基础设施:公共设施:公共厕所",
        "type": 0,
        "location": {
            "lat": 28.51522,
            "lng": 112.157124
        },
        "ad_info": {
            "adcode": 430922,
            "province": "湖南省",
            "city": "益阳市",
            "district": "桃江县"
        }
    },
    {
        "id": "4045971574197721360",
        "title": "公共厕所",
        "address": "湖南省益阳市赫山区同升巷与桃花仑东路交叉口正南方向109米左右",
        "tel": "",
        "category": "基础设施:公共设施:公共厕所",
        "type": 0,
        "location": {
            "lat": 28.56,
            "lng": 112.39829
        },
        "ad_info": {
            "adcode": 430903,
            "province": "湖南省",
            "city": "益阳市",
            "district": "赫山区"
        }
    },
    {
        "id": "3443290273569595610",
        "title": "公共厕所(安化县茶乡花海秋园水塔)",
        "address": "湖南省益阳市安化县茶乡花海景区秋园水塔",
        "tel": "",
        "category": "基础设施:公共设施:公共厕所",
        "type": 0,
        "location": {
            "lat": 28.436794,
            "lng": 111.339729
        },
        "ad_info": {
            "adcode": 430923,
            "province": "湖南省",
            "city": "益阳市",
            "district": "安化县"
        }
    },
    {
        "id": "16260283055229851287",
        "title": "公共厕所",
        "address": "湖南省益阳市赫山区会龙路与红星巷交叉口正西方向21米左右",
        "tel": "",
        "category": "基础设施:公共设施:公共厕所",
        "type": 0,
        "location": {
            "lat": 28.577094,
            "lng": 112.321455
        },
        "ad_info": {
            "adcode": 430903,
            "province": "湖南省",
            "city": "益阳市",
            "district": "赫山区"
        }
    },
    {
        "id": "12814419173842661249",
        "title": "公共厕所",
        "address": "湖南省益阳市赫山区大桃南路金源大厦",
        "tel": "",
        "category": "基础设施:公共设施:公共厕所",
        "type": 0,
        "location": {
            "lat": 28.56478,
            "lng": 112.357751
        },
        "ad_info": {
            "adcode": 430903,
            "province": "湖南省",
            "city": "益阳市",
            "district": "赫山区"
        }
    },
    {
        "id": "4078147504088400028",
        "title": "公共厕所",
        "address": "湖南省益阳市南县滨江路与篾货街交叉口正西方向42米左右",
        "tel": "",
        "category": "基础设施:公共设施:公共厕所",
        "type": 0,
        "location": {
            "lat": 29.374417,
            "lng": 112.416061
        },
        "ad_info": {
            "adcode": 430921,
            "province": "湖南省",
            "city": "益阳市",
            "district": "南县"
        }
    },
    {
        "id": "8943511920650108850",
        "title": "益阳黄家湖大酒店-洗手间",
        "address": "湖南省益阳市资阳区长春镇皇家湖",
        "tel": "",
        "category": "基础设施:公共设施:公共厕所",
        "type": 0,
        "location": {
            "lat": 28.704374,
            "lng": 112.353456
        },
        "ad_info": {
            "adcode": 430902,
            "province": "湖南省",
            "city": "益阳市",
            "district": "资阳区"
        }
    },
    {
        "id": "6024674901228987137",
        "title": "森威厕所蹲位·公共卫生间隔断批发",
        "address": "湖南省益阳市赫山区万城国际家居城2栋220号",
        "tel": "18711196688",
        "category": "基础设施:公共设施:公共厕所",
        "type": 0,
        "location": {
            "lat": 28.542293,
            "lng": 112.339586
        },
        "ad_info": {
            "adcode": 430903,
            "province": "湖南省",
            "city": "益阳市",
            "district": "赫山区"
        }
    },
    {
        "id": "15421327142354262160",
        "title": "公共厕所",
        "address": "湖南省益阳市南县东正街与古松巷交叉口西南方向20米左右",
        "tel": "",
        "category": "基础设施:公共设施:公共厕所",
        "type": 0,
        "location": {
            "lat": 29.372305,
            "lng": 112.414883
        },
        "ad_info": {
            "adcode": 430921,
            "province": "湖南省",
            "city": "益阳市",
            "district": "南县"
        }
    },
    {
        "id": "16494010434203474234",
        "title": "公共厕所",
        "address": "湖南省益阳市安化县兴旺北路与创新街交叉口正西方向119米左右",
        "tel": "",
        "category": "基础设施:公共设施:公共厕所",
        "type": 0,
        "location": {
            "lat": 28.034656,
            "lng": 111.101548
        },
        "ad_info": {
            "adcode": 430923,
            "province": "湖南省",
            "city": "益阳市",
            "district": "安化县"
        }
    },
    {
        "id": "15675549365563279295",
        "title": "公共厕所",
        "address": "湖南省益阳市桃江县桃花路与谷山路交叉口西北方向269米左右",
        "tel": "",
        "category": "基础设施:公共设施:公共厕所",
        "type": 0,
        "location": {
            "lat": 28.529556,
            "lng": 112.139733
        },
        "ad_info": {
            "adcode": 430922,
            "province": "湖南省",
            "city": "益阳市",
            "district": "桃江县"
        }
    },
    {
        "id": "266492500364037164",
        "title": "公共厕所",
        "address": "湖南省益阳市南县永红路与英烈巷交叉口正东方向77米左右",
        "tel": "",
        "category": "基础设施:公共设施:公共厕所",
        "type": 0,
        "location": {
            "lat": 29.366092,
            "lng": 112.414151
        },
        "ad_info": {
            "adcode": 430921,
            "province": "湖南省",
            "city": "益阳市",
            "district": "南县"
        }
    },
    {
        "id": "6489139859004151376",
        "title": "公共厕所",
        "address": "湖南省益阳市沅江市赤山明珠西南侧200米",
        "tel": "",
        "category": "基础设施:公共设施:公共厕所",
        "type": 0,
        "location": {
            "lat": 28.927543,
            "lng": 112.311058
        },
        "ad_info": {
            "adcode": 430981,
            "province": "湖南省",
            "city": "益阳市",
            "district": "沅江市"
        }
    },
    {
        "id": "9610117608285298228",
        "title": "公共厕所",
        "address": "湖南省益阳市赫山区龙洲北路与龙洲大桥交叉口西南方向59米左右",
        "tel": "",
        "category": "基础设施:公共设施:公共厕所",
        "type": 0,
        "location": {
            "lat": 28.591385,
            "lng": 112.367033
        },
        "ad_info": {
            "adcode": 430903,
            "province": "湖南省",
            "city": "益阳市",
            "district": "赫山区"
        }
    },
    {
        "id": "17757228656384341558",
        "title": "公共厕所",
        "address": "湖南省益阳市沅江市光明路与市场路交叉口正南方向74米左右",
        "tel": "",
        "category": "基础设施:公共设施:公共厕所",
        "type": 0,
        "location": {
            "lat": 28.835852,
            "lng": 112.367075
        },
        "ad_info": {
            "adcode": 430981,
            "province": "湖南省",
            "city": "益阳市",
            "district": "沅江市"
        }
    },
    {
        "id": "11506675809674100931",
        "title": "梅城服务区公共厕所",
        "address": "湖南省益阳市安化县G55二广高速与梅城服务区交叉口西420米",
        "tel": "",
        "category": "基础设施:公共设施:公共厕所",
        "type": 0,
        "location": {
            "lat": 28.122104,
            "lng": 111.70273
        },
        "ad_info": {
            "adcode": 430923,
            "province": "湖南省",
            "city": "益阳市",
            "district": "安化县"
        }
    },
    {
        "id": "17509352738726884281",
        "title": "公共厕所",
        "address": "湖南省益阳市桃江县G536与X030交叉口西南方向849米左右",
        "tel": "",
        "category": "基础设施:公共设施:公共厕所",
        "type": 0,
        "location": {
            "lat": 28.535719,
            "lng": 112.23749
        },
        "ad_info": {
            "adcode": 430922,
            "province": "湖南省",
            "city": "益阳市",
            "district": "桃江县"
        }
    },
    {
        "id": "201288716440491197",
        "title": "公共厕所",
        "address": "湖南省益阳市赫山区玉兰路与董家路交叉口东南方向37米左右",
        "tel": "",
        "category": "基础设施:公共设施:公共厕所",
        "type": 0,
        "location": {
            "lat": 28.550049,
            "lng": 112.34638
        },
        "ad_info": {
            "adcode": 430903,
            "province": "湖南省",
            "city": "益阳市",
            "district": "赫山区"
        }
    },
    {
        "id": "16172985959269817792",
        "title": "公共厕所",
        "address": "湖南省益阳市安化县S317与Y622交叉口正东方向1390米左右",
        "tel": "",
        "category": "基础设施:公共设施:公共厕所",
        "type": 0,
        "location": {
            "lat": 28.533033,
            "lng": 111.6122
        },
        "ad_info": {
            "adcode": 430923,
            "province": "湖南省",
            "city": "益阳市",
            "district": "安化县"
        }
    },
    {
        "id": "11541317038776752791",
        "title": "公共厕所",
        "address": "湖南省益阳市资阳区前进路17号",
        "tel": "",
        "category": "基础设施:公共设施:公共厕所",
        "type": 0,
        "location": {
            "lat": 28.593663,
            "lng": 112.317819
        },
        "ad_info": {
            "adcode": 430902,
            "province": "湖南省",
            "city": "益阳市",
            "district": "资阳区"
        }
    },
    {
        "id": "10933766049798482703",
        "title": "公共厕所",
        "address": "湖南省益阳市资阳区北门巷与古城路交叉口正西方向177米左右",
        "tel": "",
        "category": "基础设施:公共设施:公共厕所",
        "type": 0,
        "location": {
            "lat": 28.591002,
            "lng": 112.348066
        },
        "ad_info": {
            "adcode": 430902,
            "province": "湖南省",
            "city": "益阳市",
            "district": "资阳区"
        }
    },
    {
        "id": "10694615560604556685",
        "title": "公共厕所",
        "address": "湖南省益阳市赫山区龙光桥镇卫生院西侧220米",
        "tel": "",
        "category": "基础设施:公共设施:公共厕所",
        "type": 0,
        "location": {
            "lat": 28.550544,
            "lng": 112.404053
        },
        "ad_info": {
            "adcode": 430903,
            "province": "湖南省",
            "city": "益阳市",
            "district": "赫山区"
        }
    },
    {
        "id": "2449833271313028170",
        "title": "公共厕所",
        "address": "湖南省益阳市南县茅草街镇中心小学东南侧150米",
        "tel": "",
        "category": "基础设施:公共设施:公共厕所",
        "type": 0,
        "location": {
            "lat": 29.057447,
            "lng": 112.327637
        },
        "ad_info": {
            "adcode": 430921,
            "province": "湖南省",
            "city": "益阳市",
            "district": "南县"
        }
    },
    {
        "id": "18259420289985225683",
        "title": "公共厕所",
        "address": "湖南省益阳市资阳区明星池巷3号",
        "tel": "",
        "category": "基础设施:公共设施:公共厕所",
        "type": 0,
        "location": {
            "lat": 28.592038,
            "lng": 112.350757
        },
        "ad_info": {
            "adcode": 430902,
            "province": "湖南省",
            "city": "益阳市",
            "district": "资阳区"
        }
    },
    {
        "id": "15371158173982148377",
        "title": "公共厕所",
        "address": "湖南省益阳市南县林荫路与赤松北路交叉口正东方向52米左右",
        "tel": "",
        "category": "基础设施:公共设施:公共厕所",
        "type": 0,
        "location": {
            "lat": 29.373388,
            "lng": 112.409057
        },
        "ad_info": {
            "adcode": 430921,
            "province": "湖南省",
            "city": "益阳市",
            "district": "南县"
        }
    },
    {
        "id": "15728295705897523294",
        "title": "公共厕所",
        "address": "湖南省益阳市赫山区西流湾57号",
        "tel": "",
        "category": "基础设施:公共设施:公共厕所",
        "type": 0,
        "location": {
            "lat": 28.585509,
            "lng": 112.345373
        },
        "ad_info": {
            "adcode": 430903,
            "province": "湖南省",
            "city": "益阳市",
            "district": "赫山区"
        }
    },
    {
        "id": "10092444013374665327",
        "title": "公共厕所",
        "address": "湖南省益阳市赫山区会龙路与志溪路交叉口西南方向239米左右",
        "tel": "",
        "category": "基础设施:公共设施:公共厕所",
        "type": 0,
        "location": {
            "lat": 28.585268,
            "lng": 112.311256
        },
        "ad_info": {
            "adcode": 430903,
            "province": "湖南省",
            "city": "益阳市",
            "district": "赫山区"
        }
    },
    {
        "id": "10368437381265949513",
        "title": "公共厕所",
        "address": "湖南省益阳市赫山区关公路与滨江路交叉口东南方向145米左右",
        "tel": "",
        "category": "基础设施:公共设施:公共厕所",
        "type": 0,
        "location": {
            "lat": 28.590712,
            "lng": 112.366051
        },
        "ad_info": {
            "adcode": 430903,
            "province": "湖南省",
            "city": "益阳市",
            "district": "赫山区"
        }
    },
    {
        "id": "3200147122752845207",
        "title": "公共厕所",
        "address": "湖南省益阳市赫山区建筑路与滨江路交叉口东南方向37米左右",
        "tel": "",
        "category": "基础设施:公共设施:公共厕所",
        "type": 0,
        "location": {
            "lat": 28.584801,
            "lng": 112.343716
        },
        "ad_info": {
            "adcode": 430903,
            "province": "湖南省",
            "city": "益阳市",
            "district": "赫山区"
        }
    },
    {
        "id": "6815561105349325288",
        "title": "公共厕所",
        "address": "湖南省益阳市资阳区向仓南路与学园巷交叉口西南方向37米左右",
        "tel": "",
        "category": "基础设施:公共设施:公共厕所",
        "type": 0,
        "location": {
            "lat": 28.592212,
            "lng": 112.320763
        },
        "ad_info": {
            "adcode": 430902,
            "province": "湖南省",
            "city": "益阳市",
            "district": "资阳区"
        }
    },
    {
        "id": "1907574667635686645",
        "title": "公共厕所",
        "address": "湖南省益阳市南县东正街与年丰巷交叉口正北方向22米左右",
        "tel": "",
        "category": "基础设施:公共设施:公共厕所",
        "type": 0,
        "location": {
            "lat": 29.373936,
            "lng": 112.413405
        },
        "ad_info": {
            "adcode": 430921,
            "province": "湖南省",
            "city": "益阳市",
            "district": "南县"
        }
    },
    {
        "id": "6201525991327463340",
        "title": "公共厕所",
        "address": "湖南省益阳市赫山区金山北路与益阳大道(西)交叉口东240米",
        "tel": "",
        "category": "基础设施:公共设施:公共厕所",
        "type": 0,
        "location": {
            "lat": 28.566958,
            "lng": 112.345654
        },
        "ad_info": {
            "adcode": 430903,
            "province": "湖南省",
            "city": "益阳市",
            "district": "赫山区"
        }
    },
    {
        "id": "16466994601491215264",
        "title": "公共厕所",
        "address": "湖南省益阳市资阳区福兴街与资江西路交叉口东南方向120米左右",
        "tel": "",
        "category": "基础设施:公共设施:公共厕所",
        "type": 0,
        "location": {
            "lat": 28.587782,
            "lng": 112.332331
        },
        "ad_info": {
            "adcode": 430902,
            "province": "湖南省",
            "city": "益阳市",
            "district": "资阳区"
        }
    },
    {
        "id": "13397828696253826417",
        "title": "公共厕所",
        "address": "湖南省益阳市安化县G536与北斗坡隧道交叉口西南方向369米左右",
        "tel": "",
        "category": "基础设施:公共设施:公共厕所",
        "type": 0,
        "location": {
            "lat": 28.312095,
            "lng": 110.945104
        },
        "ad_info": {
            "adcode": 430923,
            "province": "湖南省",
            "city": "益阳市",
            "district": "安化县"
        }
    },
    {
        "id": "4422921646474607484",
        "title": "公共厕所",
        "address": "湖南省益阳市资阳区古城路与资江西路交叉口正南方向12米左右",
        "tel": "",
        "category": "基础设施:公共设施:公共厕所",
        "type": 0,
        "location": {
            "lat": 28.589675,
            "lng": 112.342347
        },
        "ad_info": {
            "adcode": 430902,
            "province": "湖南省",
            "city": "益阳市",
            "district": "资阳区"
        }
    },
    {
        "id": "6991121321509162417",
        "title": "公共厕所",
        "address": "湖南省益阳市资阳区幸福路与沿池巷交叉口西南方向47米左右",
        "tel": "",
        "category": "基础设施:公共设施:公共厕所",
        "type": 0,
        "location": {
            "lat": 28.587751,
            "lng": 112.327896
        },
        "ad_info": {
            "adcode": 430902,
            "province": "湖南省",
            "city": "益阳市",
            "district": "资阳区"
        }
    },
    {
        "id": "12981450255558908354",
        "title": "公共厕所",
        "address": "湖南省益阳市资阳区北门巷与古城路交叉口东北方向42米左右",
        "tel": "",
        "category": "基础设施:公共设施:公共厕所",
        "type": 0,
        "location": {
            "lat": 28.591114,
            "lng": 112.350097
        },
        "ad_info": {
            "adcode": 430902,
            "province": "湖南省",
            "city": "益阳市",
            "district": "资阳区"
        }
    },
    {
        "id": "5290210777570467147",
        "title": "公共厕所",
        "address": "湖南省益阳市赫山区龙凤巷与同升巷交叉口西南260米",
        "tel": "",
        "category": "基础设施:公共设施:公共厕所",
        "type": 0,
        "location": {
            "lat": 28.55807,
            "lng": 112.392485
        },
        "ad_info": {
            "adcode": 430903,
            "province": "湖南省",
            "city": "益阳市",
            "district": "赫山区"
        }
    },
    {
        "id": "16172985959269817792",
        "title": "公共厕所",
        "address": "湖南省益阳市安化县S317与Y622交叉口正东方向1390米左右",
        "tel": "",
        "category": "基础设施:公共设施:公共厕所",
        "type": 0,
        "location": {
            "lat": 28.533033,
            "lng": 111.6122
        },
        "ad_info": {
            "adcode": 430923,
            "province": "湖南省",
            "city": "益阳市",
            "district": "安化县"
        }
    },
    {
        "id": "11541317038776752791",
        "title": "公共厕所",
        "address": "湖南省益阳市资阳区前进路17号",
        "tel": "",
        "category": "基础设施:公共设施:公共厕所",
        "type": 0,
        "location": {
            "lat": 28.593663,
            "lng": 112.317819
        },
        "ad_info": {
            "adcode": 430902,
            "province": "湖南省",
            "city": "益阳市",
            "district": "资阳区"
        }
    },
    {
        "id": "10933766049798482703",
        "title": "公共厕所",
        "address": "湖南省益阳市资阳区北门巷与古城路交叉口正西方向177米左右",
        "tel": "",
        "category": "基础设施:公共设施:公共厕所",
        "type": 0,
        "location": {
            "lat": 28.591002,
            "lng": 112.348066
        },
        "ad_info": {
            "adcode": 430902,
            "province": "湖南省",
            "city": "益阳市",
            "district": "资阳区"
        }
    },
    {
        "id": "10694615560604556685",
        "title": "公共厕所",
        "address": "湖南省益阳市赫山区龙光桥镇卫生院西侧220米",
        "tel": "",
        "category": "基础设施:公共设施:公共厕所",
        "type": 0,
        "location": {
            "lat": 28.550544,
            "lng": 112.404053
        },
        "ad_info": {
            "adcode": 430903,
            "province": "湖南省",
            "city": "益阳市",
            "district": "赫山区"
        }
    },
    {
        "id": "2449833271313028170",
        "title": "公共厕所",
        "address": "湖南省益阳市南县茅草街镇中心小学东南侧150米",
        "tel": "",
        "category": "基础设施:公共设施:公共厕所",
        "type": 0,
        "location": {
            "lat": 29.057447,
            "lng": 112.327637
        },
        "ad_info": {
            "adcode": 430921,
            "province": "湖南省",
            "city": "益阳市",
            "district": "南县"
        }
    },
    {
        "id": "18259420289985225683",
        "title": "公共厕所",
        "address": "湖南省益阳市资阳区明星池巷3号",
        "tel": "",
        "category": "基础设施:公共设施:公共厕所",
        "type": 0,
        "location": {
            "lat": 28.592038,
            "lng": 112.350757
        },
        "ad_info": {
            "adcode": 430902,
            "province": "湖南省",
            "city": "益阳市",
            "district": "资阳区"
        }
    },
    {
        "id": "15371158173982148377",
        "title": "公共厕所",
        "address": "湖南省益阳市南县林荫路与赤松北路交叉口正东方向52米左右",
        "tel": "",
        "category": "基础设施:公共设施:公共厕所",
        "type": 0,
        "location": {
            "lat": 29.373388,
            "lng": 112.409057
        },
        "ad_info": {
            "adcode": 430921,
            "province": "湖南省",
            "city": "益阳市",
            "district": "南县"
        }
    },
    {
        "id": "15728295705897523294",
        "title": "公共厕所",
        "address": "湖南省益阳市赫山区西流湾57号",
        "tel": "",
        "category": "基础设施:公共设施:公共厕所",
        "type": 0,
        "location": {
            "lat": 28.585509,
            "lng": 112.345373
        },
        "ad_info": {
            "adcode": 430903,
            "province": "湖南省",
            "city": "益阳市",
            "district": "赫山区"
        }
    },
    {
        "id": "10092444013374665327",
        "title": "公共厕所",
        "address": "湖南省益阳市赫山区会龙路与志溪路交叉口西南方向239米左右",
        "tel": "",
        "category": "基础设施:公共设施:公共厕所",
        "type": 0,
        "location": {
            "lat": 28.585268,
            "lng": 112.311256
        },
        "ad_info": {
            "adcode": 430903,
            "province": "湖南省",
            "city": "益阳市",
            "district": "赫山区"
        }
    },
    {
        "id": "10368437381265949513",
        "title": "公共厕所",
        "address": "湖南省益阳市赫山区关公路与滨江路交叉口东南方向145米左右",
        "tel": "",
        "category": "基础设施:公共设施:公共厕所",
        "type": 0,
        "location": {
            "lat": 28.590712,
            "lng": 112.366051
        },
        "ad_info": {
            "adcode": 430903,
            "province": "湖南省",
            "city": "益阳市",
            "district": "赫山区"
        }
    },
    {
        "id": "3200147122752845207",
        "title": "公共厕所",
        "address": "湖南省益阳市赫山区建筑路与滨江路交叉口东南方向37米左右",
        "tel": "",
        "category": "基础设施:公共设施:公共厕所",
        "type": 0,
        "location": {
            "lat": 28.584801,
            "lng": 112.343716
        },
        "ad_info": {
            "adcode": 430903,
            "province": "湖南省",
            "city": "益阳市",
            "district": "赫山区"
        }
    },
    {
        "id": "6815561105349325288",
        "title": "公共厕所",
        "address": "湖南省益阳市资阳区向仓南路与学园巷交叉口西南方向37米左右",
        "tel": "",
        "category": "基础设施:公共设施:公共厕所",
        "type": 0,
        "location": {
            "lat": 28.592212,
            "lng": 112.320763
        },
        "ad_info": {
            "adcode": 430902,
            "province": "湖南省",
            "city": "益阳市",
            "district": "资阳区"
        }
    },
    {
        "id": "1907574667635686645",
        "title": "公共厕所",
        "address": "湖南省益阳市南县东正街与年丰巷交叉口正北方向22米左右",
        "tel": "",
        "category": "基础设施:公共设施:公共厕所",
        "type": 0,
        "location": {
            "lat": 29.373936,
            "lng": 112.413405
        },
        "ad_info": {
            "adcode": 430921,
            "province": "湖南省",
            "city": "益阳市",
            "district": "南县"
        }
    },
    {
        "id": "6201525991327463340",
        "title": "公共厕所",
        "address": "湖南省益阳市赫山区金山北路与益阳大道(西)交叉口东240米",
        "tel": "",
        "category": "基础设施:公共设施:公共厕所",
        "type": 0,
        "location": {
            "lat": 28.566958,
            "lng": 112.345654
        },
        "ad_info": {
            "adcode": 430903,
            "province": "湖南省",
            "city": "益阳市",
            "district": "赫山区"
        }
    },
    {
        "id": "16466994601491215264",
        "title": "公共厕所",
        "address": "湖南省益阳市资阳区福兴街与资江西路交叉口东南方向120米左右",
        "tel": "",
        "category": "基础设施:公共设施:公共厕所",
        "type": 0,
        "location": {
            "lat": 28.587782,
            "lng": 112.332331
        },
        "ad_info": {
            "adcode": 430902,
            "province": "湖南省",
            "city": "益阳市",
            "district": "资阳区"
        }
    },
    {
        "id": "13397828696253826417",
        "title": "公共厕所",
        "address": "湖南省益阳市安化县G536与北斗坡隧道交叉口西南方向369米左右",
        "tel": "",
        "category": "基础设施:公共设施:公共厕所",
        "type": 0,
        "location": {
            "lat": 28.312095,
            "lng": 110.945104
        },
        "ad_info": {
            "adcode": 430923,
            "province": "湖南省",
            "city": "益阳市",
            "district": "安化县"
        }
    },
    {
        "id": "4422921646474607484",
        "title": "公共厕所",
        "address": "湖南省益阳市资阳区古城路与资江西路交叉口正南方向12米左右",
        "tel": "",
        "category": "基础设施:公共设施:公共厕所",
        "type": 0,
        "location": {
            "lat": 28.589675,
            "lng": 112.342347
        },
        "ad_info": {
            "adcode": 430902,
            "province": "湖南省",
            "city": "益阳市",
            "district": "资阳区"
        }
    },
    {
        "id": "6991121321509162417",
        "title": "公共厕所",
        "address": "湖南省益阳市资阳区幸福路与沿池巷交叉口西南方向47米左右",
        "tel": "",
        "category": "基础设施:公共设施:公共厕所",
        "type": 0,
        "location": {
            "lat": 28.587751,
            "lng": 112.327896
        },
        "ad_info": {
            "adcode": 430902,
            "province": "湖南省",
            "city": "益阳市",
            "district": "资阳区"
        }
    },
    {
        "id": "12981450255558908354",
        "title": "公共厕所",
        "address": "湖南省益阳市资阳区北门巷与古城路交叉口东北方向42米左右",
        "tel": "",
        "category": "基础设施:公共设施:公共厕所",
        "type": 0,
        "location": {
            "lat": 28.591114,
            "lng": 112.350097
        },
        "ad_info": {
            "adcode": 430902,
            "province": "湖南省",
            "city": "益阳市",
            "district": "资阳区"
        }
    },
    {
        "id": "5290210777570467147",
        "title": "公共厕所",
        "address": "湖南省益阳市赫山区龙凤巷与同升巷交叉口西南260米",
        "tel": "",
        "category": "基础设施:公共设施:公共厕所",
        "type": 0,
        "location": {
            "lat": 28.55807,
            "lng": 112.392485
        },
        "ad_info": {
            "adcode": 430903,
            "province": "湖南省",
            "city": "益阳市",
            "district": "赫山区"
        }
    }
]