[
    {
        "id": "13521234791979683068",
        "title": "公共厕所",
        "address": "辽宁省盘锦市兴隆台区新工北街与泰山北路交叉口正西方向28米左右",
        "tel": "",
        "category": "基础设施:公共设施:公共厕所",
        "type": 0,
        "location": {
            "lat": 41.162297,
            "lng": 122.063429
        },
        "ad_info": {
            "adcode": 211103,
            "province": "辽宁省",
            "city": "盘锦市",
            "district": "兴隆台区"
        }
    },
    {
        "id": "13107472533077086669",
        "title": "公共厕所",
        "address": "辽宁省盘锦市双台子区鼎翔东路与鼎翔中路交叉口正东方向185米左右",
        "tel": "",
        "category": "基础设施:公共设施:公共厕所",
        "type": 0,
        "location": {
            "lat": 41.161267,
            "lng": 121.941157
        },
        "ad_info": {
            "adcode": 211102,
            "province": "辽宁省",
            "city": "盘锦市",
            "district": "双台子区"
        }
    },
    {
        "id": "15140166736997137756",
        "title": "公共厕所",
        "address": "辽宁省盘锦市双台子区沿河南街与辽河路交叉口正东方向342米左右",
        "tel": "",
        "category": "基础设施:公共设施:公共厕所",
        "type": 0,
        "location": {
            "lat": 41.170381,
            "lng": 122.05301
        },
        "ad_info": {
            "adcode": 211102,
            "province": "辽宁省",
            "city": "盘锦市",
            "district": "双台子区"
        }
    },
    {
        "id": "10173248949643511836",
        "title": "公共厕所",
        "address": "辽宁省盘锦市兴隆台区振兴路中国石油长城钻探工程公司(辽河分部)",
        "tel": "",
        "category": "基础设施:公共设施:公共厕所",
        "type": 0,
        "location": {
            "lat": 41.125895,
            "lng": 122.080881
        },
        "ad_info": {
            "adcode": 211103,
            "province": "辽宁省",
            "city": "盘锦市",
            "district": "兴隆台区"
        }
    },
    {
        "id": "4675727002351127321",
        "title": "公共厕所",
        "address": "辽宁省盘锦市双台子区礼贤路北方工业学校",
        "tel": "",
        "category": "基础设施:公共设施:公共厕所",
        "type": 0,
        "location": {
            "lat": 41.191906,
            "lng": 122.03868
        },
        "ad_info": {
            "adcode": 211102,
            "province": "辽宁省",
            "city": "盘锦市",
            "district": "双台子区"
        }
    },
    {
        "id": "5842492696866088761",
        "title": "公共厕所",
        "address": "辽宁省盘锦市双台子区旌旗街湖滨四季城",
        "tel": "",
        "category": "基础设施:公共设施:公共厕所",
        "type": 0,
        "location": {
            "lat": 41.191521,
            "lng": 122.043538
        },
        "ad_info": {
            "adcode": 211102,
            "province": "辽宁省",
            "city": "盘锦市",
            "district": "双台子区"
        }
    },
    {
        "id": "13543283039868688082",
        "title": "公共厕所",
        "address": "辽宁省盘锦市双台子区胜利街与辽河北路交叉口东南方向216米左右",
        "tel": "",
        "category": "基础设施:公共设施:公共厕所",
        "type": 0,
        "location": {
            "lat": 41.185122,
            "lng": 122.050586
        },
        "ad_info": {
            "adcode": 211102,
            "province": "辽宁省",
            "city": "盘锦市",
            "district": "双台子区"
        }
    },
    {
        "id": "17144313888129164527",
        "title": "公共厕所",
        "address": "辽宁省盘锦市兴隆台区林丰北路与金玉街交叉口东北方向517米左右",
        "tel": "",
        "category": "基础设施:公共设施:公共厕所",
        "type": 0,
        "location": {
            "lat": 41.151418,
            "lng": 122.099602
        },
        "ad_info": {
            "adcode": 211103,
            "province": "辽宁省",
            "city": "盘锦市",
            "district": "兴隆台区"
        }
    },
    {
        "id": "10424905040404088433",
        "title": "公共厕所",
        "address": "辽宁省盘锦市双台子区胜利街与辽河北路交叉口西北方向124米左右",
        "tel": "",
        "category": "基础设施:公共设施:公共厕所",
        "type": 0,
        "location": {
            "lat": 41.187909,
            "lng": 122.048898
        },
        "ad_info": {
            "adcode": 211102,
            "province": "辽宁省",
            "city": "盘锦市",
            "district": "双台子区"
        }
    },
    {
        "id": "13405983452638365606",
        "title": "公共厕所",
        "address": "辽宁省盘锦市双台子区前进街与向海大道交叉口正南方向31米左右",
        "tel": "",
        "category": "基础设施:公共设施:公共厕所",
        "type": 0,
        "location": {
            "lat": 41.193827,
            "lng": 122.061806
        },
        "ad_info": {
            "adcode": 211102,
            "province": "辽宁省",
            "city": "盘锦市",
            "district": "双台子区"
        }
    },
    {
        "id": "11248542684227232793",
        "title": "公共厕所",
        "address": "辽宁省盘锦市双台子区城北街与新府大街交叉口正东方向163米左右",
        "tel": "",
        "category": "基础设施:公共设施:公共厕所",
        "type": 0,
        "location": {
            "lat": 41.211789,
            "lng": 122.080071
        },
        "ad_info": {
            "adcode": 211102,
            "province": "辽宁省",
            "city": "盘锦市",
            "district": "双台子区"
        }
    },
    {
        "id": "2679947194100773520",
        "title": "公共厕所",
        "address": "辽宁省盘锦市双台子区辽河北路庆平家园",
        "tel": "",
        "category": "基础设施:公共设施:公共厕所",
        "type": 0,
        "location": {
            "lat": 41.193757,
            "lng": 122.04771
        },
        "ad_info": {
            "adcode": 211102,
            "province": "辽宁省",
            "city": "盘锦市",
            "district": "双台子区"
        }
    },
    {
        "id": "13603820434340806614",
        "title": "公共厕所",
        "address": "辽宁省盘锦市兴隆台区兴工路与新工街交叉口正北方向818米左右",
        "tel": "",
        "category": "基础设施:公共设施:公共厕所",
        "type": 0,
        "location": {
            "lat": 41.173941,
            "lng": 122.102656
        },
        "ad_info": {
            "adcode": 211103,
            "province": "辽宁省",
            "city": "盘锦市",
            "district": "兴隆台区"
        }
    },
    {
        "id": "13251553084141765537",
        "title": "公共厕所",
        "address": "辽宁省盘锦市双台子区利民路与建设街交叉口正西方向60米左右",
        "tel": "",
        "category": "基础设施:公共设施:公共厕所",
        "type": 0,
        "location": {
            "lat": 41.18921,
            "lng": 122.05218
        },
        "ad_info": {
            "adcode": 211102,
            "province": "辽宁省",
            "city": "盘锦市",
            "district": "双台子区"
        }
    },
    {
        "id": "12788255957256676881",
        "title": "公共厕所",
        "address": "辽宁省盘锦市双台子区双荣巷与育红路交叉口正北方向53米左右",
        "tel": "",
        "category": "基础设施:公共设施:公共厕所",
        "type": 0,
        "location": {
            "lat": 41.189433,
            "lng": 122.061434
        },
        "ad_info": {
            "adcode": 211102,
            "province": "辽宁省",
            "city": "盘锦市",
            "district": "双台子区"
        }
    },
    {
        "id": "5019869484473290349",
        "title": "公共厕所",
        "address": "辽宁省盘锦市双台子区中谷线与文双路交叉口正西方向435米左右",
        "tel": "",
        "category": "基础设施:公共设施:公共厕所",
        "type": 0,
        "location": {
            "lat": 41.18902,
            "lng": 121.996359
        },
        "ad_info": {
            "adcode": 211102,
            "province": "辽宁省",
            "city": "盘锦市",
            "district": "双台子区"
        }
    },
    {
        "id": "16032689865848845363",
        "title": "公共厕所",
        "address": "辽宁省盘锦市兴隆台区校齐小百货北侧120米",
        "tel": "",
        "category": "基础设施:公共设施:公共厕所",
        "type": 0,
        "location": {
            "lat": 41.164317,
            "lng": 122.087609
        },
        "ad_info": {
            "adcode": 211103,
            "province": "辽宁省",
            "city": "盘锦市",
            "district": "兴隆台区"
        }
    },
    {
        "id": "16718094787004551277",
        "title": "公共厕所",
        "address": "辽宁省盘锦市兴隆台区市府大街45号",
        "tel": "",
        "category": "基础设施:公共设施:公共厕所",
        "type": 0,
        "location": {
            "lat": 41.115572,
            "lng": 122.052261
        },
        "ad_info": {
            "adcode": 211103,
            "province": "辽宁省",
            "city": "盘锦市",
            "district": "兴隆台区"
        }
    },
    {
        "id": "5537381291372974661",
        "title": "公共厕所",
        "address": "辽宁省盘锦市双台子区光明街与渤海中路交叉口正东方向50米左右",
        "tel": "",
        "category": "基础设施:公共设施:公共厕所",
        "type": 0,
        "location": {
            "lat": 41.190665,
            "lng": 122.055698
        },
        "ad_info": {
            "adcode": 211102,
            "province": "辽宁省",
            "city": "盘锦市",
            "district": "双台子区"
        }
    },
    {
        "id": "7511966024002375330",
        "title": "公共厕所",
        "address": "辽宁省盘锦市双台子区东风街与繁荣路交叉口东南方向119米左右",
        "tel": "",
        "category": "基础设施:公共设施:公共厕所",
        "type": 0,
        "location": {
            "lat": 41.18533,
            "lng": 122.060811
        },
        "ad_info": {
            "adcode": 211102,
            "province": "辽宁省",
            "city": "盘锦市",
            "district": "双台子区"
        }
    },
    {
        "id": "17632228429653743574",
        "title": "公共厕所",
        "address": "辽宁省盘锦市双台子区一统河南路与辽河北路交叉口西南方向209米左右",
        "tel": "",
        "category": "基础设施:公共设施:公共厕所",
        "type": 0,
        "location": {
            "lat": 41.207311,
            "lng": 122.036528
        },
        "ad_info": {
            "adcode": 211102,
            "province": "辽宁省",
            "city": "盘锦市",
            "district": "双台子区"
        }
    },
    {
        "id": "16131333915604313684",
        "title": "公共厕所",
        "address": "辽宁省盘锦市双台子区向阳街与礼贤路交叉口正北方向133米左右",
        "tel": "",
        "category": "基础设施:公共设施:公共厕所",
        "type": 0,
        "location": {
            "lat": 41.198081,
            "lng": 122.039892
        },
        "ad_info": {
            "adcode": 211102,
            "province": "辽宁省",
            "city": "盘锦市",
            "district": "双台子区"
        }
    },
    {
        "id": "6815526574326518200",
        "title": "公共厕所",
        "address": "辽宁省盘锦市兴隆台区文汇北街与鹤翔路交叉口东南方向34米左右",
        "tel": "",
        "category": "基础设施:公共设施:公共厕所",
        "type": 0,
        "location": {
            "lat": 41.11122,
            "lng": 122.075298
        },
        "ad_info": {
            "adcode": 211103,
            "province": "辽宁省",
            "city": "盘锦市",
            "district": "兴隆台区"
        }
    },
    {
        "id": "11237994538760091089",
        "title": "公共厕所",
        "address": "辽宁省盘锦市双台子区利民路书香苑",
        "tel": "",
        "category": "基础设施:公共设施:公共厕所",
        "type": 0,
        "location": {
            "lat": 41.185526,
            "lng": 122.054534
        },
        "ad_info": {
            "adcode": 211102,
            "province": "辽宁省",
            "city": "盘锦市",
            "district": "双台子区"
        }
    },
    {
        "id": "16982615730743974169",
        "title": "公共厕所",
        "address": "辽宁省盘锦市双台子区利民路与育才巷交叉口正南方向49米左右",
        "tel": "",
        "category": "基础设施:公共设施:公共厕所",
        "type": 0,
        "location": {
            "lat": 41.184067,
            "lng": 122.054472
        },
        "ad_info": {
            "adcode": 211102,
            "province": "辽宁省",
            "city": "盘锦市",
            "district": "双台子区"
        }
    },
    {
        "id": "9101037869899805339",
        "title": "公共厕所",
        "address": "辽宁省盘锦市双台子区礼贤路与长征街交叉口正东方向123米左右",
        "tel": "",
        "category": "基础设施:公共设施:公共厕所",
        "type": 0,
        "location": {
            "lat": 41.199414,
            "lng": 122.041001
        },
        "ad_info": {
            "adcode": 211102,
            "province": "辽宁省",
            "city": "盘锦市",
            "district": "双台子区"
        }
    },
    {
        "id": "8761527028912747579",
        "title": "公共厕所",
        "address": "辽宁省盘锦市兴隆台区公园街与泰山北路辅路交叉口西220米",
        "tel": "",
        "category": "基础设施:公共设施:公共厕所",
        "type": 0,
        "location": {
            "lat": 41.143744,
            "lng": 122.060661
        },
        "ad_info": {
            "adcode": 211103,
            "province": "辽宁省",
            "city": "盘锦市",
            "district": "兴隆台区"
        }
    },
    {
        "id": "6000023763721341172",
        "title": "公共厕所",
        "address": "辽宁省盘锦市双台子区吉祥街吉祥小区",
        "tel": "",
        "category": "基础设施:公共设施:公共厕所",
        "type": 0,
        "location": {
            "lat": 41.201531,
            "lng": 122.03957
        },
        "ad_info": {
            "adcode": 211102,
            "province": "辽宁省",
            "city": "盘锦市",
            "district": "双台子区"
        }
    },
    {
        "id": "16178319842607829751",
        "title": "洗手间",
        "address": "辽宁省盘锦市双台子区延湖路与红旗大街交叉口正南方向140米左右",
        "tel": "",
        "category": "基础设施:公共设施:公共厕所",
        "type": 0,
        "location": {
            "lat": 41.191819,
            "lng": 122.033988
        },
        "ad_info": {
            "adcode": 211102,
            "province": "辽宁省",
            "city": "盘锦市",
            "district": "双台子区"
        }
    },
    {
        "id": "11558289452506169132",
        "title": "公共厕所",
        "address": "辽宁省盘锦市双台子区兴农街与辽河北路交叉口西南方向70米左右",
        "tel": "",
        "category": "基础设施:公共设施:公共厕所",
        "type": 0,
        "location": {
            "lat": 41.189189,
            "lng": 122.04793
        },
        "ad_info": {
            "adcode": 211102,
            "province": "辽宁省",
            "city": "盘锦市",
            "district": "双台子区"
        }
    },
    {
        "id": "10708076914030114450",
        "title": "公共厕所",
        "address": "辽宁省盘锦市兴隆台区公园街与群英路交叉口正南方向352米左右",
        "tel": "",
        "category": "基础设施:公共设施:公共厕所",
        "type": 0,
        "location": {
            "lat": 41.140655,
            "lng": 122.03986
        },
        "ad_info": {
            "adcode": 211103,
            "province": "辽宁省",
            "city": "盘锦市",
            "district": "兴隆台区"
        }
    },
    {
        "id": "12659979919162664863",
        "title": "公共厕所",
        "address": "辽宁省盘锦市兴隆台区兴业街与工业街交叉口东北方向161米左右",
        "tel": "",
        "category": "基础设施:公共设施:公共厕所",
        "type": 0,
        "location": {
            "lat": 41.155984,
            "lng": 122.041983
        },
        "ad_info": {
            "adcode": 211103,
            "province": "辽宁省",
            "city": "盘锦市",
            "district": "兴隆台区"
        }
    },
    {
        "id": "3907671331958893328",
        "title": "公共厕所",
        "address": "辽宁省盘锦市双台子区辽河中路与辽河北路交叉口正北方向190米左右",
        "tel": "",
        "category": "基础设施:公共设施:公共厕所",
        "type": 0,
        "location": {
            "lat": 41.184881,
            "lng": 122.050567
        },
        "ad_info": {
            "adcode": 211102,
            "province": "辽宁省",
            "city": "盘锦市",
            "district": "双台子区"
        }
    },
    {
        "id": "8695516907329161967",
        "title": "公共厕所",
        "address": "辽宁省盘锦市双台子区宋家村与辽河路北段交叉口正北方向36米左右",
        "tel": "",
        "category": "基础设施:公共设施:公共厕所",
        "type": 0,
        "location": {
            "lat": 41.22959,
            "lng": 122.018784
        },
        "ad_info": {
            "adcode": 211102,
            "province": "辽宁省",
            "city": "盘锦市",
            "district": "双台子区"
        }
    },
    {
        "id": "2981545260724948137",
        "title": "公共厕所",
        "address": "辽宁省盘锦市双台子区旌旗街与礼贤路交叉口正西方向207米左右",
        "tel": "",
        "category": "基础设施:公共设施:公共厕所",
        "type": 0,
        "location": {
            "lat": 41.190904,
            "lng": 122.037976
        },
        "ad_info": {
            "adcode": 211102,
            "province": "辽宁省",
            "city": "盘锦市",
            "district": "双台子区"
        }
    },
    {
        "id": "5913752503281986918",
        "title": "洗手间",
        "address": "辽宁省盘锦市双台子区利民路69号",
        "tel": "",
        "category": "基础设施:公共设施:公共厕所",
        "type": 0,
        "location": {
            "lat": 41.18785,
            "lng": 122.053615
        },
        "ad_info": {
            "adcode": 211102,
            "province": "辽宁省",
            "city": "盘锦市",
            "district": "双台子区"
        }
    },
    {
        "id": "9090818124692721926",
        "title": "公共厕所",
        "address": "辽宁省盘锦市双台子区向阳街与礼贤路交叉口正东方向134米左右",
        "tel": "",
        "category": "基础设施:公共设施:公共厕所",
        "type": 0,
        "location": {
            "lat": 41.197111,
            "lng": 122.041348
        },
        "ad_info": {
            "adcode": 211102,
            "province": "辽宁省",
            "city": "盘锦市",
            "district": "双台子区"
        }
    },
    {
        "id": "8459057468791459723",
        "title": "公共厕所",
        "address": "辽宁省盘锦市兴隆台区石油大街与辽河南路交叉口正南方向216米左右",
        "tel": "",
        "category": "基础设施:公共设施:公共厕所",
        "type": 0,
        "location": {
            "lat": 41.119189,
            "lng": 122.048503
        },
        "ad_info": {
            "adcode": 211103,
            "province": "辽宁省",
            "city": "盘锦市",
            "district": "兴隆台区"
        }
    },
    {
        "id": "10268749692380481784",
        "title": "公共厕所",
        "address": "辽宁省盘锦市兴隆台区市府大街与辽河东路交叉口正西方向215米左右",
        "tel": "",
        "category": "基础设施:公共设施:公共厕所",
        "type": 0,
        "location": {
            "lat": 41.116789,
            "lng": 122.050433
        },
        "ad_info": {
            "adcode": 211103,
            "province": "辽宁省",
            "city": "盘锦市",
            "district": "兴隆台区"
        }
    },
    {
        "id": "17594077207236059342",
        "title": "公共厕所",
        "address": "辽宁省盘锦市双台子区沿河南街与辽河路交叉口正东方向321米左右",
        "tel": "",
        "category": "基础设施:公共设施:公共厕所",
        "type": 0,
        "location": {
            "lat": 41.170594,
            "lng": 122.052789
        },
        "ad_info": {
            "adcode": 211102,
            "province": "辽宁省",
            "city": "盘锦市",
            "district": "双台子区"
        }
    },
    {
        "id": "18016211906060646630",
        "title": "公共厕所",
        "address": "辽宁省盘锦市兴隆台区军民街与财政路交叉口正西方向30米左右",
        "tel": "",
        "category": "基础设施:公共设施:公共厕所",
        "type": 0,
        "location": {
            "lat": 41.112837,
            "lng": 122.068833
        },
        "ad_info": {
            "adcode": 211103,
            "province": "辽宁省",
            "city": "盘锦市",
            "district": "兴隆台区"
        }
    },
    {
        "id": "12329672431717164223",
        "title": "公共厕所",
        "address": "辽宁省盘锦市兴隆台区兴一联南路与兴隆台街交叉口西北方向421米左右",
        "tel": "",
        "category": "基础设施:公共设施:公共厕所",
        "type": 0,
        "location": {
            "lat": 41.130235,
            "lng": 122.053228
        },
        "ad_info": {
            "adcode": 211103,
            "province": "辽宁省",
            "city": "盘锦市",
            "district": "兴隆台区"
        }
    },
    {
        "id": "4822896071542133087",
        "title": "公共厕所",
        "address": "辽宁省盘锦市兴隆台区辽河中路与辽河南路交叉口西南方向137米左右",
        "tel": "",
        "category": "基础设施:公共设施:公共厕所",
        "type": 0,
        "location": {
            "lat": 41.128459,
            "lng": 122.046356
        },
        "ad_info": {
            "adcode": 211103,
            "province": "辽宁省",
            "city": "盘锦市",
            "district": "兴隆台区"
        }
    },
    {
        "id": "1863946633711626808",
        "title": "公共厕所",
        "address": "辽宁省盘锦市兴隆台区东跃铝塑门窗有限公司南侧70米",
        "tel": "",
        "category": "基础设施:公共设施:公共厕所",
        "type": 0,
        "location": {
            "lat": 41.131103,
            "lng": 122.035239
        },
        "ad_info": {
            "adcode": 211103,
            "province": "辽宁省",
            "city": "盘锦市",
            "district": "兴隆台区"
        }
    },
    {
        "id": "8873539633081414291",
        "title": "公共厕所",
        "address": "辽宁省盘锦市兴隆台区玉龙养殖场东南侧220米",
        "tel": "",
        "category": "基础设施:公共设施:公共厕所",
        "type": 0,
        "location": {
            "lat": 41.193004,
            "lng": 121.901171
        },
        "ad_info": {
            "adcode": 211103,
            "province": "辽宁省",
            "city": "盘锦市",
            "district": "兴隆台区"
        }
    },
    {
        "id": "6714505387378511966",
        "title": "公共厕所",
        "address": "辽宁省盘锦市兴隆台区东跃南街与油英路交叉口东南方向117米左右",
        "tel": "",
        "category": "基础设施:公共设施:公共厕所",
        "type": 0,
        "location": {
            "lat": 41.134023,
            "lng": 122.033928
        },
        "ad_info": {
            "adcode": 211103,
            "province": "辽宁省",
            "city": "盘锦市",
            "district": "兴隆台区"
        }
    },
    {
        "id": "14485748535960801944",
        "title": "公共厕所",
        "address": "辽宁省盘锦市兴隆台区市府南街与松山路交叉口西北方向56米左右",
        "tel": "",
        "category": "基础设施:公共设施:公共厕所",
        "type": 0,
        "location": {
            "lat": 41.116809,
            "lng": 122.07017
        },
        "ad_info": {
            "adcode": 211103,
            "province": "辽宁省",
            "city": "盘锦市",
            "district": "兴隆台区"
        }
    },
    {
        "id": "5794404733850050479",
        "title": "公共厕所",
        "address": "辽宁省盘锦市大洼区向海大道亿居热力",
        "tel": "",
        "category": "基础设施:公共设施:公共厕所",
        "type": 0,
        "location": {
            "lat": 41.09153,
            "lng": 122.079316
        },
        "ad_info": {
            "adcode": 211104,
            "province": "辽宁省",
            "city": "盘锦市",
            "district": "大洼区"
        }
    },
    {
        "id": "6303384625266646724",
        "title": "公共厕所",
        "address": "辽宁省盘锦市兴隆台区松江路17号",
        "tel": "",
        "category": "基础设施:公共设施:公共厕所",
        "type": 0,
        "location": {
            "lat": 41.121372,
            "lng": 122.068021
        },
        "ad_info": {
            "adcode": 211103,
            "province": "辽宁省",
            "city": "盘锦市",
            "district": "兴隆台区"
        }
    },
    {
        "id": "18373231401023671714",
        "title": "环保公共厕所",
        "address": "辽宁省盘锦市兴隆台区市府大街与金城路交叉口西北方向62米左右",
        "tel": "",
        "category": "基础设施:公共设施:公共厕所",
        "type": 0,
        "location": {
            "lat": 41.114945,
            "lng": 122.041146
        },
        "ad_info": {
            "adcode": 211103,
            "province": "辽宁省",
            "city": "盘锦市",
            "district": "兴隆台区"
        }
    },
    {
        "id": "8801953861964032337",
        "title": "公共厕所",
        "address": "辽宁省盘锦市双台子区红旗大街12号",
        "tel": "",
        "category": "基础设施:公共设施:公共厕所",
        "type": 0,
        "location": {
            "lat": 41.196866,
            "lng": 122.059957
        },
        "ad_info": {
            "adcode": 211102,
            "province": "辽宁省",
            "city": "盘锦市",
            "district": "双台子区"
        }
    },
    {
        "id": "3110947564493980665",
        "title": "公共厕所",
        "address": "辽宁省盘锦市大洼区G305(旧)",
        "tel": "",
        "category": "基础设施:公共设施:公共厕所",
        "type": 0,
        "location": {
            "lat": 40.936231,
            "lng": 122.074764
        },
        "ad_info": {
            "adcode": 211104,
            "province": "辽宁省",
            "city": "盘锦市",
            "district": "大洼区"
        }
    },
    {
        "id": "17749312802856826260",
        "title": "公共厕所",
        "address": "辽宁省盘锦市双台子区红旗大街267号",
        "tel": "",
        "category": "基础设施:公共设施:公共厕所",
        "type": 0,
        "location": {
            "lat": 41.192774,
            "lng": 122.031162
        },
        "ad_info": {
            "adcode": 211102,
            "province": "辽宁省",
            "city": "盘锦市",
            "district": "双台子区"
        }
    },
    {
        "id": "10931375871454667400",
        "title": "公共厕所",
        "address": "辽宁省盘锦市盘山县东华路与大盘线交叉口正东方向135米左右",
        "tel": "",
        "category": "基础设施:公共设施:公共厕所",
        "type": 0,
        "location": {
            "lat": 41.159947,
            "lng": 122.160834
        },
        "ad_info": {
            "adcode": 211122,
            "province": "辽宁省",
            "city": "盘锦市",
            "district": "盘山县"
        }
    },
    {
        "id": "14164173114090694079",
        "title": "公共厕所",
        "address": "辽宁省盘锦市兴隆台区中心街与鹤翔路交叉口正南方向91米左右",
        "tel": "",
        "category": "基础设施:公共设施:公共厕所",
        "type": 0,
        "location": {
            "lat": 41.12037,
            "lng": 122.07301
        },
        "ad_info": {
            "adcode": 211103,
            "province": "辽宁省",
            "city": "盘锦市",
            "district": "兴隆台区"
        }
    },
    {
        "id": "12091409023735578846",
        "title": "公共厕所",
        "address": "辽宁省盘锦市大洼区春江街与泰山中路交叉口正南方向567米左右",
        "tel": "",
        "category": "基础设施:公共设施:公共厕所",
        "type": 0,
        "location": {
            "lat": 41.006316,
            "lng": 122.068102
        },
        "ad_info": {
            "adcode": 211104,
            "province": "辽宁省",
            "city": "盘锦市",
            "district": "大洼区"
        }
    },
    {
        "id": "16742652491787392725",
        "title": "公共厕所",
        "address": "辽宁省盘锦市盘山县兴顺街与孙南线交叉口东北方向301米左右",
        "tel": "",
        "category": "基础设施:公共设施:公共厕所",
        "type": 0,
        "location": {
            "lat": 41.345083,
            "lng": 121.819852
        },
        "ad_info": {
            "adcode": 211122,
            "province": "辽宁省",
            "city": "盘锦市",
            "district": "盘山县"
        }
    },
    {
        "id": "4059138727236152139",
        "title": "公共厕所",
        "address": "辽宁省盘锦市盘山县桐庐大街与环城西路北段交叉口西北方向142米左右",
        "tel": "",
        "category": "基础设施:公共设施:公共厕所",
        "type": 0,
        "location": {
            "lat": 41.220124,
            "lng": 121.975637
        },
        "ad_info": {
            "adcode": 211122,
            "province": "辽宁省",
            "city": "盘锦市",
            "district": "盘山县"
        }
    },
    {
        "id": "5983915946209308730",
        "title": "公共厕所",
        "address": "辽宁省盘锦市大洼区利民路与金源街交叉口正北方向41米左右",
        "tel": "",
        "category": "基础设施:公共设施:公共厕所",
        "type": 0,
        "location": {
            "lat": 40.988263,
            "lng": 122.077407
        },
        "ad_info": {
            "adcode": 211104,
            "province": "辽宁省",
            "city": "盘锦市",
            "district": "大洼区"
        }
    },
    {
        "id": "11165470461562411535",
        "title": "公共厕所",
        "address": "辽宁省盘锦市兴隆台区新生街与鼎翔中路交叉口正西方向129米左右",
        "tel": "",
        "category": "基础设施:公共设施:公共厕所",
        "type": 0,
        "location": {
            "lat": 41.160493,
            "lng": 121.933058
        },
        "ad_info": {
            "adcode": 211103,
            "province": "辽宁省",
            "city": "盘锦市",
            "district": "兴隆台区"
        }
    },
    {
        "id": "7734439550655800036",
        "title": "公共厕所",
        "address": "辽宁省盘锦市双台子区兴隆·繁荣里西侧160米",
        "tel": "",
        "category": "基础设施:公共设施:公共厕所",
        "type": 0,
        "location": {
            "lat": 41.203643,
            "lng": 122.045068
        },
        "ad_info": {
            "adcode": 211102,
            "province": "辽宁省",
            "city": "盘锦市",
            "district": "双台子区"
        }
    },
    {
        "id": "12051096969445028104",
        "title": "公共厕所",
        "address": "辽宁省盘锦市双台子区光明街与育红路交叉口正北方向49米左右",
        "tel": "",
        "category": "基础设施:公共设施:公共厕所",
        "type": 0,
        "location": {
            "lat": 41.192447,
            "lng": 122.06052
        },
        "ad_info": {
            "adcode": 211102,
            "province": "辽宁省",
            "city": "盘锦市",
            "district": "双台子区"
        }
    },
    {
        "id": "6057485931208825884",
        "title": "公共厕所",
        "address": "辽宁省盘锦市大洼区荣港免烧砖厂西南侧250米",
        "tel": "",
        "category": "基础设施:公共设施:公共厕所",
        "type": 0,
        "location": {
            "lat": 40.774411,
            "lng": 122.076172
        },
        "ad_info": {
            "adcode": 211104,
            "province": "辽宁省",
            "city": "盘锦市",
            "district": "大洼区"
        }
    },
    {
        "id": "1439747611941140096",
        "title": "公共厕所",
        "address": "辽宁省盘锦市大洼区凤山路与商业街交叉口正东方向69米左右",
        "tel": "",
        "category": "基础设施:公共设施:公共厕所",
        "type": 0,
        "location": {
            "lat": 40.995249,
            "lng": 122.053349
        },
        "ad_info": {
            "adcode": 211104,
            "province": "辽宁省",
            "city": "盘锦市",
            "district": "大洼区"
        }
    },
    {
        "id": "16052104856278715465",
        "title": "洗手间",
        "address": "辽宁省盘锦市双台子区向阳街与渤海北路交叉口正东方向92米左右",
        "tel": "",
        "category": "基础设施:公共设施:公共厕所",
        "type": 0,
        "location": {
            "lat": 41.198062,
            "lng": 122.051893
        },
        "ad_info": {
            "adcode": 211102,
            "province": "辽宁省",
            "city": "盘锦市",
            "district": "双台子区"
        }
    },
    {
        "id": "4991212696974436910",
        "title": "公共厕所",
        "address": "辽宁省盘锦市大洼区红海滩大街中国石油加油站",
        "tel": "",
        "category": "基础设施:公共设施:公共厕所",
        "type": 0,
        "location": {
            "lat": 41.000481,
            "lng": 122.063819
        },
        "ad_info": {
            "adcode": 211104,
            "province": "辽宁省",
            "city": "盘锦市",
            "district": "大洼区"
        }
    },
    {
        "id": "318247440177014694",
        "title": "公共厕所",
        "address": "辽宁省盘锦市双台子区东油大院巷与向阳街交叉口东南方向20米左右",
        "tel": "",
        "category": "基础设施:公共设施:公共厕所",
        "type": 0,
        "location": {
            "lat": 41.197006,
            "lng": 122.045188
        },
        "ad_info": {
            "adcode": 211102,
            "province": "辽宁省",
            "city": "盘锦市",
            "district": "双台子区"
        }
    },
    {
        "id": "3308053312946009009",
        "title": "公共厕所",
        "address": "辽宁省盘锦市盘山县G102与向阳路交叉口西北方向203米左右",
        "tel": "",
        "category": "基础设施:公共设施:公共厕所",
        "type": 0,
        "location": {
            "lat": 41.358094,
            "lng": 122.128887
        },
        "ad_info": {
            "adcode": 211122,
            "province": "辽宁省",
            "city": "盘锦市",
            "district": "盘山县"
        }
    },
    {
        "id": "13252998200643080411",
        "title": "公共厕所",
        "address": "辽宁省盘锦市盘山县G102与大支线交叉口正西方向36米左右",
        "tel": "",
        "category": "基础设施:公共设施:公共厕所",
        "type": 0,
        "location": {
            "lat": 41.354901,
            "lng": 122.138649
        },
        "ad_info": {
            "adcode": 211122,
            "province": "辽宁省",
            "city": "盘锦市",
            "district": "盘山县"
        }
    },
    {
        "id": "525030064870232128",
        "title": "公共厕所",
        "address": "辽宁省盘锦市盘山县博物馆路与府北大街交叉口正北方向61米左右",
        "tel": "",
        "category": "基础设施:公共设施:公共厕所",
        "type": 0,
        "location": {
            "lat": 41.245559,
            "lng": 122.002798
        },
        "ad_info": {
            "adcode": 211122,
            "province": "辽宁省",
            "city": "盘锦市",
            "district": "盘山县"
        }
    },
    {
        "id": "1149063753683283224",
        "title": "公共厕所",
        "address": "辽宁省盘锦市盘山县G102与庄赵线交叉口西北方向115米左右",
        "tel": "",
        "category": "基础设施:公共设施:公共厕所",
        "type": 0,
        "location": {
            "lat": 41.326983,
            "lng": 121.876099
        },
        "ad_info": {
            "adcode": 211122,
            "province": "辽宁省",
            "city": "盘锦市",
            "district": "盘山县"
        }
    },
    {
        "id": "8149006582569514927",
        "title": "公共厕所",
        "address": "辽宁省盘锦市大洼区每日食府东侧110米",
        "tel": "",
        "category": "基础设施:公共设施:公共厕所",
        "type": 0,
        "location": {
            "lat": 40.808858,
            "lng": 121.975378
        },
        "ad_info": {
            "adcode": 211104,
            "province": "辽宁省",
            "city": "盘锦市",
            "district": "大洼区"
        }
    },
    {
        "id": "2491832052343889229",
        "title": "公共厕所",
        "address": "辽宁省盘锦市双台子区胜利街旌旗小区",
        "tel": "",
        "category": "基础设施:公共设施:公共厕所",
        "type": 0,
        "location": {
            "lat": 41.185568,
            "lng": 122.046067
        },
        "ad_info": {
            "adcode": 211102,
            "province": "辽宁省",
            "city": "盘锦市",
            "district": "双台子区"
        }
    },
    {
        "id": "12351576676516509580",
        "title": "公共厕所",
        "address": "辽宁省盘锦市大洼区泰山中路中国石油加油站",
        "tel": "",
        "category": "基础设施:公共设施:公共厕所",
        "type": 0,
        "location": {
            "lat": 40.99057,
            "lng": 122.065397
        },
        "ad_info": {
            "adcode": 211104,
            "province": "辽宁省",
            "city": "盘锦市",
            "district": "大洼区"
        }
    },
    {
        "id": "3590722359911811131",
        "title": "公共厕所",
        "address": "辽宁省盘锦市盘山县古城子镇松柏蔬菜专业合作社西北侧50米",
        "tel": "",
        "category": "基础设施:公共设施:公共厕所",
        "type": 0,
        "location": {
            "lat": 41.028976,
            "lng": 122.40286
        },
        "ad_info": {
            "adcode": 211122,
            "province": "辽宁省",
            "city": "盘锦市",
            "district": "盘山县"
        }
    },
    {
        "id": "1479981010642423428",
        "title": "公共厕所",
        "address": "辽宁省盘锦市大洼区利民路与新华街交叉口正东方向118米左右",
        "tel": "",
        "category": "基础设施:公共设施:公共厕所",
        "type": 0,
        "location": {
            "lat": 40.995261,
            "lng": 122.077777
        },
        "ad_info": {
            "adcode": 211104,
            "province": "辽宁省",
            "city": "盘锦市",
            "district": "大洼区"
        }
    },
    {
        "id": "16635175490059704177",
        "title": "公共厕所",
        "address": "辽宁省盘锦市大洼区兴盛路与新华街交叉口东北方向115米左右",
        "tel": "",
        "category": "基础设施:公共设施:公共厕所",
        "type": 0,
        "location": {
            "lat": 40.995469,
            "lng": 122.071428
        },
        "ad_info": {
            "adcode": 211104,
            "province": "辽宁省",
            "city": "盘锦市",
            "district": "大洼区"
        }
    },
    {
        "id": "14551251917399601759",
        "title": "公共厕所",
        "address": "辽宁省盘锦市大洼区泰山中路与红海滩大街交叉口正西方向250米左右",
        "tel": "",
        "category": "基础设施:公共设施:公共厕所",
        "type": 0,
        "location": {
            "lat": 41.001242,
            "lng": 122.06168
        },
        "ad_info": {
            "adcode": 211104,
            "province": "辽宁省",
            "city": "盘锦市",
            "district": "大洼区"
        }
    },
    {
        "id": "13065117381722940545",
        "title": "公共厕所",
        "address": "辽宁省盘锦市大洼区G305与安逸街交叉口西北方向89米左右",
        "tel": "",
        "category": "基础设施:公共设施:公共厕所",
        "type": 0,
        "location": {
            "lat": 40.830222,
            "lng": 122.129261
        },
        "ad_info": {
            "adcode": 211104,
            "province": "辽宁省",
            "city": "盘锦市",
            "district": "大洼区"
        }
    },
    {
        "id": "7509749706964436243",
        "title": "公共厕所",
        "address": "辽宁省盘锦市大洼区新康巷与泰山中路交叉口正西方向313米左右",
        "tel": "",
        "category": "基础设施:公共设施:公共厕所",
        "type": 0,
        "location": {
            "lat": 40.990495,
            "lng": 122.061949
        },
        "ad_info": {
            "adcode": 211104,
            "province": "辽宁省",
            "city": "盘锦市",
            "district": "大洼区"
        }
    },
    {
        "id": "11385463851583731112",
        "title": "公共厕所",
        "address": "辽宁省盘锦市大洼区向海大道与洼三支路交叉口正南方向221米左右",
        "tel": "",
        "category": "基础设施:公共设施:公共厕所",
        "type": 0,
        "location": {
            "lat": 41.019597,
            "lng": 122.07626
        },
        "ad_info": {
            "adcode": 211104,
            "province": "辽宁省",
            "city": "盘锦市",
            "district": "大洼区"
        }
    },
    {
        "id": "5910930750723852380",
        "title": "公共厕所",
        "address": "辽宁省盘锦市大洼区盛安路与鑫民街交叉口正南方向112米左右",
        "tel": "",
        "category": "基础设施:公共设施:公共厕所",
        "type": 0,
        "location": {
            "lat": 40.919453,
            "lng": 122.24042
        },
        "ad_info": {
            "adcode": 211104,
            "province": "辽宁省",
            "city": "盘锦市",
            "district": "大洼区"
        }
    },
    {
        "id": "10074882067602036903",
        "title": "公共厕所",
        "address": "辽宁省盘锦市盘山县博物馆路与盛世大街交叉口西北方向217米左右",
        "tel": "",
        "category": "基础设施:公共设施:公共厕所",
        "type": 0,
        "location": {
            "lat": 41.25079,
            "lng": 121.998041
        },
        "ad_info": {
            "adcode": 211122,
            "province": "辽宁省",
            "city": "盘锦市",
            "district": "盘山县"
        }
    },
    {
        "id": "7943099415596263123",
        "title": "公共厕所",
        "address": "辽宁省盘锦市大洼区商业街与泰山中路交叉口西北方向245米左右",
        "tel": "",
        "category": "基础设施:公共设施:公共厕所",
        "type": 0,
        "location": {
            "lat": 40.997964,
            "lng": 122.063258
        },
        "ad_info": {
            "adcode": 211104,
            "province": "辽宁省",
            "city": "盘锦市",
            "district": "大洼区"
        }
    },
    {
        "id": "16828510613874324029",
        "title": "公共厕所",
        "address": "辽宁省盘锦市大洼区利民路与通达街交叉口正北方向74米左右",
        "tel": "",
        "category": "基础设施:公共设施:公共厕所",
        "type": 0,
        "location": {
            "lat": 40.991227,
            "lng": 122.076695
        },
        "ad_info": {
            "adcode": 211104,
            "province": "辽宁省",
            "city": "盘锦市",
            "district": "大洼区"
        }
    },
    {
        "id": "385336275904416978",
        "title": "肯德基(华商餐厅)-洗手间",
        "address": "辽宁省盘锦市兴隆台区兴隆台街与泰山路交叉口东南方向61米左右",
        "tel": "",
        "category": "基础设施:公共设施:公共厕所",
        "type": 0,
        "location": {
            "lat": 41.126942,
            "lng": 122.058887
        },
        "ad_info": {
            "adcode": 211103,
            "province": "辽宁省",
            "city": "盘锦市",
            "district": "兴隆台区"
        }
    },
    {
        "id": "7559580547027839392",
        "title": "公共厕所",
        "address": "辽宁省盘锦市大洼区商业街与商兴巷交叉口正南方向60米左右",
        "tel": "",
        "category": "基础设施:公共设施:公共厕所",
        "type": 0,
        "location": {
            "lat": 40.996202,
            "lng": 122.072717
        },
        "ad_info": {
            "adcode": 211104,
            "province": "辽宁省",
            "city": "盘锦市",
            "district": "大洼区"
        }
    },
    {
        "id": "2580037008670759393",
        "title": "公共厕所",
        "address": "辽宁省盘锦市大洼区305国道与S29盘锦疏港高速出口交叉口南150米",
        "tel": "",
        "category": "基础设施:公共设施:公共厕所",
        "type": 0,
        "location": {
            "lat": 40.834094,
            "lng": 122.108553
        },
        "ad_info": {
            "adcode": 211104,
            "province": "辽宁省",
            "city": "盘锦市",
            "district": "大洼区"
        }
    },
    {
        "id": "4012700936727553987",
        "title": "公共厕所",
        "address": "辽宁省盘锦市大洼区S320与凤山路交叉口正东方向217米左右",
        "tel": "",
        "category": "基础设施:公共设施:公共厕所",
        "type": 0,
        "location": {
            "lat": 40.991328,
            "lng": 122.055411
        },
        "ad_info": {
            "adcode": 211104,
            "province": "辽宁省",
            "city": "盘锦市",
            "district": "大洼区"
        }
    },
    {
        "id": "10895670403606607951",
        "title": "公共厕所",
        "address": "辽宁省盘锦市大洼区G305与安逸街交叉口西北方向60米左右",
        "tel": "",
        "category": "基础设施:公共设施:公共厕所",
        "type": 0,
        "location": {
            "lat": 40.83004,
            "lng": 122.129539
        },
        "ad_info": {
            "adcode": 211104,
            "province": "辽宁省",
            "city": "盘锦市",
            "district": "大洼区"
        }
    },
    {
        "id": "9203809462247246536",
        "title": "公共厕所",
        "address": "辽宁省盘锦市大洼区滨海公路与滨海路交叉口正北方向131米左右",
        "tel": "",
        "category": "基础设施:公共设施:公共厕所",
        "type": 0,
        "location": {
            "lat": 40.809817,
            "lng": 121.960442
        },
        "ad_info": {
            "adcode": 211104,
            "province": "辽宁省",
            "city": "盘锦市",
            "district": "大洼区"
        }
    },
    {
        "id": "8767814627295927991",
        "title": "公共厕所",
        "address": "辽宁省盘锦市大洼区振兴街与站前路交叉口正东方向22米左右",
        "tel": "",
        "category": "基础设施:公共设施:公共厕所",
        "type": 0,
        "location": {
            "lat": 41.06925,
            "lng": 122.276394
        },
        "ad_info": {
            "adcode": 211104,
            "province": "辽宁省",
            "city": "盘锦市",
            "district": "大洼区"
        }
    },
    {
        "id": "4923905378914831054",
        "title": "公共厕所",
        "address": "辽宁省盘锦市大洼区商业街与商盛巷交叉口正东方向131米左右",
        "tel": "",
        "category": "基础设施:公共设施:公共厕所",
        "type": 0,
        "location": {
            "lat": 40.996174,
            "lng": 122.061847
        },
        "ad_info": {
            "adcode": 211104,
            "province": "辽宁省",
            "city": "盘锦市",
            "district": "大洼区"
        }
    },
    {
        "id": "7558935615655447370",
        "title": "公共厕所",
        "address": "辽宁省盘锦市大洼区商业街与商盛巷交叉口正北方向94米左右",
        "tel": "",
        "category": "基础设施:公共设施:公共厕所",
        "type": 0,
        "location": {
            "lat": 40.996732,
            "lng": 122.060316
        },
        "ad_info": {
            "adcode": 211104,
            "province": "辽宁省",
            "city": "盘锦市",
            "district": "大洼区"
        }
    },
    {
        "id": "9268653259625845406",
        "title": "洗手间",
        "address": "辽宁省盘锦市大洼区中心路与通达街交叉口正北方向102米左右",
        "tel": "",
        "category": "基础设施:公共设施:公共厕所",
        "type": 0,
        "location": {
            "lat": 40.991323,
            "lng": 122.074758
        },
        "ad_info": {
            "adcode": 211104,
            "province": "辽宁省",
            "city": "盘锦市",
            "district": "大洼区"
        }
    },
    {
        "id": "12040097976496139244",
        "title": "公共厕所",
        "address": "辽宁省盘锦市大洼区G305与安逸街交叉口东北方向134米左右",
        "tel": "",
        "category": "基础设施:公共设施:公共厕所",
        "type": 0,
        "location": {
            "lat": 40.830259,
            "lng": 122.131184
        },
        "ad_info": {
            "adcode": 211104,
            "province": "辽宁省",
            "city": "盘锦市",
            "district": "大洼区"
        }
    },
    {
        "id": "11273385732969799211",
        "title": "公共厕所",
        "address": "辽宁省盘锦市大洼区中心街与乐园街交叉口正西方向59米左右",
        "tel": "",
        "category": "基础设施:公共设施:公共厕所",
        "type": 0,
        "location": {
            "lat": 40.836821,
            "lng": 122.141593
        },
        "ad_info": {
            "adcode": 211104,
            "province": "辽宁省",
            "city": "盘锦市",
            "district": "大洼区"
        }
    },
    {
        "id": "15003184506111975153",
        "title": "公共厕所",
        "address": "辽宁省盘锦市大洼区盛祥路8号",
        "tel": "",
        "category": "基础设施:公共设施:公共厕所",
        "type": 0,
        "location": {
            "lat": 40.970704,
            "lng": 121.979075
        },
        "ad_info": {
            "adcode": 211104,
            "province": "辽宁省",
            "city": "盘锦市",
            "district": "大洼区"
        }
    },
    {
        "id": "16293430042605614209",
        "title": "盘锦瑞诗酒店-洗手间",
        "address": "辽宁省盘锦市兴隆台区石油大街130号(与麦凯乐同楼)",
        "tel": "",
        "category": "基础设施:公共设施:公共厕所",
        "type": 0,
        "location": {
            "lat": 41.123492,
            "lng": 122.070985
        },
        "ad_info": {
            "adcode": 211103,
            "province": "辽宁省",
            "city": "盘锦市",
            "district": "兴隆台区"
        }
    },
    {
        "id": "2039988069699246814",
        "title": "公共厕所",
        "address": "辽宁省盘锦市大洼区利民路与建设街交叉口正南方向40米左右",
        "tel": "",
        "category": "基础设施:公共设施:公共厕所",
        "type": 0,
        "location": {
            "lat": 40.992611,
            "lng": 122.076479
        },
        "ad_info": {
            "adcode": 211104,
            "province": "辽宁省",
            "city": "盘锦市",
            "district": "大洼区"
        }
    },
    {
        "id": "5686442379241682246",
        "title": "公共厕所",
        "address": "辽宁省盘锦市大洼区盛安路与鑫民街交叉口西南方向321米左右",
        "tel": "",
        "category": "基础设施:公共设施:公共厕所",
        "type": 0,
        "location": {
            "lat": 40.918112,
            "lng": 122.238531
        },
        "ad_info": {
            "adcode": 211104,
            "province": "辽宁省",
            "city": "盘锦市",
            "district": "大洼区"
        }
    },
    {
        "id": "15275352005932814310",
        "title": "公共厕所",
        "address": "辽宁省盘锦市盘山县府前大街与彩虹路交叉口正北方向109米左右",
        "tel": "",
        "category": "基础设施:公共设施:公共厕所",
        "type": 0,
        "location": {
            "lat": 41.241796,
            "lng": 122.008815
        },
        "ad_info": {
            "adcode": 211122,
            "province": "辽宁省",
            "city": "盘锦市",
            "district": "盘山县"
        }
    },
    {
        "id": "9485208935927481475",
        "title": "盘锦服务区公共厕所",
        "address": "辽宁省盘锦市盘山县太平镇京哈高速公路盘锦服务区",
        "tel": "",
        "category": "基础设施:公共设施:公共厕所",
        "type": 0,
        "location": {
            "lat": 41.246994,
            "lng": 121.955845
        },
        "ad_info": {
            "adcode": 211122,
            "province": "辽宁省",
            "city": "盘锦市",
            "district": "盘山县"
        }
    },
    {
        "id": "751791703927779922",
        "title": "无障碍公共厕所",
        "address": "辽宁省盘锦市兴隆台区海洋街与芳草路交叉口正西方向304米左右",
        "tel": "",
        "category": "基础设施:公共设施:公共厕所",
        "type": 0,
        "location": {
            "lat": 41.12495,
            "lng": 122.111363
        },
        "ad_info": {
            "adcode": 211103,
            "province": "辽宁省",
            "city": "盘锦市",
            "district": "兴隆台区"
        }
    },
    {
        "id": "1592233985349086048",
        "title": "无障碍公共厕所",
        "address": "辽宁省盘锦市兴隆台区鹤翔路与石油大街辅路交叉口南120米",
        "tel": "",
        "category": "基础设施:公共设施:公共厕所",
        "type": 0,
        "location": {
            "lat": 41.121995,
            "lng": 122.0726
        },
        "ad_info": {
            "adcode": 211103,
            "province": "辽宁省",
            "city": "盘锦市",
            "district": "兴隆台区"
        }
    },
    {
        "id": "11034002031479704422",
        "title": "公共卫生间",
        "address": "辽宁省盘锦市大洼区建设街与育英路交叉口正西方向118米左右",
        "tel": "",
        "category": "基础设施:公共设施:公共厕所",
        "type": 0,
        "location": {
            "lat": 40.992201,
            "lng": 122.067261
        },
        "ad_info": {
            "adcode": 211104,
            "province": "辽宁省",
            "city": "盘锦市",
            "district": "大洼区"
        }
    },
    {
        "id": "14792781668809627766",
        "title": "公共厕所",
        "address": "辽宁省盘锦市大洼区利民路与建设街交叉口正北方向69米左右",
        "tel": "",
        "category": "基础设施:公共设施:公共厕所",
        "type": 0,
        "location": {
            "lat": 40.993557,
            "lng": 122.076409
        },
        "ad_info": {
            "adcode": 211104,
            "province": "辽宁省",
            "city": "盘锦市",
            "district": "大洼区"
        }
    },
    {
        "id": "17749783792151921624",
        "title": "公共厕所",
        "address": "辽宁省盘锦市大洼区S213",
        "tel": "",
        "category": "基础设施:公共设施:公共厕所",
        "type": 0,
        "location": {
            "lat": 41.046385,
            "lng": 122.294244
        },
        "ad_info": {
            "adcode": 211104,
            "province": "辽宁省",
            "city": "盘锦市",
            "district": "大洼区"
        }
    },
    {
        "id": "14951237174380345033",
        "title": "辽河服务区公共厕所",
        "address": "辽宁省盘锦市大洼区向滨街与高小线交叉口东南方向1478米左右",
        "tel": "",
        "category": "基础设施:公共设施:公共厕所",
        "type": 0,
        "location": {
            "lat": 40.911081,
            "lng": 122.268837
        },
        "ad_info": {
            "adcode": 211104,
            "province": "辽宁省",
            "city": "盘锦市",
            "district": "大洼区"
        }
    },
    {
        "id": "14989113142408914524",
        "title": "无障碍-洗手间",
        "address": "辽宁省盘锦市兴隆台区石油大街102号鹏欣·水游城F3",
        "tel": "",
        "category": "基础设施:公共设施:无障碍洗手间",
        "type": 0,
        "location": {
            "lat": 41.124442,
            "lng": 122.074181
        },
        "ad_info": {
            "adcode": 211103,
            "province": "辽宁省",
            "city": "盘锦市",
            "district": "兴隆台区"
        }
    },
    {
        "id": "3576002543037034783",
        "title": "无障碍-洗手间",
        "address": "辽宁省盘锦市兴隆台区石油大街102号鹏欣·水游城F2",
        "tel": "",
        "category": "基础设施:公共设施:无障碍洗手间",
        "type": 0,
        "location": {
            "lat": 41.125231,
            "lng": 122.075577
        },
        "ad_info": {
            "adcode": 211103,
            "province": "辽宁省",
            "city": "盘锦市",
            "district": "兴隆台区"
        }
    },
    {
        "id": "4916514915024130766",
        "title": "男洗手间",
        "address": "辽宁省盘锦市兴隆台区石油大街102号鹏欣·水游城F3",
        "tel": "",
        "category": "基础设施:公共设施:男洗手间",
        "type": 0,
        "location": {
            "lat": 41.125287,
            "lng": 122.07562
        },
        "ad_info": {
            "adcode": 211103,
            "province": "辽宁省",
            "city": "盘锦市",
            "district": "兴隆台区"
        }
    },
    {
        "id": "16605775328451068267",
        "title": "男洗手间",
        "address": "辽宁省盘锦市兴隆台区石油大街102号鹏欣·水游城F1",
        "tel": "",
        "category": "基础设施:公共设施:男洗手间",
        "type": 0,
        "location": {
            "lat": 41.125094,
            "lng": 122.076258
        },
        "ad_info": {
            "adcode": 211103,
            "province": "辽宁省",
            "city": "盘锦市",
            "district": "兴隆台区"
        }
    },
    {
        "id": "5825890997674088911",
        "title": "男洗手间",
        "address": "辽宁省盘锦市兴隆台区石油大街102号鹏欣·水游城F5",
        "tel": "",
        "category": "基础设施:公共设施:男洗手间",
        "type": 0,
        "location": {
            "lat": 41.12414,
            "lng": 122.075163
        },
        "ad_info": {
            "adcode": 211103,
            "province": "辽宁省",
            "city": "盘锦市",
            "district": "兴隆台区"
        }
    },
    {
        "id": "17623957865435109009",
        "title": "女洗手间",
        "address": "辽宁省盘锦市兴隆台区石油大街102号鹏欣·水游城F2",
        "tel": "",
        "category": "基础设施:公共设施:女洗手间",
        "type": 0,
        "location": {
            "lat": 41.124688,
            "lng": 122.074989
        },
        "ad_info": {
            "adcode": 211103,
            "province": "辽宁省",
            "city": "盘锦市",
            "district": "兴隆台区"
        }
    },
    {
        "id": "6855903744186095300",
        "title": "男洗手间",
        "address": "辽宁省盘锦市兴隆台区石油大街102号鹏欣·水游城B1",
        "tel": "",
        "category": "基础设施:公共设施:男洗手间",
        "type": 0,
        "location": {
            "lat": 41.124567,
            "lng": 122.074964
        },
        "ad_info": {
            "adcode": 211103,
            "province": "辽宁省",
            "city": "盘锦市",
            "district": "兴隆台区"
        }
    },
    {
        "id": "14013917406430310278",
        "title": "鹏欣水游城无障碍洗手间",
        "address": "辽宁省盘锦市兴隆台区石油大街102号鹏欣·水游城F4",
        "tel": "",
        "category": "基础设施:公共设施:无障碍洗手间",
        "type": 0,
        "location": {
            "lat": 41.125226,
            "lng": 122.075712
        },
        "ad_info": {
            "adcode": 211103,
            "province": "辽宁省",
            "city": "盘锦市",
            "district": "兴隆台区"
        }
    },
    {
        "id": "7459136983469458262",
        "title": "无障碍洗手间",
        "address": "辽宁省盘锦市兴隆台区石油大街102号鹏欣·水游城B1",
        "tel": "",
        "category": "基础设施:公共设施:无障碍洗手间",
        "type": 0,
        "location": {
            "lat": 41.124377,
            "lng": 122.074019
        },
        "ad_info": {
            "adcode": 211103,
            "province": "辽宁省",
            "city": "盘锦市",
            "district": "兴隆台区"
        }
    },
    {
        "id": "3983429023407466425",
        "title": "鹏欣·水游城(双兴南路店)-男洗手间",
        "address": "辽宁省盘锦市兴隆台区石油大街102号鹏欣·水游城F2",
        "tel": "",
        "category": "基础设施:公共设施:男洗手间",
        "type": 0,
        "location": {
            "lat": 41.125274,
            "lng": 122.075616
        },
        "ad_info": {
            "adcode": 211103,
            "province": "辽宁省",
            "city": "盘锦市",
            "district": "兴隆台区"
        }
    },
    {
        "id": "3480564840131991936",
        "title": "公共厕所",
        "address": "辽宁省盘锦市大洼区新康巷与泰山中路交叉口正西方向376米左右",
        "tel": "",
        "category": "基础设施:公共设施:公共厕所",
        "type": 0,
        "location": {
            "lat": 40.990409,
            "lng": 122.0612
        },
        "ad_info": {
            "adcode": 211104,
            "province": "辽宁省",
            "city": "盘锦市",
            "district": "大洼区"
        }
    },
    {
        "id": "12905982567346683788",
        "title": "女洗手间",
        "address": "辽宁省盘锦市兴隆台区石油大街102号鹏欣·水游城F4",
        "tel": "",
        "category": "基础设施:公共设施:女洗手间",
        "type": 0,
        "location": {
            "lat": 41.124283,
            "lng": 122.075813
        },
        "ad_info": {
            "adcode": 211103,
            "province": "辽宁省",
            "city": "盘锦市",
            "district": "兴隆台区"
        }
    },
    {
        "id": "15887672603809682130",
        "title": "女洗手间",
        "address": "辽宁省盘锦市兴隆台区石油大街102号鹏欣·水游城F2",
        "tel": "",
        "category": "基础设施:公共设施:女洗手间",
        "type": 0,
        "location": {
            "lat": 41.125233,
            "lng": 122.075652
        },
        "ad_info": {
            "adcode": 211103,
            "province": "辽宁省",
            "city": "盘锦市",
            "district": "兴隆台区"
        }
    },
    {
        "id": "9505052225820774582",
        "title": "鼎翔生态旅游区-公共厕所",
        "address": "辽宁省盘锦市兴隆台区鼎翔路13号",
        "tel": "",
        "category": "基础设施:公共设施:公共厕所",
        "type": 0,
        "location": {
            "lat": 41.159929,
            "lng": 121.923637
        },
        "ad_info": {
            "adcode": 211103,
            "province": "辽宁省",
            "city": "盘锦市",
            "district": "兴隆台区"
        }
    },
    {
        "id": "5574905879610503299",
        "title": "男洗手间",
        "address": "辽宁省盘锦市兴隆台区石油大街102号鹏欣·水游城F4",
        "tel": "",
        "category": "基础设施:公共设施:男洗手间",
        "type": 0,
        "location": {
            "lat": 41.124478,
            "lng": 122.074313
        },
        "ad_info": {
            "adcode": 211103,
            "province": "辽宁省",
            "city": "盘锦市",
            "district": "兴隆台区"
        }
    },
    {
        "id": "9678176274232778148",
        "title": "女洗手间",
        "address": "辽宁省盘锦市兴隆台区石油大街102号鹏欣·水游城B1",
        "tel": "",
        "category": "基础设施:公共设施:女洗手间",
        "type": 0,
        "location": {
            "lat": 41.124538,
            "lng": 122.074892
        },
        "ad_info": {
            "adcode": 211103,
            "province": "辽宁省",
            "city": "盘锦市",
            "district": "兴隆台区"
        }
    },
    {
        "id": "6069398467043684829",
        "title": "无障碍-洗手间",
        "address": "辽宁省盘锦市兴隆台区石油大街102号鹏欣·水游城F3",
        "tel": "",
        "category": "基础设施:公共设施:无障碍洗手间",
        "type": 0,
        "location": {
            "lat": 41.125239,
            "lng": 122.075582
        },
        "ad_info": {
            "adcode": 211103,
            "province": "辽宁省",
            "city": "盘锦市",
            "district": "兴隆台区"
        }
    },
    {
        "id": "2987361024847572595",
        "title": "男洗手间",
        "address": "辽宁省盘锦市兴隆台区石油大街102号鹏欣·水游城F4",
        "tel": "",
        "category": "基础设施:公共设施:男洗手间",
        "type": 0,
        "location": {
            "lat": 41.125271,
            "lng": 122.075684
        },
        "ad_info": {
            "adcode": 211103,
            "province": "辽宁省",
            "city": "盘锦市",
            "district": "兴隆台区"
        }
    },
    {
        "id": "6785840473737226059",
        "title": "公共厕所(不对外)",
        "address": "辽宁省盘锦市大洼区兴盛路402号",
        "tel": "",
        "category": "基础设施:公共设施:公共厕所",
        "type": 0,
        "location": {
            "lat": 41.000307,
            "lng": 122.069787
        },
        "ad_info": {
            "adcode": 211104,
            "province": "辽宁省",
            "city": "盘锦市",
            "district": "大洼区"
        }
    },
    {
        "id": "9810819056103285319",
        "title": "公共厕所",
        "address": "辽宁省盘锦市双台子区宏伟小区东侧250米",
        "tel": "",
        "category": "基础设施:公共设施:公共厕所",
        "type": 0,
        "location": {
            "lat": 41.208879,
            "lng": 122.045642
        },
        "ad_info": {
            "adcode": 211102,
            "province": "辽宁省",
            "city": "盘锦市",
            "district": "双台子区"
        }
    },
    {
        "id": "3585723717162472391",
        "title": "无障碍-洗手间",
        "address": "辽宁省盘锦市兴隆台区石油大街102号鹏欣·水游城F5",
        "tel": "",
        "category": "基础设施:公共设施:无障碍洗手间",
        "type": 0,
        "location": {
            "lat": 41.124174,
            "lng": 122.075083
        },
        "ad_info": {
            "adcode": 211103,
            "province": "辽宁省",
            "city": "盘锦市",
            "district": "兴隆台区"
        }
    },
    {
        "id": "17043615628354952307",
        "title": "公共厕所",
        "address": "辽宁省盘锦市双台子区向海大道与沿河南街交叉口西北方向78米左右",
        "tel": "",
        "category": "基础设施:公共设施:公共厕所",
        "type": 0,
        "location": {
            "lat": 41.171589,
            "lng": 122.066224
        },
        "ad_info": {
            "adcode": 211102,
            "province": "辽宁省",
            "city": "盘锦市",
            "district": "双台子区"
        }
    },
    {
        "id": "13811823116765553139",
        "title": "女洗手间",
        "address": "辽宁省盘锦市兴隆台区石油大街102号鹏欣·水游城F1",
        "tel": "",
        "category": "基础设施:公共设施:女洗手间",
        "type": 0,
        "location": {
            "lat": 41.124418,
            "lng": 122.074208
        },
        "ad_info": {
            "adcode": 211103,
            "province": "辽宁省",
            "city": "盘锦市",
            "district": "兴隆台区"
        }
    },
    {
        "id": "3325393386614459169",
        "title": "公共厕所",
        "address": "辽宁省盘锦市盘山县砖生线与红旗路交叉口东北方向513米左右",
        "tel": "",
        "category": "基础设施:公共设施:公共厕所",
        "type": 0,
        "location": {
            "lat": 41.318156,
            "lng": 121.989443
        },
        "ad_info": {
            "adcode": 211122,
            "province": "辽宁省",
            "city": "盘锦市",
            "district": "盘山县"
        }
    },
    {
        "id": "8833326325449645314",
        "title": "女洗手间",
        "address": "辽宁省盘锦市兴隆台区石油大街102号鹏欣·水游城F2",
        "tel": "",
        "category": "基础设施:公共设施:女洗手间",
        "type": 0,
        "location": {
            "lat": 41.12442,
            "lng": 122.074217
        },
        "ad_info": {
            "adcode": 211103,
            "province": "辽宁省",
            "city": "盘锦市",
            "district": "兴隆台区"
        }
    },
    {
        "id": "6847928873666525773",
        "title": "公共厕所",
        "address": "辽宁省盘锦市大洼区沙河街与滨海公路辅路交叉口东北方向138米左右",
        "tel": "",
        "category": "基础设施:公共设施:公共厕所",
        "type": 0,
        "location": {
            "lat": 40.706198,
            "lng": 122.1915
        },
        "ad_info": {
            "adcode": 211104,
            "province": "辽宁省",
            "city": "盘锦市",
            "district": "大洼区"
        }
    },
    {
        "id": "17160717558226216918",
        "title": "无障碍-洗手间",
        "address": "辽宁省盘锦市兴隆台区石油大街102号鹏欣·水游城F2",
        "tel": "",
        "category": "基础设施:公共设施:无障碍洗手间",
        "type": 0,
        "location": {
            "lat": 41.124722,
            "lng": 122.07498
        },
        "ad_info": {
            "adcode": 211103,
            "province": "辽宁省",
            "city": "盘锦市",
            "district": "兴隆台区"
        }
    },
    {
        "id": "1809477963421423814",
        "title": "无障碍-洗手间",
        "address": "辽宁省盘锦市兴隆台区石油大街102号鹏欣·水游城F4",
        "tel": "",
        "category": "基础设施:公共设施:无障碍洗手间",
        "type": 0,
        "location": {
            "lat": 41.124415,
            "lng": 122.074349
        },
        "ad_info": {
            "adcode": 211103,
            "province": "辽宁省",
            "city": "盘锦市",
            "district": "兴隆台区"
        }
    },
    {
        "id": "6412801721089474183",
        "title": "公共厕所",
        "address": "辽宁省盘锦市大洼区中心路与丽江街交叉口正西方向188米左右",
        "tel": "",
        "category": "基础设施:公共设施:公共厕所",
        "type": 0,
        "location": {
            "lat": 41.031649,
            "lng": 122.069509
        },
        "ad_info": {
            "adcode": 211104,
            "province": "辽宁省",
            "city": "盘锦市",
            "district": "大洼区"
        }
    },
    {
        "id": "4472990700858995280",
        "title": "公共厕所",
        "address": "辽宁省盘锦市双台子区胜利街与辽河北路交叉口正南方向176米左右",
        "tel": "",
        "category": "基础设施:公共设施:公共厕所",
        "type": 0,
        "location": {
            "lat": 41.185422,
            "lng": 122.050296
        },
        "ad_info": {
            "adcode": 211102,
            "province": "辽宁省",
            "city": "盘锦市",
            "district": "双台子区"
        }
    },
    {
        "id": "10821294269336790555",
        "title": "公共厕所",
        "address": "辽宁省盘锦市兴隆台区海洋街与青年路交叉口正西方向189米左右",
        "tel": "",
        "category": "基础设施:公共设施:公共厕所",
        "type": 0,
        "location": {
            "lat": 41.123795,
            "lng": 122.098424
        },
        "ad_info": {
            "adcode": 211103,
            "province": "辽宁省",
            "city": "盘锦市",
            "district": "兴隆台区"
        }
    },
    {
        "id": "12500087765608763405",
        "title": "女洗手间",
        "address": "辽宁省盘锦市兴隆台区石油大街102号鹏欣·水游城F4",
        "tel": "",
        "category": "基础设施:公共设施:女洗手间",
        "type": 0,
        "location": {
            "lat": 41.125243,
            "lng": 122.075585
        },
        "ad_info": {
            "adcode": 211103,
            "province": "辽宁省",
            "city": "盘锦市",
            "district": "兴隆台区"
        }
    },
    {
        "id": "8912970803485297859",
        "title": "男洗手间",
        "address": "辽宁省盘锦市兴隆台区石油大街102号鹏欣·水游城F4",
        "tel": "",
        "category": "基础设施:公共设施:男洗手间",
        "type": 0,
        "location": {
            "lat": 41.124443,
            "lng": 122.074333
        },
        "ad_info": {
            "adcode": 211103,
            "province": "辽宁省",
            "city": "盘锦市",
            "district": "兴隆台区"
        }
    },
    {
        "id": "12385502555612665841",
        "title": "公共厕所",
        "address": "辽宁省盘锦市大洼区辽宁爱美瑞特种肥料有限公司东侧70米",
        "tel": "",
        "category": "基础设施:公共设施:公共厕所",
        "type": 0,
        "location": {
            "lat": 40.976019,
            "lng": 122.02241
        },
        "ad_info": {
            "adcode": 211104,
            "province": "辽宁省",
            "city": "盘锦市",
            "district": "大洼区"
        }
    },
    {
        "id": "14001819259347604537",
        "title": "男洗手间",
        "address": "辽宁省盘锦市兴隆台区石油大街102号鹏欣·水游城F2",
        "tel": "",
        "category": "基础设施:公共设施:男洗手间",
        "type": 0,
        "location": {
            "lat": 41.124471,
            "lng": 122.074205
        },
        "ad_info": {
            "adcode": 211103,
            "province": "辽宁省",
            "city": "盘锦市",
            "district": "兴隆台区"
        }
    },
    {
        "id": "6905156319936289349",
        "title": "公共厕所",
        "address": "辽宁省盘锦市盘山县西江路与香山街交叉口正西方向42米左右",
        "tel": "",
        "category": "基础设施:公共设施:公共厕所",
        "type": 0,
        "location": {
            "lat": 41.229455,
            "lng": 121.980142
        },
        "ad_info": {
            "adcode": 211122,
            "province": "辽宁省",
            "city": "盘锦市",
            "district": "盘山县"
        }
    },
    {
        "id": "331167628755983376",
        "title": "女洗手间",
        "address": "辽宁省盘锦市兴隆台区石油大街102号鹏欣·水游城B1",
        "tel": "",
        "category": "基础设施:公共设施:女洗手间",
        "type": 0,
        "location": {
            "lat": 41.124422,
            "lng": 122.074009
        },
        "ad_info": {
            "adcode": 211103,
            "province": "辽宁省",
            "city": "盘锦市",
            "district": "兴隆台区"
        }
    },
    {
        "id": "8473631996409808653",
        "title": "公共厕所",
        "address": "辽宁省盘锦市盘山县G102与东一路交叉口东南方向1717米左右",
        "tel": "",
        "category": "基础设施:公共设施:公共厕所",
        "type": 0,
        "location": {
            "lat": 41.328603,
            "lng": 122.269113
        },
        "ad_info": {
            "adcode": 211122,
            "province": "辽宁省",
            "city": "盘锦市",
            "district": "盘山县"
        }
    },
    {
        "id": "9729621179213397795",
        "title": "无障碍公共厕所",
        "address": "辽宁省盘锦市兴隆台区兴油街与芳草路交叉口正北方向193米左右",
        "tel": "",
        "category": "基础设施:公共设施:公共厕所",
        "type": 0,
        "location": {
            "lat": 41.144094,
            "lng": 122.115345
        },
        "ad_info": {
            "adcode": 211103,
            "province": "辽宁省",
            "city": "盘锦市",
            "district": "兴隆台区"
        }
    },
    {
        "id": "18249389267175903758",
        "title": "女洗手间",
        "address": "辽宁省盘锦市兴隆台区石油大街102号鹏欣·水游城F3",
        "tel": "",
        "category": "基础设施:公共设施:女洗手间",
        "type": 0,
        "location": {
            "lat": 41.12525,
            "lng": 122.07566
        },
        "ad_info": {
            "adcode": 211103,
            "province": "辽宁省",
            "city": "盘锦市",
            "district": "兴隆台区"
        }
    },
    {
        "id": "11819237731393153719",
        "title": "男洗手间",
        "address": "辽宁省盘锦市兴隆台区石油大街102号鹏欣·水游城F2",
        "tel": "",
        "category": "基础设施:公共设施:男洗手间",
        "type": 0,
        "location": {
            "lat": 41.124757,
            "lng": 122.074972
        },
        "ad_info": {
            "adcode": 211103,
            "province": "辽宁省",
            "city": "盘锦市",
            "district": "兴隆台区"
        }
    },
    {
        "id": "9655834859816684293",
        "title": "男洗手间",
        "address": "辽宁省盘锦市兴隆台区石油大街102号鹏欣·水游城B1",
        "tel": "",
        "category": "基础设施:公共设施:男洗手间",
        "type": 0,
        "location": {
            "lat": 41.124436,
            "lng": 122.073963
        },
        "ad_info": {
            "adcode": 211103,
            "province": "辽宁省",
            "city": "盘锦市",
            "district": "兴隆台区"
        }
    },
    {
        "id": "11992309162293176648",
        "title": "男洗手间",
        "address": "辽宁省盘锦市兴隆台区石油大街102号鹏欣·水游城F3",
        "tel": "",
        "category": "基础设施:公共设施:男洗手间",
        "type": 0,
        "location": {
            "lat": 41.124467,
            "lng": 122.074176
        },
        "ad_info": {
            "adcode": 211103,
            "province": "辽宁省",
            "city": "盘锦市",
            "district": "兴隆台区"
        }
    },
    {
        "id": "4041315139319893963",
        "title": "公共厕所",
        "address": "辽宁省盘锦市双台子区盘锦站出站匝道下",
        "tel": "",
        "category": "基础设施:公共设施:公共厕所",
        "type": 0,
        "location": {
            "lat": 41.198293,
            "lng": 122.061364
        },
        "ad_info": {
            "adcode": 211102,
            "province": "辽宁省",
            "city": "盘锦市",
            "district": "双台子区"
        }
    },
    {
        "id": "5544380605919644295",
        "title": "公共厕所",
        "address": "辽宁省盘锦市双台子区利民路与胜利街交叉口西南方向22米左右",
        "tel": "",
        "category": "基础设施:公共设施:公共厕所",
        "type": 0,
        "location": {
            "lat": 41.187906,
            "lng": 122.053184
        },
        "ad_info": {
            "adcode": 211102,
            "province": "辽宁省",
            "city": "盘锦市",
            "district": "双台子区"
        }
    },
    {
        "id": "14364182288898981805",
        "title": "公共厕所",
        "address": "辽宁省盘锦市双台子区利民路81号",
        "tel": "",
        "category": "基础设施:公共设施:公共厕所",
        "type": 0,
        "location": {
            "lat": 41.187596,
            "lng": 122.051454
        },
        "ad_info": {
            "adcode": 211102,
            "province": "辽宁省",
            "city": "盘锦市",
            "district": "双台子区"
        }
    },
    {
        "id": "14222244596171875679",
        "title": "男洗手间",
        "address": "辽宁省盘锦市兴隆台区石油大街102号鹏欣·水游城F4",
        "tel": "",
        "category": "基础设施:公共设施:男洗手间",
        "type": 0,
        "location": {
            "lat": 41.124319,
            "lng": 122.075803
        },
        "ad_info": {
            "adcode": 211103,
            "province": "辽宁省",
            "city": "盘锦市",
            "district": "兴隆台区"
        }
    },
    {
        "id": "1505798022756771442",
        "title": "公共厕所",
        "address": "辽宁省盘锦市大洼区富田大街与锦江路交叉口西南方向171米左右",
        "tel": "",
        "category": "基础设施:公共设施:公共厕所",
        "type": 0,
        "location": {
            "lat": 41.085608,
            "lng": 122.061039
        },
        "ad_info": {
            "adcode": 211104,
            "province": "辽宁省",
            "city": "盘锦市",
            "district": "大洼区"
        }
    },
    {
        "id": "15878949749593763188",
        "title": "女洗手间",
        "address": "辽宁省盘锦市兴隆台区石油大街102号鹏欣·水游城F1",
        "tel": "",
        "category": "基础设施:公共设施:女洗手间",
        "type": 0,
        "location": {
            "lat": 41.125131,
            "lng": 122.076249
        },
        "ad_info": {
            "adcode": 211103,
            "province": "辽宁省",
            "city": "盘锦市",
            "district": "兴隆台区"
        }
    },
    {
        "id": "14266193790972405058",
        "title": "公共厕所",
        "address": "辽宁省盘锦市兴隆台区海洋街与芳草路交叉口正西方向259米左右",
        "tel": "",
        "category": "基础设施:公共设施:公共厕所",
        "type": 0,
        "location": {
            "lat": 41.124917,
            "lng": 122.111903
        },
        "ad_info": {
            "adcode": 211103,
            "province": "辽宁省",
            "city": "盘锦市",
            "district": "兴隆台区"
        }
    },
    {
        "id": "6951185477481399289",
        "title": "公共厕所",
        "address": "辽宁省盘锦市双台子区城北街与新府大街交叉口东北方向150米左右",
        "tel": "",
        "category": "基础设施:公共设施:公共厕所",
        "type": 0,
        "location": {
            "lat": 41.204827,
            "lng": 122.040702
        },
        "ad_info": {
            "adcode": 211102,
            "province": "辽宁省",
            "city": "盘锦市",
            "district": "双台子区"
        }
    },
    {
        "id": "4376507666995424036",
        "title": "女洗手间",
        "address": "辽宁省盘锦市兴隆台区石油大街102号鹏欣·水游城B1",
        "tel": "",
        "category": "基础设施:公共设施:女洗手间",
        "type": 0,
        "location": {
            "lat": 41.124399,
            "lng": 122.07591
        },
        "ad_info": {
            "adcode": 211103,
            "province": "辽宁省",
            "city": "盘锦市",
            "district": "兴隆台区"
        }
    },
    {
        "id": "16290482067783322633",
        "title": "无障碍-洗手间",
        "address": "辽宁省盘锦市兴隆台区石油大街102号鹏欣·水游城B1",
        "tel": "",
        "category": "基础设施:公共设施:无障碍洗手间",
        "type": 0,
        "location": {
            "lat": 41.12452,
            "lng": 122.074983
        },
        "ad_info": {
            "adcode": 211103,
            "province": "辽宁省",
            "city": "盘锦市",
            "district": "兴隆台区"
        }
    },
    {
        "id": "14812704545798136629",
        "title": "无障碍-洗手间",
        "address": "辽宁省盘锦市兴隆台区石油大街102号鹏欣·水游城B1",
        "tel": "",
        "category": "基础设施:公共设施:无障碍洗手间",
        "type": 0,
        "location": {
            "lat": 41.124376,
            "lng": 122.075915
        },
        "ad_info": {
            "adcode": 211103,
            "province": "辽宁省",
            "city": "盘锦市",
            "district": "兴隆台区"
        }
    },
    {
        "id": "13993761830438697318",
        "title": "男洗手间",
        "address": "辽宁省盘锦市兴隆台区石油大街102号鹏欣·水游城B1",
        "tel": "",
        "category": "基础设施:公共设施:男洗手间",
        "type": 0,
        "location": {
            "lat": 41.124354,
            "lng": 122.075919
        },
        "ad_info": {
            "adcode": 211103,
            "province": "辽宁省",
            "city": "盘锦市",
            "district": "兴隆台区"
        }
    },
    {
        "id": "6684224291140476510",
        "title": "女洗手间",
        "address": "辽宁省盘锦市兴隆台区石油大街102号鹏欣·水游城F3",
        "tel": "",
        "category": "基础设施:公共设施:女洗手间",
        "type": 0,
        "location": {
            "lat": 41.124417,
            "lng": 122.074189
        },
        "ad_info": {
            "adcode": 211103,
            "province": "辽宁省",
            "city": "盘锦市",
            "district": "兴隆台区"
        }
    },
    {
        "id": "1946832825543649237",
        "title": "女洗手间",
        "address": "辽宁省盘锦市兴隆台区石油大街102号鹏欣·水游城F5",
        "tel": "",
        "category": "基础设施:公共设施:女洗手间",
        "type": 0,
        "location": {
            "lat": 41.124124,
            "lng": 122.075103
        },
        "ad_info": {
            "adcode": 211103,
            "province": "辽宁省",
            "city": "盘锦市",
            "district": "兴隆台区"
        }
    },
    {
        "id": "5479141574579008956",
        "title": "公共厕所",
        "address": "辽宁省盘锦市双台子区湖滨路与辽河中路辅路交叉口西20米",
        "tel": "",
        "category": "基础设施:公共设施:公共厕所",
        "type": 0,
        "location": {
            "lat": 41.183669,
            "lng": 122.050077
        },
        "ad_info": {
            "adcode": 211102,
            "province": "辽宁省",
            "city": "盘锦市",
            "district": "双台子区"
        }
    },
    {
        "id": "16588236994481008230",
        "title": "无障碍-洗手间",
        "address": "辽宁省盘锦市兴隆台区石油大街102号鹏欣·水游城F1",
        "tel": "",
        "category": "基础设施:公共设施:无障碍洗手间",
        "type": 0,
        "location": {
            "lat": 41.124442,
            "lng": 122.074203
        },
        "ad_info": {
            "adcode": 211103,
            "province": "辽宁省",
            "city": "盘锦市",
            "district": "兴隆台区"
        }
    },
    {
        "id": "18102815172756004936",
        "title": "无障碍-洗手间",
        "address": "辽宁省盘锦市兴隆台区石油大街102号鹏欣·水游城F2",
        "tel": "",
        "category": "基础设施:公共设施:无障碍洗手间",
        "type": 0,
        "location": {
            "lat": 41.124446,
            "lng": 122.07421
        },
        "ad_info": {
            "adcode": 211103,
            "province": "辽宁省",
            "city": "盘锦市",
            "district": "兴隆台区"
        }
    },
    {
        "id": "14806474118021388721",
        "title": "公共厕所",
        "address": "辽宁省盘锦市兴隆台区兴四街钻井批发市场",
        "tel": "",
        "category": "基础设施:公共设施:公共厕所",
        "type": 0,
        "location": {
            "lat": 41.126411,
            "lng": 122.074935
        },
        "ad_info": {
            "adcode": 211103,
            "province": "辽宁省",
            "city": "盘锦市",
            "district": "兴隆台区"
        }
    },
    {
        "id": "11676746402090717532",
        "title": "公共厕所",
        "address": "辽宁省盘锦市兴隆台区兴油街与钻福路交叉口正北方向242米左右",
        "tel": "",
        "category": "基础设施:公共设施:公共厕所",
        "type": 0,
        "location": {
            "lat": 41.13915,
            "lng": 122.076972
        },
        "ad_info": {
            "adcode": 211103,
            "province": "辽宁省",
            "city": "盘锦市",
            "district": "兴隆台区"
        }
    },
    {
        "id": "2482906247671211753",
        "title": "男洗手间",
        "address": "辽宁省盘锦市兴隆台区石油大街102号鹏欣·水游城F1",
        "tel": "",
        "category": "基础设施:公共设施:男洗手间",
        "type": 0,
        "location": {
            "lat": 41.124467,
            "lng": 122.074197
        },
        "ad_info": {
            "adcode": 211103,
            "province": "辽宁省",
            "city": "盘锦市",
            "district": "兴隆台区"
        }
    },
    {
        "id": "11274439218839109567",
        "title": "男洗手间",
        "address": "辽宁省盘锦市兴隆台区石油大街102号鹏欣·水游城F2",
        "tel": "",
        "category": "基础设施:公共设施:男洗手间",
        "type": 0,
        "location": {
            "lat": 41.124298,
            "lng": 122.075818
        },
        "ad_info": {
            "adcode": 211103,
            "province": "辽宁省",
            "city": "盘锦市",
            "district": "兴隆台区"
        }
    },
    {
        "id": "9549409381936230498",
        "title": "公共厕所",
        "address": "辽宁省盘锦市兴隆台区曙八支附近",
        "tel": "",
        "category": "基础设施:公共设施:公共厕所",
        "type": 0,
        "location": {
            "lat": 41.120551,
            "lng": 121.829243
        },
        "ad_info": {
            "adcode": 211103,
            "province": "辽宁省",
            "city": "盘锦市",
            "district": "兴隆台区"
        }
    },
    {
        "id": "12946514350687771928",
        "title": "公共厕所",
        "address": "辽宁省盘锦市大洼区S211与中心街交叉口正北方向248米左右",
        "tel": "",
        "category": "基础设施:公共设施:公共厕所",
        "type": 0,
        "location": {
            "lat": 40.8353,
            "lng": 122.134624
        },
        "ad_info": {
            "adcode": 211104,
            "province": "辽宁省",
            "city": "盘锦市",
            "district": "大洼区"
        }
    },
    {
        "id": "12319229682825983084",
        "title": "公共厕所",
        "address": "辽宁省盘锦市盘山县S210与曹韩线交叉口西南方向399米左右",
        "tel": "",
        "category": "基础设施:公共设施:公共厕所",
        "type": 0,
        "location": {
            "lat": 41.309517,
            "lng": 122.1892
        },
        "ad_info": {
            "adcode": 211122,
            "province": "辽宁省",
            "city": "盘锦市",
            "district": "盘山县"
        }
    },
    {
        "id": "17119471226733989679",
        "title": "公共厕所",
        "address": "辽宁省盘锦市双台子区湖滨路与胜利街交叉口西南方向177米左右",
        "tel": "",
        "category": "基础设施:公共设施:公共厕所",
        "type": 0,
        "location": {
            "lat": 41.184416,
            "lng": 122.042033
        },
        "ad_info": {
            "adcode": 211102,
            "province": "辽宁省",
            "city": "盘锦市",
            "district": "双台子区"
        }
    },
    {
        "id": "13957880027235747601",
        "title": "公共厕所",
        "address": "辽宁省盘锦市大洼区平安街与泰山中路交叉口正北方向637米左右",
        "tel": "",
        "category": "基础设施:公共设施:公共厕所",
        "type": 0,
        "location": {
            "lat": 40.958052,
            "lng": 122.068656
        },
        "ad_info": {
            "adcode": 211104,
            "province": "辽宁省",
            "city": "盘锦市",
            "district": "大洼区"
        }
    },
    {
        "id": "10812139602599126078",
        "title": "公共厕所",
        "address": "辽宁省盘锦市双台子区振兴街与林丰路交叉口正东方向544米左右",
        "tel": "",
        "category": "基础设施:公共设施:公共厕所",
        "type": 0,
        "location": {
            "lat": 41.207682,
            "lng": 122.0861
        },
        "ad_info": {
            "adcode": 211102,
            "province": "辽宁省",
            "city": "盘锦市",
            "district": "双台子区"
        }
    },
    {
        "id": "6319322401624454671",
        "title": "公共厕所",
        "address": "辽宁省盘锦市兴隆台区恒泰西街与辽河中路交叉口西北方向53米左右",
        "tel": "",
        "category": "基础设施:公共设施:公共厕所",
        "type": 0,
        "location": {
            "lat": 41.158885,
            "lng": 122.049799
        },
        "ad_info": {
            "adcode": 211103,
            "province": "辽宁省",
            "city": "盘锦市",
            "district": "兴隆台区"
        }
    },
    {
        "id": "5660771807990318078",
        "title": "公共厕所",
        "address": "辽宁省盘锦市大洼区平安镇卫生院东北侧",
        "tel": "",
        "category": "基础设施:公共设施:公共厕所",
        "type": 0,
        "location": {
            "lat": 40.875357,
            "lng": 122.173159
        },
        "ad_info": {
            "adcode": 211104,
            "province": "辽宁省",
            "city": "盘锦市",
            "district": "大洼区"
        }
    },
    {
        "id": "7567582485151344060",
        "title": "公共厕所",
        "address": "辽宁省盘锦市大洼区新荣线与鹤吉街交叉口正北方向286米左右",
        "tel": "",
        "category": "基础设施:公共设施:公共厕所",
        "type": 0,
        "location": {
            "lat": 40.972873,
            "lng": 121.977869
        },
        "ad_info": {
            "adcode": 211104,
            "province": "辽宁省",
            "city": "盘锦市",
            "district": "大洼区"
        }
    },
    {
        "id": "943048866947520692",
        "title": "公共厕所",
        "address": "辽宁省盘锦市大洼区盘锦职业技术学院石油化工系西侧170米",
        "tel": "",
        "category": "基础设施:公共设施:公共厕所",
        "type": 0,
        "location": {
            "lat": 40.727366,
            "lng": 122.104484
        },
        "ad_info": {
            "adcode": 211104,
            "province": "辽宁省",
            "city": "盘锦市",
            "district": "大洼区"
        }
    },
    {
        "id": "4213712317322821742",
        "title": "公共厕所",
        "address": "辽宁省盘锦市大洼区建设街与泰山中路交叉口正西方向229米左右",
        "tel": "",
        "category": "基础设施:公共设施:公共厕所",
        "type": 0,
        "location": {
            "lat": 40.992652,
            "lng": 122.062918
        },
        "ad_info": {
            "adcode": 211104,
            "province": "辽宁省",
            "city": "盘锦市",
            "district": "大洼区"
        }
    },
    {
        "id": "3569718403067871365",
        "title": "盘锦服务区公共厕所",
        "address": "辽宁省盘锦市盘山县府北大街与钦江路交叉口正南方向348米左右",
        "tel": "",
        "category": "基础设施:公共设施:公共厕所",
        "type": 0,
        "location": {
            "lat": 41.244998,
            "lng": 121.956906
        },
        "ad_info": {
            "adcode": 211122,
            "province": "辽宁省",
            "city": "盘锦市",
            "district": "盘山县"
        }
    },
    {
        "id": "3365295600845262964",
        "title": "公共厕所",
        "address": "辽宁省盘锦市双台子区辽河中路与辽河北路交叉口西北方向97米左右",
        "tel": "",
        "category": "基础设施:公共设施:公共厕所",
        "type": 0,
        "location": {
            "lat": 41.183786,
            "lng": 122.049807
        },
        "ad_info": {
            "adcode": 211102,
            "province": "辽宁省",
            "city": "盘锦市",
            "district": "双台子区"
        }
    },
    {
        "id": "14248107887206843535",
        "title": "公共厕所",
        "address": "辽宁省盘锦市大洼区乐园街与顺达路交叉口东南方向64米左右",
        "tel": "",
        "category": "基础设施:公共设施:公共厕所",
        "type": 0,
        "location": {
            "lat": 40.836758,
            "lng": 122.137702
        },
        "ad_info": {
            "adcode": 211104,
            "province": "辽宁省",
            "city": "盘锦市",
            "district": "大洼区"
        }
    },
    {
        "id": "5331669198216400498",
        "title": "公共厕所",
        "address": "辽宁省盘锦市大洼区安逸街与顺达路交叉口正东方向112米左右",
        "tel": "",
        "category": "基础设施:公共设施:公共厕所",
        "type": 0,
        "location": {
            "lat": 40.834955,
            "lng": 122.139251
        },
        "ad_info": {
            "adcode": 211104,
            "province": "辽宁省",
            "city": "盘锦市",
            "district": "大洼区"
        }
    },
    {
        "id": "17709363635423078087",
        "title": "公共厕所",
        "address": "辽宁省盘锦市双台子区东风东街与曙光路交叉口正北方向93米左右",
        "tel": "",
        "category": "基础设施:公共设施:公共厕所",
        "type": 0,
        "location": {
            "lat": 41.195847,
            "lng": 122.073204
        },
        "ad_info": {
            "adcode": 211102,
            "province": "辽宁省",
            "city": "盘锦市",
            "district": "双台子区"
        }
    },
    {
        "id": "9337850431400978178",
        "title": "公共厕所",
        "address": "辽宁省盘锦市双台子区东油大院巷与向阳街交叉口西南方向166米左右",
        "tel": "",
        "category": "基础设施:公共设施:公共厕所",
        "type": 0,
        "location": {
            "lat": 41.196283,
            "lng": 122.04343
        },
        "ad_info": {
            "adcode": 211102,
            "province": "辽宁省",
            "city": "盘锦市",
            "district": "双台子区"
        }
    },
    {
        "id": "10720590900680224459",
        "title": "公共厕所",
        "address": "辽宁省盘锦市双台子区长征街盘锦市中心医院(妇产院区)",
        "tel": "",
        "category": "基础设施:公共设施:公共厕所",
        "type": 0,
        "location": {
            "lat": 41.201072,
            "lng": 122.046057
        },
        "ad_info": {
            "adcode": 211102,
            "province": "辽宁省",
            "city": "盘锦市",
            "district": "双台子区"
        }
    },
    {
        "id": "8676818390259758879",
        "title": "公共厕所",
        "address": "辽宁省盘锦市兴隆台区玉龙养殖场北侧80米",
        "tel": "",
        "category": "基础设施:公共设施:公共厕所",
        "type": 0,
        "location": {
            "lat": 41.194937,
            "lng": 121.899102
        },
        "ad_info": {
            "adcode": 211103,
            "province": "辽宁省",
            "city": "盘锦市",
            "district": "兴隆台区"
        }
    },
    {
        "id": "13578511067035004373",
        "title": "公共厕所",
        "address": "辽宁省盘锦市双台子区东风东街与林丰路交叉口西南方向131米左右",
        "tel": "",
        "category": "基础设施:公共设施:公共厕所",
        "type": 0,
        "location": {
            "lat": 41.202755,
            "lng": 122.080534
        },
        "ad_info": {
            "adcode": 211102,
            "province": "辽宁省",
            "city": "盘锦市",
            "district": "双台子区"
        }
    },
    {
        "id": "15683333998152903941",
        "title": "辽河服务区公共厕所",
        "address": "辽宁省盘锦市大洼区西安镇丹锡高速公路辽河服务区",
        "tel": "",
        "category": "基础设施:公共设施:公共厕所",
        "type": 0,
        "location": {
            "lat": 40.910295,
            "lng": 122.266586
        },
        "ad_info": {
            "adcode": 211104,
            "province": "辽宁省",
            "city": "盘锦市",
            "district": "大洼区"
        }
    },
    {
        "id": "13104590593956618522",
        "title": "公共厕所",
        "address": "辽宁省盘锦市大洼区商业街与商盛巷交叉口正西方向218米左右",
        "tel": "",
        "category": "基础设施:公共设施:公共厕所",
        "type": 0,
        "location": {
            "lat": 40.995574,
            "lng": 122.057763
        },
        "ad_info": {
            "adcode": 211104,
            "province": "辽宁省",
            "city": "盘锦市",
            "district": "大洼区"
        }
    },
    {
        "id": "11765699774357311838",
        "title": "洗手间",
        "address": "辽宁省盘锦市双台子区延湖路与红旗大街交叉口东南方向165米左右",
        "tel": "",
        "category": "基础设施:公共设施:公共厕所",
        "type": 0,
        "location": {
            "lat": 41.191846,
            "lng": 122.034956
        },
        "ad_info": {
            "adcode": 211102,
            "province": "辽宁省",
            "city": "盘锦市",
            "district": "双台子区"
        }
    },
    {
        "id": "11485942246431731795",
        "title": "公共卫生间",
        "address": "辽宁省盘锦市盘山县井下路与府北大街交叉口东北方向48米左右",
        "tel": "",
        "category": "基础设施:公共设施:公共厕所",
        "type": 0,
        "location": {
            "lat": 41.244977,
            "lng": 121.986269
        },
        "ad_info": {
            "adcode": 211122,
            "province": "辽宁省",
            "city": "盘锦市",
            "district": "盘山县"
        }
    },
    {
        "id": "459236347840265108",
        "title": "公共厕所",
        "address": "辽宁省盘锦市大洼区利民路与金源街交叉口正北方向78米左右",
        "tel": "",
        "category": "基础设施:公共设施:公共厕所",
        "type": 0,
        "location": {
            "lat": 40.988606,
            "lng": 122.07737
        },
        "ad_info": {
            "adcode": 211104,
            "province": "辽宁省",
            "city": "盘锦市",
            "district": "大洼区"
        }
    },
    {
        "id": "4165497316858985864",
        "title": "公共厕所",
        "address": "辽宁省盘锦市兴隆台区彩霞巷与泰山北路辅路交叉口正东方向227米左右",
        "tel": "",
        "category": "基础设施:公共设施:公共厕所",
        "type": 0,
        "location": {
            "lat": 41.092956,
            "lng": 122.074552
        },
        "ad_info": {
            "adcode": 211103,
            "province": "辽宁省",
            "city": "盘锦市",
            "district": "兴隆台区"
        }
    },
    {
        "id": "13279815991939474146",
        "title": "公共厕所",
        "address": "辽宁省盘锦市大洼区S211与中心街交叉口正北方向175米左右",
        "tel": "",
        "category": "基础设施:公共设施:公共厕所",
        "type": 0,
        "location": {
            "lat": 40.834579,
            "lng": 122.135034
        },
        "ad_info": {
            "adcode": 211104,
            "province": "辽宁省",
            "city": "盘锦市",
            "district": "大洼区"
        }
    },
    {
        "id": "5660771807990318078",
        "title": "公共厕所",
        "address": "辽宁省盘锦市大洼区平安镇卫生院东北侧",
        "tel": "",
        "category": "基础设施:公共设施:公共厕所",
        "type": 0,
        "location": {
            "lat": 40.875357,
            "lng": 122.173159
        },
        "ad_info": {
            "adcode": 211104,
            "province": "辽宁省",
            "city": "盘锦市",
            "district": "大洼区"
        }
    },
    {
        "id": "7567582485151344060",
        "title": "公共厕所",
        "address": "辽宁省盘锦市大洼区新荣线与鹤吉街交叉口正北方向286米左右",
        "tel": "",
        "category": "基础设施:公共设施:公共厕所",
        "type": 0,
        "location": {
            "lat": 40.972873,
            "lng": 121.977869
        },
        "ad_info": {
            "adcode": 211104,
            "province": "辽宁省",
            "city": "盘锦市",
            "district": "大洼区"
        }
    },
    {
        "id": "943048866947520692",
        "title": "公共厕所",
        "address": "辽宁省盘锦市大洼区盘锦职业技术学院石油化工系西侧170米",
        "tel": "",
        "category": "基础设施:公共设施:公共厕所",
        "type": 0,
        "location": {
            "lat": 40.727366,
            "lng": 122.104484
        },
        "ad_info": {
            "adcode": 211104,
            "province": "辽宁省",
            "city": "盘锦市",
            "district": "大洼区"
        }
    },
    {
        "id": "4213712317322821742",
        "title": "公共厕所",
        "address": "辽宁省盘锦市大洼区建设街与泰山中路交叉口正西方向229米左右",
        "tel": "",
        "category": "基础设施:公共设施:公共厕所",
        "type": 0,
        "location": {
            "lat": 40.992652,
            "lng": 122.062918
        },
        "ad_info": {
            "adcode": 211104,
            "province": "辽宁省",
            "city": "盘锦市",
            "district": "大洼区"
        }
    },
    {
        "id": "3569718403067871365",
        "title": "盘锦服务区公共厕所",
        "address": "辽宁省盘锦市盘山县府北大街与钦江路交叉口正南方向348米左右",
        "tel": "",
        "category": "基础设施:公共设施:公共厕所",
        "type": 0,
        "location": {
            "lat": 41.244998,
            "lng": 121.956906
        },
        "ad_info": {
            "adcode": 211122,
            "province": "辽宁省",
            "city": "盘锦市",
            "district": "盘山县"
        }
    },
    {
        "id": "3365295600845262964",
        "title": "公共厕所",
        "address": "辽宁省盘锦市双台子区辽河中路与辽河北路交叉口西北方向97米左右",
        "tel": "",
        "category": "基础设施:公共设施:公共厕所",
        "type": 0,
        "location": {
            "lat": 41.183786,
            "lng": 122.049807
        },
        "ad_info": {
            "adcode": 211102,
            "province": "辽宁省",
            "city": "盘锦市",
            "district": "双台子区"
        }
    },
    {
        "id": "14248107887206843535",
        "title": "公共厕所",
        "address": "辽宁省盘锦市大洼区乐园街与顺达路交叉口东南方向64米左右",
        "tel": "",
        "category": "基础设施:公共设施:公共厕所",
        "type": 0,
        "location": {
            "lat": 40.836758,
            "lng": 122.137702
        },
        "ad_info": {
            "adcode": 211104,
            "province": "辽宁省",
            "city": "盘锦市",
            "district": "大洼区"
        }
    },
    {
        "id": "5331669198216400498",
        "title": "公共厕所",
        "address": "辽宁省盘锦市大洼区安逸街与顺达路交叉口正东方向112米左右",
        "tel": "",
        "category": "基础设施:公共设施:公共厕所",
        "type": 0,
        "location": {
            "lat": 40.834955,
            "lng": 122.139251
        },
        "ad_info": {
            "adcode": 211104,
            "province": "辽宁省",
            "city": "盘锦市",
            "district": "大洼区"
        }
    },
    {
        "id": "17709363635423078087",
        "title": "公共厕所",
        "address": "辽宁省盘锦市双台子区东风东街与曙光路交叉口正北方向93米左右",
        "tel": "",
        "category": "基础设施:公共设施:公共厕所",
        "type": 0,
        "location": {
            "lat": 41.195847,
            "lng": 122.073204
        },
        "ad_info": {
            "adcode": 211102,
            "province": "辽宁省",
            "city": "盘锦市",
            "district": "双台子区"
        }
    },
    {
        "id": "9337850431400978178",
        "title": "公共厕所",
        "address": "辽宁省盘锦市双台子区东油大院巷与向阳街交叉口西南方向166米左右",
        "tel": "",
        "category": "基础设施:公共设施:公共厕所",
        "type": 0,
        "location": {
            "lat": 41.196283,
            "lng": 122.04343
        },
        "ad_info": {
            "adcode": 211102,
            "province": "辽宁省",
            "city": "盘锦市",
            "district": "双台子区"
        }
    },
    {
        "id": "10720590900680224459",
        "title": "公共厕所",
        "address": "辽宁省盘锦市双台子区长征街盘锦市中心医院(妇产院区)",
        "tel": "",
        "category": "基础设施:公共设施:公共厕所",
        "type": 0,
        "location": {
            "lat": 41.201072,
            "lng": 122.046057
        },
        "ad_info": {
            "adcode": 211102,
            "province": "辽宁省",
            "city": "盘锦市",
            "district": "双台子区"
        }
    },
    {
        "id": "8676818390259758879",
        "title": "公共厕所",
        "address": "辽宁省盘锦市兴隆台区玉龙养殖场北侧80米",
        "tel": "",
        "category": "基础设施:公共设施:公共厕所",
        "type": 0,
        "location": {
            "lat": 41.194937,
            "lng": 121.899102
        },
        "ad_info": {
            "adcode": 211103,
            "province": "辽宁省",
            "city": "盘锦市",
            "district": "兴隆台区"
        }
    },
    {
        "id": "13578511067035004373",
        "title": "公共厕所",
        "address": "辽宁省盘锦市双台子区东风东街与林丰路交叉口西南方向131米左右",
        "tel": "",
        "category": "基础设施:公共设施:公共厕所",
        "type": 0,
        "location": {
            "lat": 41.202755,
            "lng": 122.080534
        },
        "ad_info": {
            "adcode": 211102,
            "province": "辽宁省",
            "city": "盘锦市",
            "district": "双台子区"
        }
    },
    {
        "id": "15683333998152903941",
        "title": "辽河服务区公共厕所",
        "address": "辽宁省盘锦市大洼区西安镇丹锡高速公路辽河服务区",
        "tel": "",
        "category": "基础设施:公共设施:公共厕所",
        "type": 0,
        "location": {
            "lat": 40.910295,
            "lng": 122.266586
        },
        "ad_info": {
            "adcode": 211104,
            "province": "辽宁省",
            "city": "盘锦市",
            "district": "大洼区"
        }
    },
    {
        "id": "13104590593956618522",
        "title": "公共厕所",
        "address": "辽宁省盘锦市大洼区商业街与商盛巷交叉口正西方向218米左右",
        "tel": "",
        "category": "基础设施:公共设施:公共厕所",
        "type": 0,
        "location": {
            "lat": 40.995574,
            "lng": 122.057763
        },
        "ad_info": {
            "adcode": 211104,
            "province": "辽宁省",
            "city": "盘锦市",
            "district": "大洼区"
        }
    },
    {
        "id": "11765699774357311838",
        "title": "洗手间",
        "address": "辽宁省盘锦市双台子区延湖路与红旗大街交叉口东南方向165米左右",
        "tel": "",
        "category": "基础设施:公共设施:公共厕所",
        "type": 0,
        "location": {
            "lat": 41.191846,
            "lng": 122.034956
        },
        "ad_info": {
            "adcode": 211102,
            "province": "辽宁省",
            "city": "盘锦市",
            "district": "双台子区"
        }
    },
    {
        "id": "11485942246431731795",
        "title": "公共卫生间",
        "address": "辽宁省盘锦市盘山县井下路与府北大街交叉口东北方向48米左右",
        "tel": "",
        "category": "基础设施:公共设施:公共厕所",
        "type": 0,
        "location": {
            "lat": 41.244977,
            "lng": 121.986269
        },
        "ad_info": {
            "adcode": 211122,
            "province": "辽宁省",
            "city": "盘锦市",
            "district": "盘山县"
        }
    },
    {
        "id": "459236347840265108",
        "title": "公共厕所",
        "address": "辽宁省盘锦市大洼区利民路与金源街交叉口正北方向78米左右",
        "tel": "",
        "category": "基础设施:公共设施:公共厕所",
        "type": 0,
        "location": {
            "lat": 40.988606,
            "lng": 122.07737
        },
        "ad_info": {
            "adcode": 211104,
            "province": "辽宁省",
            "city": "盘锦市",
            "district": "大洼区"
        }
    },
    {
        "id": "4165497316858985864",
        "title": "公共厕所",
        "address": "辽宁省盘锦市兴隆台区彩霞巷与泰山北路辅路交叉口正东方向227米左右",
        "tel": "",
        "category": "基础设施:公共设施:公共厕所",
        "type": 0,
        "location": {
            "lat": 41.092956,
            "lng": 122.074552
        },
        "ad_info": {
            "adcode": 211103,
            "province": "辽宁省",
            "city": "盘锦市",
            "district": "兴隆台区"
        }
    },
    {
        "id": "13279815991939474146",
        "title": "公共厕所",
        "address": "辽宁省盘锦市大洼区S211与中心街交叉口正北方向175米左右",
        "tel": "",
        "category": "基础设施:公共设施:公共厕所",
        "type": 0,
        "location": {
            "lat": 40.834579,
            "lng": 122.135034
        },
        "ad_info": {
            "adcode": 211104,
            "province": "辽宁省",
            "city": "盘锦市",
            "district": "大洼区"
        }
    }
]