[
    {
        "id": "2372314094883987518",
        "title": "公共厕所(眉山城市湿地公园B)",
        "address": "四川省眉山市东坡区子瞻大道9号",
        "tel": "",
        "category": "基础设施:公共设施:公共厕所",
        "type": 0,
        "location": {
            "lat": 30.055057,
            "lng": 103.858136
        },
        "ad_info": {
            "adcode": 511402,
            "province": "四川省",
            "city": "眉山市",
            "district": "东坡区"
        }
    },
    {
        "id": "16244071500557605235",
        "title": "公共厕所",
        "address": "四川省眉山市东坡区眉州大道东三段与眉州大道东四段交叉口正东方向191米左右",
        "tel": "",
        "category": "基础设施:公共设施:公共厕所",
        "type": 0,
        "location": {
            "lat": 30.075693,
            "lng": 103.870911
        },
        "ad_info": {
            "adcode": 511402,
            "province": "四川省",
            "city": "眉山市",
            "district": "东坡区"
        }
    },
    {
        "id": "3072391692907214472",
        "title": "公共厕所",
        "address": "四川省眉山市东坡区文安路东段与文安路东三段交叉口正东方向106米左右",
        "tel": "",
        "category": "基础设施:公共设施:公共厕所",
        "type": 0,
        "location": {
            "lat": 30.071259,
            "lng": 103.867069
        },
        "ad_info": {
            "adcode": 511402,
            "province": "四川省",
            "city": "眉山市",
            "district": "东坡区"
        }
    },
    {
        "id": "901403213298970207",
        "title": "公共厕所",
        "address": "四川省眉山市东坡区湖滨路南一段与湖滨路南二段交叉口正南方向58米左右",
        "tel": "",
        "category": "基础设施:公共设施:公共厕所",
        "type": 0,
        "location": {
            "lat": 30.062349,
            "lng": 103.852872
        },
        "ad_info": {
            "adcode": 511402,
            "province": "四川省",
            "city": "眉山市",
            "district": "东坡区"
        }
    },
    {
        "id": "2032586172571272810",
        "title": "公共厕所",
        "address": "四川省眉山市洪雅县修文路五段与修文路四段交叉口东北方向122米左右",
        "tel": "",
        "category": "基础设施:公共设施:公共厕所",
        "type": 0,
        "location": {
            "lat": 29.909849,
            "lng": 103.364956
        },
        "ad_info": {
            "adcode": 511423,
            "province": "四川省",
            "city": "眉山市",
            "district": "洪雅县"
        }
    },
    {
        "id": "5548463743436001938",
        "title": "公共卫生间",
        "address": "四川省眉山市东坡区环湖西路与诗书路中段交叉口南20米",
        "tel": "",
        "category": "基础设施:公共设施:公共厕所",
        "type": 0,
        "location": {
            "lat": 30.046936,
            "lng": 103.832134
        },
        "ad_info": {
            "adcode": 511402,
            "province": "四川省",
            "city": "眉山市",
            "district": "东坡区"
        }
    },
    {
        "id": "14975023263733986158",
        "title": "公共厕所",
        "address": "四川省眉山市洪雅县樱花巷与洪州大道交叉口西北方向81米左右",
        "tel": "",
        "category": "基础设施:公共设施:公共厕所",
        "type": 0,
        "location": {
            "lat": 29.903516,
            "lng": 103.362965
        },
        "ad_info": {
            "adcode": 511423,
            "province": "四川省",
            "city": "眉山市",
            "district": "洪雅县"
        }
    },
    {
        "id": "16714495474907409665",
        "title": "公共厕所",
        "address": "四川省眉山市东坡区文安路西二段与文忠街交叉口正东方向115米左右",
        "tel": "",
        "category": "基础设施:公共设施:公共厕所",
        "type": 0,
        "location": {
            "lat": 30.069105,
            "lng": 103.839244
        },
        "ad_info": {
            "adcode": 511402,
            "province": "四川省",
            "city": "眉山市",
            "district": "东坡区"
        }
    },
    {
        "id": "11203472400261979945",
        "title": "公共厕所",
        "address": "四川省眉山市东坡区兴隆街与珠市西街交叉口正南方向30米左右",
        "tel": "",
        "category": "基础设施:公共设施:公共厕所",
        "type": 0,
        "location": {
            "lat": 30.047943,
            "lng": 103.836688
        },
        "ad_info": {
            "adcode": 511402,
            "province": "四川省",
            "city": "眉山市",
            "district": "东坡区"
        }
    },
    {
        "id": "14459233202618006553",
        "title": "公共厕所",
        "address": "四川省眉山市东坡区三苏大道西段与铁环路交叉口正西方向113米左右",
        "tel": "",
        "category": "基础设施:公共设施:公共厕所",
        "type": 0,
        "location": {
            "lat": 30.063842,
            "lng": 103.813511
        },
        "ad_info": {
            "adcode": 511402,
            "province": "四川省",
            "city": "眉山市",
            "district": "东坡区"
        }
    },
    {
        "id": "3633175133839324046",
        "title": "公共厕所",
        "address": "四川省眉山市东坡区秋岚东街翰林红馆",
        "tel": "",
        "category": "基础设施:公共设施:公共厕所",
        "type": 0,
        "location": {
            "lat": 30.06246,
            "lng": 103.829738
        },
        "ad_info": {
            "adcode": 511402,
            "province": "四川省",
            "city": "眉山市",
            "district": "东坡区"
        }
    },
    {
        "id": "6388114379824384105",
        "title": "公共厕所",
        "address": "四川省眉山市东坡区小香港步行街c栋2层",
        "tel": "",
        "category": "基础设施:公共设施:公共厕所",
        "type": 0,
        "location": {
            "lat": 30.042688,
            "lng": 103.833793
        },
        "ad_info": {
            "adcode": 511402,
            "province": "四川省",
            "city": "眉山市",
            "district": "东坡区"
        }
    },
    {
        "id": "6614314975616469892",
        "title": "公共厕所",
        "address": "四川省眉山市洪雅县Y604与光明路交叉口东南方向1076米左右",
        "tel": "",
        "category": "基础设施:公共设施:公共厕所",
        "type": 0,
        "location": {
            "lat": 29.591908,
            "lng": 103.22881
        },
        "ad_info": {
            "adcode": 511423,
            "province": "四川省",
            "city": "眉山市",
            "district": "洪雅县"
        }
    },
    {
        "id": "2525373598045279051",
        "title": "公共厕所",
        "address": "四川省眉山市洪雅县中山北路与修文路五段交叉口西北方向142米左右",
        "tel": "",
        "category": "基础设施:公共设施:公共厕所",
        "type": 0,
        "location": {
            "lat": 29.910643,
            "lng": 103.359584
        },
        "ad_info": {
            "adcode": 511423,
            "province": "四川省",
            "city": "眉山市",
            "district": "洪雅县"
        }
    },
    {
        "id": "16873051260048798124",
        "title": "公共厕所",
        "address": "四川省眉山市仁寿县人民广场与文林路一段交叉口西南方向61米左右",
        "tel": "",
        "category": "基础设施:公共设施:公共厕所",
        "type": 0,
        "location": {
            "lat": 29.995063,
            "lng": 104.133541
        },
        "ad_info": {
            "adcode": 511421,
            "province": "四川省",
            "city": "眉山市",
            "district": "仁寿县"
        }
    },
    {
        "id": "5207465071069803288",
        "title": "公共厕所",
        "address": "四川省眉山市东坡区登州路与诗书路中一段交叉口正南方向123米左右",
        "tel": "",
        "category": "基础设施:公共设施:公共厕所",
        "type": 0,
        "location": {
            "lat": 30.05417,
            "lng": 103.841865
        },
        "ad_info": {
            "adcode": 511402,
            "province": "四川省",
            "city": "眉山市",
            "district": "东坡区"
        }
    },
    {
        "id": "13182314405635568852",
        "title": "公共厕所",
        "address": "四川省眉山市洪雅县珙桐街与瓦屋山大道交叉口正北方向249米左右",
        "tel": "",
        "category": "基础设施:公共设施:公共厕所",
        "type": 0,
        "location": {
            "lat": 29.639242,
            "lng": 103.087433
        },
        "ad_info": {
            "adcode": 511423,
            "province": "四川省",
            "city": "眉山市",
            "district": "洪雅县"
        }
    },
    {
        "id": "8462618768747512165",
        "title": "公共厕所",
        "address": "四川省眉山市东坡区文安路西二段与长庚街交叉口正东方向36米左右",
        "tel": "",
        "category": "基础设施:公共设施:公共厕所",
        "type": 0,
        "location": {
            "lat": 30.068546,
            "lng": 103.841609
        },
        "ad_info": {
            "adcode": 511402,
            "province": "四川省",
            "city": "眉山市",
            "district": "东坡区"
        }
    },
    {
        "id": "5158054428661344035",
        "title": "公共厕所",
        "address": "四川省眉山市东坡区鸿化驿站",
        "tel": "",
        "category": "基础设施:公共设施:公共厕所",
        "type": 0,
        "location": {
            "lat": 29.923464,
            "lng": 103.792714
        },
        "ad_info": {
            "adcode": 511402,
            "province": "四川省",
            "city": "眉山市",
            "district": "东坡区"
        }
    },
    {
        "id": "17649706012604460138",
        "title": "公共厕所",
        "address": "四川省眉山市东坡区正西街13号",
        "tel": "",
        "category": "基础设施:公共设施:公共厕所",
        "type": 0,
        "location": {
            "lat": 30.041639,
            "lng": 103.837452
        },
        "ad_info": {
            "adcode": 511402,
            "province": "四川省",
            "city": "眉山市",
            "district": "东坡区"
        }
    },
    {
        "id": "12334705484299131956",
        "title": "公共厕所",
        "address": "四川省眉山市东坡区裴城路与铁环东路交叉口正西方向44米左右",
        "tel": "",
        "category": "基础设施:公共设施:公共厕所",
        "type": 0,
        "location": {
            "lat": 30.068501,
            "lng": 103.821282
        },
        "ad_info": {
            "adcode": 511402,
            "province": "四川省",
            "city": "眉山市",
            "district": "东坡区"
        }
    },
    {
        "id": "11513635225596109844",
        "title": "公共厕所",
        "address": "四川省眉山市东坡区安和街12,14号",
        "tel": "",
        "category": "基础设施:公共设施:公共厕所",
        "type": 0,
        "location": {
            "lat": 30.065519,
            "lng": 103.859645
        },
        "ad_info": {
            "adcode": 511402,
            "province": "四川省",
            "city": "眉山市",
            "district": "东坡区"
        }
    },
    {
        "id": "1608206931427807764",
        "title": "公共厕所",
        "address": "四川省眉山市东坡区一环南路与连鳌街交叉口正南方向36米左右",
        "tel": "",
        "category": "基础设施:公共设施:公共厕所",
        "type": 0,
        "location": {
            "lat": 30.035131,
            "lng": 103.825411
        },
        "ad_info": {
            "adcode": 511402,
            "province": "四川省",
            "city": "眉山市",
            "district": "东坡区"
        }
    },
    {
        "id": "15355575795885394162",
        "title": "公共厕所",
        "address": "四川省眉山市仁寿县X183与X185交叉口西南方向79米左右",
        "tel": "",
        "category": "基础设施:公共设施:公共厕所",
        "type": 0,
        "location": {
            "lat": 30.08859,
            "lng": 104.257953
        },
        "ad_info": {
            "adcode": 511421,
            "province": "四川省",
            "city": "眉山市",
            "district": "仁寿县"
        }
    },
    {
        "id": "13167961947185320434",
        "title": "公共厕所",
        "address": "四川省眉山市东坡区湖滨路1号",
        "tel": "",
        "category": "基础设施:公共设施:公共厕所",
        "type": 0,
        "location": {
            "lat": 30.05429,
            "lng": 103.85319
        },
        "ad_info": {
            "adcode": 511402,
            "province": "四川省",
            "city": "眉山市",
            "district": "东坡区"
        }
    },
    {
        "id": "5913184443930260834",
        "title": "公共厕所",
        "address": "四川省眉山市仁寿县奎星街与柳树街交叉口东北方向68米左右",
        "tel": "",
        "category": "基础设施:公共设施:公共厕所",
        "type": 0,
        "location": {
            "lat": 29.993751,
            "lng": 104.139612
        },
        "ad_info": {
            "adcode": 511421,
            "province": "四川省",
            "city": "眉山市",
            "district": "仁寿县"
        }
    },
    {
        "id": "9555572839798005806",
        "title": "公共厕所",
        "address": "四川省眉山市东坡区通义路阳光音乐广场(西南角)",
        "tel": "",
        "category": "基础设施:公共设施:公共厕所",
        "type": 0,
        "location": {
            "lat": 30.059669,
            "lng": 103.832664
        },
        "ad_info": {
            "adcode": 511402,
            "province": "四川省",
            "city": "眉山市",
            "district": "东坡区"
        }
    },
    {
        "id": "15279287647100805073",
        "title": "公共厕所",
        "address": "四川省眉山市东坡区G245与太和大道交叉口正南方向296米左右",
        "tel": "",
        "category": "基础设施:公共设施:公共厕所",
        "type": 0,
        "location": {
            "lat": 30.127604,
            "lng": 103.85766
        },
        "ad_info": {
            "adcode": 511402,
            "province": "四川省",
            "city": "眉山市",
            "district": "东坡区"
        }
    },
    {
        "id": "12474419063830896112",
        "title": "公共厕所",
        "address": "四川省眉山市洪雅县珙桐街与瓦屋山大道交叉口正东方向35米左右",
        "tel": "",
        "category": "基础设施:公共设施:公共厕所",
        "type": 0,
        "location": {
            "lat": 29.637105,
            "lng": 103.088409
        },
        "ad_info": {
            "adcode": 511423,
            "province": "四川省",
            "city": "眉山市",
            "district": "洪雅县"
        }
    },
    {
        "id": "18159946552478266667",
        "title": "公共厕所",
        "address": "四川省眉山市仁寿县二峨东路与成黑快速通道交叉口正南方向437米左右",
        "tel": "",
        "category": "基础设施:公共设施:公共厕所",
        "type": 0,
        "location": {
            "lat": 30.220276,
            "lng": 104.091894
        },
        "ad_info": {
            "adcode": 511421,
            "province": "四川省",
            "city": "眉山市",
            "district": "仁寿县"
        }
    },
    {
        "id": "7425080752382866975",
        "title": "公共厕所",
        "address": "四川省眉山市洪雅县洪瓦路与雅东路交叉口东南方向140米左右",
        "tel": "",
        "category": "基础设施:公共设施:公共厕所",
        "type": 0,
        "location": {
            "lat": 29.825629,
            "lng": 103.24961
        },
        "ad_info": {
            "adcode": 511423,
            "province": "四川省",
            "city": "眉山市",
            "district": "洪雅县"
        }
    },
    {
        "id": "12192964128894541444",
        "title": "公共厕所",
        "address": "四川省眉山市洪雅县瓦屋山镇复兴村村委会附近",
        "tel": "",
        "category": "基础设施:公共设施:公共厕所",
        "type": 0,
        "location": {
            "lat": 29.609341,
            "lng": 103.050371
        },
        "ad_info": {
            "adcode": 511423,
            "province": "四川省",
            "city": "眉山市",
            "district": "洪雅县"
        }
    },
    {
        "id": "7589605045876362958",
        "title": "公共厕所",
        "address": "四川省眉山市洪雅县洪瓦路与雅东路交叉口东北方向882米左右",
        "tel": "",
        "category": "基础设施:公共设施:公共厕所",
        "type": 0,
        "location": {
            "lat": 29.833285,
            "lng": 103.252563
        },
        "ad_info": {
            "adcode": 511423,
            "province": "四川省",
            "city": "眉山市",
            "district": "洪雅县"
        }
    },
    {
        "id": "3253373484148762266",
        "title": "公共厕所",
        "address": "四川省眉山市东坡区G245与X214交叉口东南方向39米左右",
        "tel": "",
        "category": "基础设施:公共设施:公共厕所",
        "type": 0,
        "location": {
            "lat": 30.110057,
            "lng": 103.857653
        },
        "ad_info": {
            "adcode": 511402,
            "province": "四川省",
            "city": "眉山市",
            "district": "东坡区"
        }
    },
    {
        "id": "1271383331260575558",
        "title": "公共厕所",
        "address": "四川省眉山市东坡区张坝立交桥与成乐高速交叉口正西方向1506米左右",
        "tel": "",
        "category": "基础设施:公共设施:公共厕所",
        "type": 0,
        "location": {
            "lat": 29.960301,
            "lng": 103.756541
        },
        "ad_info": {
            "adcode": 511402,
            "province": "四川省",
            "city": "眉山市",
            "district": "东坡区"
        }
    },
    {
        "id": "11012074102822787788",
        "title": "公共厕所",
        "address": "四川省眉山市仁寿县富兴路下段与富兴大道交叉口东北220米",
        "tel": "",
        "category": "基础设施:公共设施:公共厕所",
        "type": 0,
        "location": {
            "lat": 29.923455,
            "lng": 104.296314
        },
        "ad_info": {
            "adcode": 511421,
            "province": "四川省",
            "city": "眉山市",
            "district": "仁寿县"
        }
    },
    {
        "id": "16474996066605077639",
        "title": "公共厕所",
        "address": "四川省眉山市东坡区G245五洲国际家居博览城",
        "tel": "",
        "category": "基础设施:公共设施:公共厕所",
        "type": 0,
        "location": {
            "lat": 30.02983,
            "lng": 103.807654
        },
        "ad_info": {
            "adcode": 511402,
            "province": "四川省",
            "city": "眉山市",
            "district": "东坡区"
        }
    },
    {
        "id": "13867407390779574989",
        "title": "公共厕所",
        "address": "四川省眉山市东坡区三苏大道与三苏大道中段交叉口正西方向73米左右",
        "tel": "",
        "category": "基础设施:公共设施:公共厕所",
        "type": 0,
        "location": {
            "lat": 30.0614,
            "lng": 103.817215
        },
        "ad_info": {
            "adcode": 511402,
            "province": "四川省",
            "city": "眉山市",
            "district": "东坡区"
        }
    },
    {
        "id": "17903549923010180713",
        "title": "公共厕所",
        "address": "四川省眉山市洪雅县北街与张花园街交叉口东南方向35米左右",
        "tel": "",
        "category": "基础设施:公共设施:公共厕所",
        "type": 0,
        "location": {
            "lat": 29.90576,
            "lng": 103.378249
        },
        "ad_info": {
            "adcode": 511423,
            "province": "四川省",
            "city": "眉山市",
            "district": "洪雅县"
        }
    },
    {
        "id": "10942013387520034304",
        "title": "公共厕所",
        "address": "四川省眉山市东坡区滨江大道与滨江路中一段交叉口正南方向41米左右",
        "tel": "",
        "category": "基础设施:公共设施:公共厕所",
        "type": 0,
        "location": {
            "lat": 30.071994,
            "lng": 103.879266
        },
        "ad_info": {
            "adcode": 511402,
            "province": "四川省",
            "city": "眉山市",
            "district": "东坡区"
        }
    },
    {
        "id": "6164315143542384945",
        "title": "公共厕所(四维村)",
        "address": "四川省眉山市东坡区四川蜀清味业有限公司东侧250米",
        "tel": "",
        "category": "基础设施:公共设施:公共厕所",
        "type": 0,
        "location": {
            "lat": 30.16255,
            "lng": 103.828318
        },
        "ad_info": {
            "adcode": 511402,
            "province": "四川省",
            "city": "眉山市",
            "district": "东坡区"
        }
    },
    {
        "id": "17628041033865576645",
        "title": "公共厕所",
        "address": "四川省眉山市仁寿县陵州大道东一段辅路与陵州大道东二段辅路交叉口西南方向163米左右",
        "tel": "",
        "category": "基础设施:公共设施:公共厕所",
        "type": 0,
        "location": {
            "lat": 30.002787,
            "lng": 104.166171
        },
        "ad_info": {
            "adcode": 511421,
            "province": "四川省",
            "city": "眉山市",
            "district": "仁寿县"
        }
    },
    {
        "id": "13829299041551528980",
        "title": "公共厕所",
        "address": "四川省眉山市东坡区通惠街与顺河街中段交叉口西南方向89米左右",
        "tel": "",
        "category": "基础设施:公共设施:公共厕所",
        "type": 0,
        "location": {
            "lat": 30.04265,
            "lng": 103.82584
        },
        "ad_info": {
            "adcode": 511402,
            "province": "四川省",
            "city": "眉山市",
            "district": "东坡区"
        }
    },
    {
        "id": "14389013973929230175",
        "title": "公共厕所",
        "address": "四川省眉山市东坡区桂香街128号",
        "tel": "",
        "category": "基础设施:公共设施:公共厕所",
        "type": 0,
        "location": {
            "lat": 30.040947,
            "lng": 103.834964
        },
        "ad_info": {
            "adcode": 511402,
            "province": "四川省",
            "city": "眉山市",
            "district": "东坡区"
        }
    },
    {
        "id": "14554005268604333656",
        "title": "公共厕所",
        "address": "四川省眉山市仁寿县书塘巷与文体巷交叉口东北方向84米左右",
        "tel": "",
        "category": "基础设施:公共设施:公共厕所",
        "type": 0,
        "location": {
            "lat": 29.999628,
            "lng": 104.144162
        },
        "ad_info": {
            "adcode": 511421,
            "province": "四川省",
            "city": "眉山市",
            "district": "仁寿县"
        }
    },
    {
        "id": "15948055005070573083",
        "title": "公共厕所",
        "address": "四川省眉山市东坡区洞子口旅社西(106省道旧北)",
        "tel": "",
        "category": "基础设施:公共设施:公共厕所",
        "type": 0,
        "location": {
            "lat": 30.051333,
            "lng": 103.809219
        },
        "ad_info": {
            "adcode": 511402,
            "province": "四川省",
            "city": "眉山市",
            "district": "东坡区"
        }
    },
    {
        "id": "17343720051800450532",
        "title": "公共厕所",
        "address": "四川省眉山市仁寿县南贸街三段四川温州商贸城",
        "tel": "",
        "category": "基础设施:公共设施:公共厕所",
        "type": 0,
        "location": {
            "lat": 30.013178,
            "lng": 104.14751
        },
        "ad_info": {
            "adcode": 511421,
            "province": "四川省",
            "city": "眉山市",
            "district": "仁寿县"
        }
    },
    {
        "id": "10007152516318014551",
        "title": "公共厕所",
        "address": "四川省眉山市东坡区三苏大道西段与铁环路交叉口东北方向150米左右",
        "tel": "",
        "category": "基础设施:公共设施:公共厕所",
        "type": 0,
        "location": {
            "lat": 30.065314,
            "lng": 103.815275
        },
        "ad_info": {
            "adcode": 511402,
            "province": "四川省",
            "city": "眉山市",
            "district": "东坡区"
        }
    },
    {
        "id": "7317862945438396929",
        "title": "公共厕所",
        "address": "四川省眉山市仁寿县庆谷巷与滨河路下段交叉口东北方向85米左右",
        "tel": "",
        "category": "基础设施:公共设施:公共厕所",
        "type": 0,
        "location": {
            "lat": 29.998536,
            "lng": 104.153372
        },
        "ad_info": {
            "adcode": 511421,
            "province": "四川省",
            "city": "眉山市",
            "district": "仁寿县"
        }
    },
    {
        "id": "11580597132450433220",
        "title": "公共厕所",
        "address": "四川省眉山市仁寿县兴安大道一段金丰苑(视高乡)",
        "tel": "",
        "category": "基础设施:公共设施:公共厕所",
        "type": 0,
        "location": {
            "lat": 30.248397,
            "lng": 104.058107
        },
        "ad_info": {
            "adcode": 511421,
            "province": "四川省",
            "city": "眉山市",
            "district": "仁寿县"
        }
    },
    {
        "id": "11346459548320309691",
        "title": "公共厕所",
        "address": "四川省眉山市仁寿县大视路与成仁路交叉口西南方向225米左右",
        "tel": "",
        "category": "基础设施:公共设施:公共厕所",
        "type": 0,
        "location": {
            "lat": 30.074992,
            "lng": 104.151152
        },
        "ad_info": {
            "adcode": 511421,
            "province": "四川省",
            "city": "眉山市",
            "district": "仁寿县"
        }
    },
    {
        "id": "17350739279261624680",
        "title": "公共厕所",
        "address": "四川省眉山市东坡区瑞莲街与裴城路交叉口正东方向209米左右",
        "tel": "",
        "category": "基础设施:公共设施:公共厕所",
        "type": 0,
        "location": {
            "lat": 30.063934,
            "lng": 103.830872
        },
        "ad_info": {
            "adcode": 511402,
            "province": "四川省",
            "city": "眉山市",
            "district": "东坡区"
        }
    },
    {
        "id": "16180806578955362187",
        "title": "公共厕所",
        "address": "四川省眉山市仁寿县迎宾大道与龙水路二段交叉口东南方向61米左右",
        "tel": "",
        "category": "基础设施:公共设施:公共厕所",
        "type": 0,
        "location": {
            "lat": 29.998583,
            "lng": 104.156469
        },
        "ad_info": {
            "adcode": 511421,
            "province": "四川省",
            "city": "眉山市",
            "district": "仁寿县"
        }
    },
    {
        "id": "11595428871824617350",
        "title": "公共厕所",
        "address": "四川省眉山市洪雅县茶道街与中山路交叉口西南方向140米",
        "tel": "",
        "category": "基础设施:公共设施:公共厕所",
        "type": 0,
        "location": {
            "lat": 29.955845,
            "lng": 103.297896
        },
        "ad_info": {
            "adcode": 511423,
            "province": "四川省",
            "city": "眉山市",
            "district": "洪雅县"
        }
    },
    {
        "id": "11445493694318991526",
        "title": "公共厕所",
        "address": "四川省眉山市东坡区清影路环岛绿地1号",
        "tel": "",
        "category": "基础设施:公共设施:公共厕所",
        "type": 0,
        "location": {
            "lat": 30.0468,
            "lng": 103.856796
        },
        "ad_info": {
            "adcode": 511402,
            "province": "四川省",
            "city": "眉山市",
            "district": "东坡区"
        }
    },
    {
        "id": "7125206537676080564",
        "title": "公共厕所",
        "address": "四川省眉山市洪雅县",
        "tel": "",
        "category": "基础设施:公共设施:公共厕所",
        "type": 0,
        "location": {
            "lat": 29.843775,
            "lng": 103.202173
        },
        "ad_info": {
            "adcode": 511423,
            "province": "四川省",
            "city": "眉山市",
            "district": "洪雅县"
        }
    },
    {
        "id": "2870757841837745301",
        "title": "公共厕所",
        "address": "四川省眉山市洪雅县康庄路与瓦屋山大道交叉口正西方向426米左右",
        "tel": "",
        "category": "基础设施:公共设施:公共厕所",
        "type": 0,
        "location": {
            "lat": 29.634015,
            "lng": 103.081625
        },
        "ad_info": {
            "adcode": 511423,
            "province": "四川省",
            "city": "眉山市",
            "district": "洪雅县"
        }
    },
    {
        "id": "16580092379689644949",
        "title": "柳江古镇公共厕所",
        "address": "四川省眉山市洪雅县明月南街与洪瓦路交叉口西北方向37米左右",
        "tel": "",
        "category": "基础设施:公共设施:公共厕所",
        "type": 0,
        "location": {
            "lat": 29.717399,
            "lng": 103.230837
        },
        "ad_info": {
            "adcode": 511423,
            "province": "四川省",
            "city": "眉山市",
            "district": "洪雅县"
        }
    },
    {
        "id": "9241543931753644465",
        "title": "公共厕所",
        "address": "四川省眉山市东坡区G351与中兴街交叉口正北方向47米左右",
        "tel": "",
        "category": "基础设施:公共设施:公共厕所",
        "type": 0,
        "location": {
            "lat": 30.049431,
            "lng": 103.617248
        },
        "ad_info": {
            "adcode": 511402,
            "province": "四川省",
            "city": "眉山市",
            "district": "东坡区"
        }
    },
    {
        "id": "3406461264575616691",
        "title": "公共厕所",
        "address": "四川省眉山市东坡区东湖丽景",
        "tel": "",
        "category": "基础设施:公共设施:公共厕所",
        "type": 0,
        "location": {
            "lat": 30.054897,
            "lng": 103.848257
        },
        "ad_info": {
            "adcode": 511402,
            "province": "四川省",
            "city": "眉山市",
            "district": "东坡区"
        }
    },
    {
        "id": "3264926006771488459",
        "title": "公共厕所",
        "address": "四川省眉山市东坡区裴城路与铁环东路交叉口西北方向55米左右",
        "tel": "",
        "category": "基础设施:公共设施:公共厕所",
        "type": 0,
        "location": {
            "lat": 30.068809,
            "lng": 103.821353
        },
        "ad_info": {
            "adcode": 511402,
            "province": "四川省",
            "city": "眉山市",
            "district": "东坡区"
        }
    },
    {
        "id": "18102976751189825167",
        "title": "公共厕所",
        "address": "四川省眉山市东坡区岷黑快速通道与植物园路交叉口东北500米",
        "tel": "",
        "category": "基础设施:公共设施:公共厕所",
        "type": 0,
        "location": {
            "lat": 30.074488,
            "lng": 103.917548
        },
        "ad_info": {
            "adcode": 511402,
            "province": "四川省",
            "city": "眉山市",
            "district": "东坡区"
        }
    },
    {
        "id": "7801424878602847215",
        "title": "公共厕所",
        "address": "四川省眉山市洪雅县九胜大道与瓦屋山大道交叉口西北方向184米左右",
        "tel": "",
        "category": "基础设施:公共设施:公共厕所",
        "type": 0,
        "location": {
            "lat": 29.922047,
            "lng": 103.357315
        },
        "ad_info": {
            "adcode": 511423,
            "province": "四川省",
            "city": "眉山市",
            "district": "洪雅县"
        }
    },
    {
        "id": "10929831619689589040",
        "title": "公共厕所",
        "address": "四川省眉山市青神县中岩路与利民街交叉口正南方向85米左右",
        "tel": "",
        "category": "基础设施:公共设施:公共厕所",
        "type": 0,
        "location": {
            "lat": 29.834042,
            "lng": 103.85377
        },
        "ad_info": {
            "adcode": 511425,
            "province": "四川省",
            "city": "眉山市",
            "district": "青神县"
        }
    },
    {
        "id": "3848618805360876323",
        "title": "公共厕所",
        "address": "四川省眉山市青神县北街与文林街交叉口西北方向69米左右",
        "tel": "",
        "category": "基础设施:公共设施:公共厕所",
        "type": 0,
        "location": {
            "lat": 29.831492,
            "lng": 103.843761
        },
        "ad_info": {
            "adcode": 511425,
            "province": "四川省",
            "city": "眉山市",
            "district": "青神县"
        }
    },
    {
        "id": "13757460859034495479",
        "title": "公共厕所",
        "address": "四川省眉山市仁寿县陵州路三段铧强中学",
        "tel": "",
        "category": "基础设施:公共设施:公共厕所",
        "type": 0,
        "location": {
            "lat": 29.989174,
            "lng": 104.161413
        },
        "ad_info": {
            "adcode": 511421,
            "province": "四川省",
            "city": "眉山市",
            "district": "仁寿县"
        }
    },
    {
        "id": "17633618225945149024",
        "title": "公共厕所",
        "address": "四川省眉山市仁寿县仁人路与仁里路交叉口东南方向252米左右",
        "tel": "",
        "category": "基础设施:公共设施:公共厕所",
        "type": 0,
        "location": {
            "lat": 29.989528,
            "lng": 104.132659
        },
        "ad_info": {
            "adcode": 511421,
            "province": "四川省",
            "city": "眉山市",
            "district": "仁寿县"
        }
    },
    {
        "id": "11607554439082699903",
        "title": "公共厕所",
        "address": "四川省眉山市东坡区彭寿街与眉州大道东一段交叉口正西方向119米左右",
        "tel": "",
        "category": "基础设施:公共设施:公共厕所",
        "type": 0,
        "location": {
            "lat": 30.07498,
            "lng": 103.85537
        },
        "ad_info": {
            "adcode": 511402,
            "province": "四川省",
            "city": "眉山市",
            "district": "东坡区"
        }
    },
    {
        "id": "15561119505062131462",
        "title": "公共厕所",
        "address": "四川省眉山市彭山区寂照街1号",
        "tel": "",
        "category": "基础设施:公共设施:公共厕所",
        "type": 0,
        "location": {
            "lat": 30.204142,
            "lng": 103.873435
        },
        "ad_info": {
            "adcode": 511403,
            "province": "四川省",
            "city": "眉山市",
            "district": "彭山区"
        }
    },
    {
        "id": "15197031992585103259",
        "title": "公共厕所",
        "address": "四川省眉山市东坡区文忠街阳光·世纪风景",
        "tel": "",
        "category": "基础设施:公共设施:公共厕所",
        "type": 0,
        "location": {
            "lat": 30.07665,
            "lng": 103.838301
        },
        "ad_info": {
            "adcode": 511402,
            "province": "四川省",
            "city": "眉山市",
            "district": "东坡区"
        }
    },
    {
        "id": "6385508611685738999",
        "title": "公共厕所",
        "address": "四川省眉山市东坡区大学路与仁寿路南段交叉口南40米",
        "tel": "",
        "category": "基础设施:公共设施:公共厕所",
        "type": 0,
        "location": {
            "lat": 30.058187,
            "lng": 103.893351
        },
        "ad_info": {
            "adcode": 511402,
            "province": "四川省",
            "city": "眉山市",
            "district": "东坡区"
        }
    },
    {
        "id": "15148751680413947484",
        "title": "公共厕所",
        "address": "四川省眉山市仁寿县陵州大道东一段辅路与高滩路二段交叉口西南方向105米左右",
        "tel": "",
        "category": "基础设施:公共设施:公共厕所",
        "type": 0,
        "location": {
            "lat": 30.00603,
            "lng": 104.16565
        },
        "ad_info": {
            "adcode": 511421,
            "province": "四川省",
            "city": "眉山市",
            "district": "仁寿县"
        }
    },
    {
        "id": "9592078963363805058",
        "title": "公共厕所",
        "address": "四川省眉山市东坡区天华街152号",
        "tel": "",
        "category": "基础设施:公共设施:公共厕所",
        "type": 0,
        "location": {
            "lat": 30.043635,
            "lng": 103.837742
        },
        "ad_info": {
            "adcode": 511402,
            "province": "四川省",
            "city": "眉山市",
            "district": "东坡区"
        }
    },
    {
        "id": "7678403991650492795",
        "title": "公共厕所(陈沟村)",
        "address": "四川省眉山市东坡区三苏镇陈沟村六组",
        "tel": "",
        "category": "基础设施:公共设施:公共厕所",
        "type": 0,
        "location": {
            "lat": 30.009519,
            "lng": 103.586896
        },
        "ad_info": {
            "adcode": 511402,
            "province": "四川省",
            "city": "眉山市",
            "district": "东坡区"
        }
    },
    {
        "id": "11604106802380069310",
        "title": "公共厕所",
        "address": "四川省眉山市仁寿县新街兴家苑",
        "tel": "",
        "category": "基础设施:公共设施:公共厕所",
        "type": 0,
        "location": {
            "lat": 30.246801,
            "lng": 104.052702
        },
        "ad_info": {
            "adcode": 511421,
            "province": "四川省",
            "city": "眉山市",
            "district": "仁寿县"
        }
    },
    {
        "id": "13622981165042256494",
        "title": "公共厕所",
        "address": "四川省眉山市仁寿县同心二街与环天府新区快速通道交叉口正北方向59米左右",
        "tel": "",
        "category": "基础设施:公共设施:公共厕所",
        "type": 0,
        "location": {
            "lat": 30.230251,
            "lng": 104.085161
        },
        "ad_info": {
            "adcode": 511421,
            "province": "四川省",
            "city": "眉山市",
            "district": "仁寿县"
        }
    },
    {
        "id": "3862204364807841605",
        "title": "公共厕所",
        "address": "四川省眉山市彭山区X062与凤鸣大道一段交叉口西北方向108米左右",
        "tel": "",
        "category": "基础设施:公共设施:公共厕所",
        "type": 0,
        "location": {
            "lat": 30.208237,
            "lng": 103.88035
        },
        "ad_info": {
            "adcode": 511403,
            "province": "四川省",
            "city": "眉山市",
            "district": "彭山区"
        }
    },
    {
        "id": "16763488050090051340",
        "title": "公共场所",
        "address": "四川省眉山市东坡区兴隆街与珠市西街交叉口东南方向45米左右",
        "tel": "",
        "category": "基础设施:公共设施:公共厕所",
        "type": 0,
        "location": {
            "lat": 30.047912,
            "lng": 103.836907
        },
        "ad_info": {
            "adcode": 511402,
            "province": "四川省",
            "city": "眉山市",
            "district": "东坡区"
        }
    },
    {
        "id": "13434010604970804435",
        "title": "一号公共厕所",
        "address": "四川省眉山市东坡区一环北路与杭州北路交叉口西北方向153米左右",
        "tel": "",
        "category": "基础设施:公共设施:公共厕所",
        "type": 0,
        "location": {
            "lat": 30.057594,
            "lng": 103.833374
        },
        "ad_info": {
            "adcode": 511402,
            "province": "四川省",
            "city": "眉山市",
            "district": "东坡区"
        }
    },
    {
        "id": "13009685462006079671",
        "title": "公共厕所",
        "address": "四川省眉山市丹棱县公园巷与土主街交叉口正北方向34米左右",
        "tel": "",
        "category": "基础设施:公共设施:公共厕所",
        "type": 0,
        "location": {
            "lat": 30.012304,
            "lng": 103.513401
        },
        "ad_info": {
            "adcode": 511424,
            "province": "四川省",
            "city": "眉山市",
            "district": "丹棱县"
        }
    },
    {
        "id": "1987197742193023679",
        "title": "公共厕所",
        "address": "四川省眉山市东坡区文安路东段与文定街南一段交叉口正西方向60米左右",
        "tel": "",
        "category": "基础设施:公共设施:公共厕所",
        "type": 0,
        "location": {
            "lat": 30.071085,
            "lng": 103.8623
        },
        "ad_info": {
            "adcode": 511402,
            "province": "四川省",
            "city": "眉山市",
            "district": "东坡区"
        }
    },
    {
        "id": "5692805258867108561",
        "title": "西象桥公共厕所",
        "address": "四川省眉山市东坡区徐州东路与杭州南路交叉口正南方向44米左右",
        "tel": "",
        "category": "基础设施:公共设施:公共厕所",
        "type": 0,
        "location": {
            "lat": 30.048331,
            "lng": 103.828299
        },
        "ad_info": {
            "adcode": 511402,
            "province": "四川省",
            "city": "眉山市",
            "district": "东坡区"
        }
    },
    {
        "id": "27476067695083306",
        "title": "公共厕所",
        "address": "四川省眉山市彭山区凤鸣大道二段与寂照街交叉口正东方向441米左右",
        "tel": "",
        "category": "基础设施:公共设施:公共厕所",
        "type": 0,
        "location": {
            "lat": 30.20266,
            "lng": 103.885911
        },
        "ad_info": {
            "adcode": 511403,
            "province": "四川省",
            "city": "眉山市",
            "district": "彭山区"
        }
    },
    {
        "id": "2933551918442077939",
        "title": "公共厕所",
        "address": "四川省眉山市丹棱县可朋巷与齐乐大道交叉口东北方向30米左右",
        "tel": "",
        "category": "基础设施:公共设施:公共厕所",
        "type": 0,
        "location": {
            "lat": 30.010255,
            "lng": 103.521732
        },
        "ad_info": {
            "adcode": 511424,
            "province": "四川省",
            "city": "眉山市",
            "district": "丹棱县"
        }
    },
    {
        "id": "11071634894825998844",
        "title": "公共厕所",
        "address": "四川省眉山市彭山区渡江路与滨江大道二段交叉口正南方向225米左右",
        "tel": "",
        "category": "基础设施:公共设施:公共厕所",
        "type": 0,
        "location": {
            "lat": 30.19632,
            "lng": 103.882609
        },
        "ad_info": {
            "adcode": 511403,
            "province": "四川省",
            "city": "眉山市",
            "district": "彭山区"
        }
    },
    {
        "id": "13478836216909001196",
        "title": "公共厕所",
        "address": "四川省眉山市仁寿县仁寿大道仁寿城市湿地公园(西侧)",
        "tel": "",
        "category": "基础设施:公共设施:公共厕所",
        "type": 0,
        "location": {
            "lat": 29.999392,
            "lng": 104.158842
        },
        "ad_info": {
            "adcode": 511421,
            "province": "四川省",
            "city": "眉山市",
            "district": "仁寿县"
        }
    },
    {
        "id": "6632999618826662790",
        "title": "公共厕所",
        "address": "四川省眉山市东坡区西贸巷与顺河街中段交叉口西南方向20米左右",
        "tel": "",
        "category": "基础设施:公共设施:公共厕所",
        "type": 0,
        "location": {
            "lat": 30.043762,
            "lng": 103.826976
        },
        "ad_info": {
            "adcode": 511402,
            "province": "四川省",
            "city": "眉山市",
            "district": "东坡区"
        }
    },
    {
        "id": "4427804234172627009",
        "title": "公共厕所",
        "address": "四川省眉山市彭山区凤鸣花谷2期东北侧",
        "tel": "",
        "category": "基础设施:公共设施:公共厕所",
        "type": 0,
        "location": {
            "lat": 30.172371,
            "lng": 103.828654
        },
        "ad_info": {
            "adcode": 511403,
            "province": "四川省",
            "city": "眉山市",
            "district": "彭山区"
        }
    },
    {
        "id": "7615112246798897804",
        "title": "公共厕所",
        "address": "四川省眉山市仁寿县金马路二段盛景华庭",
        "tel": "",
        "category": "基础设施:公共设施:公共厕所",
        "type": 0,
        "location": {
            "lat": 29.99015,
            "lng": 104.15009
        },
        "ad_info": {
            "adcode": 511421,
            "province": "四川省",
            "city": "眉山市",
            "district": "仁寿县"
        }
    },
    {
        "id": "4060569702543729486",
        "title": "公共厕所",
        "address": "四川省眉山市东坡区仓房街眉山市人民医院(文庙院区)",
        "tel": "",
        "category": "基础设施:公共设施:公共厕所",
        "type": 0,
        "location": {
            "lat": 30.039008,
            "lng": 103.838258
        },
        "ad_info": {
            "adcode": 511402,
            "province": "四川省",
            "city": "眉山市",
            "district": "东坡区"
        }
    },
    {
        "id": "16334177127149243597",
        "title": "公共厕所",
        "address": "四川省眉山市丹棱县外东街与正街交叉口正北方向74米左右",
        "tel": "",
        "category": "基础设施:公共设施:公共厕所",
        "type": 0,
        "location": {
            "lat": 30.013796,
            "lng": 103.517928
        },
        "ad_info": {
            "adcode": 511424,
            "province": "四川省",
            "city": "眉山市",
            "district": "丹棱县"
        }
    },
    {
        "id": "17056122597041346159",
        "title": "公共厕所",
        "address": "四川省眉山市丹棱县兴欣路与北环路交叉口西南方向63米左右",
        "tel": "",
        "category": "基础设施:公共设施:公共厕所",
        "type": 0,
        "location": {
            "lat": 30.019726,
            "lng": 103.518832
        },
        "ad_info": {
            "adcode": 511424,
            "province": "四川省",
            "city": "眉山市",
            "district": "丹棱县"
        }
    },
    {
        "id": "362772395459399175",
        "title": "公共厕所",
        "address": "四川省眉山市仁寿县X184",
        "tel": "",
        "category": "基础设施:公共设施:公共厕所",
        "type": 0,
        "location": {
            "lat": 29.853442,
            "lng": 104.295601
        },
        "ad_info": {
            "adcode": 511421,
            "province": "四川省",
            "city": "眉山市",
            "district": "仁寿县"
        }
    },
    {
        "id": "1181934383118283052",
        "title": "眉山服务区公共厕所",
        "address": "四川省眉山市东坡区成乐高速与眉山枢纽交叉口正北方向1916米左右",
        "tel": "",
        "category": "基础设施:公共设施:公共厕所",
        "type": 0,
        "location": {
            "lat": 30.09751,
            "lng": 103.812547
        },
        "ad_info": {
            "adcode": 511402,
            "province": "四川省",
            "city": "眉山市",
            "district": "东坡区"
        }
    },
    {
        "id": "5835770399985680032",
        "title": "免费公共厕所",
        "address": "四川省眉山市东坡区徐州东路与杭州南路交叉口东南方向48米左右",
        "tel": "",
        "category": "基础设施:公共设施:公共厕所",
        "type": 0,
        "location": {
            "lat": 30.048391,
            "lng": 103.828598
        },
        "ad_info": {
            "adcode": 511402,
            "province": "四川省",
            "city": "眉山市",
            "district": "东坡区"
        }
    },
    {
        "id": "22717740187785061",
        "title": "眉山肿瘤医院(湖滨路中三段)-洗手间",
        "address": "四川省眉山市东坡区湖滨路中二段168号(中共眉山肿瘤医院委员会西)",
        "tel": "",
        "category": "基础设施:公共设施:公共厕所",
        "type": 0,
        "location": {
            "lat": 30.065811,
            "lng": 103.863648
        },
        "ad_info": {
            "adcode": 511402,
            "province": "四川省",
            "city": "眉山市",
            "district": "东坡区"
        }
    },
    {
        "id": "16575500230810344208",
        "title": "公共厕所",
        "address": "四川省眉山市丹棱县星辰超市东南侧130米",
        "tel": "",
        "category": "基础设施:公共设施:公共厕所",
        "type": 0,
        "location": {
            "lat": 30.007319,
            "lng": 103.344064
        },
        "ad_info": {
            "adcode": 511424,
            "province": "四川省",
            "city": "眉山市",
            "district": "丹棱县"
        }
    },
    {
        "id": "1795074927821521682",
        "title": "公共厕所",
        "address": "四川省眉山市彭山区凤鸣大道二段与武阳古街交叉口西南方向103米左右",
        "tel": "",
        "category": "基础设施:公共设施:公共厕所",
        "type": 0,
        "location": {
            "lat": 30.19787,
            "lng": 103.880183
        },
        "ad_info": {
            "adcode": 511403,
            "province": "四川省",
            "city": "眉山市",
            "district": "彭山区"
        }
    },
    {
        "id": "979409252738329578",
        "title": "公共厕所",
        "address": "四川省眉山市彭山区建设路与莲池路交叉口正南方向57米左右",
        "tel": "",
        "category": "基础设施:公共设施:公共厕所",
        "type": 0,
        "location": {
            "lat": 30.309724,
            "lng": 103.867574
        },
        "ad_info": {
            "adcode": 511403,
            "province": "四川省",
            "city": "眉山市",
            "district": "彭山区"
        }
    },
    {
        "id": "2115492733319254127",
        "title": "无障碍公共厕所",
        "address": "四川省眉山市东坡区小北街与小香港步行街交叉口东南方向40米左右",
        "tel": "",
        "category": "基础设施:公共设施:公共厕所",
        "type": 0,
        "location": {
            "lat": 30.043369,
            "lng": 103.834634
        },
        "ad_info": {
            "adcode": 511402,
            "province": "四川省",
            "city": "眉山市",
            "district": "东坡区"
        }
    },
    {
        "id": "2864200901539964073",
        "title": "尚义镇营盘村休闲广场公共厕所",
        "address": "四川省眉山市东坡区白云小区2期南侧140米",
        "tel": "",
        "category": "基础设施:公共设施:公共厕所",
        "type": 0,
        "location": {
            "lat": 30.057525,
            "lng": 103.72938
        },
        "ad_info": {
            "adcode": 511402,
            "province": "四川省",
            "city": "眉山市",
            "district": "东坡区"
        }
    },
    {
        "id": "15711530868391718235",
        "title": "公共厕所",
        "address": "四川省眉山市青神县新北街与花园街交叉口正南方向81米左右",
        "tel": "",
        "category": "基础设施:公共设施:公共厕所",
        "type": 0,
        "location": {
            "lat": 29.832023,
            "lng": 103.845066
        },
        "ad_info": {
            "adcode": 511425,
            "province": "四川省",
            "city": "眉山市",
            "district": "青神县"
        }
    },
    {
        "id": "15093228970422254886",
        "title": "中央水体公园公共厕所",
        "address": "四川省眉山市仁寿县中央商务大道与北城巷交叉口正南方向81米左右",
        "tel": "",
        "category": "基础设施:公共设施:公共厕所",
        "type": 0,
        "location": {
            "lat": 30.007125,
            "lng": 104.15965
        },
        "ad_info": {
            "adcode": 511421,
            "province": "四川省",
            "city": "眉山市",
            "district": "仁寿县"
        }
    },
    {
        "id": "2424313882295606023",
        "title": "公共厕所",
        "address": "四川省眉山市彭山区望江下街66号",
        "tel": "",
        "category": "基础设施:公共设施:公共厕所",
        "type": 0,
        "location": {
            "lat": 30.19142,
            "lng": 103.88001
        },
        "ad_info": {
            "adcode": 511403,
            "province": "四川省",
            "city": "眉山市",
            "district": "彭山区"
        }
    },
    {
        "id": "7270438880146021476",
        "title": "三苏服务区公共厕所",
        "address": "四川省眉山市东坡区Y013与丹思路交叉口正东方向967米左右",
        "tel": "",
        "category": "基础设施:公共设施:公共厕所",
        "type": 0,
        "location": {
            "lat": 29.977387,
            "lng": 103.590066
        },
        "ad_info": {
            "adcode": 511402,
            "province": "四川省",
            "city": "眉山市",
            "district": "东坡区"
        }
    },
    {
        "id": "7694669250489947805",
        "title": "文庙广场旅游公共厕所",
        "address": "四川省眉山市丹棱县北街与城墙路交叉口正南方向89米左右",
        "tel": "",
        "category": "基础设施:公共设施:公共厕所",
        "type": 0,
        "location": {
            "lat": 30.015137,
            "lng": 103.514052
        },
        "ad_info": {
            "adcode": 511424,
            "province": "四川省",
            "city": "眉山市",
            "district": "丹棱县"
        }
    },
    {
        "id": "414109649950183871",
        "title": "眉山服务区公共厕所",
        "address": "四川省眉山市东坡区12号路与玉兰路交叉口正东方向1807米左右",
        "tel": "",
        "category": "基础设施:公共设施:公共厕所",
        "type": 0,
        "location": {
            "lat": 30.099027,
            "lng": 103.810801
        },
        "ad_info": {
            "adcode": 511402,
            "province": "四川省",
            "city": "眉山市",
            "district": "东坡区"
        }
    },
    {
        "id": "109722055208652873",
        "title": "眉山服务区第二公共厕所",
        "address": "四川省眉山市东坡区12号路与玉兰路交叉口正东方向1771米左右",
        "tel": "",
        "category": "基础设施:公共设施:公共厕所",
        "type": 0,
        "location": {
            "lat": 30.097776,
            "lng": 103.810797
        },
        "ad_info": {
            "adcode": 511402,
            "province": "四川省",
            "city": "眉山市",
            "district": "东坡区"
        }
    },
    {
        "id": "16587542425112098661",
        "title": "卫生间",
        "address": "四川省眉山市彭山区城南市场西巷与灵石路交叉口西北方向42米左右",
        "tel": "",
        "category": "基础设施:公共设施:公共厕所",
        "type": 0,
        "location": {
            "lat": 30.18707,
            "lng": 103.87226
        },
        "ad_info": {
            "adcode": 511403,
            "province": "四川省",
            "city": "眉山市",
            "district": "彭山区"
        }
    },
    {
        "id": "9571867724385252107",
        "title": "三苏服务区公共厕所",
        "address": "四川省眉山市东坡区Y013与丹思路交叉口正东方向1029米左右",
        "tel": "",
        "category": "基础设施:公共设施:公共厕所",
        "type": 0,
        "location": {
            "lat": 29.975879,
            "lng": 103.590926
        },
        "ad_info": {
            "adcode": 511402,
            "province": "四川省",
            "city": "眉山市",
            "district": "东坡区"
        }
    },
    {
        "id": "11581555518821673324",
        "title": "三苏服务区第二公共厕所",
        "address": "四川省眉山市东坡区S40广洪高速与三苏服务区交叉口西180米",
        "tel": "",
        "category": "基础设施:公共设施:公共厕所",
        "type": 0,
        "location": {
            "lat": 29.975923,
            "lng": 103.592123
        },
        "ad_info": {
            "adcode": 511402,
            "province": "四川省",
            "city": "眉山市",
            "district": "东坡区"
        }
    },
    {
        "id": "6571734666522454556",
        "title": "彭祖故里公共厕所",
        "address": "四川省眉山市彭山区X062与江口街交叉口东南方向548米左右",
        "tel": "",
        "category": "基础设施:公共设施:公共厕所",
        "type": 0,
        "location": {
            "lat": 30.223354,
            "lng": 103.924427
        },
        "ad_info": {
            "adcode": 511403,
            "province": "四川省",
            "city": "眉山市",
            "district": "彭山区"
        }
    },
    {
        "id": "18261051604140280009",
        "title": "仁寿服务区第二公共厕所",
        "address": "四川省眉山市仁寿县G4216蓉丽高速与仁寿服务区交叉口西360米",
        "tel": "",
        "category": "基础设施:公共设施:公共厕所",
        "type": 0,
        "location": {
            "lat": 29.959078,
            "lng": 104.215031
        },
        "ad_info": {
            "adcode": 511421,
            "province": "四川省",
            "city": "眉山市",
            "district": "仁寿县"
        }
    },
    {
        "id": "10318564609987178307",
        "title": "文宫服务区公共厕所",
        "address": "四川省眉山市仁寿县蓉遵高速文宫服务区",
        "tel": "",
        "category": "基础设施:公共设施:公共厕所",
        "type": 0,
        "location": {
            "lat": 30.147345,
            "lng": 104.197856
        },
        "ad_info": {
            "adcode": 511421,
            "province": "四川省",
            "city": "眉山市",
            "district": "仁寿县"
        }
    },
    {
        "id": "10430755682506002541",
        "title": "仁寿服务区公共厕所",
        "address": "四川省眉山市仁寿县G4216蓉丽高速与仁寿服务区交叉口西240米",
        "tel": "",
        "category": "基础设施:公共设施:公共厕所",
        "type": 0,
        "location": {
            "lat": 29.959733,
            "lng": 104.216187
        },
        "ad_info": {
            "adcode": 511421,
            "province": "四川省",
            "city": "眉山市",
            "district": "仁寿县"
        }
    },
    {
        "id": "6847025103153381867",
        "title": "公共厕所",
        "address": "四川省眉山市洪雅县南街与文昌路交叉口正北方向87米左右",
        "tel": "",
        "category": "基础设施:公共设施:公共厕所",
        "type": 0,
        "location": {
            "lat": 29.902834,
            "lng": 103.376714
        },
        "ad_info": {
            "adcode": 511423,
            "province": "四川省",
            "city": "眉山市",
            "district": "洪雅县"
        }
    },
    {
        "id": "9770986197159561029",
        "title": "公共厕所",
        "address": "四川省眉山市彭山区隆盛街36号",
        "tel": "",
        "category": "基础设施:公共设施:公共厕所",
        "type": 0,
        "location": {
            "lat": 30.247472,
            "lng": 103.875004
        },
        "ad_info": {
            "adcode": 511403,
            "province": "四川省",
            "city": "眉山市",
            "district": "彭山区"
        }
    },
    {
        "id": "9250379003841891021",
        "title": "公共厕所",
        "address": "四川省眉山市东坡区健康路与北村巷交叉口东南方向22米左右",
        "tel": "",
        "category": "基础设施:公共设施:公共厕所",
        "type": 0,
        "location": {
            "lat": 30.047669,
            "lng": 103.834008
        },
        "ad_info": {
            "adcode": 511402,
            "province": "四川省",
            "city": "眉山市",
            "district": "东坡区"
        }
    },
    {
        "id": "13230444697635227854",
        "title": "汪洋服务区公共厕所",
        "address": "四川省眉山市仁寿县禄加镇成泸高速公路汪洋服务区附近",
        "tel": "",
        "category": "基础设施:公共设施:公共厕所",
        "type": 0,
        "location": {
            "lat": 29.790213,
            "lng": 104.356264
        },
        "ad_info": {
            "adcode": 511421,
            "province": "四川省",
            "city": "眉山市",
            "district": "仁寿县"
        }
    },
    {
        "id": "17796135121127320298",
        "title": "公共厕所",
        "address": "四川省眉山市仁寿县仁眉路辅路与商业街三段交叉口西北方向86米左右",
        "tel": "",
        "category": "基础设施:公共设施:公共厕所",
        "type": 0,
        "location": {
            "lat": 30.014009,
            "lng": 104.147158
        },
        "ad_info": {
            "adcode": 511421,
            "province": "四川省",
            "city": "眉山市",
            "district": "仁寿县"
        }
    },
    {
        "id": "4825071075149374442",
        "title": "公共厕所",
        "address": "四川省眉山市东坡区湖滨路南三段与红星东路二段交叉口正南方向86米左右",
        "tel": "",
        "category": "基础设施:公共设施:公共厕所",
        "type": 0,
        "location": {
            "lat": 30.048959,
            "lng": 103.854911
        },
        "ad_info": {
            "adcode": 511402,
            "province": "四川省",
            "city": "眉山市",
            "district": "东坡区"
        }
    },
    {
        "id": "11737667933765760914",
        "title": "公共厕所",
        "address": "四川省眉山市东坡区大学路与岷东大道交叉口西北方向184米左右",
        "tel": "",
        "category": "基础设施:公共设施:公共厕所",
        "type": 0,
        "location": {
            "lat": 30.054293,
            "lng": 103.895948
        },
        "ad_info": {
            "adcode": 511402,
            "province": "四川省",
            "city": "眉山市",
            "district": "东坡区"
        }
    },
    {
        "id": "6748490465159070180",
        "title": "公共厕所",
        "address": "四川省眉山市彭山区X062与江口街交叉口东北方向468米左右",
        "tel": "",
        "category": "基础设施:公共设施:公共厕所",
        "type": 0,
        "location": {
            "lat": 30.229866,
            "lng": 103.923003
        },
        "ad_info": {
            "adcode": 511403,
            "province": "四川省",
            "city": "眉山市",
            "district": "彭山区"
        }
    },
    {
        "id": "17446984706229466980",
        "title": "公共厕所",
        "address": "四川省眉山市仁寿县G351与龙正大道交叉口东南方向162米左右",
        "tel": "",
        "category": "基础设施:公共设施:公共厕所",
        "type": 0,
        "location": {
            "lat": 30.022471,
            "lng": 103.982237
        },
        "ad_info": {
            "adcode": 511421,
            "province": "四川省",
            "city": "眉山市",
            "district": "仁寿县"
        }
    },
    {
        "id": "17251168788876347949",
        "title": "公共厕所",
        "address": "四川省眉山市东坡区崇礼大道与江白路交叉口东北方向398米左右",
        "tel": "",
        "category": "基础设施:公共设施:公共厕所",
        "type": 0,
        "location": {
            "lat": 30.028909,
            "lng": 103.869016
        },
        "ad_info": {
            "adcode": 511402,
            "province": "四川省",
            "city": "眉山市",
            "district": "东坡区"
        }
    },
    {
        "id": "230523709263868630",
        "title": "公共厕所",
        "address": "四川省眉山市东坡区兴文街与兴旺街交叉口正西方向151米左右",
        "tel": "",
        "category": "基础设施:公共设施:公共厕所",
        "type": 0,
        "location": {
            "lat": 29.946791,
            "lng": 103.861921
        },
        "ad_info": {
            "adcode": 511402,
            "province": "四川省",
            "city": "眉山市",
            "district": "东坡区"
        }
    },
    {
        "id": "10759027943527619488",
        "title": "公共厕所",
        "address": "四川省眉山市青神县机械大道与眉青公路交叉口东南方向209米左右",
        "tel": "",
        "category": "基础设施:公共设施:公共厕所",
        "type": 0,
        "location": {
            "lat": 29.837976,
            "lng": 103.836828
        },
        "ad_info": {
            "adcode": 511425,
            "province": "四川省",
            "city": "眉山市",
            "district": "青神县"
        }
    },
    {
        "id": "10227681662152470189",
        "title": "公共厕所",
        "address": "四川省眉山市仁寿县文林路二段与顺河街交叉口东北方向123米左右",
        "tel": "",
        "category": "基础设施:公共设施:公共厕所",
        "type": 0,
        "location": {
            "lat": 29.996935,
            "lng": 104.130278
        },
        "ad_info": {
            "adcode": 511421,
            "province": "四川省",
            "city": "眉山市",
            "district": "仁寿县"
        }
    },
    {
        "id": "5702175882648718544",
        "title": "公共厕所",
        "address": "四川省眉山市仁寿县电信街与街心广场环岛交叉口东120米",
        "tel": "",
        "category": "基础设施:公共设施:公共厕所",
        "type": 0,
        "location": {
            "lat": 29.996185,
            "lng": 104.149583
        },
        "ad_info": {
            "adcode": 511421,
            "province": "四川省",
            "city": "眉山市",
            "district": "仁寿县"
        }
    },
    {
        "id": "6478985993405510090",
        "title": "公共厕所",
        "address": "四川省眉山市洪雅县中兴东路与瓦屋山大道交叉口正北方向492米左右",
        "tel": "",
        "category": "基础设施:公共设施:公共厕所",
        "type": 0,
        "location": {
            "lat": 29.899581,
            "lng": 103.342303
        },
        "ad_info": {
            "adcode": 511423,
            "province": "四川省",
            "city": "眉山市",
            "district": "洪雅县"
        }
    },
    {
        "id": "1797398844043110118",
        "title": "公共厕所",
        "address": "四川省眉山市仁寿县迎宾大道鸿泰城南充装站",
        "tel": "",
        "category": "基础设施:公共设施:公共厕所",
        "type": 0,
        "location": {
            "lat": 29.982582,
            "lng": 104.15161
        },
        "ad_info": {
            "adcode": 511421,
            "province": "四川省",
            "city": "眉山市",
            "district": "仁寿县"
        }
    },
    {
        "id": "14409817871601540346",
        "title": "公共厕所",
        "address": "四川省眉山市东坡区东坡大道北三段与东坡大道北二段交叉口正东方向106米左右",
        "tel": "",
        "category": "基础设施:公共设施:公共厕所",
        "type": 0,
        "location": {
            "lat": 30.08224,
            "lng": 103.851328
        },
        "ad_info": {
            "adcode": 511402,
            "province": "四川省",
            "city": "眉山市",
            "district": "东坡区"
        }
    },
    {
        "id": "10872623165681997664",
        "title": "公共厕所",
        "address": "四川省眉山市丹棱县徐氏酿酒厂东南侧90米",
        "tel": "",
        "category": "基础设施:公共设施:公共厕所",
        "type": 0,
        "location": {
            "lat": 29.995837,
            "lng": 103.502631
        },
        "ad_info": {
            "adcode": 511424,
            "province": "四川省",
            "city": "眉山市",
            "district": "丹棱县"
        }
    },
    {
        "id": "17672983733780699545",
        "title": "公共厕所",
        "address": "四川省眉山市彭山区上岷江路与县长寿广场步行街交叉口西南方向24米左右",
        "tel": "",
        "category": "基础设施:公共设施:公共厕所",
        "type": 0,
        "location": {
            "lat": 30.192138,
            "lng": 103.878462
        },
        "ad_info": {
            "adcode": 511403,
            "province": "四川省",
            "city": "眉山市",
            "district": "彭山区"
        }
    },
    {
        "id": "786832542918015615",
        "title": "公共厕所",
        "address": "四川省眉山市青神县民主街锦绣小区A5区",
        "tel": "",
        "category": "基础设施:公共设施:公共厕所",
        "type": 0,
        "location": {
            "lat": 29.83542,
            "lng": 103.84154
        },
        "ad_info": {
            "adcode": 511425,
            "province": "四川省",
            "city": "眉山市",
            "district": "青神县"
        }
    },
    {
        "id": "7591394032413276586",
        "title": "公共厕所",
        "address": "四川省眉山市青神县乐青路与罗青路交叉口东380米",
        "tel": "",
        "category": "基础设施:公共设施:公共厕所",
        "type": 0,
        "location": {
            "lat": 29.751772,
            "lng": 103.736882
        },
        "ad_info": {
            "adcode": 511425,
            "province": "四川省",
            "city": "眉山市",
            "district": "青神县"
        }
    },
    {
        "id": "18060301044288043865",
        "title": "公共厕所",
        "address": "四川省眉山市仁寿县仁人路与仁里路交叉口西南方向80米左右",
        "tel": "",
        "category": "基础设施:公共设施:公共厕所",
        "type": 0,
        "location": {
            "lat": 29.990825,
            "lng": 104.130755
        },
        "ad_info": {
            "adcode": 511421,
            "province": "四川省",
            "city": "眉山市",
            "district": "仁寿县"
        }
    },
    {
        "id": "16528196355611345640",
        "title": "公共厕所",
        "address": "四川省眉山市彭山区G245与凤鸣大道一段交叉口正北方向878米左右",
        "tel": "",
        "category": "基础设施:公共设施:公共厕所",
        "type": 0,
        "location": {
            "lat": 30.229689,
            "lng": 103.874437
        },
        "ad_info": {
            "adcode": 511403,
            "province": "四川省",
            "city": "眉山市",
            "district": "彭山区"
        }
    },
    {
        "id": "4826306360314740425",
        "title": "旅游公共厕所",
        "address": "四川省眉山市丹棱县巽崖路与滨河南路交叉口西北方向42米左右",
        "tel": "",
        "category": "基础设施:公共设施:公共厕所",
        "type": 0,
        "location": {
            "lat": 30.01046,
            "lng": 103.510466
        },
        "ad_info": {
            "adcode": 511424,
            "province": "四川省",
            "city": "眉山市",
            "district": "丹棱县"
        }
    },
    {
        "id": "12562084732209281409",
        "title": "公共厕所",
        "address": "四川省眉山市仁寿县G351与X061交叉口正北方向42米左右",
        "tel": "",
        "category": "基础设施:公共设施:公共厕所",
        "type": 0,
        "location": {
            "lat": 30.023663,
            "lng": 103.979555
        },
        "ad_info": {
            "adcode": 511421,
            "province": "四川省",
            "city": "眉山市",
            "district": "仁寿县"
        }
    },
    {
        "id": "14352279214793595755",
        "title": "公共厕所",
        "address": "四川省眉山市彭山区岷江大桥与彭里路交叉口东北方向145米左右",
        "tel": "",
        "category": "基础设施:公共设施:公共厕所",
        "type": 0,
        "location": {
            "lat": 30.207898,
            "lng": 103.896849
        },
        "ad_info": {
            "adcode": 511403,
            "province": "四川省",
            "city": "眉山市",
            "district": "彭山区"
        }
    },
    {
        "id": "11698221771761001403",
        "title": "公共厕所",
        "address": "四川省眉山市东坡区科工园一路阳光新城-1号",
        "tel": "",
        "category": "基础设施:公共设施:公共厕所",
        "type": 0,
        "location": {
            "lat": 30.082078,
            "lng": 103.837371
        },
        "ad_info": {
            "adcode": 511402,
            "province": "四川省",
            "city": "眉山市",
            "district": "东坡区"
        }
    },
    {
        "id": "7433099963282155200",
        "title": "公共厕所",
        "address": "四川省眉山市洪雅县新希望乳业阳坪中心奶站西侧110米",
        "tel": "",
        "category": "基础设施:公共设施:公共厕所",
        "type": 0,
        "location": {
            "lat": 29.885076,
            "lng": 103.365302
        },
        "ad_info": {
            "adcode": 511423,
            "province": "四川省",
            "city": "眉山市",
            "district": "洪雅县"
        }
    },
    {
        "id": "4593026368374507194",
        "title": "公共厕所",
        "address": "四川省眉山市东坡区仁寿路北段与植物园路交叉口西北方向230米左右",
        "tel": "",
        "category": "基础设施:公共设施:公共厕所",
        "type": 0,
        "location": {
            "lat": 30.074378,
            "lng": 103.9067
        },
        "ad_info": {
            "adcode": 511402,
            "province": "四川省",
            "city": "眉山市",
            "district": "东坡区"
        }
    },
    {
        "id": "17403545880315032278",
        "title": "公共厕所",
        "address": "四川省眉山市仁寿县仁富路与天府仁寿大道交叉口正西方向416米左右",
        "tel": "",
        "category": "基础设施:公共设施:公共厕所",
        "type": 0,
        "location": {
            "lat": 29.976494,
            "lng": 104.183752
        },
        "ad_info": {
            "adcode": 511421,
            "province": "四川省",
            "city": "眉山市",
            "district": "仁寿县"
        }
    },
    {
        "id": "3007023782587012601",
        "title": "公共厕所",
        "address": "四川省眉山市洪雅县新希望乳业示范奶牛场西南侧170米",
        "tel": "",
        "category": "基础设施:公共设施:公共厕所",
        "type": 0,
        "location": {
            "lat": 29.883712,
            "lng": 103.368396
        },
        "ad_info": {
            "adcode": 511423,
            "province": "四川省",
            "city": "眉山市",
            "district": "洪雅县"
        }
    },
    {
        "id": "6083637181794628377",
        "title": "公共厕所",
        "address": "四川省眉山市彭山区锦江镇卫生院南侧",
        "tel": "",
        "category": "基础设施:公共设施:公共厕所",
        "type": 0,
        "location": {
            "lat": 30.30184,
            "lng": 103.942775
        },
        "ad_info": {
            "adcode": 511403,
            "province": "四川省",
            "city": "眉山市",
            "district": "彭山区"
        }
    },
    {
        "id": "13631529591243945211",
        "title": "公共厕所",
        "address": "四川省眉山市东坡区岷江大道西段与顺河街交叉口西南方向131米左右",
        "tel": "",
        "category": "基础设施:公共设施:公共厕所",
        "type": 0,
        "location": {
            "lat": 30.068928,
            "lng": 103.826765
        },
        "ad_info": {
            "adcode": 511402,
            "province": "四川省",
            "city": "眉山市",
            "district": "东坡区"
        }
    },
    {
        "id": "7991477169858812831",
        "title": "公共厕所",
        "address": "四川省眉山市东坡区学士街香颂城",
        "tel": "",
        "category": "基础设施:公共设施:公共厕所",
        "type": 0,
        "location": {
            "lat": 30.061459,
            "lng": 103.837653
        },
        "ad_info": {
            "adcode": 511402,
            "province": "四川省",
            "city": "眉山市",
            "district": "东坡区"
        }
    },
    {
        "id": "15082189439300799568",
        "title": "公共厕所",
        "address": "四川省眉山市东坡区湖滨路南四段与环湖路东二段交叉口东北方向41米左右",
        "tel": "",
        "category": "基础设施:公共设施:公共厕所",
        "type": 0,
        "location": {
            "lat": 30.043527,
            "lng": 103.853975
        },
        "ad_info": {
            "adcode": 511402,
            "province": "四川省",
            "city": "眉山市",
            "district": "东坡区"
        }
    },
    {
        "id": "8058468064565703054",
        "title": "公共厕所",
        "address": "四川省眉山市洪雅县文化街与中正街交叉口东北120米",
        "tel": "",
        "category": "基础设施:公共设施:公共厕所",
        "type": 0,
        "location": {
            "lat": 29.905526,
            "lng": 103.374452
        },
        "ad_info": {
            "adcode": 511423,
            "province": "四川省",
            "city": "眉山市",
            "district": "洪雅县"
        }
    },
    {
        "id": "3432301611912178384",
        "title": "公共厕所",
        "address": "四川省眉山市彭山区凤鸣大道三段中国石油彭山城南加油站",
        "tel": "",
        "category": "基础设施:公共设施:公共厕所",
        "type": 0,
        "location": {
            "lat": 30.183074,
            "lng": 103.872154
        },
        "ad_info": {
            "adcode": 511403,
            "province": "四川省",
            "city": "眉山市",
            "district": "彭山区"
        }
    },
    {
        "id": "10992826259044642250",
        "title": "公共厕所",
        "address": "四川省眉山市仁寿县围城路与新华路交叉口西北方向131米左右",
        "tel": "",
        "category": "基础设施:公共设施:公共厕所",
        "type": 0,
        "location": {
            "lat": 29.744583,
            "lng": 104.332841
        },
        "ad_info": {
            "adcode": 511421,
            "province": "四川省",
            "city": "眉山市",
            "district": "仁寿县"
        }
    },
    {
        "id": "12425759991538010646",
        "title": "公共厕所",
        "address": "四川省眉山市彭山区古城北路与彭祖大道二段辅路交叉口正东方向70米左右",
        "tel": "",
        "category": "基础设施:公共设施:公共厕所",
        "type": 0,
        "location": {
            "lat": 30.196507,
            "lng": 103.871513
        },
        "ad_info": {
            "adcode": 511403,
            "province": "四川省",
            "city": "眉山市",
            "district": "彭山区"
        }
    },
    {
        "id": "14555394065403667906",
        "title": "文宫服务区公共厕所",
        "address": "四川省眉山市仁寿县都市圈环线高速与蓉遵高速交叉口正北方向1897米左右",
        "tel": "",
        "category": "基础设施:公共设施:公共厕所",
        "type": 0,
        "location": {
            "lat": 30.147978,
            "lng": 104.19954
        },
        "ad_info": {
            "adcode": 511421,
            "province": "四川省",
            "city": "眉山市",
            "district": "仁寿县"
        }
    },
    {
        "id": "8291911550145286864",
        "title": "肯德基-洗手间",
        "address": "四川省眉山市东坡区三苏大道东段168号眉山华地恒通广场3层",
        "tel": "",
        "category": "基础设施:公共设施:公共厕所",
        "type": 0,
        "location": {
            "lat": 30.054002,
            "lng": 103.831821
        },
        "ad_info": {
            "adcode": 511402,
            "province": "四川省",
            "city": "眉山市",
            "district": "东坡区"
        }
    },
    {
        "id": "410712987429273221",
        "title": "公共厕所",
        "address": "四川省眉山市丹棱县正街259号",
        "tel": "",
        "category": "基础设施:公共设施:公共厕所",
        "type": 0,
        "location": {
            "lat": 30.013971,
            "lng": 103.517248
        },
        "ad_info": {
            "adcode": 511424,
            "province": "四川省",
            "city": "眉山市",
            "district": "丹棱县"
        }
    },
    {
        "id": "5668959857128604667",
        "title": "公共厕所",
        "address": "四川省眉山市东坡区永新村综合文化室西北侧",
        "tel": "",
        "category": "基础设施:公共设施:公共厕所",
        "type": 0,
        "location": {
            "lat": 29.987558,
            "lng": 103.8545
        },
        "ad_info": {
            "adcode": 511402,
            "province": "四川省",
            "city": "眉山市",
            "district": "东坡区"
        }
    },
    {
        "id": "6569289295971238605",
        "title": "黑龙滩服务区公共厕所",
        "address": "四川省眉山市仁寿县光明大道与新环湖西路交叉口西北方向772米左右",
        "tel": "",
        "category": "基础设施:公共设施:公共厕所",
        "type": 0,
        "location": {
            "lat": 30.151396,
            "lng": 104.021898
        },
        "ad_info": {
            "adcode": 511421,
            "province": "四川省",
            "city": "眉山市",
            "district": "仁寿县"
        }
    },
    {
        "id": "15937010452345416710",
        "title": "公共厕所",
        "address": "四川省眉山市东坡区G245与千禾大道交叉口正南方向148米左右",
        "tel": "",
        "category": "基础设施:公共设施:公共厕所",
        "type": 0,
        "location": {
            "lat": 30.022423,
            "lng": 103.802774
        },
        "ad_info": {
            "adcode": 511402,
            "province": "四川省",
            "city": "眉山市",
            "district": "东坡区"
        }
    },
    {
        "id": "17677491065306336483",
        "title": "公共厕所",
        "address": "四川省眉山市东坡区湖滨路3号",
        "tel": "",
        "category": "基础设施:公共设施:公共厕所",
        "type": 0,
        "location": {
            "lat": 30.051203,
            "lng": 103.854394
        },
        "ad_info": {
            "adcode": 511402,
            "province": "四川省",
            "city": "眉山市",
            "district": "东坡区"
        }
    },
    {
        "id": "11618836772837993160",
        "title": "三苏服务区第二公共厕所",
        "address": "四川省眉山市东坡区Y013与丹思路交叉口正东方向831米左右",
        "tel": "",
        "category": "基础设施:公共设施:公共厕所",
        "type": 0,
        "location": {
            "lat": 29.977124,
            "lng": 103.58869
        },
        "ad_info": {
            "adcode": 511402,
            "province": "四川省",
            "city": "眉山市",
            "district": "东坡区"
        }
    },
    {
        "id": "7040080763613808383",
        "title": "公共厕所",
        "address": "四川省眉山市东坡区顺江大道北段万景东岸雅院",
        "tel": "",
        "category": "基础设施:公共设施:公共厕所",
        "type": 0,
        "location": {
            "lat": 30.026415,
            "lng": 103.852211
        },
        "ad_info": {
            "adcode": 511402,
            "province": "四川省",
            "city": "眉山市",
            "district": "东坡区"
        }
    },
    {
        "id": "3045867125460618045",
        "title": "公共厕所",
        "address": "四川省眉山市青神县上牛市街与乐青路交叉口正北方向488米左右",
        "tel": "",
        "category": "基础设施:公共设施:公共厕所",
        "type": 0,
        "location": {
            "lat": 29.812941,
            "lng": 103.843402
        },
        "ad_info": {
            "adcode": 511425,
            "province": "四川省",
            "city": "眉山市",
            "district": "青神县"
        }
    },
    {
        "id": "2206162714991187634",
        "title": "公共厕所",
        "address": "四川省眉山市东坡区彭寿街与湖滨路中三段交叉口正西方向180米左右",
        "tel": "",
        "category": "基础设施:公共设施:公共厕所",
        "type": 0,
        "location": {
            "lat": 30.065779,
            "lng": 103.854855
        },
        "ad_info": {
            "adcode": 511402,
            "province": "四川省",
            "city": "眉山市",
            "district": "东坡区"
        }
    },
    {
        "id": "4610671668066136288",
        "title": "公共厕所",
        "address": "四川省眉山市洪雅县兴业路与洪州大道交叉口正西方向140米左右",
        "tel": "",
        "category": "基础设施:公共设施:公共厕所",
        "type": 0,
        "location": {
            "lat": 29.91441,
            "lng": 103.360077
        },
        "ad_info": {
            "adcode": 511423,
            "province": "四川省",
            "city": "眉山市",
            "district": "洪雅县"
        }
    },
    {
        "id": "15012109316810973600",
        "title": "公共厕所",
        "address": "四川省眉山市东坡区一环南路448号",
        "tel": "",
        "category": "基础设施:公共设施:公共厕所",
        "type": 0,
        "location": {
            "lat": 30.038118,
            "lng": 103.822173
        },
        "ad_info": {
            "adcode": 511402,
            "province": "四川省",
            "city": "眉山市",
            "district": "东坡区"
        }
    },
    {
        "id": "5986221149099771446",
        "title": "公共厕所",
        "address": "四川省眉山市仁寿县文林路二段与顺河街交叉口东南方向51米左右",
        "tel": "",
        "category": "基础设施:公共设施:公共厕所",
        "type": 0,
        "location": {
            "lat": 29.995569,
            "lng": 104.13009
        },
        "ad_info": {
            "adcode": 511421,
            "province": "四川省",
            "city": "眉山市",
            "district": "仁寿县"
        }
    },
    {
        "id": "16460020049697035702",
        "title": "领秀东方公共厕所",
        "address": "四川省眉山市东坡区苏堤南路与苏堤路交叉口正北方向89米左右",
        "tel": "",
        "category": "基础设施:公共设施:公共厕所",
        "type": 0,
        "location": {
            "lat": 30.034677,
            "lng": 103.847357
        },
        "ad_info": {
            "adcode": 511402,
            "province": "四川省",
            "city": "眉山市",
            "district": "东坡区"
        }
    },
    {
        "id": "5658770048235148138",
        "title": "公共厕所",
        "address": "四川省眉山市东坡区大林路与彭寿街交叉口正北方向552米左右",
        "tel": "",
        "category": "基础设施:公共设施:公共厕所",
        "type": 0,
        "location": {
            "lat": 30.098187,
            "lng": 103.855192
        },
        "ad_info": {
            "adcode": 511402,
            "province": "四川省",
            "city": "眉山市",
            "district": "东坡区"
        }
    },
    {
        "id": "8068727076825424697",
        "title": "三苏祠公共厕所",
        "address": "四川省眉山市东坡区下西街与落虹巷交叉口西南方向88米左右",
        "tel": "",
        "category": "基础设施:公共设施:公共厕所",
        "type": 0,
        "location": {
            "lat": 30.042255,
            "lng": 103.829933
        },
        "ad_info": {
            "adcode": 511402,
            "province": "四川省",
            "city": "眉山市",
            "district": "东坡区"
        }
    },
    {
        "id": "14273230307365266250",
        "title": "公共厕所",
        "address": "四川省眉山市洪雅县修文路三段与青云街交叉口东240米",
        "tel": "",
        "category": "基础设施:公共设施:公共厕所",
        "type": 0,
        "location": {
            "lat": 29.905844,
            "lng": 103.38355
        },
        "ad_info": {
            "adcode": 511423,
            "province": "四川省",
            "city": "眉山市",
            "district": "洪雅县"
        }
    },
    {
        "id": "17084289684269515073",
        "title": "公共厕所",
        "address": "四川省眉山市洪雅县云海路与兰溪路交叉口西南方向34米左右",
        "tel": "",
        "category": "基础设施:公共设施:公共厕所",
        "type": 0,
        "location": {
            "lat": 29.634801,
            "lng": 103.08736
        },
        "ad_info": {
            "adcode": 511423,
            "province": "四川省",
            "city": "眉山市",
            "district": "洪雅县"
        }
    },
    {
        "id": "6229929100631715064",
        "title": "公共厕所",
        "address": "四川省眉山市仁寿县光荣巷与迎宾大道交叉口东北方向39米左右",
        "tel": "",
        "category": "基础设施:公共设施:公共厕所",
        "type": 0,
        "location": {
            "lat": 30.008855,
            "lng": 104.15357
        },
        "ad_info": {
            "adcode": 511421,
            "province": "四川省",
            "city": "眉山市",
            "district": "仁寿县"
        }
    },
    {
        "id": "5276614114543440005",
        "title": "公共厕所",
        "address": "四川省眉山市青神县鸿化路西门广场(东侧)",
        "tel": "",
        "category": "基础设施:公共设施:公共厕所",
        "type": 0,
        "location": {
            "lat": 29.833598,
            "lng": 103.839019
        },
        "ad_info": {
            "adcode": 511425,
            "province": "四川省",
            "city": "眉山市",
            "district": "青神县"
        }
    },
    {
        "id": "14974221713043814810",
        "title": "公共厕所",
        "address": "四川省眉山市洪雅县兴盛街与青衣街交叉口西北方向451米左右",
        "tel": "",
        "category": "基础设施:公共设施:公共厕所",
        "type": 0,
        "location": {
            "lat": 29.877265,
            "lng": 103.194769
        },
        "ad_info": {
            "adcode": 511423,
            "province": "四川省",
            "city": "眉山市",
            "district": "洪雅县"
        }
    },
    {
        "id": "6979396093915983489",
        "title": "公共厕所",
        "address": "四川省眉山市东坡区民福街与渝州路交叉口正北方向89米左右",
        "tel": "",
        "category": "基础设施:公共设施:公共厕所",
        "type": 0,
        "location": {
            "lat": 30.054082,
            "lng": 103.842428
        },
        "ad_info": {
            "adcode": 511402,
            "province": "四川省",
            "city": "眉山市",
            "district": "东坡区"
        }
    },
    {
        "id": "2867052997464903292",
        "title": "公共厕所",
        "address": "四川省眉山市东坡区G245与X214交叉口正南方向120米左右",
        "tel": "",
        "category": "基础设施:公共设施:公共厕所",
        "type": 0,
        "location": {
            "lat": 30.109326,
            "lng": 103.857803
        },
        "ad_info": {
            "adcode": 511402,
            "province": "四川省",
            "city": "眉山市",
            "district": "东坡区"
        }
    },
    {
        "id": "11529782055632087388",
        "title": "女洗手间",
        "address": "四川省眉山市洪雅县七里坪镇垃圾分类投放点东侧",
        "tel": "",
        "category": "基础设施:公共设施:公共厕所",
        "type": 0,
        "location": {
            "lat": 29.668196,
            "lng": 103.327673
        },
        "ad_info": {
            "adcode": 511423,
            "province": "四川省",
            "city": "眉山市",
            "district": "洪雅县"
        }
    },
    {
        "id": "4530377342599850039",
        "title": "公共厕所",
        "address": "四川省眉山市东坡区滨江大道与齐通路东五段交叉口正北方向91米左右",
        "tel": "",
        "category": "基础设施:公共设施:公共厕所",
        "type": 0,
        "location": {
            "lat": 30.080779,
            "lng": 103.883353
        },
        "ad_info": {
            "adcode": 511402,
            "province": "四川省",
            "city": "眉山市",
            "district": "东坡区"
        }
    },
    {
        "id": "15548779940186047304",
        "title": "公共厕所",
        "address": "四川省眉山市东坡区湖滨路中一段与湖滨路中二段交叉口正东方向72米左右",
        "tel": "",
        "category": "基础设施:公共设施:公共厕所",
        "type": 0,
        "location": {
            "lat": 30.065545,
            "lng": 103.869793
        },
        "ad_info": {
            "adcode": 511402,
            "province": "四川省",
            "city": "眉山市",
            "district": "东坡区"
        }
    },
    {
        "id": "7384780758172689644",
        "title": "公共厕所",
        "address": "四川省眉山市彭山区莲花公墓乘龙墓区北侧",
        "tel": "",
        "category": "基础设施:公共设施:公共厕所",
        "type": 0,
        "location": {
            "lat": 30.308289,
            "lng": 103.965563
        },
        "ad_info": {
            "adcode": 511403,
            "province": "四川省",
            "city": "眉山市",
            "district": "彭山区"
        }
    },
    {
        "id": "2145374339885593900",
        "title": "公共厕所",
        "address": "四川省眉山市洪雅县九胜大道一段与文化街交叉口东南40米",
        "tel": "",
        "category": "基础设施:公共设施:公共厕所",
        "type": 0,
        "location": {
            "lat": 29.910038,
            "lng": 103.377113
        },
        "ad_info": {
            "adcode": 511423,
            "province": "四川省",
            "city": "眉山市",
            "district": "洪雅县"
        }
    },
    {
        "id": "16288788994054225021",
        "title": "公共厕所",
        "address": "四川省眉山市东坡区蓬莱南路49号,51号",
        "tel": "",
        "category": "基础设施:公共设施:公共厕所",
        "type": 0,
        "location": {
            "lat": 30.033426,
            "lng": 103.825348
        },
        "ad_info": {
            "adcode": 511402,
            "province": "四川省",
            "city": "眉山市",
            "district": "东坡区"
        }
    },
    {
        "id": "14276276572664865991",
        "title": "公共厕所",
        "address": "四川省眉山市丹棱县母店街与洪丹路交叉口正西方向449米左右",
        "tel": "",
        "category": "基础设施:公共设施:公共厕所",
        "type": 0,
        "location": {
            "lat": 29.968903,
            "lng": 103.442626
        },
        "ad_info": {
            "adcode": 511424,
            "province": "四川省",
            "city": "眉山市",
            "district": "丹棱县"
        }
    },
    {
        "id": "4286396293333744571",
        "title": "公共厕所",
        "address": "四川省眉山市东坡区云桥街149号",
        "tel": "",
        "category": "基础设施:公共设施:公共厕所",
        "type": 0,
        "location": {
            "lat": 30.004642,
            "lng": 103.71817
        },
        "ad_info": {
            "adcode": 511402,
            "province": "四川省",
            "city": "眉山市",
            "district": "东坡区"
        }
    },
    {
        "id": "15674311325361313345",
        "title": "公共厕所",
        "address": "四川省眉山市洪雅县文昌路与青云街交叉口东南方向107米左右",
        "tel": "",
        "category": "基础设施:公共设施:公共厕所",
        "type": 0,
        "location": {
            "lat": 29.89986,
            "lng": 103.381294
        },
        "ad_info": {
            "adcode": 511423,
            "province": "四川省",
            "city": "眉山市",
            "district": "洪雅县"
        }
    },
    {
        "id": "13234030231310348702",
        "title": "公共厕所",
        "address": "四川省眉山市东坡区湖滨路南3段-90",
        "tel": "",
        "category": "基础设施:公共设施:公共厕所",
        "type": 0,
        "location": {
            "lat": 30.053245,
            "lng": 103.853569
        },
        "ad_info": {
            "adcode": 511402,
            "province": "四川省",
            "city": "眉山市",
            "district": "东坡区"
        }
    },
    {
        "id": "13863062527035468405",
        "title": "公共厕所",
        "address": "四川省眉山市彭山区建设路100号",
        "tel": "",
        "category": "基础设施:公共设施:公共厕所",
        "type": 0,
        "location": {
            "lat": 30.19299,
            "lng": 103.866587
        },
        "ad_info": {
            "adcode": 511403,
            "province": "四川省",
            "city": "眉山市",
            "district": "彭山区"
        }
    },
    {
        "id": "5266130809550535557",
        "title": "公共厕所",
        "address": "四川省眉山市东坡区清影路与苏堤路交叉口东北方向131米左右",
        "tel": "",
        "category": "基础设施:公共设施:公共厕所",
        "type": 0,
        "location": {
            "lat": 30.042962,
            "lng": 103.860167
        },
        "ad_info": {
            "adcode": 511402,
            "province": "四川省",
            "city": "眉山市",
            "district": "东坡区"
        }
    },
    {
        "id": "12493704401159521918",
        "title": "谢安服务区公共厕所",
        "address": "四川省眉山市仁寿县S4成宜昭高速与谢安服务区交叉口西南500米",
        "tel": "",
        "category": "基础设施:公共设施:公共厕所",
        "type": 0,
        "location": {
            "lat": 30.039812,
            "lng": 104.372077
        },
        "ad_info": {
            "adcode": 511421,
            "province": "四川省",
            "city": "眉山市",
            "district": "仁寿县"
        }
    },
    {
        "id": "2730840903269418998",
        "title": "公共厕所",
        "address": "四川省眉山市东坡区同升大道一段与迈驰大道二段交叉口西北方向266米左右",
        "tel": "",
        "category": "基础设施:公共设施:公共厕所",
        "type": 0,
        "location": {
            "lat": 29.947083,
            "lng": 103.693843
        },
        "ad_info": {
            "adcode": 511402,
            "province": "四川省",
            "city": "眉山市",
            "district": "东坡区"
        }
    },
    {
        "id": "6711408361056360486",
        "title": "洪雅停车区公共厕所",
        "address": "四川省眉山市洪雅县S40遂洪高速附近",
        "tel": "",
        "category": "基础设施:公共设施:公共厕所",
        "type": 0,
        "location": {
            "lat": 29.940148,
            "lng": 103.39619
        },
        "ad_info": {
            "adcode": 511423,
            "province": "四川省",
            "city": "眉山市",
            "district": "洪雅县"
        }
    },
    {
        "id": "13402165979763053793",
        "title": "公共厕所",
        "address": "四川省眉山市青神县机械大道与眉青公路交叉口东南方向160米左右",
        "tel": "",
        "category": "基础设施:公共设施:公共厕所",
        "type": 0,
        "location": {
            "lat": 29.838422,
            "lng": 103.836675
        },
        "ad_info": {
            "adcode": 511425,
            "province": "四川省",
            "city": "眉山市",
            "district": "青神县"
        }
    },
    {
        "id": "10692975746094602927",
        "title": "505厂象耳小区公共厕所",
        "address": "四川省眉山市东坡区505二区东南侧",
        "tel": "",
        "category": "基础设施:公共设施:公共厕所",
        "type": 0,
        "location": {
            "lat": 30.056902,
            "lng": 103.790698
        },
        "ad_info": {
            "adcode": 511402,
            "province": "四川省",
            "city": "眉山市",
            "district": "东坡区"
        }
    },
    {
        "id": "6571849819340254168",
        "title": "多悦镇林埂村广场公共厕所",
        "address": "四川省眉山市东坡区林埂村新时代文明实践站东侧",
        "tel": "",
        "category": "基础设施:公共设施:公共厕所",
        "type": 0,
        "location": {
            "lat": 30.168855,
            "lng": 103.720816
        },
        "ad_info": {
            "adcode": 511402,
            "province": "四川省",
            "city": "眉山市",
            "district": "东坡区"
        }
    },
    {
        "id": "8692852161934885377",
        "title": "公共厕所",
        "address": "四川省眉山市东坡区永通北街98号",
        "tel": "",
        "category": "基础设施:公共设施:公共厕所",
        "type": 0,
        "location": {
            "lat": 30.037346,
            "lng": 103.824836
        },
        "ad_info": {
            "adcode": 511402,
            "province": "四川省",
            "city": "眉山市",
            "district": "东坡区"
        }
    },
    {
        "id": "9798796861766965116",
        "title": "公共厕所",
        "address": "四川省眉山市仁寿县大化镇鸿升综合市场内",
        "tel": "",
        "category": "基础设施:公共设施:公共厕所",
        "type": 0,
        "location": {
            "lat": 30.080825,
            "lng": 104.151431
        },
        "ad_info": {
            "adcode": 511421,
            "province": "四川省",
            "city": "眉山市",
            "district": "仁寿县"
        }
    },
    {
        "id": "5271823080650288525",
        "title": "勤乐村公共厕所",
        "address": "四川省眉山市仁寿县慈勤路",
        "tel": "",
        "category": "基础设施:公共设施:公共厕所",
        "type": 0,
        "location": {
            "lat": 29.728685,
            "lng": 104.160348
        },
        "ad_info": {
            "adcode": 511421,
            "province": "四川省",
            "city": "眉山市",
            "district": "仁寿县"
        }
    },
    {
        "id": "8759772701109591009",
        "title": "公共厕所",
        "address": "四川省眉山市东坡区景贤街与阜成路东一段交叉口东北方向89米左右",
        "tel": "",
        "category": "基础设施:公共设施:公共厕所",
        "type": 0,
        "location": {
            "lat": 30.079201,
            "lng": 103.854263
        },
        "ad_info": {
            "adcode": 511402,
            "province": "四川省",
            "city": "眉山市",
            "district": "东坡区"
        }
    },
    {
        "id": "15548779940186047304",
        "title": "公共厕所",
        "address": "四川省眉山市东坡区湖滨路中一段与湖滨路中二段交叉口正东方向72米左右",
        "tel": "",
        "category": "基础设施:公共设施:公共厕所",
        "type": 0,
        "location": {
            "lat": 30.065545,
            "lng": 103.869793
        },
        "ad_info": {
            "adcode": 511402,
            "province": "四川省",
            "city": "眉山市",
            "district": "东坡区"
        }
    },
    {
        "id": "7384780758172689644",
        "title": "公共厕所",
        "address": "四川省眉山市彭山区莲花公墓乘龙墓区北侧",
        "tel": "",
        "category": "基础设施:公共设施:公共厕所",
        "type": 0,
        "location": {
            "lat": 30.308289,
            "lng": 103.965563
        },
        "ad_info": {
            "adcode": 511403,
            "province": "四川省",
            "city": "眉山市",
            "district": "彭山区"
        }
    },
    {
        "id": "2145374339885593900",
        "title": "公共厕所",
        "address": "四川省眉山市洪雅县九胜大道一段与文化街交叉口东南40米",
        "tel": "",
        "category": "基础设施:公共设施:公共厕所",
        "type": 0,
        "location": {
            "lat": 29.910038,
            "lng": 103.377113
        },
        "ad_info": {
            "adcode": 511423,
            "province": "四川省",
            "city": "眉山市",
            "district": "洪雅县"
        }
    },
    {
        "id": "16288788994054225021",
        "title": "公共厕所",
        "address": "四川省眉山市东坡区蓬莱南路49号,51号",
        "tel": "",
        "category": "基础设施:公共设施:公共厕所",
        "type": 0,
        "location": {
            "lat": 30.033426,
            "lng": 103.825348
        },
        "ad_info": {
            "adcode": 511402,
            "province": "四川省",
            "city": "眉山市",
            "district": "东坡区"
        }
    },
    {
        "id": "14276276572664865991",
        "title": "公共厕所",
        "address": "四川省眉山市丹棱县母店街与洪丹路交叉口正西方向449米左右",
        "tel": "",
        "category": "基础设施:公共设施:公共厕所",
        "type": 0,
        "location": {
            "lat": 29.968903,
            "lng": 103.442626
        },
        "ad_info": {
            "adcode": 511424,
            "province": "四川省",
            "city": "眉山市",
            "district": "丹棱县"
        }
    },
    {
        "id": "4286396293333744571",
        "title": "公共厕所",
        "address": "四川省眉山市东坡区云桥街149号",
        "tel": "",
        "category": "基础设施:公共设施:公共厕所",
        "type": 0,
        "location": {
            "lat": 30.004642,
            "lng": 103.71817
        },
        "ad_info": {
            "adcode": 511402,
            "province": "四川省",
            "city": "眉山市",
            "district": "东坡区"
        }
    },
    {
        "id": "15674311325361313345",
        "title": "公共厕所",
        "address": "四川省眉山市洪雅县文昌路与青云街交叉口东南方向107米左右",
        "tel": "",
        "category": "基础设施:公共设施:公共厕所",
        "type": 0,
        "location": {
            "lat": 29.89986,
            "lng": 103.381294
        },
        "ad_info": {
            "adcode": 511423,
            "province": "四川省",
            "city": "眉山市",
            "district": "洪雅县"
        }
    },
    {
        "id": "13234030231310348702",
        "title": "公共厕所",
        "address": "四川省眉山市东坡区湖滨路南3段-90",
        "tel": "",
        "category": "基础设施:公共设施:公共厕所",
        "type": 0,
        "location": {
            "lat": 30.053245,
            "lng": 103.853569
        },
        "ad_info": {
            "adcode": 511402,
            "province": "四川省",
            "city": "眉山市",
            "district": "东坡区"
        }
    },
    {
        "id": "13863062527035468405",
        "title": "公共厕所",
        "address": "四川省眉山市彭山区建设路100号",
        "tel": "",
        "category": "基础设施:公共设施:公共厕所",
        "type": 0,
        "location": {
            "lat": 30.19299,
            "lng": 103.866587
        },
        "ad_info": {
            "adcode": 511403,
            "province": "四川省",
            "city": "眉山市",
            "district": "彭山区"
        }
    },
    {
        "id": "5266130809550535557",
        "title": "公共厕所",
        "address": "四川省眉山市东坡区清影路与苏堤路交叉口东北方向131米左右",
        "tel": "",
        "category": "基础设施:公共设施:公共厕所",
        "type": 0,
        "location": {
            "lat": 30.042962,
            "lng": 103.860167
        },
        "ad_info": {
            "adcode": 511402,
            "province": "四川省",
            "city": "眉山市",
            "district": "东坡区"
        }
    },
    {
        "id": "12493704401159521918",
        "title": "谢安服务区公共厕所",
        "address": "四川省眉山市仁寿县S4成宜昭高速与谢安服务区交叉口西南500米",
        "tel": "",
        "category": "基础设施:公共设施:公共厕所",
        "type": 0,
        "location": {
            "lat": 30.039812,
            "lng": 104.372077
        },
        "ad_info": {
            "adcode": 511421,
            "province": "四川省",
            "city": "眉山市",
            "district": "仁寿县"
        }
    },
    {
        "id": "2730840903269418998",
        "title": "公共厕所",
        "address": "四川省眉山市东坡区同升大道一段与迈驰大道二段交叉口西北方向266米左右",
        "tel": "",
        "category": "基础设施:公共设施:公共厕所",
        "type": 0,
        "location": {
            "lat": 29.947083,
            "lng": 103.693843
        },
        "ad_info": {
            "adcode": 511402,
            "province": "四川省",
            "city": "眉山市",
            "district": "东坡区"
        }
    },
    {
        "id": "6711408361056360486",
        "title": "洪雅停车区公共厕所",
        "address": "四川省眉山市洪雅县S40遂洪高速附近",
        "tel": "",
        "category": "基础设施:公共设施:公共厕所",
        "type": 0,
        "location": {
            "lat": 29.940148,
            "lng": 103.39619
        },
        "ad_info": {
            "adcode": 511423,
            "province": "四川省",
            "city": "眉山市",
            "district": "洪雅县"
        }
    },
    {
        "id": "13402165979763053793",
        "title": "公共厕所",
        "address": "四川省眉山市青神县机械大道与眉青公路交叉口东南方向160米左右",
        "tel": "",
        "category": "基础设施:公共设施:公共厕所",
        "type": 0,
        "location": {
            "lat": 29.838422,
            "lng": 103.836675
        },
        "ad_info": {
            "adcode": 511425,
            "province": "四川省",
            "city": "眉山市",
            "district": "青神县"
        }
    },
    {
        "id": "10692975746094602927",
        "title": "505厂象耳小区公共厕所",
        "address": "四川省眉山市东坡区505二区东南侧",
        "tel": "",
        "category": "基础设施:公共设施:公共厕所",
        "type": 0,
        "location": {
            "lat": 30.056902,
            "lng": 103.790698
        },
        "ad_info": {
            "adcode": 511402,
            "province": "四川省",
            "city": "眉山市",
            "district": "东坡区"
        }
    },
    {
        "id": "6571849819340254168",
        "title": "多悦镇林埂村广场公共厕所",
        "address": "四川省眉山市东坡区林埂村新时代文明实践站东侧",
        "tel": "",
        "category": "基础设施:公共设施:公共厕所",
        "type": 0,
        "location": {
            "lat": 30.168855,
            "lng": 103.720816
        },
        "ad_info": {
            "adcode": 511402,
            "province": "四川省",
            "city": "眉山市",
            "district": "东坡区"
        }
    },
    {
        "id": "8692852161934885377",
        "title": "公共厕所",
        "address": "四川省眉山市东坡区永通北街98号",
        "tel": "",
        "category": "基础设施:公共设施:公共厕所",
        "type": 0,
        "location": {
            "lat": 30.037346,
            "lng": 103.824836
        },
        "ad_info": {
            "adcode": 511402,
            "province": "四川省",
            "city": "眉山市",
            "district": "东坡区"
        }
    },
    {
        "id": "9798796861766965116",
        "title": "公共厕所",
        "address": "四川省眉山市仁寿县大化镇鸿升综合市场内",
        "tel": "",
        "category": "基础设施:公共设施:公共厕所",
        "type": 0,
        "location": {
            "lat": 30.080825,
            "lng": 104.151431
        },
        "ad_info": {
            "adcode": 511421,
            "province": "四川省",
            "city": "眉山市",
            "district": "仁寿县"
        }
    },
    {
        "id": "5271823080650288525",
        "title": "勤乐村公共厕所",
        "address": "四川省眉山市仁寿县慈勤路",
        "tel": "",
        "category": "基础设施:公共设施:公共厕所",
        "type": 0,
        "location": {
            "lat": 29.728685,
            "lng": 104.160348
        },
        "ad_info": {
            "adcode": 511421,
            "province": "四川省",
            "city": "眉山市",
            "district": "仁寿县"
        }
    },
    {
        "id": "8759772701109591009",
        "title": "公共厕所",
        "address": "四川省眉山市东坡区景贤街与阜成路东一段交叉口东北方向89米左右",
        "tel": "",
        "category": "基础设施:公共设施:公共厕所",
        "type": 0,
        "location": {
            "lat": 30.079201,
            "lng": 103.854263
        },
        "ad_info": {
            "adcode": 511402,
            "province": "四川省",
            "city": "眉山市",
            "district": "东坡区"
        }
    },
    {
        "id": "15548779940186047304",
        "title": "公共厕所",
        "address": "四川省眉山市东坡区湖滨路中一段与湖滨路中二段交叉口正东方向72米左右",
        "tel": "",
        "category": "基础设施:公共设施:公共厕所",
        "type": 0,
        "location": {
            "lat": 30.065545,
            "lng": 103.869793
        },
        "ad_info": {
            "adcode": 511402,
            "province": "四川省",
            "city": "眉山市",
            "district": "东坡区"
        }
    },
    {
        "id": "7384780758172689644",
        "title": "公共厕所",
        "address": "四川省眉山市彭山区莲花公墓乘龙墓区北侧",
        "tel": "",
        "category": "基础设施:公共设施:公共厕所",
        "type": 0,
        "location": {
            "lat": 30.308289,
            "lng": 103.965563
        },
        "ad_info": {
            "adcode": 511403,
            "province": "四川省",
            "city": "眉山市",
            "district": "彭山区"
        }
    },
    {
        "id": "2145374339885593900",
        "title": "公共厕所",
        "address": "四川省眉山市洪雅县九胜大道一段与文化街交叉口东南40米",
        "tel": "",
        "category": "基础设施:公共设施:公共厕所",
        "type": 0,
        "location": {
            "lat": 29.910038,
            "lng": 103.377113
        },
        "ad_info": {
            "adcode": 511423,
            "province": "四川省",
            "city": "眉山市",
            "district": "洪雅县"
        }
    },
    {
        "id": "16288788994054225021",
        "title": "公共厕所",
        "address": "四川省眉山市东坡区蓬莱南路49号,51号",
        "tel": "",
        "category": "基础设施:公共设施:公共厕所",
        "type": 0,
        "location": {
            "lat": 30.033426,
            "lng": 103.825348
        },
        "ad_info": {
            "adcode": 511402,
            "province": "四川省",
            "city": "眉山市",
            "district": "东坡区"
        }
    },
    {
        "id": "14276276572664865991",
        "title": "公共厕所",
        "address": "四川省眉山市丹棱县母店街与洪丹路交叉口正西方向449米左右",
        "tel": "",
        "category": "基础设施:公共设施:公共厕所",
        "type": 0,
        "location": {
            "lat": 29.968903,
            "lng": 103.442626
        },
        "ad_info": {
            "adcode": 511424,
            "province": "四川省",
            "city": "眉山市",
            "district": "丹棱县"
        }
    },
    {
        "id": "4286396293333744571",
        "title": "公共厕所",
        "address": "四川省眉山市东坡区云桥街149号",
        "tel": "",
        "category": "基础设施:公共设施:公共厕所",
        "type": 0,
        "location": {
            "lat": 30.004642,
            "lng": 103.71817
        },
        "ad_info": {
            "adcode": 511402,
            "province": "四川省",
            "city": "眉山市",
            "district": "东坡区"
        }
    },
    {
        "id": "15674311325361313345",
        "title": "公共厕所",
        "address": "四川省眉山市洪雅县文昌路与青云街交叉口东南方向107米左右",
        "tel": "",
        "category": "基础设施:公共设施:公共厕所",
        "type": 0,
        "location": {
            "lat": 29.89986,
            "lng": 103.381294
        },
        "ad_info": {
            "adcode": 511423,
            "province": "四川省",
            "city": "眉山市",
            "district": "洪雅县"
        }
    },
    {
        "id": "13234030231310348702",
        "title": "公共厕所",
        "address": "四川省眉山市东坡区湖滨路南3段-90",
        "tel": "",
        "category": "基础设施:公共设施:公共厕所",
        "type": 0,
        "location": {
            "lat": 30.053245,
            "lng": 103.853569
        },
        "ad_info": {
            "adcode": 511402,
            "province": "四川省",
            "city": "眉山市",
            "district": "东坡区"
        }
    },
    {
        "id": "13863062527035468405",
        "title": "公共厕所",
        "address": "四川省眉山市彭山区建设路100号",
        "tel": "",
        "category": "基础设施:公共设施:公共厕所",
        "type": 0,
        "location": {
            "lat": 30.19299,
            "lng": 103.866587
        },
        "ad_info": {
            "adcode": 511403,
            "province": "四川省",
            "city": "眉山市",
            "district": "彭山区"
        }
    },
    {
        "id": "5266130809550535557",
        "title": "公共厕所",
        "address": "四川省眉山市东坡区清影路与苏堤路交叉口东北方向131米左右",
        "tel": "",
        "category": "基础设施:公共设施:公共厕所",
        "type": 0,
        "location": {
            "lat": 30.042962,
            "lng": 103.860167
        },
        "ad_info": {
            "adcode": 511402,
            "province": "四川省",
            "city": "眉山市",
            "district": "东坡区"
        }
    },
    {
        "id": "12493704401159521918",
        "title": "谢安服务区公共厕所",
        "address": "四川省眉山市仁寿县S4成宜昭高速与谢安服务区交叉口西南500米",
        "tel": "",
        "category": "基础设施:公共设施:公共厕所",
        "type": 0,
        "location": {
            "lat": 30.039812,
            "lng": 104.372077
        },
        "ad_info": {
            "adcode": 511421,
            "province": "四川省",
            "city": "眉山市",
            "district": "仁寿县"
        }
    },
    {
        "id": "2730840903269418998",
        "title": "公共厕所",
        "address": "四川省眉山市东坡区同升大道一段与迈驰大道二段交叉口西北方向266米左右",
        "tel": "",
        "category": "基础设施:公共设施:公共厕所",
        "type": 0,
        "location": {
            "lat": 29.947083,
            "lng": 103.693843
        },
        "ad_info": {
            "adcode": 511402,
            "province": "四川省",
            "city": "眉山市",
            "district": "东坡区"
        }
    },
    {
        "id": "6711408361056360486",
        "title": "洪雅停车区公共厕所",
        "address": "四川省眉山市洪雅县S40遂洪高速附近",
        "tel": "",
        "category": "基础设施:公共设施:公共厕所",
        "type": 0,
        "location": {
            "lat": 29.940148,
            "lng": 103.39619
        },
        "ad_info": {
            "adcode": 511423,
            "province": "四川省",
            "city": "眉山市",
            "district": "洪雅县"
        }
    },
    {
        "id": "13402165979763053793",
        "title": "公共厕所",
        "address": "四川省眉山市青神县机械大道与眉青公路交叉口东南方向160米左右",
        "tel": "",
        "category": "基础设施:公共设施:公共厕所",
        "type": 0,
        "location": {
            "lat": 29.838422,
            "lng": 103.836675
        },
        "ad_info": {
            "adcode": 511425,
            "province": "四川省",
            "city": "眉山市",
            "district": "青神县"
        }
    },
    {
        "id": "10692975746094602927",
        "title": "505厂象耳小区公共厕所",
        "address": "四川省眉山市东坡区505二区东南侧",
        "tel": "",
        "category": "基础设施:公共设施:公共厕所",
        "type": 0,
        "location": {
            "lat": 30.056902,
            "lng": 103.790698
        },
        "ad_info": {
            "adcode": 511402,
            "province": "四川省",
            "city": "眉山市",
            "district": "东坡区"
        }
    },
    {
        "id": "6571849819340254168",
        "title": "多悦镇林埂村广场公共厕所",
        "address": "四川省眉山市东坡区林埂村新时代文明实践站东侧",
        "tel": "",
        "category": "基础设施:公共设施:公共厕所",
        "type": 0,
        "location": {
            "lat": 30.168855,
            "lng": 103.720816
        },
        "ad_info": {
            "adcode": 511402,
            "province": "四川省",
            "city": "眉山市",
            "district": "东坡区"
        }
    },
    {
        "id": "8692852161934885377",
        "title": "公共厕所",
        "address": "四川省眉山市东坡区永通北街98号",
        "tel": "",
        "category": "基础设施:公共设施:公共厕所",
        "type": 0,
        "location": {
            "lat": 30.037346,
            "lng": 103.824836
        },
        "ad_info": {
            "adcode": 511402,
            "province": "四川省",
            "city": "眉山市",
            "district": "东坡区"
        }
    },
    {
        "id": "9798796861766965116",
        "title": "公共厕所",
        "address": "四川省眉山市仁寿县大化镇鸿升综合市场内",
        "tel": "",
        "category": "基础设施:公共设施:公共厕所",
        "type": 0,
        "location": {
            "lat": 30.080825,
            "lng": 104.151431
        },
        "ad_info": {
            "adcode": 511421,
            "province": "四川省",
            "city": "眉山市",
            "district": "仁寿县"
        }
    },
    {
        "id": "5271823080650288525",
        "title": "勤乐村公共厕所",
        "address": "四川省眉山市仁寿县慈勤路",
        "tel": "",
        "category": "基础设施:公共设施:公共厕所",
        "type": 0,
        "location": {
            "lat": 29.728685,
            "lng": 104.160348
        },
        "ad_info": {
            "adcode": 511421,
            "province": "四川省",
            "city": "眉山市",
            "district": "仁寿县"
        }
    },
    {
        "id": "8759772701109591009",
        "title": "公共厕所",
        "address": "四川省眉山市东坡区景贤街与阜成路东一段交叉口东北方向89米左右",
        "tel": "",
        "category": "基础设施:公共设施:公共厕所",
        "type": 0,
        "location": {
            "lat": 30.079201,
            "lng": 103.854263
        },
        "ad_info": {
            "adcode": 511402,
            "province": "四川省",
            "city": "眉山市",
            "district": "东坡区"
        }
    },
    {
        "id": "15548779940186047304",
        "title": "公共厕所",
        "address": "四川省眉山市东坡区湖滨路中一段与湖滨路中二段交叉口正东方向72米左右",
        "tel": "",
        "category": "基础设施:公共设施:公共厕所",
        "type": 0,
        "location": {
            "lat": 30.065545,
            "lng": 103.869793
        },
        "ad_info": {
            "adcode": 511402,
            "province": "四川省",
            "city": "眉山市",
            "district": "东坡区"
        }
    },
    {
        "id": "7384780758172689644",
        "title": "公共厕所",
        "address": "四川省眉山市彭山区莲花公墓乘龙墓区北侧",
        "tel": "",
        "category": "基础设施:公共设施:公共厕所",
        "type": 0,
        "location": {
            "lat": 30.308289,
            "lng": 103.965563
        },
        "ad_info": {
            "adcode": 511403,
            "province": "四川省",
            "city": "眉山市",
            "district": "彭山区"
        }
    },
    {
        "id": "2145374339885593900",
        "title": "公共厕所",
        "address": "四川省眉山市洪雅县九胜大道一段与文化街交叉口东南40米",
        "tel": "",
        "category": "基础设施:公共设施:公共厕所",
        "type": 0,
        "location": {
            "lat": 29.910038,
            "lng": 103.377113
        },
        "ad_info": {
            "adcode": 511423,
            "province": "四川省",
            "city": "眉山市",
            "district": "洪雅县"
        }
    },
    {
        "id": "16288788994054225021",
        "title": "公共厕所",
        "address": "四川省眉山市东坡区蓬莱南路49号,51号",
        "tel": "",
        "category": "基础设施:公共设施:公共厕所",
        "type": 0,
        "location": {
            "lat": 30.033426,
            "lng": 103.825348
        },
        "ad_info": {
            "adcode": 511402,
            "province": "四川省",
            "city": "眉山市",
            "district": "东坡区"
        }
    },
    {
        "id": "14276276572664865991",
        "title": "公共厕所",
        "address": "四川省眉山市丹棱县母店街与洪丹路交叉口正西方向449米左右",
        "tel": "",
        "category": "基础设施:公共设施:公共厕所",
        "type": 0,
        "location": {
            "lat": 29.968903,
            "lng": 103.442626
        },
        "ad_info": {
            "adcode": 511424,
            "province": "四川省",
            "city": "眉山市",
            "district": "丹棱县"
        }
    },
    {
        "id": "4286396293333744571",
        "title": "公共厕所",
        "address": "四川省眉山市东坡区云桥街149号",
        "tel": "",
        "category": "基础设施:公共设施:公共厕所",
        "type": 0,
        "location": {
            "lat": 30.004642,
            "lng": 103.71817
        },
        "ad_info": {
            "adcode": 511402,
            "province": "四川省",
            "city": "眉山市",
            "district": "东坡区"
        }
    },
    {
        "id": "15674311325361313345",
        "title": "公共厕所",
        "address": "四川省眉山市洪雅县文昌路与青云街交叉口东南方向107米左右",
        "tel": "",
        "category": "基础设施:公共设施:公共厕所",
        "type": 0,
        "location": {
            "lat": 29.89986,
            "lng": 103.381294
        },
        "ad_info": {
            "adcode": 511423,
            "province": "四川省",
            "city": "眉山市",
            "district": "洪雅县"
        }
    },
    {
        "id": "13234030231310348702",
        "title": "公共厕所",
        "address": "四川省眉山市东坡区湖滨路南3段-90",
        "tel": "",
        "category": "基础设施:公共设施:公共厕所",
        "type": 0,
        "location": {
            "lat": 30.053245,
            "lng": 103.853569
        },
        "ad_info": {
            "adcode": 511402,
            "province": "四川省",
            "city": "眉山市",
            "district": "东坡区"
        }
    },
    {
        "id": "13863062527035468405",
        "title": "公共厕所",
        "address": "四川省眉山市彭山区建设路100号",
        "tel": "",
        "category": "基础设施:公共设施:公共厕所",
        "type": 0,
        "location": {
            "lat": 30.19299,
            "lng": 103.866587
        },
        "ad_info": {
            "adcode": 511403,
            "province": "四川省",
            "city": "眉山市",
            "district": "彭山区"
        }
    },
    {
        "id": "5266130809550535557",
        "title": "公共厕所",
        "address": "四川省眉山市东坡区清影路与苏堤路交叉口东北方向131米左右",
        "tel": "",
        "category": "基础设施:公共设施:公共厕所",
        "type": 0,
        "location": {
            "lat": 30.042962,
            "lng": 103.860167
        },
        "ad_info": {
            "adcode": 511402,
            "province": "四川省",
            "city": "眉山市",
            "district": "东坡区"
        }
    },
    {
        "id": "12493704401159521918",
        "title": "谢安服务区公共厕所",
        "address": "四川省眉山市仁寿县S4成宜昭高速与谢安服务区交叉口西南500米",
        "tel": "",
        "category": "基础设施:公共设施:公共厕所",
        "type": 0,
        "location": {
            "lat": 30.039812,
            "lng": 104.372077
        },
        "ad_info": {
            "adcode": 511421,
            "province": "四川省",
            "city": "眉山市",
            "district": "仁寿县"
        }
    },
    {
        "id": "2730840903269418998",
        "title": "公共厕所",
        "address": "四川省眉山市东坡区同升大道一段与迈驰大道二段交叉口西北方向266米左右",
        "tel": "",
        "category": "基础设施:公共设施:公共厕所",
        "type": 0,
        "location": {
            "lat": 29.947083,
            "lng": 103.693843
        },
        "ad_info": {
            "adcode": 511402,
            "province": "四川省",
            "city": "眉山市",
            "district": "东坡区"
        }
    },
    {
        "id": "6711408361056360486",
        "title": "洪雅停车区公共厕所",
        "address": "四川省眉山市洪雅县S40遂洪高速附近",
        "tel": "",
        "category": "基础设施:公共设施:公共厕所",
        "type": 0,
        "location": {
            "lat": 29.940148,
            "lng": 103.39619
        },
        "ad_info": {
            "adcode": 511423,
            "province": "四川省",
            "city": "眉山市",
            "district": "洪雅县"
        }
    },
    {
        "id": "13402165979763053793",
        "title": "公共厕所",
        "address": "四川省眉山市青神县机械大道与眉青公路交叉口东南方向160米左右",
        "tel": "",
        "category": "基础设施:公共设施:公共厕所",
        "type": 0,
        "location": {
            "lat": 29.838422,
            "lng": 103.836675
        },
        "ad_info": {
            "adcode": 511425,
            "province": "四川省",
            "city": "眉山市",
            "district": "青神县"
        }
    },
    {
        "id": "10692975746094602927",
        "title": "505厂象耳小区公共厕所",
        "address": "四川省眉山市东坡区505二区东南侧",
        "tel": "",
        "category": "基础设施:公共设施:公共厕所",
        "type": 0,
        "location": {
            "lat": 30.056902,
            "lng": 103.790698
        },
        "ad_info": {
            "adcode": 511402,
            "province": "四川省",
            "city": "眉山市",
            "district": "东坡区"
        }
    },
    {
        "id": "6571849819340254168",
        "title": "多悦镇林埂村广场公共厕所",
        "address": "四川省眉山市东坡区林埂村新时代文明实践站东侧",
        "tel": "",
        "category": "基础设施:公共设施:公共厕所",
        "type": 0,
        "location": {
            "lat": 30.168855,
            "lng": 103.720816
        },
        "ad_info": {
            "adcode": 511402,
            "province": "四川省",
            "city": "眉山市",
            "district": "东坡区"
        }
    },
    {
        "id": "8692852161934885377",
        "title": "公共厕所",
        "address": "四川省眉山市东坡区永通北街98号",
        "tel": "",
        "category": "基础设施:公共设施:公共厕所",
        "type": 0,
        "location": {
            "lat": 30.037346,
            "lng": 103.824836
        },
        "ad_info": {
            "adcode": 511402,
            "province": "四川省",
            "city": "眉山市",
            "district": "东坡区"
        }
    },
    {
        "id": "9798796861766965116",
        "title": "公共厕所",
        "address": "四川省眉山市仁寿县大化镇鸿升综合市场内",
        "tel": "",
        "category": "基础设施:公共设施:公共厕所",
        "type": 0,
        "location": {
            "lat": 30.080825,
            "lng": 104.151431
        },
        "ad_info": {
            "adcode": 511421,
            "province": "四川省",
            "city": "眉山市",
            "district": "仁寿县"
        }
    },
    {
        "id": "5271823080650288525",
        "title": "勤乐村公共厕所",
        "address": "四川省眉山市仁寿县慈勤路",
        "tel": "",
        "category": "基础设施:公共设施:公共厕所",
        "type": 0,
        "location": {
            "lat": 29.728685,
            "lng": 104.160348
        },
        "ad_info": {
            "adcode": 511421,
            "province": "四川省",
            "city": "眉山市",
            "district": "仁寿县"
        }
    },
    {
        "id": "8759772701109591009",
        "title": "公共厕所",
        "address": "四川省眉山市东坡区景贤街与阜成路东一段交叉口东北方向89米左右",
        "tel": "",
        "category": "基础设施:公共设施:公共厕所",
        "type": 0,
        "location": {
            "lat": 30.079201,
            "lng": 103.854263
        },
        "ad_info": {
            "adcode": 511402,
            "province": "四川省",
            "city": "眉山市",
            "district": "东坡区"
        }
    },
    {
        "id": "15548779940186047304",
        "title": "公共厕所",
        "address": "四川省眉山市东坡区湖滨路中一段与湖滨路中二段交叉口正东方向72米左右",
        "tel": "",
        "category": "基础设施:公共设施:公共厕所",
        "type": 0,
        "location": {
            "lat": 30.065545,
            "lng": 103.869793
        },
        "ad_info": {
            "adcode": 511402,
            "province": "四川省",
            "city": "眉山市",
            "district": "东坡区"
        }
    },
    {
        "id": "7384780758172689644",
        "title": "公共厕所",
        "address": "四川省眉山市彭山区莲花公墓乘龙墓区北侧",
        "tel": "",
        "category": "基础设施:公共设施:公共厕所",
        "type": 0,
        "location": {
            "lat": 30.308289,
            "lng": 103.965563
        },
        "ad_info": {
            "adcode": 511403,
            "province": "四川省",
            "city": "眉山市",
            "district": "彭山区"
        }
    },
    {
        "id": "2145374339885593900",
        "title": "公共厕所",
        "address": "四川省眉山市洪雅县九胜大道一段与文化街交叉口东南40米",
        "tel": "",
        "category": "基础设施:公共设施:公共厕所",
        "type": 0,
        "location": {
            "lat": 29.910038,
            "lng": 103.377113
        },
        "ad_info": {
            "adcode": 511423,
            "province": "四川省",
            "city": "眉山市",
            "district": "洪雅县"
        }
    },
    {
        "id": "16288788994054225021",
        "title": "公共厕所",
        "address": "四川省眉山市东坡区蓬莱南路49号,51号",
        "tel": "",
        "category": "基础设施:公共设施:公共厕所",
        "type": 0,
        "location": {
            "lat": 30.033426,
            "lng": 103.825348
        },
        "ad_info": {
            "adcode": 511402,
            "province": "四川省",
            "city": "眉山市",
            "district": "东坡区"
        }
    },
    {
        "id": "14276276572664865991",
        "title": "公共厕所",
        "address": "四川省眉山市丹棱县母店街与洪丹路交叉口正西方向449米左右",
        "tel": "",
        "category": "基础设施:公共设施:公共厕所",
        "type": 0,
        "location": {
            "lat": 29.968903,
            "lng": 103.442626
        },
        "ad_info": {
            "adcode": 511424,
            "province": "四川省",
            "city": "眉山市",
            "district": "丹棱县"
        }
    },
    {
        "id": "4286396293333744571",
        "title": "公共厕所",
        "address": "四川省眉山市东坡区云桥街149号",
        "tel": "",
        "category": "基础设施:公共设施:公共厕所",
        "type": 0,
        "location": {
            "lat": 30.004642,
            "lng": 103.71817
        },
        "ad_info": {
            "adcode": 511402,
            "province": "四川省",
            "city": "眉山市",
            "district": "东坡区"
        }
    },
    {
        "id": "15674311325361313345",
        "title": "公共厕所",
        "address": "四川省眉山市洪雅县文昌路与青云街交叉口东南方向107米左右",
        "tel": "",
        "category": "基础设施:公共设施:公共厕所",
        "type": 0,
        "location": {
            "lat": 29.89986,
            "lng": 103.381294
        },
        "ad_info": {
            "adcode": 511423,
            "province": "四川省",
            "city": "眉山市",
            "district": "洪雅县"
        }
    },
    {
        "id": "13234030231310348702",
        "title": "公共厕所",
        "address": "四川省眉山市东坡区湖滨路南3段-90",
        "tel": "",
        "category": "基础设施:公共设施:公共厕所",
        "type": 0,
        "location": {
            "lat": 30.053245,
            "lng": 103.853569
        },
        "ad_info": {
            "adcode": 511402,
            "province": "四川省",
            "city": "眉山市",
            "district": "东坡区"
        }
    },
    {
        "id": "13863062527035468405",
        "title": "公共厕所",
        "address": "四川省眉山市彭山区建设路100号",
        "tel": "",
        "category": "基础设施:公共设施:公共厕所",
        "type": 0,
        "location": {
            "lat": 30.19299,
            "lng": 103.866587
        },
        "ad_info": {
            "adcode": 511403,
            "province": "四川省",
            "city": "眉山市",
            "district": "彭山区"
        }
    },
    {
        "id": "5266130809550535557",
        "title": "公共厕所",
        "address": "四川省眉山市东坡区清影路与苏堤路交叉口东北方向131米左右",
        "tel": "",
        "category": "基础设施:公共设施:公共厕所",
        "type": 0,
        "location": {
            "lat": 30.042962,
            "lng": 103.860167
        },
        "ad_info": {
            "adcode": 511402,
            "province": "四川省",
            "city": "眉山市",
            "district": "东坡区"
        }
    },
    {
        "id": "12493704401159521918",
        "title": "谢安服务区公共厕所",
        "address": "四川省眉山市仁寿县S4成宜昭高速与谢安服务区交叉口西南500米",
        "tel": "",
        "category": "基础设施:公共设施:公共厕所",
        "type": 0,
        "location": {
            "lat": 30.039812,
            "lng": 104.372077
        },
        "ad_info": {
            "adcode": 511421,
            "province": "四川省",
            "city": "眉山市",
            "district": "仁寿县"
        }
    },
    {
        "id": "2730840903269418998",
        "title": "公共厕所",
        "address": "四川省眉山市东坡区同升大道一段与迈驰大道二段交叉口西北方向266米左右",
        "tel": "",
        "category": "基础设施:公共设施:公共厕所",
        "type": 0,
        "location": {
            "lat": 29.947083,
            "lng": 103.693843
        },
        "ad_info": {
            "adcode": 511402,
            "province": "四川省",
            "city": "眉山市",
            "district": "东坡区"
        }
    },
    {
        "id": "6711408361056360486",
        "title": "洪雅停车区公共厕所",
        "address": "四川省眉山市洪雅县S40遂洪高速附近",
        "tel": "",
        "category": "基础设施:公共设施:公共厕所",
        "type": 0,
        "location": {
            "lat": 29.940148,
            "lng": 103.39619
        },
        "ad_info": {
            "adcode": 511423,
            "province": "四川省",
            "city": "眉山市",
            "district": "洪雅县"
        }
    },
    {
        "id": "13402165979763053793",
        "title": "公共厕所",
        "address": "四川省眉山市青神县机械大道与眉青公路交叉口东南方向160米左右",
        "tel": "",
        "category": "基础设施:公共设施:公共厕所",
        "type": 0,
        "location": {
            "lat": 29.838422,
            "lng": 103.836675
        },
        "ad_info": {
            "adcode": 511425,
            "province": "四川省",
            "city": "眉山市",
            "district": "青神县"
        }
    },
    {
        "id": "10692975746094602927",
        "title": "505厂象耳小区公共厕所",
        "address": "四川省眉山市东坡区505二区东南侧",
        "tel": "",
        "category": "基础设施:公共设施:公共厕所",
        "type": 0,
        "location": {
            "lat": 30.056902,
            "lng": 103.790698
        },
        "ad_info": {
            "adcode": 511402,
            "province": "四川省",
            "city": "眉山市",
            "district": "东坡区"
        }
    },
    {
        "id": "6571849819340254168",
        "title": "多悦镇林埂村广场公共厕所",
        "address": "四川省眉山市东坡区林埂村新时代文明实践站东侧",
        "tel": "",
        "category": "基础设施:公共设施:公共厕所",
        "type": 0,
        "location": {
            "lat": 30.168855,
            "lng": 103.720816
        },
        "ad_info": {
            "adcode": 511402,
            "province": "四川省",
            "city": "眉山市",
            "district": "东坡区"
        }
    },
    {
        "id": "8692852161934885377",
        "title": "公共厕所",
        "address": "四川省眉山市东坡区永通北街98号",
        "tel": "",
        "category": "基础设施:公共设施:公共厕所",
        "type": 0,
        "location": {
            "lat": 30.037346,
            "lng": 103.824836
        },
        "ad_info": {
            "adcode": 511402,
            "province": "四川省",
            "city": "眉山市",
            "district": "东坡区"
        }
    },
    {
        "id": "9798796861766965116",
        "title": "公共厕所",
        "address": "四川省眉山市仁寿县大化镇鸿升综合市场内",
        "tel": "",
        "category": "基础设施:公共设施:公共厕所",
        "type": 0,
        "location": {
            "lat": 30.080825,
            "lng": 104.151431
        },
        "ad_info": {
            "adcode": 511421,
            "province": "四川省",
            "city": "眉山市",
            "district": "仁寿县"
        }
    },
    {
        "id": "5271823080650288525",
        "title": "勤乐村公共厕所",
        "address": "四川省眉山市仁寿县慈勤路",
        "tel": "",
        "category": "基础设施:公共设施:公共厕所",
        "type": 0,
        "location": {
            "lat": 29.728685,
            "lng": 104.160348
        },
        "ad_info": {
            "adcode": 511421,
            "province": "四川省",
            "city": "眉山市",
            "district": "仁寿县"
        }
    },
    {
        "id": "8759772701109591009",
        "title": "公共厕所",
        "address": "四川省眉山市东坡区景贤街与阜成路东一段交叉口东北方向89米左右",
        "tel": "",
        "category": "基础设施:公共设施:公共厕所",
        "type": 0,
        "location": {
            "lat": 30.079201,
            "lng": 103.854263
        },
        "ad_info": {
            "adcode": 511402,
            "province": "四川省",
            "city": "眉山市",
            "district": "东坡区"
        }
    },
    {
        "id": "15548779940186047304",
        "title": "公共厕所",
        "address": "四川省眉山市东坡区湖滨路中一段与湖滨路中二段交叉口正东方向72米左右",
        "tel": "",
        "category": "基础设施:公共设施:公共厕所",
        "type": 0,
        "location": {
            "lat": 30.065545,
            "lng": 103.869793
        },
        "ad_info": {
            "adcode": 511402,
            "province": "四川省",
            "city": "眉山市",
            "district": "东坡区"
        }
    },
    {
        "id": "7384780758172689644",
        "title": "公共厕所",
        "address": "四川省眉山市彭山区莲花公墓乘龙墓区北侧",
        "tel": "",
        "category": "基础设施:公共设施:公共厕所",
        "type": 0,
        "location": {
            "lat": 30.308289,
            "lng": 103.965563
        },
        "ad_info": {
            "adcode": 511403,
            "province": "四川省",
            "city": "眉山市",
            "district": "彭山区"
        }
    },
    {
        "id": "2145374339885593900",
        "title": "公共厕所",
        "address": "四川省眉山市洪雅县九胜大道一段与文化街交叉口东南40米",
        "tel": "",
        "category": "基础设施:公共设施:公共厕所",
        "type": 0,
        "location": {
            "lat": 29.910038,
            "lng": 103.377113
        },
        "ad_info": {
            "adcode": 511423,
            "province": "四川省",
            "city": "眉山市",
            "district": "洪雅县"
        }
    },
    {
        "id": "16288788994054225021",
        "title": "公共厕所",
        "address": "四川省眉山市东坡区蓬莱南路49号,51号",
        "tel": "",
        "category": "基础设施:公共设施:公共厕所",
        "type": 0,
        "location": {
            "lat": 30.033426,
            "lng": 103.825348
        },
        "ad_info": {
            "adcode": 511402,
            "province": "四川省",
            "city": "眉山市",
            "district": "东坡区"
        }
    },
    {
        "id": "14276276572664865991",
        "title": "公共厕所",
        "address": "四川省眉山市丹棱县母店街与洪丹路交叉口正西方向449米左右",
        "tel": "",
        "category": "基础设施:公共设施:公共厕所",
        "type": 0,
        "location": {
            "lat": 29.968903,
            "lng": 103.442626
        },
        "ad_info": {
            "adcode": 511424,
            "province": "四川省",
            "city": "眉山市",
            "district": "丹棱县"
        }
    },
    {
        "id": "4286396293333744571",
        "title": "公共厕所",
        "address": "四川省眉山市东坡区云桥街149号",
        "tel": "",
        "category": "基础设施:公共设施:公共厕所",
        "type": 0,
        "location": {
            "lat": 30.004642,
            "lng": 103.71817
        },
        "ad_info": {
            "adcode": 511402,
            "province": "四川省",
            "city": "眉山市",
            "district": "东坡区"
        }
    },
    {
        "id": "15674311325361313345",
        "title": "公共厕所",
        "address": "四川省眉山市洪雅县文昌路与青云街交叉口东南方向107米左右",
        "tel": "",
        "category": "基础设施:公共设施:公共厕所",
        "type": 0,
        "location": {
            "lat": 29.89986,
            "lng": 103.381294
        },
        "ad_info": {
            "adcode": 511423,
            "province": "四川省",
            "city": "眉山市",
            "district": "洪雅县"
        }
    },
    {
        "id": "13234030231310348702",
        "title": "公共厕所",
        "address": "四川省眉山市东坡区湖滨路南3段-90",
        "tel": "",
        "category": "基础设施:公共设施:公共厕所",
        "type": 0,
        "location": {
            "lat": 30.053245,
            "lng": 103.853569
        },
        "ad_info": {
            "adcode": 511402,
            "province": "四川省",
            "city": "眉山市",
            "district": "东坡区"
        }
    },
    {
        "id": "13863062527035468405",
        "title": "公共厕所",
        "address": "四川省眉山市彭山区建设路100号",
        "tel": "",
        "category": "基础设施:公共设施:公共厕所",
        "type": 0,
        "location": {
            "lat": 30.19299,
            "lng": 103.866587
        },
        "ad_info": {
            "adcode": 511403,
            "province": "四川省",
            "city": "眉山市",
            "district": "彭山区"
        }
    },
    {
        "id": "5266130809550535557",
        "title": "公共厕所",
        "address": "四川省眉山市东坡区清影路与苏堤路交叉口东北方向131米左右",
        "tel": "",
        "category": "基础设施:公共设施:公共厕所",
        "type": 0,
        "location": {
            "lat": 30.042962,
            "lng": 103.860167
        },
        "ad_info": {
            "adcode": 511402,
            "province": "四川省",
            "city": "眉山市",
            "district": "东坡区"
        }
    },
    {
        "id": "12493704401159521918",
        "title": "谢安服务区公共厕所",
        "address": "四川省眉山市仁寿县S4成宜昭高速与谢安服务区交叉口西南500米",
        "tel": "",
        "category": "基础设施:公共设施:公共厕所",
        "type": 0,
        "location": {
            "lat": 30.039812,
            "lng": 104.372077
        },
        "ad_info": {
            "adcode": 511421,
            "province": "四川省",
            "city": "眉山市",
            "district": "仁寿县"
        }
    },
    {
        "id": "2730840903269418998",
        "title": "公共厕所",
        "address": "四川省眉山市东坡区同升大道一段与迈驰大道二段交叉口西北方向266米左右",
        "tel": "",
        "category": "基础设施:公共设施:公共厕所",
        "type": 0,
        "location": {
            "lat": 29.947083,
            "lng": 103.693843
        },
        "ad_info": {
            "adcode": 511402,
            "province": "四川省",
            "city": "眉山市",
            "district": "东坡区"
        }
    },
    {
        "id": "6711408361056360486",
        "title": "洪雅停车区公共厕所",
        "address": "四川省眉山市洪雅县S40遂洪高速附近",
        "tel": "",
        "category": "基础设施:公共设施:公共厕所",
        "type": 0,
        "location": {
            "lat": 29.940148,
            "lng": 103.39619
        },
        "ad_info": {
            "adcode": 511423,
            "province": "四川省",
            "city": "眉山市",
            "district": "洪雅县"
        }
    },
    {
        "id": "13402165979763053793",
        "title": "公共厕所",
        "address": "四川省眉山市青神县机械大道与眉青公路交叉口东南方向160米左右",
        "tel": "",
        "category": "基础设施:公共设施:公共厕所",
        "type": 0,
        "location": {
            "lat": 29.838422,
            "lng": 103.836675
        },
        "ad_info": {
            "adcode": 511425,
            "province": "四川省",
            "city": "眉山市",
            "district": "青神县"
        }
    },
    {
        "id": "10692975746094602927",
        "title": "505厂象耳小区公共厕所",
        "address": "四川省眉山市东坡区505二区东南侧",
        "tel": "",
        "category": "基础设施:公共设施:公共厕所",
        "type": 0,
        "location": {
            "lat": 30.056902,
            "lng": 103.790698
        },
        "ad_info": {
            "adcode": 511402,
            "province": "四川省",
            "city": "眉山市",
            "district": "东坡区"
        }
    },
    {
        "id": "6571849819340254168",
        "title": "多悦镇林埂村广场公共厕所",
        "address": "四川省眉山市东坡区林埂村新时代文明实践站东侧",
        "tel": "",
        "category": "基础设施:公共设施:公共厕所",
        "type": 0,
        "location": {
            "lat": 30.168855,
            "lng": 103.720816
        },
        "ad_info": {
            "adcode": 511402,
            "province": "四川省",
            "city": "眉山市",
            "district": "东坡区"
        }
    },
    {
        "id": "8692852161934885377",
        "title": "公共厕所",
        "address": "四川省眉山市东坡区永通北街98号",
        "tel": "",
        "category": "基础设施:公共设施:公共厕所",
        "type": 0,
        "location": {
            "lat": 30.037346,
            "lng": 103.824836
        },
        "ad_info": {
            "adcode": 511402,
            "province": "四川省",
            "city": "眉山市",
            "district": "东坡区"
        }
    },
    {
        "id": "9798796861766965116",
        "title": "公共厕所",
        "address": "四川省眉山市仁寿县大化镇鸿升综合市场内",
        "tel": "",
        "category": "基础设施:公共设施:公共厕所",
        "type": 0,
        "location": {
            "lat": 30.080825,
            "lng": 104.151431
        },
        "ad_info": {
            "adcode": 511421,
            "province": "四川省",
            "city": "眉山市",
            "district": "仁寿县"
        }
    },
    {
        "id": "5271823080650288525",
        "title": "勤乐村公共厕所",
        "address": "四川省眉山市仁寿县慈勤路",
        "tel": "",
        "category": "基础设施:公共设施:公共厕所",
        "type": 0,
        "location": {
            "lat": 29.728685,
            "lng": 104.160348
        },
        "ad_info": {
            "adcode": 511421,
            "province": "四川省",
            "city": "眉山市",
            "district": "仁寿县"
        }
    },
    {
        "id": "8759772701109591009",
        "title": "公共厕所",
        "address": "四川省眉山市东坡区景贤街与阜成路东一段交叉口东北方向89米左右",
        "tel": "",
        "category": "基础设施:公共设施:公共厕所",
        "type": 0,
        "location": {
            "lat": 30.079201,
            "lng": 103.854263
        },
        "ad_info": {
            "adcode": 511402,
            "province": "四川省",
            "city": "眉山市",
            "district": "东坡区"
        }
    },
    {
        "id": "15548779940186047304",
        "title": "公共厕所",
        "address": "四川省眉山市东坡区湖滨路中一段与湖滨路中二段交叉口正东方向72米左右",
        "tel": "",
        "category": "基础设施:公共设施:公共厕所",
        "type": 0,
        "location": {
            "lat": 30.065545,
            "lng": 103.869793
        },
        "ad_info": {
            "adcode": 511402,
            "province": "四川省",
            "city": "眉山市",
            "district": "东坡区"
        }
    },
    {
        "id": "7384780758172689644",
        "title": "公共厕所",
        "address": "四川省眉山市彭山区莲花公墓乘龙墓区北侧",
        "tel": "",
        "category": "基础设施:公共设施:公共厕所",
        "type": 0,
        "location": {
            "lat": 30.308289,
            "lng": 103.965563
        },
        "ad_info": {
            "adcode": 511403,
            "province": "四川省",
            "city": "眉山市",
            "district": "彭山区"
        }
    },
    {
        "id": "2145374339885593900",
        "title": "公共厕所",
        "address": "四川省眉山市洪雅县九胜大道一段与文化街交叉口东南40米",
        "tel": "",
        "category": "基础设施:公共设施:公共厕所",
        "type": 0,
        "location": {
            "lat": 29.910038,
            "lng": 103.377113
        },
        "ad_info": {
            "adcode": 511423,
            "province": "四川省",
            "city": "眉山市",
            "district": "洪雅县"
        }
    },
    {
        "id": "16288788994054225021",
        "title": "公共厕所",
        "address": "四川省眉山市东坡区蓬莱南路49号,51号",
        "tel": "",
        "category": "基础设施:公共设施:公共厕所",
        "type": 0,
        "location": {
            "lat": 30.033426,
            "lng": 103.825348
        },
        "ad_info": {
            "adcode": 511402,
            "province": "四川省",
            "city": "眉山市",
            "district": "东坡区"
        }
    },
    {
        "id": "14276276572664865991",
        "title": "公共厕所",
        "address": "四川省眉山市丹棱县母店街与洪丹路交叉口正西方向449米左右",
        "tel": "",
        "category": "基础设施:公共设施:公共厕所",
        "type": 0,
        "location": {
            "lat": 29.968903,
            "lng": 103.442626
        },
        "ad_info": {
            "adcode": 511424,
            "province": "四川省",
            "city": "眉山市",
            "district": "丹棱县"
        }
    },
    {
        "id": "4286396293333744571",
        "title": "公共厕所",
        "address": "四川省眉山市东坡区云桥街149号",
        "tel": "",
        "category": "基础设施:公共设施:公共厕所",
        "type": 0,
        "location": {
            "lat": 30.004642,
            "lng": 103.71817
        },
        "ad_info": {
            "adcode": 511402,
            "province": "四川省",
            "city": "眉山市",
            "district": "东坡区"
        }
    },
    {
        "id": "15674311325361313345",
        "title": "公共厕所",
        "address": "四川省眉山市洪雅县文昌路与青云街交叉口东南方向107米左右",
        "tel": "",
        "category": "基础设施:公共设施:公共厕所",
        "type": 0,
        "location": {
            "lat": 29.89986,
            "lng": 103.381294
        },
        "ad_info": {
            "adcode": 511423,
            "province": "四川省",
            "city": "眉山市",
            "district": "洪雅县"
        }
    },
    {
        "id": "13234030231310348702",
        "title": "公共厕所",
        "address": "四川省眉山市东坡区湖滨路南3段-90",
        "tel": "",
        "category": "基础设施:公共设施:公共厕所",
        "type": 0,
        "location": {
            "lat": 30.053245,
            "lng": 103.853569
        },
        "ad_info": {
            "adcode": 511402,
            "province": "四川省",
            "city": "眉山市",
            "district": "东坡区"
        }
    },
    {
        "id": "13863062527035468405",
        "title": "公共厕所",
        "address": "四川省眉山市彭山区建设路100号",
        "tel": "",
        "category": "基础设施:公共设施:公共厕所",
        "type": 0,
        "location": {
            "lat": 30.19299,
            "lng": 103.866587
        },
        "ad_info": {
            "adcode": 511403,
            "province": "四川省",
            "city": "眉山市",
            "district": "彭山区"
        }
    },
    {
        "id": "5266130809550535557",
        "title": "公共厕所",
        "address": "四川省眉山市东坡区清影路与苏堤路交叉口东北方向131米左右",
        "tel": "",
        "category": "基础设施:公共设施:公共厕所",
        "type": 0,
        "location": {
            "lat": 30.042962,
            "lng": 103.860167
        },
        "ad_info": {
            "adcode": 511402,
            "province": "四川省",
            "city": "眉山市",
            "district": "东坡区"
        }
    },
    {
        "id": "12493704401159521918",
        "title": "谢安服务区公共厕所",
        "address": "四川省眉山市仁寿县S4成宜昭高速与谢安服务区交叉口西南500米",
        "tel": "",
        "category": "基础设施:公共设施:公共厕所",
        "type": 0,
        "location": {
            "lat": 30.039812,
            "lng": 104.372077
        },
        "ad_info": {
            "adcode": 511421,
            "province": "四川省",
            "city": "眉山市",
            "district": "仁寿县"
        }
    },
    {
        "id": "2730840903269418998",
        "title": "公共厕所",
        "address": "四川省眉山市东坡区同升大道一段与迈驰大道二段交叉口西北方向266米左右",
        "tel": "",
        "category": "基础设施:公共设施:公共厕所",
        "type": 0,
        "location": {
            "lat": 29.947083,
            "lng": 103.693843
        },
        "ad_info": {
            "adcode": 511402,
            "province": "四川省",
            "city": "眉山市",
            "district": "东坡区"
        }
    },
    {
        "id": "6711408361056360486",
        "title": "洪雅停车区公共厕所",
        "address": "四川省眉山市洪雅县S40遂洪高速附近",
        "tel": "",
        "category": "基础设施:公共设施:公共厕所",
        "type": 0,
        "location": {
            "lat": 29.940148,
            "lng": 103.39619
        },
        "ad_info": {
            "adcode": 511423,
            "province": "四川省",
            "city": "眉山市",
            "district": "洪雅县"
        }
    },
    {
        "id": "13402165979763053793",
        "title": "公共厕所",
        "address": "四川省眉山市青神县机械大道与眉青公路交叉口东南方向160米左右",
        "tel": "",
        "category": "基础设施:公共设施:公共厕所",
        "type": 0,
        "location": {
            "lat": 29.838422,
            "lng": 103.836675
        },
        "ad_info": {
            "adcode": 511425,
            "province": "四川省",
            "city": "眉山市",
            "district": "青神县"
        }
    },
    {
        "id": "10692975746094602927",
        "title": "505厂象耳小区公共厕所",
        "address": "四川省眉山市东坡区505二区东南侧",
        "tel": "",
        "category": "基础设施:公共设施:公共厕所",
        "type": 0,
        "location": {
            "lat": 30.056902,
            "lng": 103.790698
        },
        "ad_info": {
            "adcode": 511402,
            "province": "四川省",
            "city": "眉山市",
            "district": "东坡区"
        }
    },
    {
        "id": "6571849819340254168",
        "title": "多悦镇林埂村广场公共厕所",
        "address": "四川省眉山市东坡区林埂村新时代文明实践站东侧",
        "tel": "",
        "category": "基础设施:公共设施:公共厕所",
        "type": 0,
        "location": {
            "lat": 30.168855,
            "lng": 103.720816
        },
        "ad_info": {
            "adcode": 511402,
            "province": "四川省",
            "city": "眉山市",
            "district": "东坡区"
        }
    },
    {
        "id": "8692852161934885377",
        "title": "公共厕所",
        "address": "四川省眉山市东坡区永通北街98号",
        "tel": "",
        "category": "基础设施:公共设施:公共厕所",
        "type": 0,
        "location": {
            "lat": 30.037346,
            "lng": 103.824836
        },
        "ad_info": {
            "adcode": 511402,
            "province": "四川省",
            "city": "眉山市",
            "district": "东坡区"
        }
    },
    {
        "id": "9798796861766965116",
        "title": "公共厕所",
        "address": "四川省眉山市仁寿县大化镇鸿升综合市场内",
        "tel": "",
        "category": "基础设施:公共设施:公共厕所",
        "type": 0,
        "location": {
            "lat": 30.080825,
            "lng": 104.151431
        },
        "ad_info": {
            "adcode": 511421,
            "province": "四川省",
            "city": "眉山市",
            "district": "仁寿县"
        }
    },
    {
        "id": "5271823080650288525",
        "title": "勤乐村公共厕所",
        "address": "四川省眉山市仁寿县慈勤路",
        "tel": "",
        "category": "基础设施:公共设施:公共厕所",
        "type": 0,
        "location": {
            "lat": 29.728685,
            "lng": 104.160348
        },
        "ad_info": {
            "adcode": 511421,
            "province": "四川省",
            "city": "眉山市",
            "district": "仁寿县"
        }
    },
    {
        "id": "8759772701109591009",
        "title": "公共厕所",
        "address": "四川省眉山市东坡区景贤街与阜成路东一段交叉口东北方向89米左右",
        "tel": "",
        "category": "基础设施:公共设施:公共厕所",
        "type": 0,
        "location": {
            "lat": 30.079201,
            "lng": 103.854263
        },
        "ad_info": {
            "adcode": 511402,
            "province": "四川省",
            "city": "眉山市",
            "district": "东坡区"
        }
    },
    {
        "id": "15548779940186047304",
        "title": "公共厕所",
        "address": "四川省眉山市东坡区湖滨路中一段与湖滨路中二段交叉口正东方向72米左右",
        "tel": "",
        "category": "基础设施:公共设施:公共厕所",
        "type": 0,
        "location": {
            "lat": 30.065545,
            "lng": 103.869793
        },
        "ad_info": {
            "adcode": 511402,
            "province": "四川省",
            "city": "眉山市",
            "district": "东坡区"
        }
    },
    {
        "id": "7384780758172689644",
        "title": "公共厕所",
        "address": "四川省眉山市彭山区莲花公墓乘龙墓区北侧",
        "tel": "",
        "category": "基础设施:公共设施:公共厕所",
        "type": 0,
        "location": {
            "lat": 30.308289,
            "lng": 103.965563
        },
        "ad_info": {
            "adcode": 511403,
            "province": "四川省",
            "city": "眉山市",
            "district": "彭山区"
        }
    },
    {
        "id": "2145374339885593900",
        "title": "公共厕所",
        "address": "四川省眉山市洪雅县九胜大道一段与文化街交叉口东南40米",
        "tel": "",
        "category": "基础设施:公共设施:公共厕所",
        "type": 0,
        "location": {
            "lat": 29.910038,
            "lng": 103.377113
        },
        "ad_info": {
            "adcode": 511423,
            "province": "四川省",
            "city": "眉山市",
            "district": "洪雅县"
        }
    },
    {
        "id": "16288788994054225021",
        "title": "公共厕所",
        "address": "四川省眉山市东坡区蓬莱南路49号,51号",
        "tel": "",
        "category": "基础设施:公共设施:公共厕所",
        "type": 0,
        "location": {
            "lat": 30.033426,
            "lng": 103.825348
        },
        "ad_info": {
            "adcode": 511402,
            "province": "四川省",
            "city": "眉山市",
            "district": "东坡区"
        }
    },
    {
        "id": "14276276572664865991",
        "title": "公共厕所",
        "address": "四川省眉山市丹棱县母店街与洪丹路交叉口正西方向449米左右",
        "tel": "",
        "category": "基础设施:公共设施:公共厕所",
        "type": 0,
        "location": {
            "lat": 29.968903,
            "lng": 103.442626
        },
        "ad_info": {
            "adcode": 511424,
            "province": "四川省",
            "city": "眉山市",
            "district": "丹棱县"
        }
    },
    {
        "id": "4286396293333744571",
        "title": "公共厕所",
        "address": "四川省眉山市东坡区云桥街149号",
        "tel": "",
        "category": "基础设施:公共设施:公共厕所",
        "type": 0,
        "location": {
            "lat": 30.004642,
            "lng": 103.71817
        },
        "ad_info": {
            "adcode": 511402,
            "province": "四川省",
            "city": "眉山市",
            "district": "东坡区"
        }
    },
    {
        "id": "15674311325361313345",
        "title": "公共厕所",
        "address": "四川省眉山市洪雅县文昌路与青云街交叉口东南方向107米左右",
        "tel": "",
        "category": "基础设施:公共设施:公共厕所",
        "type": 0,
        "location": {
            "lat": 29.89986,
            "lng": 103.381294
        },
        "ad_info": {
            "adcode": 511423,
            "province": "四川省",
            "city": "眉山市",
            "district": "洪雅县"
        }
    },
    {
        "id": "13234030231310348702",
        "title": "公共厕所",
        "address": "四川省眉山市东坡区湖滨路南3段-90",
        "tel": "",
        "category": "基础设施:公共设施:公共厕所",
        "type": 0,
        "location": {
            "lat": 30.053245,
            "lng": 103.853569
        },
        "ad_info": {
            "adcode": 511402,
            "province": "四川省",
            "city": "眉山市",
            "district": "东坡区"
        }
    },
    {
        "id": "13863062527035468405",
        "title": "公共厕所",
        "address": "四川省眉山市彭山区建设路100号",
        "tel": "",
        "category": "基础设施:公共设施:公共厕所",
        "type": 0,
        "location": {
            "lat": 30.19299,
            "lng": 103.866587
        },
        "ad_info": {
            "adcode": 511403,
            "province": "四川省",
            "city": "眉山市",
            "district": "彭山区"
        }
    },
    {
        "id": "5266130809550535557",
        "title": "公共厕所",
        "address": "四川省眉山市东坡区清影路与苏堤路交叉口东北方向131米左右",
        "tel": "",
        "category": "基础设施:公共设施:公共厕所",
        "type": 0,
        "location": {
            "lat": 30.042962,
            "lng": 103.860167
        },
        "ad_info": {
            "adcode": 511402,
            "province": "四川省",
            "city": "眉山市",
            "district": "东坡区"
        }
    },
    {
        "id": "12493704401159521918",
        "title": "谢安服务区公共厕所",
        "address": "四川省眉山市仁寿县S4成宜昭高速与谢安服务区交叉口西南500米",
        "tel": "",
        "category": "基础设施:公共设施:公共厕所",
        "type": 0,
        "location": {
            "lat": 30.039812,
            "lng": 104.372077
        },
        "ad_info": {
            "adcode": 511421,
            "province": "四川省",
            "city": "眉山市",
            "district": "仁寿县"
        }
    },
    {
        "id": "2730840903269418998",
        "title": "公共厕所",
        "address": "四川省眉山市东坡区同升大道一段与迈驰大道二段交叉口西北方向266米左右",
        "tel": "",
        "category": "基础设施:公共设施:公共厕所",
        "type": 0,
        "location": {
            "lat": 29.947083,
            "lng": 103.693843
        },
        "ad_info": {
            "adcode": 511402,
            "province": "四川省",
            "city": "眉山市",
            "district": "东坡区"
        }
    },
    {
        "id": "6711408361056360486",
        "title": "洪雅停车区公共厕所",
        "address": "四川省眉山市洪雅县S40遂洪高速附近",
        "tel": "",
        "category": "基础设施:公共设施:公共厕所",
        "type": 0,
        "location": {
            "lat": 29.940148,
            "lng": 103.39619
        },
        "ad_info": {
            "adcode": 511423,
            "province": "四川省",
            "city": "眉山市",
            "district": "洪雅县"
        }
    },
    {
        "id": "13402165979763053793",
        "title": "公共厕所",
        "address": "四川省眉山市青神县机械大道与眉青公路交叉口东南方向160米左右",
        "tel": "",
        "category": "基础设施:公共设施:公共厕所",
        "type": 0,
        "location": {
            "lat": 29.838422,
            "lng": 103.836675
        },
        "ad_info": {
            "adcode": 511425,
            "province": "四川省",
            "city": "眉山市",
            "district": "青神县"
        }
    },
    {
        "id": "10692975746094602927",
        "title": "505厂象耳小区公共厕所",
        "address": "四川省眉山市东坡区505二区东南侧",
        "tel": "",
        "category": "基础设施:公共设施:公共厕所",
        "type": 0,
        "location": {
            "lat": 30.056902,
            "lng": 103.790698
        },
        "ad_info": {
            "adcode": 511402,
            "province": "四川省",
            "city": "眉山市",
            "district": "东坡区"
        }
    },
    {
        "id": "6571849819340254168",
        "title": "多悦镇林埂村广场公共厕所",
        "address": "四川省眉山市东坡区林埂村新时代文明实践站东侧",
        "tel": "",
        "category": "基础设施:公共设施:公共厕所",
        "type": 0,
        "location": {
            "lat": 30.168855,
            "lng": 103.720816
        },
        "ad_info": {
            "adcode": 511402,
            "province": "四川省",
            "city": "眉山市",
            "district": "东坡区"
        }
    },
    {
        "id": "8692852161934885377",
        "title": "公共厕所",
        "address": "四川省眉山市东坡区永通北街98号",
        "tel": "",
        "category": "基础设施:公共设施:公共厕所",
        "type": 0,
        "location": {
            "lat": 30.037346,
            "lng": 103.824836
        },
        "ad_info": {
            "adcode": 511402,
            "province": "四川省",
            "city": "眉山市",
            "district": "东坡区"
        }
    },
    {
        "id": "9798796861766965116",
        "title": "公共厕所",
        "address": "四川省眉山市仁寿县大化镇鸿升综合市场内",
        "tel": "",
        "category": "基础设施:公共设施:公共厕所",
        "type": 0,
        "location": {
            "lat": 30.080825,
            "lng": 104.151431
        },
        "ad_info": {
            "adcode": 511421,
            "province": "四川省",
            "city": "眉山市",
            "district": "仁寿县"
        }
    },
    {
        "id": "5271823080650288525",
        "title": "勤乐村公共厕所",
        "address": "四川省眉山市仁寿县慈勤路",
        "tel": "",
        "category": "基础设施:公共设施:公共厕所",
        "type": 0,
        "location": {
            "lat": 29.728685,
            "lng": 104.160348
        },
        "ad_info": {
            "adcode": 511421,
            "province": "四川省",
            "city": "眉山市",
            "district": "仁寿县"
        }
    },
    {
        "id": "8759772701109591009",
        "title": "公共厕所",
        "address": "四川省眉山市东坡区景贤街与阜成路东一段交叉口东北方向89米左右",
        "tel": "",
        "category": "基础设施:公共设施:公共厕所",
        "type": 0,
        "location": {
            "lat": 30.079201,
            "lng": 103.854263
        },
        "ad_info": {
            "adcode": 511402,
            "province": "四川省",
            "city": "眉山市",
            "district": "东坡区"
        }
    },
    {
        "id": "15548779940186047304",
        "title": "公共厕所",
        "address": "四川省眉山市东坡区湖滨路中一段与湖滨路中二段交叉口正东方向72米左右",
        "tel": "",
        "category": "基础设施:公共设施:公共厕所",
        "type": 0,
        "location": {
            "lat": 30.065545,
            "lng": 103.869793
        },
        "ad_info": {
            "adcode": 511402,
            "province": "四川省",
            "city": "眉山市",
            "district": "东坡区"
        }
    },
    {
        "id": "7384780758172689644",
        "title": "公共厕所",
        "address": "四川省眉山市彭山区莲花公墓乘龙墓区北侧",
        "tel": "",
        "category": "基础设施:公共设施:公共厕所",
        "type": 0,
        "location": {
            "lat": 30.308289,
            "lng": 103.965563
        },
        "ad_info": {
            "adcode": 511403,
            "province": "四川省",
            "city": "眉山市",
            "district": "彭山区"
        }
    },
    {
        "id": "2145374339885593900",
        "title": "公共厕所",
        "address": "四川省眉山市洪雅县九胜大道一段与文化街交叉口东南40米",
        "tel": "",
        "category": "基础设施:公共设施:公共厕所",
        "type": 0,
        "location": {
            "lat": 29.910038,
            "lng": 103.377113
        },
        "ad_info": {
            "adcode": 511423,
            "province": "四川省",
            "city": "眉山市",
            "district": "洪雅县"
        }
    },
    {
        "id": "16288788994054225021",
        "title": "公共厕所",
        "address": "四川省眉山市东坡区蓬莱南路49号,51号",
        "tel": "",
        "category": "基础设施:公共设施:公共厕所",
        "type": 0,
        "location": {
            "lat": 30.033426,
            "lng": 103.825348
        },
        "ad_info": {
            "adcode": 511402,
            "province": "四川省",
            "city": "眉山市",
            "district": "东坡区"
        }
    },
    {
        "id": "14276276572664865991",
        "title": "公共厕所",
        "address": "四川省眉山市丹棱县母店街与洪丹路交叉口正西方向449米左右",
        "tel": "",
        "category": "基础设施:公共设施:公共厕所",
        "type": 0,
        "location": {
            "lat": 29.968903,
            "lng": 103.442626
        },
        "ad_info": {
            "adcode": 511424,
            "province": "四川省",
            "city": "眉山市",
            "district": "丹棱县"
        }
    },
    {
        "id": "4286396293333744571",
        "title": "公共厕所",
        "address": "四川省眉山市东坡区云桥街149号",
        "tel": "",
        "category": "基础设施:公共设施:公共厕所",
        "type": 0,
        "location": {
            "lat": 30.004642,
            "lng": 103.71817
        },
        "ad_info": {
            "adcode": 511402,
            "province": "四川省",
            "city": "眉山市",
            "district": "东坡区"
        }
    },
    {
        "id": "15674311325361313345",
        "title": "公共厕所",
        "address": "四川省眉山市洪雅县文昌路与青云街交叉口东南方向107米左右",
        "tel": "",
        "category": "基础设施:公共设施:公共厕所",
        "type": 0,
        "location": {
            "lat": 29.89986,
            "lng": 103.381294
        },
        "ad_info": {
            "adcode": 511423,
            "province": "四川省",
            "city": "眉山市",
            "district": "洪雅县"
        }
    },
    {
        "id": "13234030231310348702",
        "title": "公共厕所",
        "address": "四川省眉山市东坡区湖滨路南3段-90",
        "tel": "",
        "category": "基础设施:公共设施:公共厕所",
        "type": 0,
        "location": {
            "lat": 30.053245,
            "lng": 103.853569
        },
        "ad_info": {
            "adcode": 511402,
            "province": "四川省",
            "city": "眉山市",
            "district": "东坡区"
        }
    },
    {
        "id": "13863062527035468405",
        "title": "公共厕所",
        "address": "四川省眉山市彭山区建设路100号",
        "tel": "",
        "category": "基础设施:公共设施:公共厕所",
        "type": 0,
        "location": {
            "lat": 30.19299,
            "lng": 103.866587
        },
        "ad_info": {
            "adcode": 511403,
            "province": "四川省",
            "city": "眉山市",
            "district": "彭山区"
        }
    },
    {
        "id": "5266130809550535557",
        "title": "公共厕所",
        "address": "四川省眉山市东坡区清影路与苏堤路交叉口东北方向131米左右",
        "tel": "",
        "category": "基础设施:公共设施:公共厕所",
        "type": 0,
        "location": {
            "lat": 30.042962,
            "lng": 103.860167
        },
        "ad_info": {
            "adcode": 511402,
            "province": "四川省",
            "city": "眉山市",
            "district": "东坡区"
        }
    },
    {
        "id": "12493704401159521918",
        "title": "谢安服务区公共厕所",
        "address": "四川省眉山市仁寿县S4成宜昭高速与谢安服务区交叉口西南500米",
        "tel": "",
        "category": "基础设施:公共设施:公共厕所",
        "type": 0,
        "location": {
            "lat": 30.039812,
            "lng": 104.372077
        },
        "ad_info": {
            "adcode": 511421,
            "province": "四川省",
            "city": "眉山市",
            "district": "仁寿县"
        }
    },
    {
        "id": "2730840903269418998",
        "title": "公共厕所",
        "address": "四川省眉山市东坡区同升大道一段与迈驰大道二段交叉口西北方向266米左右",
        "tel": "",
        "category": "基础设施:公共设施:公共厕所",
        "type": 0,
        "location": {
            "lat": 29.947083,
            "lng": 103.693843
        },
        "ad_info": {
            "adcode": 511402,
            "province": "四川省",
            "city": "眉山市",
            "district": "东坡区"
        }
    },
    {
        "id": "6711408361056360486",
        "title": "洪雅停车区公共厕所",
        "address": "四川省眉山市洪雅县S40遂洪高速附近",
        "tel": "",
        "category": "基础设施:公共设施:公共厕所",
        "type": 0,
        "location": {
            "lat": 29.940148,
            "lng": 103.39619
        },
        "ad_info": {
            "adcode": 511423,
            "province": "四川省",
            "city": "眉山市",
            "district": "洪雅县"
        }
    },
    {
        "id": "13402165979763053793",
        "title": "公共厕所",
        "address": "四川省眉山市青神县机械大道与眉青公路交叉口东南方向160米左右",
        "tel": "",
        "category": "基础设施:公共设施:公共厕所",
        "type": 0,
        "location": {
            "lat": 29.838422,
            "lng": 103.836675
        },
        "ad_info": {
            "adcode": 511425,
            "province": "四川省",
            "city": "眉山市",
            "district": "青神县"
        }
    },
    {
        "id": "10692975746094602927",
        "title": "505厂象耳小区公共厕所",
        "address": "四川省眉山市东坡区505二区东南侧",
        "tel": "",
        "category": "基础设施:公共设施:公共厕所",
        "type": 0,
        "location": {
            "lat": 30.056902,
            "lng": 103.790698
        },
        "ad_info": {
            "adcode": 511402,
            "province": "四川省",
            "city": "眉山市",
            "district": "东坡区"
        }
    },
    {
        "id": "6571849819340254168",
        "title": "多悦镇林埂村广场公共厕所",
        "address": "四川省眉山市东坡区林埂村新时代文明实践站东侧",
        "tel": "",
        "category": "基础设施:公共设施:公共厕所",
        "type": 0,
        "location": {
            "lat": 30.168855,
            "lng": 103.720816
        },
        "ad_info": {
            "adcode": 511402,
            "province": "四川省",
            "city": "眉山市",
            "district": "东坡区"
        }
    },
    {
        "id": "8692852161934885377",
        "title": "公共厕所",
        "address": "四川省眉山市东坡区永通北街98号",
        "tel": "",
        "category": "基础设施:公共设施:公共厕所",
        "type": 0,
        "location": {
            "lat": 30.037346,
            "lng": 103.824836
        },
        "ad_info": {
            "adcode": 511402,
            "province": "四川省",
            "city": "眉山市",
            "district": "东坡区"
        }
    },
    {
        "id": "9798796861766965116",
        "title": "公共厕所",
        "address": "四川省眉山市仁寿县大化镇鸿升综合市场内",
        "tel": "",
        "category": "基础设施:公共设施:公共厕所",
        "type": 0,
        "location": {
            "lat": 30.080825,
            "lng": 104.151431
        },
        "ad_info": {
            "adcode": 511421,
            "province": "四川省",
            "city": "眉山市",
            "district": "仁寿县"
        }
    },
    {
        "id": "5271823080650288525",
        "title": "勤乐村公共厕所",
        "address": "四川省眉山市仁寿县慈勤路",
        "tel": "",
        "category": "基础设施:公共设施:公共厕所",
        "type": 0,
        "location": {
            "lat": 29.728685,
            "lng": 104.160348
        },
        "ad_info": {
            "adcode": 511421,
            "province": "四川省",
            "city": "眉山市",
            "district": "仁寿县"
        }
    },
    {
        "id": "8759772701109591009",
        "title": "公共厕所",
        "address": "四川省眉山市东坡区景贤街与阜成路东一段交叉口东北方向89米左右",
        "tel": "",
        "category": "基础设施:公共设施:公共厕所",
        "type": 0,
        "location": {
            "lat": 30.079201,
            "lng": 103.854263
        },
        "ad_info": {
            "adcode": 511402,
            "province": "四川省",
            "city": "眉山市",
            "district": "东坡区"
        }
    },
    {
        "id": "15548779940186047304",
        "title": "公共厕所",
        "address": "四川省眉山市东坡区湖滨路中一段与湖滨路中二段交叉口正东方向72米左右",
        "tel": "",
        "category": "基础设施:公共设施:公共厕所",
        "type": 0,
        "location": {
            "lat": 30.065545,
            "lng": 103.869793
        },
        "ad_info": {
            "adcode": 511402,
            "province": "四川省",
            "city": "眉山市",
            "district": "东坡区"
        }
    },
    {
        "id": "7384780758172689644",
        "title": "公共厕所",
        "address": "四川省眉山市彭山区莲花公墓乘龙墓区北侧",
        "tel": "",
        "category": "基础设施:公共设施:公共厕所",
        "type": 0,
        "location": {
            "lat": 30.308289,
            "lng": 103.965563
        },
        "ad_info": {
            "adcode": 511403,
            "province": "四川省",
            "city": "眉山市",
            "district": "彭山区"
        }
    },
    {
        "id": "2145374339885593900",
        "title": "公共厕所",
        "address": "四川省眉山市洪雅县九胜大道一段与文化街交叉口东南40米",
        "tel": "",
        "category": "基础设施:公共设施:公共厕所",
        "type": 0,
        "location": {
            "lat": 29.910038,
            "lng": 103.377113
        },
        "ad_info": {
            "adcode": 511423,
            "province": "四川省",
            "city": "眉山市",
            "district": "洪雅县"
        }
    },
    {
        "id": "16288788994054225021",
        "title": "公共厕所",
        "address": "四川省眉山市东坡区蓬莱南路49号,51号",
        "tel": "",
        "category": "基础设施:公共设施:公共厕所",
        "type": 0,
        "location": {
            "lat": 30.033426,
            "lng": 103.825348
        },
        "ad_info": {
            "adcode": 511402,
            "province": "四川省",
            "city": "眉山市",
            "district": "东坡区"
        }
    },
    {
        "id": "14276276572664865991",
        "title": "公共厕所",
        "address": "四川省眉山市丹棱县母店街与洪丹路交叉口正西方向449米左右",
        "tel": "",
        "category": "基础设施:公共设施:公共厕所",
        "type": 0,
        "location": {
            "lat": 29.968903,
            "lng": 103.442626
        },
        "ad_info": {
            "adcode": 511424,
            "province": "四川省",
            "city": "眉山市",
            "district": "丹棱县"
        }
    },
    {
        "id": "4286396293333744571",
        "title": "公共厕所",
        "address": "四川省眉山市东坡区云桥街149号",
        "tel": "",
        "category": "基础设施:公共设施:公共厕所",
        "type": 0,
        "location": {
            "lat": 30.004642,
            "lng": 103.71817
        },
        "ad_info": {
            "adcode": 511402,
            "province": "四川省",
            "city": "眉山市",
            "district": "东坡区"
        }
    },
    {
        "id": "15674311325361313345",
        "title": "公共厕所",
        "address": "四川省眉山市洪雅县文昌路与青云街交叉口东南方向107米左右",
        "tel": "",
        "category": "基础设施:公共设施:公共厕所",
        "type": 0,
        "location": {
            "lat": 29.89986,
            "lng": 103.381294
        },
        "ad_info": {
            "adcode": 511423,
            "province": "四川省",
            "city": "眉山市",
            "district": "洪雅县"
        }
    },
    {
        "id": "13234030231310348702",
        "title": "公共厕所",
        "address": "四川省眉山市东坡区湖滨路南3段-90",
        "tel": "",
        "category": "基础设施:公共设施:公共厕所",
        "type": 0,
        "location": {
            "lat": 30.053245,
            "lng": 103.853569
        },
        "ad_info": {
            "adcode": 511402,
            "province": "四川省",
            "city": "眉山市",
            "district": "东坡区"
        }
    },
    {
        "id": "13863062527035468405",
        "title": "公共厕所",
        "address": "四川省眉山市彭山区建设路100号",
        "tel": "",
        "category": "基础设施:公共设施:公共厕所",
        "type": 0,
        "location": {
            "lat": 30.19299,
            "lng": 103.866587
        },
        "ad_info": {
            "adcode": 511403,
            "province": "四川省",
            "city": "眉山市",
            "district": "彭山区"
        }
    },
    {
        "id": "5266130809550535557",
        "title": "公共厕所",
        "address": "四川省眉山市东坡区清影路与苏堤路交叉口东北方向131米左右",
        "tel": "",
        "category": "基础设施:公共设施:公共厕所",
        "type": 0,
        "location": {
            "lat": 30.042962,
            "lng": 103.860167
        },
        "ad_info": {
            "adcode": 511402,
            "province": "四川省",
            "city": "眉山市",
            "district": "东坡区"
        }
    },
    {
        "id": "12493704401159521918",
        "title": "谢安服务区公共厕所",
        "address": "四川省眉山市仁寿县S4成宜昭高速与谢安服务区交叉口西南500米",
        "tel": "",
        "category": "基础设施:公共设施:公共厕所",
        "type": 0,
        "location": {
            "lat": 30.039812,
            "lng": 104.372077
        },
        "ad_info": {
            "adcode": 511421,
            "province": "四川省",
            "city": "眉山市",
            "district": "仁寿县"
        }
    },
    {
        "id": "2730840903269418998",
        "title": "公共厕所",
        "address": "四川省眉山市东坡区同升大道一段与迈驰大道二段交叉口西北方向266米左右",
        "tel": "",
        "category": "基础设施:公共设施:公共厕所",
        "type": 0,
        "location": {
            "lat": 29.947083,
            "lng": 103.693843
        },
        "ad_info": {
            "adcode": 511402,
            "province": "四川省",
            "city": "眉山市",
            "district": "东坡区"
        }
    },
    {
        "id": "6711408361056360486",
        "title": "洪雅停车区公共厕所",
        "address": "四川省眉山市洪雅县S40遂洪高速附近",
        "tel": "",
        "category": "基础设施:公共设施:公共厕所",
        "type": 0,
        "location": {
            "lat": 29.940148,
            "lng": 103.39619
        },
        "ad_info": {
            "adcode": 511423,
            "province": "四川省",
            "city": "眉山市",
            "district": "洪雅县"
        }
    },
    {
        "id": "13402165979763053793",
        "title": "公共厕所",
        "address": "四川省眉山市青神县机械大道与眉青公路交叉口东南方向160米左右",
        "tel": "",
        "category": "基础设施:公共设施:公共厕所",
        "type": 0,
        "location": {
            "lat": 29.838422,
            "lng": 103.836675
        },
        "ad_info": {
            "adcode": 511425,
            "province": "四川省",
            "city": "眉山市",
            "district": "青神县"
        }
    },
    {
        "id": "10692975746094602927",
        "title": "505厂象耳小区公共厕所",
        "address": "四川省眉山市东坡区505二区东南侧",
        "tel": "",
        "category": "基础设施:公共设施:公共厕所",
        "type": 0,
        "location": {
            "lat": 30.056902,
            "lng": 103.790698
        },
        "ad_info": {
            "adcode": 511402,
            "province": "四川省",
            "city": "眉山市",
            "district": "东坡区"
        }
    },
    {
        "id": "6571849819340254168",
        "title": "多悦镇林埂村广场公共厕所",
        "address": "四川省眉山市东坡区林埂村新时代文明实践站东侧",
        "tel": "",
        "category": "基础设施:公共设施:公共厕所",
        "type": 0,
        "location": {
            "lat": 30.168855,
            "lng": 103.720816
        },
        "ad_info": {
            "adcode": 511402,
            "province": "四川省",
            "city": "眉山市",
            "district": "东坡区"
        }
    },
    {
        "id": "8692852161934885377",
        "title": "公共厕所",
        "address": "四川省眉山市东坡区永通北街98号",
        "tel": "",
        "category": "基础设施:公共设施:公共厕所",
        "type": 0,
        "location": {
            "lat": 30.037346,
            "lng": 103.824836
        },
        "ad_info": {
            "adcode": 511402,
            "province": "四川省",
            "city": "眉山市",
            "district": "东坡区"
        }
    },
    {
        "id": "9798796861766965116",
        "title": "公共厕所",
        "address": "四川省眉山市仁寿县大化镇鸿升综合市场内",
        "tel": "",
        "category": "基础设施:公共设施:公共厕所",
        "type": 0,
        "location": {
            "lat": 30.080825,
            "lng": 104.151431
        },
        "ad_info": {
            "adcode": 511421,
            "province": "四川省",
            "city": "眉山市",
            "district": "仁寿县"
        }
    },
    {
        "id": "5271823080650288525",
        "title": "勤乐村公共厕所",
        "address": "四川省眉山市仁寿县慈勤路",
        "tel": "",
        "category": "基础设施:公共设施:公共厕所",
        "type": 0,
        "location": {
            "lat": 29.728685,
            "lng": 104.160348
        },
        "ad_info": {
            "adcode": 511421,
            "province": "四川省",
            "city": "眉山市",
            "district": "仁寿县"
        }
    },
    {
        "id": "8759772701109591009",
        "title": "公共厕所",
        "address": "四川省眉山市东坡区景贤街与阜成路东一段交叉口东北方向89米左右",
        "tel": "",
        "category": "基础设施:公共设施:公共厕所",
        "type": 0,
        "location": {
            "lat": 30.079201,
            "lng": 103.854263
        },
        "ad_info": {
            "adcode": 511402,
            "province": "四川省",
            "city": "眉山市",
            "district": "东坡区"
        }
    },
    {
        "id": "15548779940186047304",
        "title": "公共厕所",
        "address": "四川省眉山市东坡区湖滨路中一段与湖滨路中二段交叉口正东方向72米左右",
        "tel": "",
        "category": "基础设施:公共设施:公共厕所",
        "type": 0,
        "location": {
            "lat": 30.065545,
            "lng": 103.869793
        },
        "ad_info": {
            "adcode": 511402,
            "province": "四川省",
            "city": "眉山市",
            "district": "东坡区"
        }
    },
    {
        "id": "7384780758172689644",
        "title": "公共厕所",
        "address": "四川省眉山市彭山区莲花公墓乘龙墓区北侧",
        "tel": "",
        "category": "基础设施:公共设施:公共厕所",
        "type": 0,
        "location": {
            "lat": 30.308289,
            "lng": 103.965563
        },
        "ad_info": {
            "adcode": 511403,
            "province": "四川省",
            "city": "眉山市",
            "district": "彭山区"
        }
    },
    {
        "id": "2145374339885593900",
        "title": "公共厕所",
        "address": "四川省眉山市洪雅县九胜大道一段与文化街交叉口东南40米",
        "tel": "",
        "category": "基础设施:公共设施:公共厕所",
        "type": 0,
        "location": {
            "lat": 29.910038,
            "lng": 103.377113
        },
        "ad_info": {
            "adcode": 511423,
            "province": "四川省",
            "city": "眉山市",
            "district": "洪雅县"
        }
    },
    {
        "id": "16288788994054225021",
        "title": "公共厕所",
        "address": "四川省眉山市东坡区蓬莱南路49号,51号",
        "tel": "",
        "category": "基础设施:公共设施:公共厕所",
        "type": 0,
        "location": {
            "lat": 30.033426,
            "lng": 103.825348
        },
        "ad_info": {
            "adcode": 511402,
            "province": "四川省",
            "city": "眉山市",
            "district": "东坡区"
        }
    },
    {
        "id": "14276276572664865991",
        "title": "公共厕所",
        "address": "四川省眉山市丹棱县母店街与洪丹路交叉口正西方向449米左右",
        "tel": "",
        "category": "基础设施:公共设施:公共厕所",
        "type": 0,
        "location": {
            "lat": 29.968903,
            "lng": 103.442626
        },
        "ad_info": {
            "adcode": 511424,
            "province": "四川省",
            "city": "眉山市",
            "district": "丹棱县"
        }
    },
    {
        "id": "4286396293333744571",
        "title": "公共厕所",
        "address": "四川省眉山市东坡区云桥街149号",
        "tel": "",
        "category": "基础设施:公共设施:公共厕所",
        "type": 0,
        "location": {
            "lat": 30.004642,
            "lng": 103.71817
        },
        "ad_info": {
            "adcode": 511402,
            "province": "四川省",
            "city": "眉山市",
            "district": "东坡区"
        }
    },
    {
        "id": "15674311325361313345",
        "title": "公共厕所",
        "address": "四川省眉山市洪雅县文昌路与青云街交叉口东南方向107米左右",
        "tel": "",
        "category": "基础设施:公共设施:公共厕所",
        "type": 0,
        "location": {
            "lat": 29.89986,
            "lng": 103.381294
        },
        "ad_info": {
            "adcode": 511423,
            "province": "四川省",
            "city": "眉山市",
            "district": "洪雅县"
        }
    },
    {
        "id": "13234030231310348702",
        "title": "公共厕所",
        "address": "四川省眉山市东坡区湖滨路南3段-90",
        "tel": "",
        "category": "基础设施:公共设施:公共厕所",
        "type": 0,
        "location": {
            "lat": 30.053245,
            "lng": 103.853569
        },
        "ad_info": {
            "adcode": 511402,
            "province": "四川省",
            "city": "眉山市",
            "district": "东坡区"
        }
    },
    {
        "id": "13863062527035468405",
        "title": "公共厕所",
        "address": "四川省眉山市彭山区建设路100号",
        "tel": "",
        "category": "基础设施:公共设施:公共厕所",
        "type": 0,
        "location": {
            "lat": 30.19299,
            "lng": 103.866587
        },
        "ad_info": {
            "adcode": 511403,
            "province": "四川省",
            "city": "眉山市",
            "district": "彭山区"
        }
    },
    {
        "id": "5266130809550535557",
        "title": "公共厕所",
        "address": "四川省眉山市东坡区清影路与苏堤路交叉口东北方向131米左右",
        "tel": "",
        "category": "基础设施:公共设施:公共厕所",
        "type": 0,
        "location": {
            "lat": 30.042962,
            "lng": 103.860167
        },
        "ad_info": {
            "adcode": 511402,
            "province": "四川省",
            "city": "眉山市",
            "district": "东坡区"
        }
    },
    {
        "id": "12493704401159521918",
        "title": "谢安服务区公共厕所",
        "address": "四川省眉山市仁寿县S4成宜昭高速与谢安服务区交叉口西南500米",
        "tel": "",
        "category": "基础设施:公共设施:公共厕所",
        "type": 0,
        "location": {
            "lat": 30.039812,
            "lng": 104.372077
        },
        "ad_info": {
            "adcode": 511421,
            "province": "四川省",
            "city": "眉山市",
            "district": "仁寿县"
        }
    },
    {
        "id": "2730840903269418998",
        "title": "公共厕所",
        "address": "四川省眉山市东坡区同升大道一段与迈驰大道二段交叉口西北方向266米左右",
        "tel": "",
        "category": "基础设施:公共设施:公共厕所",
        "type": 0,
        "location": {
            "lat": 29.947083,
            "lng": 103.693843
        },
        "ad_info": {
            "adcode": 511402,
            "province": "四川省",
            "city": "眉山市",
            "district": "东坡区"
        }
    },
    {
        "id": "6711408361056360486",
        "title": "洪雅停车区公共厕所",
        "address": "四川省眉山市洪雅县S40遂洪高速附近",
        "tel": "",
        "category": "基础设施:公共设施:公共厕所",
        "type": 0,
        "location": {
            "lat": 29.940148,
            "lng": 103.39619
        },
        "ad_info": {
            "adcode": 511423,
            "province": "四川省",
            "city": "眉山市",
            "district": "洪雅县"
        }
    },
    {
        "id": "13402165979763053793",
        "title": "公共厕所",
        "address": "四川省眉山市青神县机械大道与眉青公路交叉口东南方向160米左右",
        "tel": "",
        "category": "基础设施:公共设施:公共厕所",
        "type": 0,
        "location": {
            "lat": 29.838422,
            "lng": 103.836675
        },
        "ad_info": {
            "adcode": 511425,
            "province": "四川省",
            "city": "眉山市",
            "district": "青神县"
        }
    },
    {
        "id": "10692975746094602927",
        "title": "505厂象耳小区公共厕所",
        "address": "四川省眉山市东坡区505二区东南侧",
        "tel": "",
        "category": "基础设施:公共设施:公共厕所",
        "type": 0,
        "location": {
            "lat": 30.056902,
            "lng": 103.790698
        },
        "ad_info": {
            "adcode": 511402,
            "province": "四川省",
            "city": "眉山市",
            "district": "东坡区"
        }
    },
    {
        "id": "6571849819340254168",
        "title": "多悦镇林埂村广场公共厕所",
        "address": "四川省眉山市东坡区林埂村新时代文明实践站东侧",
        "tel": "",
        "category": "基础设施:公共设施:公共厕所",
        "type": 0,
        "location": {
            "lat": 30.168855,
            "lng": 103.720816
        },
        "ad_info": {
            "adcode": 511402,
            "province": "四川省",
            "city": "眉山市",
            "district": "东坡区"
        }
    },
    {
        "id": "8692852161934885377",
        "title": "公共厕所",
        "address": "四川省眉山市东坡区永通北街98号",
        "tel": "",
        "category": "基础设施:公共设施:公共厕所",
        "type": 0,
        "location": {
            "lat": 30.037346,
            "lng": 103.824836
        },
        "ad_info": {
            "adcode": 511402,
            "province": "四川省",
            "city": "眉山市",
            "district": "东坡区"
        }
    },
    {
        "id": "9798796861766965116",
        "title": "公共厕所",
        "address": "四川省眉山市仁寿县大化镇鸿升综合市场内",
        "tel": "",
        "category": "基础设施:公共设施:公共厕所",
        "type": 0,
        "location": {
            "lat": 30.080825,
            "lng": 104.151431
        },
        "ad_info": {
            "adcode": 511421,
            "province": "四川省",
            "city": "眉山市",
            "district": "仁寿县"
        }
    },
    {
        "id": "5271823080650288525",
        "title": "勤乐村公共厕所",
        "address": "四川省眉山市仁寿县慈勤路",
        "tel": "",
        "category": "基础设施:公共设施:公共厕所",
        "type": 0,
        "location": {
            "lat": 29.728685,
            "lng": 104.160348
        },
        "ad_info": {
            "adcode": 511421,
            "province": "四川省",
            "city": "眉山市",
            "district": "仁寿县"
        }
    },
    {
        "id": "8759772701109591009",
        "title": "公共厕所",
        "address": "四川省眉山市东坡区景贤街与阜成路东一段交叉口东北方向89米左右",
        "tel": "",
        "category": "基础设施:公共设施:公共厕所",
        "type": 0,
        "location": {
            "lat": 30.079201,
            "lng": 103.854263
        },
        "ad_info": {
            "adcode": 511402,
            "province": "四川省",
            "city": "眉山市",
            "district": "东坡区"
        }
    }
]