[
    {
        "id": "13968921151779409076",
        "title": "公共厕所",
        "address": "宁夏回族自治区石嘴山市大武口区朝阳东街海华国际饭店",
        "tel": "",
        "category": "基础设施:公共设施:公共厕所",
        "type": 0,
        "location": {
            "lat": 39.013184,
            "lng": 106.375784
        },
        "ad_info": {
            "adcode": 640202,
            "province": "宁夏回族自治区",
            "city": "石嘴山市",
            "district": "大武口区"
        }
    },
    {
        "id": "15784220871713044134",
        "title": "公共卫生间",
        "address": "宁夏回族自治区石嘴山市大武口区人民路汇美百货(西南角)",
        "tel": "",
        "category": "基础设施:公共设施:公共厕所",
        "type": 0,
        "location": {
            "lat": 39.014298,
            "lng": 106.378374
        },
        "ad_info": {
            "adcode": 640202,
            "province": "宁夏回族自治区",
            "city": "石嘴山市",
            "district": "大武口区"
        }
    },
    {
        "id": "6522703711999118358",
        "title": "公共卫生间",
        "address": "宁夏回族自治区石嘴山市大武口区长庆东街398号",
        "tel": "",
        "category": "基础设施:公共设施:公共厕所",
        "type": 0,
        "location": {
            "lat": 38.991846,
            "lng": 106.369538
        },
        "ad_info": {
            "adcode": 640202,
            "province": "宁夏回族自治区",
            "city": "石嘴山市",
            "district": "大武口区"
        }
    },
    {
        "id": "7590470891507240304",
        "title": "公共厕所",
        "address": "宁夏回族自治区石嘴山市大武口区前进南路与星光大道交叉口正东方向71米左右",
        "tel": "",
        "category": "基础设施:公共设施:公共厕所",
        "type": 0,
        "location": {
            "lat": 38.992107,
            "lng": 106.36126
        },
        "ad_info": {
            "adcode": 640202,
            "province": "宁夏回族自治区",
            "city": "石嘴山市",
            "district": "大武口区"
        }
    },
    {
        "id": "13589516450468439205",
        "title": "公共厕所",
        "address": "宁夏回族自治区石嘴山市大武口区山水大道与隆湖公路交叉口西南方向285米左右",
        "tel": "",
        "category": "基础设施:公共设施:公共厕所",
        "type": 0,
        "location": {
            "lat": 38.974136,
            "lng": 106.426637
        },
        "ad_info": {
            "adcode": 640202,
            "province": "宁夏回族自治区",
            "city": "石嘴山市",
            "district": "大武口区"
        }
    },
    {
        "id": "17710118771291077581",
        "title": "公共厕所",
        "address": "宁夏回族自治区石嘴山市大武口区文明北路与游艺东街交叉口西南方向125米左右",
        "tel": "",
        "category": "基础设施:公共设施:公共厕所",
        "type": 0,
        "location": {
            "lat": 39.01265,
            "lng": 106.379699
        },
        "ad_info": {
            "adcode": 640202,
            "province": "宁夏回族自治区",
            "city": "石嘴山市",
            "district": "大武口区"
        }
    },
    {
        "id": "11358622889497651211",
        "title": "公共卫生间",
        "address": "宁夏回族自治区石嘴山市大武口区前程巷与文明南路交叉口西北方向164米左右",
        "tel": "",
        "category": "基础设施:公共设施:公共厕所",
        "type": 0,
        "location": {
            "lat": 39.007242,
            "lng": 106.370682
        },
        "ad_info": {
            "adcode": 640202,
            "province": "宁夏回族自治区",
            "city": "石嘴山市",
            "district": "大武口区"
        }
    },
    {
        "id": "10114319280722396648",
        "title": "公共厕所",
        "address": "宁夏回族自治区石嘴山市大武口区山水大道与隆湖公路交叉口正南方向609米左右",
        "tel": "",
        "category": "基础设施:公共设施:公共厕所",
        "type": 0,
        "location": {
            "lat": 38.970603,
            "lng": 106.427918
        },
        "ad_info": {
            "adcode": 640202,
            "province": "宁夏回族自治区",
            "city": "石嘴山市",
            "district": "大武口区"
        }
    },
    {
        "id": "323452888741495877",
        "title": "公共厕所",
        "address": "宁夏回族自治区石嘴山市大武口区丽日街丽日花园-五区",
        "tel": "",
        "category": "基础设施:公共设施:公共厕所",
        "type": 0,
        "location": {
            "lat": 38.96943,
            "lng": 106.328706
        },
        "ad_info": {
            "adcode": 640202,
            "province": "宁夏回族自治区",
            "city": "石嘴山市",
            "district": "大武口区"
        }
    },
    {
        "id": "10905959729909903109",
        "title": "公共厕所",
        "address": "宁夏回族自治区石嘴山市大武口区黄河西街309号",
        "tel": "",
        "category": "基础设施:公共设施:公共厕所",
        "type": 0,
        "location": {
            "lat": 39.015608,
            "lng": 106.356922
        },
        "ad_info": {
            "adcode": 640202,
            "province": "宁夏回族自治区",
            "city": "石嘴山市",
            "district": "大武口区"
        }
    },
    {
        "id": "10791303541534962440",
        "title": "公共厕所",
        "address": "宁夏回族自治区石嘴山市大武口区黄河西街484号",
        "tel": "",
        "category": "基础设施:公共设施:公共厕所",
        "type": 0,
        "location": {
            "lat": 39.021928,
            "lng": 106.355383
        },
        "ad_info": {
            "adcode": 640202,
            "province": "宁夏回族自治区",
            "city": "石嘴山市",
            "district": "大武口区"
        }
    },
    {
        "id": "17962186260484278606",
        "title": "公共厕所",
        "address": "宁夏回族自治区石嘴山市平罗县怀远大街与玉皇阁大道交叉口东北方向35米左右",
        "tel": "",
        "category": "基础设施:公共设施:公共厕所",
        "type": 0,
        "location": {
            "lat": 38.912167,
            "lng": 106.520493
        },
        "ad_info": {
            "adcode": 640221,
            "province": "宁夏回族自治区",
            "city": "石嘴山市",
            "district": "平罗县"
        }
    },
    {
        "id": "2064984609863366706",
        "title": "公共厕所",
        "address": "宁夏回族自治区石嘴山市大武口区文化街与隆湖公路交叉口正南方向42米左右",
        "tel": "",
        "category": "基础设施:公共设施:公共厕所",
        "type": 0,
        "location": {
            "lat": 38.928178,
            "lng": 106.360097
        },
        "ad_info": {
            "adcode": 640202,
            "province": "宁夏回族自治区",
            "city": "石嘴山市",
            "district": "大武口区"
        }
    },
    {
        "id": "3080922208016920003",
        "title": "公共厕所",
        "address": "宁夏回族自治区石嘴山市大武口区解放东街215号",
        "tel": "",
        "category": "基础设施:公共设施:公共厕所",
        "type": 0,
        "location": {
            "lat": 39.006634,
            "lng": 106.377627
        },
        "ad_info": {
            "adcode": 640202,
            "province": "宁夏回族自治区",
            "city": "石嘴山市",
            "district": "大武口区"
        }
    },
    {
        "id": "3882675154737051778",
        "title": "公共厕所",
        "address": "宁夏回族自治区石嘴山市大武口区富民街与沐春路交叉口东北方向121米左右",
        "tel": "",
        "category": "基础设施:公共设施:公共厕所",
        "type": 0,
        "location": {
            "lat": 38.99754,
            "lng": 106.341529
        },
        "ad_info": {
            "adcode": 640202,
            "province": "宁夏回族自治区",
            "city": "石嘴山市",
            "district": "大武口区"
        }
    },
    {
        "id": "17446638922618150543",
        "title": "公共卫生间",
        "address": "宁夏回族自治区石嘴山市大武口区文明北路民乐小区",
        "tel": "",
        "category": "基础设施:公共设施:公共厕所",
        "type": 0,
        "location": {
            "lat": 39.021516,
            "lng": 106.39053
        },
        "ad_info": {
            "adcode": 640202,
            "province": "宁夏回族自治区",
            "city": "石嘴山市",
            "district": "大武口区"
        }
    },
    {
        "id": "15265676044206439632",
        "title": "公共厕所",
        "address": "宁夏回族自治区石嘴山市大武口区文明北路与游艺东街交叉口正东方向36米左右",
        "tel": "",
        "category": "基础设施:公共设施:公共厕所",
        "type": 0,
        "location": {
            "lat": 39.013365,
            "lng": 106.381244
        },
        "ad_info": {
            "adcode": 640202,
            "province": "宁夏回族自治区",
            "city": "石嘴山市",
            "district": "大武口区"
        }
    },
    {
        "id": "2576487292772938652",
        "title": "无障碍公共厕所",
        "address": "宁夏回族自治区石嘴山市大武口区湖畔巷与解放东街交叉口东北方向41米左右",
        "tel": "",
        "category": "基础设施:公共设施:公共厕所",
        "type": 0,
        "location": {
            "lat": 39.001857,
            "lng": 106.384352
        },
        "ad_info": {
            "adcode": 640202,
            "province": "宁夏回族自治区",
            "city": "石嘴山市",
            "district": "大武口区"
        }
    },
    {
        "id": "14529800983551069826",
        "title": "公共厕所",
        "address": "宁夏回族自治区石嘴山市大武口区星光大道与长胜路交叉口正南方向220米左右",
        "tel": "",
        "category": "基础设施:公共设施:公共厕所",
        "type": 0,
        "location": {
            "lat": 39.009376,
            "lng": 106.351915
        },
        "ad_info": {
            "adcode": 640202,
            "province": "宁夏回族自治区",
            "city": "石嘴山市",
            "district": "大武口区"
        }
    },
    {
        "id": "15635520250322865731",
        "title": "公共厕所",
        "address": "宁夏回族自治区石嘴山市大武口区人民路与民生巷交叉口西北方向55米左右",
        "tel": "",
        "category": "基础设施:公共设施:公共厕所",
        "type": 0,
        "location": {
            "lat": 39.019783,
            "lng": 106.383552
        },
        "ad_info": {
            "adcode": 640202,
            "province": "宁夏回族自治区",
            "city": "石嘴山市",
            "district": "大武口区"
        }
    },
    {
        "id": "6351858823692632267",
        "title": "公共厕所",
        "address": "宁夏回族自治区石嘴山市大武口区裕民南路与青玉巷交叉口正南方向53米左右",
        "tel": "",
        "category": "基础设施:公共设施:公共厕所",
        "type": 0,
        "location": {
            "lat": 39.016189,
            "lng": 106.366796
        },
        "ad_info": {
            "adcode": 640202,
            "province": "宁夏回族自治区",
            "city": "石嘴山市",
            "district": "大武口区"
        }
    },
    {
        "id": "4373353908774110020",
        "title": "公共厕所",
        "address": "宁夏回族自治区石嘴山市大武口区朝阳东街与永康北路交叉口正东方向125米左右",
        "tel": "",
        "category": "基础设施:公共设施:公共厕所",
        "type": 0,
        "location": {
            "lat": 39.006453,
            "lng": 106.385838
        },
        "ad_info": {
            "adcode": 640202,
            "province": "宁夏回族自治区",
            "city": "石嘴山市",
            "district": "大武口区"
        }
    },
    {
        "id": "15048440405285602559",
        "title": "公共厕所",
        "address": "宁夏回族自治区石嘴山市大武口区前进北路63号",
        "tel": "",
        "category": "基础设施:公共设施:公共厕所",
        "type": 0,
        "location": {
            "lat": 39.013991,
            "lng": 106.384279
        },
        "ad_info": {
            "adcode": 640202,
            "province": "宁夏回族自治区",
            "city": "石嘴山市",
            "district": "大武口区"
        }
    },
    {
        "id": "16005333991714450351",
        "title": "公共厕所",
        "address": "宁夏回族自治区石嘴山市惠农区广东路与春晖路交叉口东北方向56米左右",
        "tel": "",
        "category": "基础设施:公共设施:公共厕所",
        "type": 0,
        "location": {
            "lat": 39.226597,
            "lng": 106.775362
        },
        "ad_info": {
            "adcode": 640205,
            "province": "宁夏回族自治区",
            "city": "石嘴山市",
            "district": "惠农区"
        }
    },
    {
        "id": "17467371667502063569",
        "title": "公共厕所",
        "address": "宁夏回族自治区石嘴山市平罗县团结西路与民族大街交叉口正西方向197米左右",
        "tel": "",
        "category": "基础设施:公共设施:公共厕所",
        "type": 0,
        "location": {
            "lat": 38.909257,
            "lng": 106.524335
        },
        "ad_info": {
            "adcode": 640221,
            "province": "宁夏回族自治区",
            "city": "石嘴山市",
            "district": "平罗县"
        }
    },
    {
        "id": "17813726870974064426",
        "title": "公共厕所",
        "address": "宁夏回族自治区石嘴山市惠农区东大街人民商场(北大街店)",
        "tel": "",
        "category": "基础设施:公共设施:公共厕所",
        "type": 0,
        "location": {
            "lat": 39.231292,
            "lng": 106.776491
        },
        "ad_info": {
            "adcode": 640205,
            "province": "宁夏回族自治区",
            "city": "石嘴山市",
            "district": "惠农区"
        }
    },
    {
        "id": "1231484567414230795",
        "title": "公共厕所",
        "address": "宁夏回族自治区石嘴山市大武口区贺翔通航旅游小镇",
        "tel": "",
        "category": "基础设施:公共设施:公共厕所",
        "type": 0,
        "location": {
            "lat": 38.999205,
            "lng": 106.419592
        },
        "ad_info": {
            "adcode": 640202,
            "province": "宁夏回族自治区",
            "city": "石嘴山市",
            "district": "大武口区"
        }
    },
    {
        "id": "13849072467001916048",
        "title": "公共厕所",
        "address": "宁夏回族自治区石嘴山市大武口区永康北路与胜利东街交叉口西南方向84米左右",
        "tel": "",
        "category": "基础设施:公共设施:公共厕所",
        "type": 0,
        "location": {
            "lat": 39.01377,
            "lng": 106.393934
        },
        "ad_info": {
            "adcode": 640202,
            "province": "宁夏回族自治区",
            "city": "石嘴山市",
            "district": "大武口区"
        }
    },
    {
        "id": "12441027543383048104",
        "title": "公共厕所",
        "address": "宁夏回族自治区石嘴山市大武口区建设西街与青山北路交叉口西南方向168米左右",
        "tel": "",
        "category": "基础设施:公共设施:公共厕所",
        "type": 0,
        "location": {
            "lat": 39.020139,
            "lng": 106.376433
        },
        "ad_info": {
            "adcode": 640202,
            "province": "宁夏回族自治区",
            "city": "石嘴山市",
            "district": "大武口区"
        }
    },
    {
        "id": "2142060585545717852",
        "title": "公共厕所",
        "address": "宁夏回族自治区石嘴山市大武口区丽日街安康花园(一区)",
        "tel": "",
        "category": "基础设施:公共设施:公共厕所",
        "type": 0,
        "location": {
            "lat": 38.976535,
            "lng": 106.320486
        },
        "ad_info": {
            "adcode": 640202,
            "province": "宁夏回族自治区",
            "city": "石嘴山市",
            "district": "大武口区"
        }
    },
    {
        "id": "6869781969970020221",
        "title": "公共厕所",
        "address": "宁夏回族自治区石嘴山市大武口区丽日街丽日花园-二区",
        "tel": "",
        "category": "基础设施:公共设施:公共厕所",
        "type": 0,
        "location": {
            "lat": 38.964987,
            "lng": 106.334429
        },
        "ad_info": {
            "adcode": 640202,
            "province": "宁夏回族自治区",
            "city": "石嘴山市",
            "district": "大武口区"
        }
    },
    {
        "id": "15312347107264878573",
        "title": "公共厕所",
        "address": "宁夏回族自治区石嘴山市大武口区游艺西街与鸣沙路交叉口正西方向332米左右",
        "tel": "",
        "category": "基础设施:公共设施:公共厕所",
        "type": 0,
        "location": {
            "lat": 39.021832,
            "lng": 106.365414
        },
        "ad_info": {
            "adcode": 640202,
            "province": "宁夏回族自治区",
            "city": "石嘴山市",
            "district": "大武口区"
        }
    },
    {
        "id": "12291268911224349355",
        "title": "公共厕所",
        "address": "宁夏回族自治区石嘴山市大武口区胜利西街85号",
        "tel": "",
        "category": "基础设施:公共设施:公共厕所",
        "type": 0,
        "location": {
            "lat": 39.023259,
            "lng": 106.383163
        },
        "ad_info": {
            "adcode": 640202,
            "province": "宁夏回族自治区",
            "city": "石嘴山市",
            "district": "大武口区"
        }
    },
    {
        "id": "8179877424763850332",
        "title": "公共厕所",
        "address": "宁夏回族自治区石嘴山市惠农区郑州路与静宁街交叉口正南方向217米左右",
        "tel": "",
        "category": "基础设施:公共设施:公共厕所",
        "type": 0,
        "location": {
            "lat": 39.203334,
            "lng": 106.780363
        },
        "ad_info": {
            "adcode": 640205,
            "province": "宁夏回族自治区",
            "city": "石嘴山市",
            "district": "惠农区"
        }
    },
    {
        "id": "7444556895857810757",
        "title": "公共厕所",
        "address": "宁夏回族自治区石嘴山市平罗县东苑街与鼓楼东街交叉口正东方向23米左右",
        "tel": "",
        "category": "基础设施:公共设施:公共厕所",
        "type": 0,
        "location": {
            "lat": 38.904577,
            "lng": 106.551088
        },
        "ad_info": {
            "adcode": 640221,
            "province": "宁夏回族自治区",
            "city": "石嘴山市",
            "district": "平罗县"
        }
    },
    {
        "id": "14486103233550905041",
        "title": "公共厕所",
        "address": "宁夏回族自治区石嘴山市大武口区长胜路与黄河西街交叉口东北方向90米左右",
        "tel": "",
        "category": "基础设施:公共设施:公共厕所",
        "type": 0,
        "location": {
            "lat": 39.013063,
            "lng": 106.35686
        },
        "ad_info": {
            "adcode": 640202,
            "province": "宁夏回族自治区",
            "city": "石嘴山市",
            "district": "大武口区"
        }
    },
    {
        "id": "14635099427228510508",
        "title": "公共厕所",
        "address": "宁夏回族自治区石嘴山市大武口区人民路与胜利东街交叉口正南方向101米左右",
        "tel": "",
        "category": "基础设施:公共设施:公共厕所",
        "type": 0,
        "location": {
            "lat": 39.020034,
            "lng": 106.385553
        },
        "ad_info": {
            "adcode": 640202,
            "province": "宁夏回族自治区",
            "city": "石嘴山市",
            "district": "大武口区"
        }
    },
    {
        "id": "15424709818675655580",
        "title": "公共厕所",
        "address": "宁夏回族自治区石嘴山市平罗县团结西路与萧公大街交叉口正南方向151米左右",
        "tel": "",
        "category": "基础设施:公共设施:公共厕所",
        "type": 0,
        "location": {
            "lat": 38.907704,
            "lng": 106.53254
        },
        "ad_info": {
            "adcode": 640221,
            "province": "宁夏回族自治区",
            "city": "石嘴山市",
            "district": "平罗县"
        }
    },
    {
        "id": "8710888688317145750",
        "title": "公共厕所",
        "address": "宁夏回族自治区石嘴山市平罗县玉皇阁大道与萧公大街交叉口正北方向54米左右",
        "tel": "",
        "category": "基础设施:公共设施:公共厕所",
        "type": 0,
        "location": {
            "lat": 38.912394,
            "lng": 106.532839
        },
        "ad_info": {
            "adcode": 640221,
            "province": "宁夏回族自治区",
            "city": "石嘴山市",
            "district": "平罗县"
        }
    },
    {
        "id": "12302857816574445600",
        "title": "公共厕所",
        "address": "宁夏回族自治区石嘴山市大武口区前进南路与黄河东街交叉口东南方向125米左右",
        "tel": "",
        "category": "基础设施:公共设施:公共厕所",
        "type": 0,
        "location": {
            "lat": 39.000421,
            "lng": 106.37297
        },
        "ad_info": {
            "adcode": 640202,
            "province": "宁夏回族自治区",
            "city": "石嘴山市",
            "district": "大武口区"
        }
    },
    {
        "id": "6975449615290330176",
        "title": "公共厕所",
        "address": "宁夏回族自治区石嘴山市平罗县安全巷与平罗县商业步行街交叉口北20米",
        "tel": "",
        "category": "基础设施:公共设施:公共厕所",
        "type": 0,
        "location": {
            "lat": 38.904459,
            "lng": 106.549299
        },
        "ad_info": {
            "adcode": 640221,
            "province": "宁夏回族自治区",
            "city": "石嘴山市",
            "district": "平罗县"
        }
    },
    {
        "id": "17392165254931064544",
        "title": "公共厕所",
        "address": "宁夏回族自治区石嘴山市大武口区游盛胡同与游艺东街交叉口东北方向56米左右",
        "tel": "",
        "category": "基础设施:公共设施:公共厕所",
        "type": 0,
        "location": {
            "lat": 39.006245,
            "lng": 106.391221
        },
        "ad_info": {
            "adcode": 640202,
            "province": "宁夏回族自治区",
            "city": "石嘴山市",
            "district": "大武口区"
        }
    },
    {
        "id": "1582008264300419521",
        "title": "公共厕所",
        "address": "宁夏回族自治区石嘴山市大武口区维旺东路与维昌西路交叉口正东方向84米左右",
        "tel": "",
        "category": "基础设施:公共设施:公共厕所",
        "type": 0,
        "location": {
            "lat": 39.042311,
            "lng": 106.399858
        },
        "ad_info": {
            "adcode": 640202,
            "province": "宁夏回族自治区",
            "city": "石嘴山市",
            "district": "大武口区"
        }
    },
    {
        "id": "5883658932438798512",
        "title": "公共卫生间",
        "address": "宁夏回族自治区石嘴山市惠农区X204",
        "tel": "",
        "category": "基础设施:公共设施:公共厕所",
        "type": 0,
        "location": {
            "lat": 39.135305,
            "lng": 106.709371
        },
        "ad_info": {
            "adcode": 640205,
            "province": "宁夏回族自治区",
            "city": "石嘴山市",
            "district": "惠农区"
        }
    },
    {
        "id": "4248939647038014973",
        "title": "公共卫生间",
        "address": "宁夏回族自治区石嘴山市大武口区永乐北路与游艺西街交叉口正东方向216米左右",
        "tel": "",
        "category": "基础设施:公共设施:公共厕所",
        "type": 0,
        "location": {
            "lat": 39.025532,
            "lng": 106.366959
        },
        "ad_info": {
            "adcode": 640202,
            "province": "宁夏回族自治区",
            "city": "石嘴山市",
            "district": "大武口区"
        }
    },
    {
        "id": "13314021902897774179",
        "title": "公共卫生间",
        "address": "宁夏回族自治区石嘴山市平罗县西苑街与鼓楼西街交叉口正西方向165米左右",
        "tel": "",
        "category": "基础设施:公共设施:公共厕所",
        "type": 0,
        "location": {
            "lat": 38.903042,
            "lng": 106.536761
        },
        "ad_info": {
            "adcode": 640221,
            "province": "宁夏回族自治区",
            "city": "石嘴山市",
            "district": "平罗县"
        }
    },
    {
        "id": "13559681192263764459",
        "title": "公共厕所",
        "address": "宁夏回族自治区石嘴山市大武口区青山北路帝景家园",
        "tel": "",
        "category": "基础设施:公共设施:公共厕所",
        "type": 0,
        "location": {
            "lat": 39.020282,
            "lng": 106.376152
        },
        "ad_info": {
            "adcode": 640202,
            "province": "宁夏回族自治区",
            "city": "石嘴山市",
            "district": "大武口区"
        }
    },
    {
        "id": "15736370433629488441",
        "title": "公共厕所",
        "address": "宁夏回族自治区石嘴山市大武口区文明南路平安佳苑",
        "tel": "",
        "category": "基础设施:公共设施:公共厕所",
        "type": 0,
        "location": {
            "lat": 38.995791,
            "lng": 106.359402
        },
        "ad_info": {
            "adcode": 640202,
            "province": "宁夏回族自治区",
            "city": "石嘴山市",
            "district": "大武口区"
        }
    },
    {
        "id": "3634174363764214677",
        "title": "公共厕所",
        "address": "宁夏回族自治区石嘴山市平罗县鼓楼西街39号",
        "tel": "",
        "category": "基础设施:公共设施:公共厕所",
        "type": 0,
        "location": {
            "lat": 38.903163,
            "lng": 106.544199
        },
        "ad_info": {
            "adcode": 640221,
            "province": "宁夏回族自治区",
            "city": "石嘴山市",
            "district": "平罗县"
        }
    },
    {
        "id": "15664415554512129759",
        "title": "无障碍公共厕所",
        "address": "宁夏回族自治区石嘴山市大武口区胜利东街99号",
        "tel": "",
        "category": "基础设施:公共设施:公共厕所",
        "type": 0,
        "location": {
            "lat": 39.019946,
            "lng": 106.387716
        },
        "ad_info": {
            "adcode": 640202,
            "province": "宁夏回族自治区",
            "city": "石嘴山市",
            "district": "大武口区"
        }
    },
    {
        "id": "14189748991722146648",
        "title": "公共厕所",
        "address": "宁夏回族自治区石嘴山市大武口区丽日街与团结路交叉口东南方向100米左右",
        "tel": "",
        "category": "基础设施:公共设施:公共厕所",
        "type": 0,
        "location": {
            "lat": 38.967405,
            "lng": 106.331241
        },
        "ad_info": {
            "adcode": 640202,
            "province": "宁夏回族自治区",
            "city": "石嘴山市",
            "district": "大武口区"
        }
    },
    {
        "id": "387883674100991043",
        "title": "公共厕所",
        "address": "宁夏回族自治区石嘴山市大武口区思源巷与澳门街交叉口正北方向368米左右",
        "tel": "",
        "category": "基础设施:公共设施:公共厕所",
        "type": 0,
        "location": {
            "lat": 39.019956,
            "lng": 106.361057
        },
        "ad_info": {
            "adcode": 640202,
            "province": "宁夏回族自治区",
            "city": "石嘴山市",
            "district": "大武口区"
        }
    },
    {
        "id": "5073795726778666343",
        "title": "公共厕所",
        "address": "宁夏回族自治区石嘴山市惠农区北大街与山梁路交叉口西北方向73米左右",
        "tel": "",
        "category": "基础设施:公共设施:公共厕所",
        "type": 0,
        "location": {
            "lat": 39.242115,
            "lng": 106.784273
        },
        "ad_info": {
            "adcode": 640205,
            "province": "宁夏回族自治区",
            "city": "石嘴山市",
            "district": "惠农区"
        }
    },
    {
        "id": "11004881138106890352",
        "title": "公共厕所",
        "address": "宁夏回族自治区石嘴山市惠农区广北路与广西路交叉口东南方向19米左右",
        "tel": "",
        "category": "基础设施:公共设施:公共厕所",
        "type": 0,
        "location": {
            "lat": 39.2283,
            "lng": 106.771213
        },
        "ad_info": {
            "adcode": 640205,
            "province": "宁夏回族自治区",
            "city": "石嘴山市",
            "district": "惠农区"
        }
    },
    {
        "id": "17239033638526225543",
        "title": "公共卫生间",
        "address": "宁夏回族自治区石嘴山市大武口区冶金路与建设西街交叉口正西方向24米左右",
        "tel": "",
        "category": "基础设施:公共设施:公共厕所",
        "type": 0,
        "location": {
            "lat": 39.022339,
            "lng": 106.376065
        },
        "ad_info": {
            "adcode": 640202,
            "province": "宁夏回族自治区",
            "city": "石嘴山市",
            "district": "大武口区"
        }
    },
    {
        "id": "5761942896239620098",
        "title": "公共厕所",
        "address": "宁夏回族自治区石嘴山市平罗县团结东路与怀通街交叉口正南方向63米左右",
        "tel": "",
        "category": "基础设施:公共设施:公共厕所",
        "type": 0,
        "location": {
            "lat": 38.908301,
            "lng": 106.554256
        },
        "ad_info": {
            "adcode": 640221,
            "province": "宁夏回族自治区",
            "city": "石嘴山市",
            "district": "平罗县"
        }
    },
    {
        "id": "10200862988651333800",
        "title": "公共厕所",
        "address": "宁夏回族自治区石嘴山市大武口区石嘴山公安局石炭井分局西北",
        "tel": "",
        "category": "基础设施:公共设施:公共厕所",
        "type": 0,
        "location": {
            "lat": 39.242706,
            "lng": 106.34141
        },
        "ad_info": {
            "adcode": 640202,
            "province": "宁夏回族自治区",
            "city": "石嘴山市",
            "district": "大武口区"
        }
    },
    {
        "id": "18052676063514978280",
        "title": "公共厕所",
        "address": "宁夏回族自治区石嘴山市大武口区青山南路224号",
        "tel": "",
        "category": "基础设施:公共设施:公共厕所",
        "type": 0,
        "location": {
            "lat": 39.008614,
            "lng": 106.363012
        },
        "ad_info": {
            "adcode": 640202,
            "province": "宁夏回族自治区",
            "city": "石嘴山市",
            "district": "大武口区"
        }
    },
    {
        "id": "2193082524244464476",
        "title": "公共厕所",
        "address": "宁夏回族自治区石嘴山市大武口区前进南路石嘴山市第六中学",
        "tel": "",
        "category": "基础设施:公共设施:公共厕所",
        "type": 0,
        "location": {
            "lat": 39.006726,
            "lng": 106.378553
        },
        "ad_info": {
            "adcode": 640202,
            "province": "宁夏回族自治区",
            "city": "石嘴山市",
            "district": "大武口区"
        }
    },
    {
        "id": "1457243920431310931",
        "title": "公共厕所",
        "address": "宁夏回族自治区石嘴山市惠农区民生街与郑州路交叉口正北方向145米左右",
        "tel": "",
        "category": "基础设施:公共设施:公共厕所",
        "type": 0,
        "location": {
            "lat": 39.20651,
            "lng": 106.770771
        },
        "ad_info": {
            "adcode": 640205,
            "province": "宁夏回族自治区",
            "city": "石嘴山市",
            "district": "惠农区"
        }
    },
    {
        "id": "9242165197162134956",
        "title": "公共厕所",
        "address": "宁夏回族自治区石嘴山市平罗县新民巷72号",
        "tel": "",
        "category": "基础设施:公共设施:公共厕所",
        "type": 0,
        "location": {
            "lat": 38.904835,
            "lng": 106.54471
        },
        "ad_info": {
            "adcode": 640221,
            "province": "宁夏回族自治区",
            "city": "石嘴山市",
            "district": "平罗县"
        }
    },
    {
        "id": "10342823069040277794",
        "title": "公共厕所",
        "address": "宁夏回族自治区石嘴山市惠农区惠安大街与步行街交叉口正西方向42米左右",
        "tel": "",
        "category": "基础设施:公共设施:公共厕所",
        "type": 0,
        "location": {
            "lat": 39.230721,
            "lng": 106.78071
        },
        "ad_info": {
            "adcode": 640205,
            "province": "宁夏回族自治区",
            "city": "石嘴山市",
            "district": "惠农区"
        }
    },
    {
        "id": "2486321481320603446",
        "title": "公共厕所",
        "address": "宁夏回族自治区石嘴山市大武口区胜利东街165号",
        "tel": "",
        "category": "基础设施:公共设施:公共厕所",
        "type": 0,
        "location": {
            "lat": 39.017836,
            "lng": 106.390891
        },
        "ad_info": {
            "adcode": 640202,
            "province": "宁夏回族自治区",
            "city": "石嘴山市",
            "district": "大武口区"
        }
    },
    {
        "id": "9189060109958595888",
        "title": "公共厕所",
        "address": "宁夏回族自治区石嘴山市大武口区工人东街民乐小区",
        "tel": "",
        "category": "基础设施:公共设施:公共厕所",
        "type": 0,
        "location": {
            "lat": 39.023788,
            "lng": 106.390019
        },
        "ad_info": {
            "adcode": 640202,
            "province": "宁夏回族自治区",
            "city": "石嘴山市",
            "district": "大武口区"
        }
    },
    {
        "id": "15823170138773650878",
        "title": "公共厕所",
        "address": "宁夏回族自治区石嘴山市大武口区兴中路与康福南路交叉口正西方向63米左右",
        "tel": "",
        "category": "基础设施:公共设施:公共厕所",
        "type": 0,
        "location": {
            "lat": 39.041566,
            "lng": 106.398456
        },
        "ad_info": {
            "adcode": 640202,
            "province": "宁夏回族自治区",
            "city": "石嘴山市",
            "district": "大武口区"
        }
    },
    {
        "id": "10345815343410743666",
        "title": "公共厕所",
        "address": "宁夏回族自治区石嘴山市大武口区前进北路与工人东街交叉口西北方向21米左右",
        "tel": "",
        "category": "基础设施:公共设施:公共厕所",
        "type": 0,
        "location": {
            "lat": 39.02016,
            "lng": 106.395078
        },
        "ad_info": {
            "adcode": 640202,
            "province": "宁夏回族自治区",
            "city": "石嘴山市",
            "district": "大武口区"
        }
    },
    {
        "id": "15658394344784517502",
        "title": "公共厕所",
        "address": "宁夏回族自治区石嘴山市平罗县电商快递服务站西南侧90米",
        "tel": "",
        "category": "基础设施:公共设施:公共厕所",
        "type": 0,
        "location": {
            "lat": 38.986638,
            "lng": 106.547171
        },
        "ad_info": {
            "adcode": 640221,
            "province": "宁夏回族自治区",
            "city": "石嘴山市",
            "district": "平罗县"
        }
    },
    {
        "id": "14586308699701759444",
        "title": "公共厕所",
        "address": "宁夏回族自治区石嘴山市大武口区S301与新建街交叉口正北方向584米左右",
        "tel": "",
        "category": "基础设施:公共设施:公共厕所",
        "type": 0,
        "location": {
            "lat": 39.254479,
            "lng": 106.338276
        },
        "ad_info": {
            "adcode": 640202,
            "province": "宁夏回族自治区",
            "city": "石嘴山市",
            "district": "大武口区"
        }
    },
    {
        "id": "2673921558178599220",
        "title": "公共厕所",
        "address": "宁夏回族自治区石嘴山市平罗县东苑街与东风路交叉口正北方向264米左右",
        "tel": "",
        "category": "基础设施:公共设施:公共厕所",
        "type": 0,
        "location": {
            "lat": 38.914955,
            "lng": 106.548001
        },
        "ad_info": {
            "adcode": 640221,
            "province": "宁夏回族自治区",
            "city": "石嘴山市",
            "district": "平罗县"
        }
    },
    {
        "id": "1257254387340274360",
        "title": "公共厕所",
        "address": "宁夏回族自治区石嘴山市平罗县玉龚路与鼓楼北街交叉口东北方向102米左右",
        "tel": "",
        "category": "基础设施:公共设施:公共厕所",
        "type": 0,
        "location": {
            "lat": 38.912769,
            "lng": 106.54632
        },
        "ad_info": {
            "adcode": 640221,
            "province": "宁夏回族自治区",
            "city": "石嘴山市",
            "district": "平罗县"
        }
    },
    {
        "id": "15886044290893908867",
        "title": "公共厕所",
        "address": "宁夏回族自治区石嘴山市惠农区步行街与北大街交叉口东60米",
        "tel": "",
        "category": "基础设施:公共设施:公共厕所",
        "type": 0,
        "location": {
            "lat": 39.232718,
            "lng": 106.77722
        },
        "ad_info": {
            "adcode": 640205,
            "province": "宁夏回族自治区",
            "city": "石嘴山市",
            "district": "惠农区"
        }
    },
    {
        "id": "3630563357220679625",
        "title": "公共厕所",
        "address": "宁夏回族自治区石嘴山市惠农区南环路与民生街交叉口正北方向124米左右",
        "tel": "",
        "category": "基础设施:公共设施:公共厕所",
        "type": 0,
        "location": {
            "lat": 39.20137,
            "lng": 106.771452
        },
        "ad_info": {
            "adcode": 640205,
            "province": "宁夏回族自治区",
            "city": "石嘴山市",
            "district": "惠农区"
        }
    },
    {
        "id": "3460577143781376775",
        "title": "公共厕所",
        "address": "宁夏回族自治区石嘴山市平罗县萧公大街与鼓楼西街交叉口东南方向78米左右",
        "tel": "",
        "category": "基础设施:公共设施:公共厕所",
        "type": 0,
        "location": {
            "lat": 38.902553,
            "lng": 106.533474
        },
        "ad_info": {
            "adcode": 640221,
            "province": "宁夏回族自治区",
            "city": "石嘴山市",
            "district": "平罗县"
        }
    },
    {
        "id": "11765318239149169879",
        "title": "公共厕所",
        "address": "宁夏回族自治区石嘴山市惠农区安乐桥街与天津路交叉口北100米",
        "tel": "",
        "category": "基础设施:公共设施:公共厕所",
        "type": 0,
        "location": {
            "lat": 39.210617,
            "lng": 106.768953
        },
        "ad_info": {
            "adcode": 640205,
            "province": "宁夏回族自治区",
            "city": "石嘴山市",
            "district": "惠农区"
        }
    },
    {
        "id": "6531448958396144752",
        "title": "公共厕所",
        "address": "宁夏回族自治区石嘴山市大武口区S301与世纪大道交叉口西南方向535米左右",
        "tel": "",
        "category": "基础设施:公共设施:公共厕所",
        "type": 0,
        "location": {
            "lat": 39.040725,
            "lng": 106.448409
        },
        "ad_info": {
            "adcode": 640202,
            "province": "宁夏回族自治区",
            "city": "石嘴山市",
            "district": "大武口区"
        }
    },
    {
        "id": "3042294352909502628",
        "title": "公共厕所",
        "address": "宁夏回族自治区石嘴山市大武口区富民街与沐春路交叉口正北方向36米左右",
        "tel": "",
        "category": "基础设施:公共设施:公共厕所",
        "type": 0,
        "location": {
            "lat": 38.997138,
            "lng": 106.340615
        },
        "ad_info": {
            "adcode": 640202,
            "province": "宁夏回族自治区",
            "city": "石嘴山市",
            "district": "大武口区"
        }
    },
    {
        "id": "5696687171133680870",
        "title": "公共厕所",
        "address": "宁夏回族自治区石嘴山市平罗县玉皇阁巷与翰林大街交叉口东北方向39米左右",
        "tel": "",
        "category": "基础设施:公共设施:公共厕所",
        "type": 0,
        "location": {
            "lat": 38.910489,
            "lng": 106.543486
        },
        "ad_info": {
            "adcode": 640221,
            "province": "宁夏回族自治区",
            "city": "石嘴山市",
            "district": "平罗县"
        }
    },
    {
        "id": "1771064394618884983",
        "title": "公共厕所",
        "address": "宁夏回族自治区石嘴山市平罗县唐徕大街与团结东路交叉口东北方向135米左右",
        "tel": "",
        "category": "基础设施:公共设施:公共厕所",
        "type": 0,
        "location": {
            "lat": 38.909917,
            "lng": 106.559579
        },
        "ad_info": {
            "adcode": 640221,
            "province": "宁夏回族自治区",
            "city": "石嘴山市",
            "district": "平罗县"
        }
    },
    {
        "id": "15869510077409378553",
        "title": "公共厕所",
        "address": "宁夏回族自治区石嘴山市惠农区康乐路与新村路交叉口正西方向77米左右",
        "tel": "",
        "category": "基础设施:公共设施:公共厕所",
        "type": 0,
        "location": {
            "lat": 39.224573,
            "lng": 106.765311
        },
        "ad_info": {
            "adcode": 640205,
            "province": "宁夏回族自治区",
            "city": "石嘴山市",
            "district": "惠农区"
        }
    },
    {
        "id": "1502723895098518855",
        "title": "公共卫生间",
        "address": "宁夏回族自治区石嘴山市平罗县北环路与市场北街交叉口正西方向85米左右",
        "tel": "",
        "category": "基础设施:公共设施:公共厕所",
        "type": 0,
        "location": {
            "lat": 38.813751,
            "lng": 106.693244
        },
        "ad_info": {
            "adcode": 640221,
            "province": "宁夏回族自治区",
            "city": "石嘴山市",
            "district": "平罗县"
        }
    },
    {
        "id": "7135200224273588227",
        "title": "公共厕所",
        "address": "宁夏回族自治区石嘴山市惠农区北大街与园艺路交叉口西南方向59米左右",
        "tel": "",
        "category": "基础设施:公共设施:公共厕所",
        "type": 0,
        "location": {
            "lat": 39.238887,
            "lng": 106.781815
        },
        "ad_info": {
            "adcode": 640205,
            "province": "宁夏回族自治区",
            "city": "石嘴山市",
            "district": "惠农区"
        }
    },
    {
        "id": "17321014592852421806",
        "title": "公共卫生间",
        "address": "宁夏回族自治区石嘴山市平罗县新民巷与胜利巷交叉口正北方向78米左右",
        "tel": "",
        "category": "基础设施:公共设施:公共厕所",
        "type": 0,
        "location": {
            "lat": 38.906632,
            "lng": 106.544218
        },
        "ad_info": {
            "adcode": 640221,
            "province": "宁夏回族自治区",
            "city": "石嘴山市",
            "district": "平罗县"
        }
    },
    {
        "id": "2602218279173354670",
        "title": "公共厕所",
        "address": "宁夏回族自治区石嘴山市惠农区G109与寇家桥中心路交叉口东北方向202米左右",
        "tel": "",
        "category": "基础设施:公共设施:公共厕所",
        "type": 0,
        "location": {
            "lat": 39.162725,
            "lng": 106.74694
        },
        "ad_info": {
            "adcode": 640205,
            "province": "宁夏回族自治区",
            "city": "石嘴山市",
            "district": "惠农区"
        }
    },
    {
        "id": "4017070801320336771",
        "title": "公共厕所",
        "address": "宁夏回族自治区石嘴山市惠农区南大街与康乐路交叉口正北方向101米左右",
        "tel": "",
        "category": "基础设施:公共设施:公共厕所",
        "type": 0,
        "location": {
            "lat": 39.223652,
            "lng": 106.770559
        },
        "ad_info": {
            "adcode": 640205,
            "province": "宁夏回族自治区",
            "city": "石嘴山市",
            "district": "惠农区"
        }
    },
    {
        "id": "16902465528659412195",
        "title": "公共卫生间",
        "address": "宁夏回族自治区石嘴山市平罗县西苑街197号",
        "tel": "",
        "category": "基础设施:公共设施:公共厕所",
        "type": 0,
        "location": {
            "lat": 38.908147,
            "lng": 106.538447
        },
        "ad_info": {
            "adcode": 640221,
            "province": "宁夏回族自治区",
            "city": "石嘴山市",
            "district": "平罗县"
        }
    },
    {
        "id": "15783625722487695494",
        "title": "公共厕所",
        "address": "宁夏回族自治区石嘴山市惠农区兴农巷与红礼路交叉口东北方向115米左右",
        "tel": "",
        "category": "基础设施:公共设施:公共厕所",
        "type": 0,
        "location": {
            "lat": 39.126361,
            "lng": 106.717971
        },
        "ad_info": {
            "adcode": 640205,
            "province": "宁夏回族自治区",
            "city": "石嘴山市",
            "district": "惠农区"
        }
    },
    {
        "id": "8088426491661158572",
        "title": "公共卫生间",
        "address": "宁夏回族自治区石嘴山市惠农区乐才路与清华街交叉口东南方向99米左右",
        "tel": "",
        "category": "基础设施:公共设施:公共厕所",
        "type": 0,
        "location": {
            "lat": 39.223601,
            "lng": 106.762349
        },
        "ad_info": {
            "adcode": 640205,
            "province": "宁夏回族自治区",
            "city": "石嘴山市",
            "district": "惠农区"
        }
    },
    {
        "id": "7254531691197860849",
        "title": "公共厕所",
        "address": "宁夏回族自治区石嘴山市平罗县人民西路与西苑街交叉口东南方向142米左右",
        "tel": "",
        "category": "基础设施:公共设施:公共厕所",
        "type": 0,
        "location": {
            "lat": 38.904772,
            "lng": 106.540063
        },
        "ad_info": {
            "adcode": 640221,
            "province": "宁夏回族自治区",
            "city": "石嘴山市",
            "district": "平罗县"
        }
    },
    {
        "id": "12883319833071548935",
        "title": "公共卫生间",
        "address": "宁夏回族自治区石嘴山市平罗县怀通街94号",
        "tel": "",
        "category": "基础设施:公共设施:公共厕所",
        "type": 0,
        "location": {
            "lat": 38.906376,
            "lng": 106.553421
        },
        "ad_info": {
            "adcode": 640221,
            "province": "宁夏回族自治区",
            "city": "石嘴山市",
            "district": "平罗县"
        }
    },
    {
        "id": "1162001339737720755",
        "title": "公共厕所",
        "address": "宁夏回族自治区石嘴山市平罗县鼓楼南街56号",
        "tel": "",
        "category": "基础设施:公共设施:公共厕所",
        "type": 0,
        "location": {
            "lat": 38.901193,
            "lng": 106.547976
        },
        "ad_info": {
            "adcode": 640221,
            "province": "宁夏回族自治区",
            "city": "石嘴山市",
            "district": "平罗县"
        }
    },
    {
        "id": "12410680832847935778",
        "title": "公共厕所",
        "address": "宁夏回族自治区石嘴山市惠农区惠安大街与邮政路交叉口正北方向100米左右",
        "tel": "",
        "category": "基础设施:公共设施:公共厕所",
        "type": 0,
        "location": {
            "lat": 39.232628,
            "lng": 106.78288
        },
        "ad_info": {
            "adcode": 640205,
            "province": "宁夏回族自治区",
            "city": "石嘴山市",
            "district": "惠农区"
        }
    },
    {
        "id": "6385173901841438056",
        "title": "公共厕所",
        "address": "宁夏回族自治区石嘴山市惠农区南大街与新南路交叉口东南方向167米左右",
        "tel": "",
        "category": "基础设施:公共设施:公共厕所",
        "type": 0,
        "location": {
            "lat": 39.224042,
            "lng": 106.773386
        },
        "ad_info": {
            "adcode": 640205,
            "province": "宁夏回族自治区",
            "city": "石嘴山市",
            "district": "惠农区"
        }
    },
    {
        "id": "13072800443871664397",
        "title": "公共厕所",
        "address": "宁夏回族自治区石嘴山市平罗县民族大街与玉皇阁大道交叉口西北方向205米左右",
        "tel": "",
        "category": "基础设施:公共设施:公共厕所",
        "type": 0,
        "location": {
            "lat": 38.913123,
            "lng": 106.524883
        },
        "ad_info": {
            "adcode": 640221,
            "province": "宁夏回族自治区",
            "city": "石嘴山市",
            "district": "平罗县"
        }
    },
    {
        "id": "10083552727392615126",
        "title": "公共厕所",
        "address": "宁夏回族自治区石嘴山市平罗县永安东路与永安西路交叉口正南方向629米左右",
        "tel": "",
        "category": "基础设施:公共设施:公共厕所",
        "type": 0,
        "location": {
            "lat": 38.884803,
            "lng": 106.540178
        },
        "ad_info": {
            "adcode": 640221,
            "province": "宁夏回族自治区",
            "city": "石嘴山市",
            "district": "平罗县"
        }
    },
    {
        "id": "15252833076995026965",
        "title": "公共厕所",
        "address": "宁夏回族自治区石嘴山市惠农区北大街与步行街交叉口正北方向57米左右",
        "tel": "",
        "category": "基础设施:公共设施:公共厕所",
        "type": 0,
        "location": {
            "lat": 39.233345,
            "lng": 106.77696
        },
        "ad_info": {
            "adcode": 640205,
            "province": "宁夏回族自治区",
            "city": "石嘴山市",
            "district": "惠农区"
        }
    },
    {
        "id": "8747471361179330768",
        "title": "公共厕所",
        "address": "宁夏回族自治区石嘴山市平罗县前进路与翰林大街交叉口西南方向182米左右",
        "tel": "",
        "category": "基础设施:公共设施:公共厕所",
        "type": 0,
        "location": {
            "lat": 38.900091,
            "lng": 106.540865
        },
        "ad_info": {
            "adcode": 640221,
            "province": "宁夏回族自治区",
            "city": "石嘴山市",
            "district": "平罗县"
        }
    },
    {
        "id": "6799406997446288017",
        "title": "公共厕所",
        "address": "宁夏回族自治区石嘴山市平罗县城关镇平罗二幼旁边",
        "tel": "",
        "category": "基础设施:公共设施:公共厕所",
        "type": 0,
        "location": {
            "lat": 38.906087,
            "lng": 106.549334
        },
        "ad_info": {
            "adcode": 640221,
            "province": "宁夏回族自治区",
            "city": "石嘴山市",
            "district": "平罗县"
        }
    },
    {
        "id": "5599159314323054222",
        "title": "公共厕所",
        "address": "宁夏回族自治区石嘴山市平罗县团结西路与西苑街交叉口正南方向142米左右",
        "tel": "",
        "category": "基础设施:公共设施:公共厕所",
        "type": 0,
        "location": {
            "lat": 38.907703,
            "lng": 106.538372
        },
        "ad_info": {
            "adcode": 640221,
            "province": "宁夏回族自治区",
            "city": "石嘴山市",
            "district": "平罗县"
        }
    },
    {
        "id": "2571794011724505516",
        "title": "公共厕所",
        "address": "宁夏回族自治区石嘴山市平罗县G109与西环路交叉口东南方向146米左右",
        "tel": "",
        "category": "基础设施:公共设施:公共厕所",
        "type": 0,
        "location": {
            "lat": 38.872,
            "lng": 106.542467
        },
        "ad_info": {
            "adcode": 640221,
            "province": "宁夏回族自治区",
            "city": "石嘴山市",
            "district": "平罗县"
        }
    },
    {
        "id": "5812711555696289577",
        "title": "公共厕所",
        "address": "宁夏回族自治区石嘴山市平罗县G109与S301交叉口东南方向80米左右",
        "tel": "",
        "category": "基础设施:公共设施:公共厕所",
        "type": 0,
        "location": {
            "lat": 38.946727,
            "lng": 106.565937
        },
        "ad_info": {
            "adcode": 640221,
            "province": "宁夏回族自治区",
            "city": "石嘴山市",
            "district": "平罗县"
        }
    },
    {
        "id": "13915468617479969885",
        "title": "公共厕所",
        "address": "宁夏回族自治区石嘴山市惠农区G110与兴惠路交叉口东北方向223米左右",
        "tel": "",
        "category": "基础设施:公共设施:公共厕所",
        "type": 0,
        "location": {
            "lat": 39.276506,
            "lng": 106.747454
        },
        "ad_info": {
            "adcode": 640205,
            "province": "宁夏回族自治区",
            "city": "石嘴山市",
            "district": "惠农区"
        }
    },
    {
        "id": "17906783511071739952",
        "title": "公共厕所",
        "address": "宁夏回族自治区石嘴山市平罗县怀通街与玉龚路交叉口正东方向215米左右",
        "tel": "",
        "category": "基础设施:公共设施:公共厕所",
        "type": 0,
        "location": {
            "lat": 38.913528,
            "lng": 106.553631
        },
        "ad_info": {
            "adcode": 640221,
            "province": "宁夏回族自治区",
            "city": "石嘴山市",
            "district": "平罗县"
        }
    },
    {
        "id": "6677539554840283272",
        "title": "公共卫生间",
        "address": "宁夏回族自治区石嘴山市平罗县东苑街汇融新天地",
        "tel": "",
        "category": "基础设施:公共设施:公共厕所",
        "type": 0,
        "location": {
            "lat": 38.912018,
            "lng": 106.548483
        },
        "ad_info": {
            "adcode": 640221,
            "province": "宁夏回族自治区",
            "city": "石嘴山市",
            "district": "平罗县"
        }
    },
    {
        "id": "3648030580264236358",
        "title": "公共厕所",
        "address": "宁夏回族自治区石嘴山市平罗县翰林北大街347号",
        "tel": "",
        "category": "基础设施:公共设施:公共厕所",
        "type": 0,
        "location": {
            "lat": 38.921999,
            "lng": 106.549438
        },
        "ad_info": {
            "adcode": 640221,
            "province": "宁夏回族自治区",
            "city": "石嘴山市",
            "district": "平罗县"
        }
    },
    {
        "id": "12914927610917745173",
        "title": "公共卫生间",
        "address": "宁夏回族自治区石嘴山市平罗县玉龚路与翰林大街交叉口西北方向100米左右",
        "tel": "",
        "category": "基础设施:公共设施:公共厕所",
        "type": 0,
        "location": {
            "lat": 38.913844,
            "lng": 106.544021
        },
        "ad_info": {
            "adcode": 640221,
            "province": "宁夏回族自治区",
            "city": "石嘴山市",
            "district": "平罗县"
        }
    },
    {
        "id": "10834171159701242326",
        "title": "无障碍公共厕所",
        "address": "宁夏回族自治区石嘴山市大武口区游艺东街与游艺西街交叉口东北方向95米左右",
        "tel": "",
        "category": "基础设施:公共设施:公共厕所",
        "type": 0,
        "location": {
            "lat": 39.016396,
            "lng": 106.378326
        },
        "ad_info": {
            "adcode": 640202,
            "province": "宁夏回族自治区",
            "city": "石嘴山市",
            "district": "大武口区"
        }
    },
    {
        "id": "1325824100372284004",
        "title": "公共厕所",
        "address": "宁夏回族自治区石嘴山市平罗县S101与石嘴山环线高速交叉口西南方向237米左右",
        "tel": "",
        "category": "基础设施:公共设施:公共厕所",
        "type": 0,
        "location": {
            "lat": 38.867988,
            "lng": 106.356816
        },
        "ad_info": {
            "adcode": 640221,
            "province": "宁夏回族自治区",
            "city": "石嘴山市",
            "district": "平罗县"
        }
    },
    {
        "id": "18435523626684322968",
        "title": "免费公共厕所",
        "address": "宁夏回族自治区石嘴山市大武口区建国胡同与游艺东街交叉口正北方向30米左右",
        "tel": "",
        "category": "基础设施:公共设施:公共厕所",
        "type": 0,
        "location": {
            "lat": 39.012617,
            "lng": 106.382223
        },
        "ad_info": {
            "adcode": 640202,
            "province": "宁夏回族自治区",
            "city": "石嘴山市",
            "district": "大武口区"
        }
    },
    {
        "id": "13210149066529100336",
        "title": "免费公共厕所",
        "address": "宁夏回族自治区石嘴山市大武口区丽景路与丽江街交叉口西南方向124米左右",
        "tel": "",
        "category": "基础设施:公共设施:公共厕所",
        "type": 0,
        "location": {
            "lat": 38.966935,
            "lng": 106.335457
        },
        "ad_info": {
            "adcode": 640202,
            "province": "宁夏回族自治区",
            "city": "石嘴山市",
            "district": "大武口区"
        }
    },
    {
        "id": "16257457745493129073",
        "title": "渌园公共厕所",
        "address": "宁夏回族自治区石嘴山市大武口区长胜路407正东方向190米",
        "tel": "",
        "category": "基础设施:公共设施:公共厕所",
        "type": 0,
        "location": {
            "lat": 39.017106,
            "lng": 106.359583
        },
        "ad_info": {
            "adcode": 640202,
            "province": "宁夏回族自治区",
            "city": "石嘴山市",
            "district": "大武口区"
        }
    },
    {
        "id": "8320158368870434358",
        "title": "免费公共厕所",
        "address": "宁夏回族自治区石嘴山市大武口区鸣沙路119号",
        "tel": "",
        "category": "基础设施:公共设施:公共厕所",
        "type": 0,
        "location": {
            "lat": 39.023787,
            "lng": 106.371006
        },
        "ad_info": {
            "adcode": 640202,
            "province": "宁夏回族自治区",
            "city": "石嘴山市",
            "district": "大武口区"
        }
    },
    {
        "id": "9030137383768282596",
        "title": "无障碍公共厕所",
        "address": "宁夏回族自治区石嘴山市平罗县宝丰路与怀远大街交叉口正北方向242米左右",
        "tel": "",
        "category": "基础设施:公共设施:公共厕所",
        "type": 0,
        "location": {
            "lat": 38.916886,
            "lng": 106.520747
        },
        "ad_info": {
            "adcode": 640221,
            "province": "宁夏回族自治区",
            "city": "石嘴山市",
            "district": "平罗县"
        }
    },
    {
        "id": "897597490386945807",
        "title": "免费公共厕所",
        "address": "宁夏回族自治区石嘴山市大武口区朝阳街道贺兰山南路仁和雅居旁",
        "tel": "",
        "category": "基础设施:公共设施:公共厕所",
        "type": 0,
        "location": {
            "lat": 38.998658,
            "lng": 106.356367
        },
        "ad_info": {
            "adcode": 640202,
            "province": "宁夏回族自治区",
            "city": "石嘴山市",
            "district": "大武口区"
        }
    },
    {
        "id": "9007999909578858110",
        "title": "免费公共厕所",
        "address": "宁夏回族自治区石嘴山市大武口区台湾北路与建设西街交叉口东南方向43米左右",
        "tel": "",
        "category": "基础设施:公共设施:公共厕所",
        "type": 0,
        "location": {
            "lat": 39.029112,
            "lng": 106.367013
        },
        "ad_info": {
            "adcode": 640202,
            "province": "宁夏回族自治区",
            "city": "石嘴山市",
            "district": "大武口区"
        }
    },
    {
        "id": "8329050183026958856",
        "title": "红绿灯西侧公厕",
        "address": "宁夏回族自治区石嘴山市惠农区G110",
        "tel": "",
        "category": "基础设施:公共设施:公共厕所",
        "type": 0,
        "location": {
            "lat": 39.174694,
            "lng": 106.674781
        },
        "ad_info": {
            "adcode": 640205,
            "province": "宁夏回族自治区",
            "city": "石嘴山市",
            "district": "惠农区"
        }
    },
    {
        "id": "18136895937072346964",
        "title": "沙湖服务区公共厕所",
        "address": "宁夏回族自治区石嘴山市平罗县G6京藏高速出口与沙湖服务区交叉口西南160米",
        "tel": "",
        "category": "基础设施:公共设施:公共厕所",
        "type": 0,
        "location": {
            "lat": 38.782283,
            "lng": 106.440495
        },
        "ad_info": {
            "adcode": 640221,
            "province": "宁夏回族自治区",
            "city": "石嘴山市",
            "district": "平罗县"
        }
    },
    {
        "id": "9256517498812309898",
        "title": "惠农服务区公共厕所",
        "address": "宁夏回族自治区石嘴山市惠农区G110与西火路交叉口正东方向778米左右",
        "tel": "",
        "category": "基础设施:公共设施:公共厕所",
        "type": 0,
        "location": {
            "lat": 39.233257,
            "lng": 106.721968
        },
        "ad_info": {
            "adcode": 640205,
            "province": "宁夏回族自治区",
            "city": "石嘴山市",
            "district": "惠农区"
        }
    },
    {
        "id": "15852133549149749345",
        "title": "惠农服务区公共厕所",
        "address": "宁夏回族自治区石嘴山市惠农区G110与西火路交叉口正东方向955米左右",
        "tel": "",
        "category": "基础设施:公共设施:公共厕所",
        "type": 0,
        "location": {
            "lat": 39.23328,
            "lng": 106.724054
        },
        "ad_info": {
            "adcode": 640205,
            "province": "宁夏回族自治区",
            "city": "石嘴山市",
            "district": "惠农区"
        }
    },
    {
        "id": "1420790553880090312",
        "title": "公共厕所",
        "address": "宁夏回族自治区石嘴山市惠农区G109与合作渠路交叉口东南方向644米左右",
        "tel": "",
        "category": "基础设施:公共设施:公共厕所",
        "type": 0,
        "location": {
            "lat": 39.082035,
            "lng": 106.674164
        },
        "ad_info": {
            "adcode": 640205,
            "province": "宁夏回族自治区",
            "city": "石嘴山市",
            "district": "惠农区"
        }
    },
    {
        "id": "8676620851991063326",
        "title": "公共厕所",
        "address": "宁夏回族自治区石嘴山市大武口区石文化展示馆内",
        "tel": "",
        "category": "基础设施:公共设施:公共厕所",
        "type": 0,
        "location": {
            "lat": 38.929053,
            "lng": 106.363326
        },
        "ad_info": {
            "adcode": 640202,
            "province": "宁夏回族自治区",
            "city": "石嘴山市",
            "district": "大武口区"
        }
    },
    {
        "id": "14205911727096580877",
        "title": "公共厕所",
        "address": "宁夏回族自治区石嘴山市惠农区苏宁汽车公司东北侧",
        "tel": "",
        "category": "基础设施:公共设施:公共厕所",
        "type": 0,
        "location": {
            "lat": 39.244631,
            "lng": 106.756079
        },
        "ad_info": {
            "adcode": 640205,
            "province": "宁夏回族自治区",
            "city": "石嘴山市",
            "district": "惠农区"
        }
    },
    {
        "id": "17934329466921356399",
        "title": "公共厕所",
        "address": "宁夏回族自治区石嘴山市惠农区二矿路加气站对面",
        "tel": "",
        "category": "基础设施:公共设施:公共厕所",
        "type": 0,
        "location": {
            "lat": 39.24559,
            "lng": 106.784503
        },
        "ad_info": {
            "adcode": 640205,
            "province": "宁夏回族自治区",
            "city": "石嘴山市",
            "district": "惠农区"
        }
    },
    {
        "id": "12570585130304810986",
        "title": "公共厕所",
        "address": "宁夏回族自治区石嘴山市平罗县六倾地村老校园",
        "tel": "",
        "category": "基础设施:公共设施:公共厕所",
        "type": 0,
        "location": {
            "lat": 38.780759,
            "lng": 106.657552
        },
        "ad_info": {
            "adcode": 640221,
            "province": "宁夏回族自治区",
            "city": "石嘴山市",
            "district": "平罗县"
        }
    },
    {
        "id": "1690775447809387923",
        "title": "公共厕所",
        "address": "宁夏回族自治区石嘴山市平罗县平黄公路与统一公路交叉口东北方向571米左右",
        "tel": "",
        "category": "基础设施:公共设施:公共厕所",
        "type": 0,
        "location": {
            "lat": 38.980742,
            "lng": 106.738665
        },
        "ad_info": {
            "adcode": 640221,
            "province": "宁夏回族自治区",
            "city": "石嘴山市",
            "district": "平罗县"
        }
    },
    {
        "id": "8201461889277420273",
        "title": "无障碍公共厕所",
        "address": "宁夏回族自治区石嘴山市大武口区裕祥巷与鸣沙路交叉口正北方向15米左右",
        "tel": "",
        "category": "基础设施:公共设施:公共厕所",
        "type": 0,
        "location": {
            "lat": 39.023676,
            "lng": 106.371096
        },
        "ad_info": {
            "adcode": 640202,
            "province": "宁夏回族自治区",
            "city": "石嘴山市",
            "district": "大武口区"
        }
    },
    {
        "id": "5532558029646797691",
        "title": "公共卫生间",
        "address": "宁夏回族自治区石嘴山市惠农区马家湾村",
        "tel": "",
        "category": "基础设施:公共设施:公共厕所",
        "type": 0,
        "location": {
            "lat": 39.12068,
            "lng": 106.72252
        },
        "ad_info": {
            "adcode": 640205,
            "province": "宁夏回族自治区",
            "city": "石嘴山市",
            "district": "惠农区"
        }
    },
    {
        "id": "2532765269893436300",
        "title": "公共厕所",
        "address": "宁夏回族自治区石嘴山市平罗县沿河公路与沿黄公路交叉口东北方向61米左右",
        "tel": "",
        "category": "基础设施:公共设施:公共厕所",
        "type": 0,
        "location": {
            "lat": 38.874079,
            "lng": 106.618487
        },
        "ad_info": {
            "adcode": 640221,
            "province": "宁夏回族自治区",
            "city": "石嘴山市",
            "district": "平罗县"
        }
    },
    {
        "id": "18191618355647403495",
        "title": "公共厕所",
        "address": "宁夏回族自治区石嘴山市惠农区安乐桥街与西安路交叉口东北方向40米左右",
        "tel": "",
        "category": "基础设施:公共设施:公共厕所",
        "type": 0,
        "location": {
            "lat": 39.218946,
            "lng": 106.771952
        },
        "ad_info": {
            "adcode": 640205,
            "province": "宁夏回族自治区",
            "city": "石嘴山市",
            "district": "惠农区"
        }
    },
    {
        "id": "12912122757870159098",
        "title": "公共厕所",
        "address": "宁夏回族自治区石嘴山市大武口区胜利东街与香港路交叉口东南方向86米左右",
        "tel": "",
        "category": "基础设施:公共设施:公共厕所",
        "type": 0,
        "location": {
            "lat": 39.011927,
            "lng": 106.397443
        },
        "ad_info": {
            "adcode": 640202,
            "province": "宁夏回族自治区",
            "city": "石嘴山市",
            "district": "大武口区"
        }
    },
    {
        "id": "9969404563870994469",
        "title": "公共厕所",
        "address": "宁夏回族自治区石嘴山市惠农区燕子墩乡海燕村一村",
        "tel": "",
        "category": "基础设施:公共设施:公共厕所",
        "type": 0,
        "location": {
            "lat": 39.007952,
            "lng": 106.520071
        },
        "ad_info": {
            "adcode": 640205,
            "province": "宁夏回族自治区",
            "city": "石嘴山市",
            "district": "惠农区"
        }
    },
    {
        "id": "3644032150734715213",
        "title": "公共厕所",
        "address": "宁夏回族自治区石嘴山市惠农区安乐桥街与康乐东路交叉口东北方向170米左右",
        "tel": "",
        "category": "基础设施:公共设施:公共厕所",
        "type": 0,
        "location": {
            "lat": 39.222034,
            "lng": 106.77426
        },
        "ad_info": {
            "adcode": 640205,
            "province": "宁夏回族自治区",
            "city": "石嘴山市",
            "district": "惠农区"
        }
    },
    {
        "id": "8164207988046034508",
        "title": "洗手间",
        "address": "宁夏回族自治区石嘴山市惠农区东大街与惠安大街交叉口正北方向102米左右",
        "tel": "",
        "category": "基础设施:公共设施:公共厕所",
        "type": 0,
        "location": {
            "lat": 39.230389,
            "lng": 106.779495
        },
        "ad_info": {
            "adcode": 640205,
            "province": "宁夏回族自治区",
            "city": "石嘴山市",
            "district": "惠农区"
        }
    },
    {
        "id": "5896830066930627928",
        "title": "110国道东侧公共卫生间",
        "address": "宁夏回族自治区石嘴山市惠农区",
        "tel": "",
        "category": "基础设施:公共设施:公共厕所",
        "type": 0,
        "location": {
            "lat": 39.176959,
            "lng": 106.67069
        },
        "ad_info": {
            "adcode": 640205,
            "province": "宁夏回族自治区",
            "city": "石嘴山市",
            "district": "惠农区"
        }
    },
    {
        "id": "12983078252981635954",
        "title": "公共厕所",
        "address": "宁夏回族自治区石嘴山市大武口区裕民北路与青川巷交叉口东南方向43米左右",
        "tel": "",
        "category": "基础设施:公共设施:公共厕所",
        "type": 0,
        "location": {
            "lat": 39.018915,
            "lng": 106.370556
        },
        "ad_info": {
            "adcode": 640202,
            "province": "宁夏回族自治区",
            "city": "石嘴山市",
            "district": "大武口区"
        }
    },
    {
        "id": "9807569793880620773",
        "title": "公共厕所",
        "address": "宁夏回族自治区石嘴山市惠农区天津路与静安街交叉口正北方向89米左右",
        "tel": "",
        "category": "基础设施:公共设施:公共厕所",
        "type": 0,
        "location": {
            "lat": 39.210581,
            "lng": 106.775017
        },
        "ad_info": {
            "adcode": 640205,
            "province": "宁夏回族自治区",
            "city": "石嘴山市",
            "district": "惠农区"
        }
    },
    {
        "id": "1837451573010338590",
        "title": "公共厕所",
        "address": "宁夏回族自治区石嘴山市大武口区创业路与文化街交叉口正东方向117米左右",
        "tel": "",
        "category": "基础设施:公共设施:公共厕所",
        "type": 0,
        "location": {
            "lat": 38.926526,
            "lng": 106.365622
        },
        "ad_info": {
            "adcode": 640202,
            "province": "宁夏回族自治区",
            "city": "石嘴山市",
            "district": "大武口区"
        }
    },
    {
        "id": "15599483278152471870",
        "title": "公共厕所",
        "address": "宁夏回族自治区石嘴山市平罗县S302与南环路交叉口正东方向212米左右",
        "tel": "",
        "category": "基础设施:公共设施:公共厕所",
        "type": 0,
        "location": {
            "lat": 38.807254,
            "lng": 106.694588
        },
        "ad_info": {
            "adcode": 640221,
            "province": "宁夏回族自治区",
            "city": "石嘴山市",
            "district": "平罗县"
        }
    },
    {
        "id": "4037264675712910546",
        "title": "公共厕所",
        "address": "宁夏回族自治区石嘴山市大武口区星光大道与长胜路交叉口东北方向120米左右",
        "tel": "",
        "category": "基础设施:公共设施:公共厕所",
        "type": 0,
        "location": {
            "lat": 39.011878,
            "lng": 106.352588
        },
        "ad_info": {
            "adcode": 640202,
            "province": "宁夏回族自治区",
            "city": "石嘴山市",
            "district": "大武口区"
        }
    },
    {
        "id": "9630078964137851829",
        "title": "公共卫生间",
        "address": "宁夏回族自治区石嘴山市平罗县团结东路与明珠街交叉口正南方向228米左右",
        "tel": "",
        "category": "基础设施:公共设施:公共厕所",
        "type": 0,
        "location": {
            "lat": 38.908045,
            "lng": 106.562963
        },
        "ad_info": {
            "adcode": 640221,
            "province": "宁夏回族自治区",
            "city": "石嘴山市",
            "district": "平罗县"
        }
    },
    {
        "id": "18058051082200577416",
        "title": "公共厕所",
        "address": "宁夏回族自治区石嘴山市惠农区天津路与静宁街交叉口西北方向95米左右",
        "tel": "",
        "category": "基础设施:公共设施:公共厕所",
        "type": 0,
        "location": {
            "lat": 39.210629,
            "lng": 106.779286
        },
        "ad_info": {
            "adcode": 640205,
            "province": "宁夏回族自治区",
            "city": "石嘴山市",
            "district": "惠农区"
        }
    },
    {
        "id": "8988841460263227172",
        "title": "公共厕所",
        "address": "宁夏回族自治区石嘴山市惠农区南京路与滨河大道交叉口西北方向67米左右",
        "tel": "",
        "category": "基础设施:公共设施:公共厕所",
        "type": 0,
        "location": {
            "lat": 39.229691,
            "lng": 106.785065
        },
        "ad_info": {
            "adcode": 640205,
            "province": "宁夏回族自治区",
            "city": "石嘴山市",
            "district": "惠农区"
        }
    },
    {
        "id": "14286384310187899174",
        "title": "无障碍公共厕所",
        "address": "宁夏回族自治区石嘴山市大武口区冶金路与建设西街交叉口东北方向175米左右",
        "tel": "",
        "category": "基础设施:公共设施:公共厕所",
        "type": 0,
        "location": {
            "lat": 39.023494,
            "lng": 106.377666
        },
        "ad_info": {
            "adcode": 640202,
            "province": "宁夏回族自治区",
            "city": "石嘴山市",
            "district": "大武口区"
        }
    },
    {
        "id": "4606813496242998452",
        "title": "公共厕所",
        "address": "宁夏回族自治区石嘴山市平罗县振兴东街与振兴西街交叉口东南方向38米左右",
        "tel": "",
        "category": "基础设施:公共设施:公共厕所",
        "type": 0,
        "location": {
            "lat": 38.811519,
            "lng": 106.699379
        },
        "ad_info": {
            "adcode": 640221,
            "province": "宁夏回族自治区",
            "city": "石嘴山市",
            "district": "平罗县"
        }
    },
    {
        "id": "5209194126421935749",
        "title": "公共卫生间",
        "address": "宁夏回族自治区石嘴山市平罗县唐徕大街东方明珠",
        "tel": "",
        "category": "基础设施:公共设施:公共厕所",
        "type": 0,
        "location": {
            "lat": 38.912126,
            "lng": 106.557178
        },
        "ad_info": {
            "adcode": 640221,
            "province": "宁夏回族自治区",
            "city": "石嘴山市",
            "district": "平罗县"
        }
    },
    {
        "id": "13028401123403469742",
        "title": "公共厕所",
        "address": "宁夏回族自治区石嘴山市平罗县宝丰路与怀远大街交叉口正西方向175米左右",
        "tel": "",
        "category": "基础设施:公共设施:公共厕所",
        "type": 0,
        "location": {
            "lat": 38.914576,
            "lng": 106.518181
        },
        "ad_info": {
            "adcode": 640221,
            "province": "宁夏回族自治区",
            "city": "石嘴山市",
            "district": "平罗县"
        }
    },
    {
        "id": "10588178679036982850",
        "title": "公共厕所",
        "address": "宁夏回族自治区石嘴山市平罗县人民西路与怀远大街交叉口正北方向63米左右",
        "tel": "",
        "category": "基础设施:公共设施:公共厕所",
        "type": 0,
        "location": {
            "lat": 38.905939,
            "lng": 106.520019
        },
        "ad_info": {
            "adcode": 640221,
            "province": "宁夏回族自治区",
            "city": "石嘴山市",
            "district": "平罗县"
        }
    },
    {
        "id": "16442449637149633796",
        "title": "公共厕所",
        "address": "宁夏回族自治区石嘴山市平罗县民族大街与金桥路交叉口东北方向82米左右",
        "tel": "",
        "category": "基础设施:公共设施:公共厕所",
        "type": 0,
        "location": {
            "lat": 38.919956,
            "lng": 106.527184
        },
        "ad_info": {
            "adcode": 640221,
            "province": "宁夏回族自治区",
            "city": "石嘴山市",
            "district": "平罗县"
        }
    },
    {
        "id": "2114140414156640278",
        "title": "公共厕所",
        "address": "宁夏回族自治区石嘴山市惠农区G110与S301交叉口东南方向197米左右",
        "tel": "",
        "category": "基础设施:公共设施:公共厕所",
        "type": 0,
        "location": {
            "lat": 39.172982,
            "lng": 106.67719
        },
        "ad_info": {
            "adcode": 640205,
            "province": "宁夏回族自治区",
            "city": "石嘴山市",
            "district": "惠农区"
        }
    },
    {
        "id": "739456024820151066",
        "title": "公共厕所",
        "address": "宁夏回族自治区石嘴山市惠农区广西路与新南路交叉口正南方向144米左右",
        "tel": "",
        "category": "基础设施:公共设施:公共厕所",
        "type": 0,
        "location": {
            "lat": 39.224019,
            "lng": 106.769992
        },
        "ad_info": {
            "adcode": 640205,
            "province": "宁夏回族自治区",
            "city": "石嘴山市",
            "district": "惠农区"
        }
    },
    {
        "id": "7669701497878871084",
        "title": "无障碍公共厕所",
        "address": "宁夏回族自治区石嘴山市平罗县玉龚路与鼓楼北街交叉口正北方向143米左右",
        "tel": "",
        "category": "基础设施:公共设施:公共厕所",
        "type": 0,
        "location": {
            "lat": 38.913142,
            "lng": 106.546428
        },
        "ad_info": {
            "adcode": 640221,
            "province": "宁夏回族自治区",
            "city": "石嘴山市",
            "district": "平罗县"
        }
    },
    {
        "id": "7577245462411558211",
        "title": "公共厕所",
        "address": "宁夏回族自治区石嘴山市大武口区黄河东街311号",
        "tel": "",
        "category": "基础设施:公共设施:公共厕所",
        "type": 0,
        "location": {
            "lat": 39.000198,
            "lng": 106.372901
        },
        "ad_info": {
            "adcode": 640202,
            "province": "宁夏回族自治区",
            "city": "石嘴山市",
            "district": "大武口区"
        }
    },
    {
        "id": "5621634431271737192",
        "title": "洗手间",
        "address": "宁夏回族自治区石嘴山市平罗县人民西路阳光城市花园",
        "tel": "",
        "category": "基础设施:公共设施:公共厕所",
        "type": 0,
        "location": {
            "lat": 38.904399,
            "lng": 106.53142
        },
        "ad_info": {
            "adcode": 640221,
            "province": "宁夏回族自治区",
            "city": "石嘴山市",
            "district": "平罗县"
        }
    },
    {
        "id": "14286340648567827480",
        "title": "公共厕所",
        "address": "宁夏回族自治区石嘴山市平罗县亲水大道与平西路交叉口东北方向150米左右",
        "tel": "",
        "category": "基础设施:公共设施:公共厕所",
        "type": 0,
        "location": {
            "lat": 38.909748,
            "lng": 106.472019
        },
        "ad_info": {
            "adcode": 640221,
            "province": "宁夏回族自治区",
            "city": "石嘴山市",
            "district": "平罗县"
        }
    },
    {
        "id": "12639352467146673696",
        "title": "公共厕所",
        "address": "宁夏回族自治区石嘴山市平罗县萧公大街与贺兰山路交叉口正南方向25米左右",
        "tel": "",
        "category": "基础设施:公共设施:公共厕所",
        "type": 0,
        "location": {
            "lat": 38.919458,
            "lng": 106.536864
        },
        "ad_info": {
            "adcode": 640221,
            "province": "宁夏回族自治区",
            "city": "石嘴山市",
            "district": "平罗县"
        }
    },
    {
        "id": "3830382384824249566",
        "title": "公共厕所",
        "address": "宁夏回族自治区石嘴山市惠农区G109与沈阳路交叉口西南方向590米左右",
        "tel": "",
        "category": "基础设施:公共设施:公共厕所",
        "type": 0,
        "location": {
            "lat": 39.192358,
            "lng": 106.757919
        },
        "ad_info": {
            "adcode": 640205,
            "province": "宁夏回族自治区",
            "city": "石嘴山市",
            "district": "惠农区"
        }
    },
    {
        "id": "14735921452425949500",
        "title": "公共厕所",
        "address": "宁夏回族自治区石嘴山市惠农区新建路与育才路交叉口东南方向141米左右",
        "tel": "",
        "category": "基础设施:公共设施:公共厕所",
        "type": 0,
        "location": {
            "lat": 39.217888,
            "lng": 106.76366
        },
        "ad_info": {
            "adcode": 640205,
            "province": "宁夏回族自治区",
            "city": "石嘴山市",
            "district": "惠农区"
        }
    },
    {
        "id": "12500232871945948227",
        "title": "公共厕所",
        "address": "宁夏回族自治区石嘴山市惠农区育才路石嘴山市第一中学",
        "tel": "",
        "category": "基础设施:公共设施:公共厕所",
        "type": 0,
        "location": {
            "lat": 39.219351,
            "lng": 106.759646
        },
        "ad_info": {
            "adcode": 640205,
            "province": "宁夏回族自治区",
            "city": "石嘴山市",
            "district": "惠农区"
        }
    },
    {
        "id": "9823066462100864683",
        "title": "公共厕所",
        "address": "宁夏回族自治区石嘴山市惠农区南大街与清华街交叉口正北方向50米左右",
        "tel": "",
        "category": "基础设施:公共设施:公共厕所",
        "type": 0,
        "location": {
            "lat": 39.220597,
            "lng": 106.768855
        },
        "ad_info": {
            "adcode": 640205,
            "province": "宁夏回族自治区",
            "city": "石嘴山市",
            "district": "惠农区"
        }
    },
    {
        "id": "15085675008332767427",
        "title": "公共厕所",
        "address": "宁夏回族自治区石嘴山市平罗县平罗县建筑机械北侧80米",
        "tel": "",
        "category": "基础设施:公共设施:公共厕所",
        "type": 0,
        "location": {
            "lat": 38.87062,
            "lng": 106.537608
        },
        "ad_info": {
            "adcode": 640221,
            "province": "宁夏回族自治区",
            "city": "石嘴山市",
            "district": "平罗县"
        }
    },
    {
        "id": "5865476210976566789",
        "title": "公共厕所",
        "address": "宁夏回族自治区石嘴山市大武口区S301与新华街交叉口正北方向221米左右",
        "tel": "",
        "category": "基础设施:公共设施:公共厕所",
        "type": 0,
        "location": {
            "lat": 39.240304,
            "lng": 106.34441
        },
        "ad_info": {
            "adcode": 640202,
            "province": "宁夏回族自治区",
            "city": "石嘴山市",
            "district": "大武口区"
        }
    },
    {
        "id": "3918431068411778153",
        "title": "公共厕所",
        "address": "宁夏回族自治区石嘴山市平罗县萧公大街与贺兰山路交叉口正西方向345米左右",
        "tel": "",
        "category": "基础设施:公共设施:公共厕所",
        "type": 0,
        "location": {
            "lat": 38.919135,
            "lng": 106.532928
        },
        "ad_info": {
            "adcode": 640221,
            "province": "宁夏回族自治区",
            "city": "石嘴山市",
            "district": "平罗县"
        }
    },
    {
        "id": "2571347835273676887",
        "title": "沙湖服务区-公共厕所",
        "address": "宁夏回族自治区石嘴山市平罗县S303与姚沙公路交叉口正南方向708米左右",
        "tel": "",
        "category": "基础设施:公共设施:公共厕所",
        "type": 0,
        "location": {
            "lat": 38.774468,
            "lng": 106.435936
        },
        "ad_info": {
            "adcode": 640221,
            "province": "宁夏回族自治区",
            "city": "石嘴山市",
            "district": "平罗县"
        }
    },
    {
        "id": "13694468855253426663",
        "title": "公共厕所",
        "address": "宁夏回族自治区石嘴山市平罗县玉皇阁大道与萧公大街交叉口西北方向231米左右",
        "tel": "",
        "category": "基础设施:公共设施:公共厕所",
        "type": 0,
        "location": {
            "lat": 38.913184,
            "lng": 106.530879
        },
        "ad_info": {
            "adcode": 640221,
            "province": "宁夏回族自治区",
            "city": "石嘴山市",
            "district": "平罗县"
        }
    },
    {
        "id": "2810270900002328347",
        "title": "公共厕所",
        "address": "宁夏回族自治区石嘴山市大武口区前进南路与朝阳东街交叉口东北方向148米左右",
        "tel": "",
        "category": "基础设施:公共设施:公共厕所",
        "type": 0,
        "location": {
            "lat": 39.009206,
            "lng": 106.382777
        },
        "ad_info": {
            "adcode": 640202,
            "province": "宁夏回族自治区",
            "city": "石嘴山市",
            "district": "大武口区"
        }
    },
    {
        "id": "11888197472762029448",
        "title": "公共厕所",
        "address": "宁夏回族自治区石嘴山市惠农区华祥街与新建路交叉口正东方向43米左右",
        "tel": "",
        "category": "基础设施:公共设施:公共厕所",
        "type": 0,
        "location": {
            "lat": 39.220188,
            "lng": 106.764347
        },
        "ad_info": {
            "adcode": 640205,
            "province": "宁夏回族自治区",
            "city": "石嘴山市",
            "district": "惠农区"
        }
    },
    {
        "id": "12846152565894719616",
        "title": "公共厕所",
        "address": "宁夏回族自治区石嘴山市大武口区裕民北路与青川巷交叉口正北方向57米左右",
        "tel": "",
        "category": "基础设施:公共设施:公共厕所",
        "type": 0,
        "location": {
            "lat": 39.019749,
            "lng": 106.370436
        },
        "ad_info": {
            "adcode": 640202,
            "province": "宁夏回族自治区",
            "city": "石嘴山市",
            "district": "大武口区"
        }
    },
    {
        "id": "6513870026965853422",
        "title": "公共厕所",
        "address": "宁夏回族自治区石嘴山市大武口区裕民南路与青玉巷交叉口西北方向307米左右",
        "tel": "",
        "category": "基础设施:公共设施:公共厕所",
        "type": 0,
        "location": {
            "lat": 39.0179,
            "lng": 106.363855
        },
        "ad_info": {
            "adcode": 640202,
            "province": "宁夏回族自治区",
            "city": "石嘴山市",
            "district": "大武口区"
        }
    },
    {
        "id": "1781219779692286104",
        "title": "公共厕所",
        "address": "宁夏回族自治区石嘴山市大武口区文明北路与胜利东街交叉口东南方向149米左右",
        "tel": "",
        "category": "基础设施:公共设施:公共厕所",
        "type": 0,
        "location": {
            "lat": 39.017975,
            "lng": 106.388728
        },
        "ad_info": {
            "adcode": 640202,
            "province": "宁夏回族自治区",
            "city": "石嘴山市",
            "district": "大武口区"
        }
    },
    {
        "id": "3766514873255749542",
        "title": "公共厕所",
        "address": "宁夏回族自治区石嘴山市大武口区裕民南路欣安小区",
        "tel": "",
        "category": "基础设施:公共设施:公共厕所",
        "type": 0,
        "location": {
            "lat": 39.007292,
            "lng": 106.355059
        },
        "ad_info": {
            "adcode": 640202,
            "province": "宁夏回族自治区",
            "city": "石嘴山市",
            "district": "大武口区"
        }
    },
    {
        "id": "15934260172175817407",
        "title": "公共厕所",
        "address": "宁夏回族自治区石嘴山市大武口区胜利东街与香港路交叉口西南方向67米左右",
        "tel": "",
        "category": "基础设施:公共设施:公共厕所",
        "type": 0,
        "location": {
            "lat": 39.012283,
            "lng": 106.396186
        },
        "ad_info": {
            "adcode": 640202,
            "province": "宁夏回族自治区",
            "city": "石嘴山市",
            "district": "大武口区"
        }
    },
    {
        "id": "12160820998614210315",
        "title": "公共厕所",
        "address": "宁夏回族自治区石嘴山市惠农区二职路与天津路交叉口正西方向522米左右",
        "tel": "",
        "category": "基础设施:公共设施:公共厕所",
        "type": 0,
        "location": {
            "lat": 39.215161,
            "lng": 106.753397
        },
        "ad_info": {
            "adcode": 640205,
            "province": "宁夏回族自治区",
            "city": "石嘴山市",
            "district": "惠农区"
        }
    },
    {
        "id": "14739194723980134985",
        "title": "公共厕所",
        "address": "宁夏回族自治区石嘴山市大武口区丽景路与锦林街交叉口东北方向242米左右",
        "tel": "",
        "category": "基础设施:公共设施:公共厕所",
        "type": 0,
        "location": {
            "lat": 38.971449,
            "lng": 106.340833
        },
        "ad_info": {
            "adcode": 640202,
            "province": "宁夏回族自治区",
            "city": "石嘴山市",
            "district": "大武口区"
        }
    },
    {
        "id": "8645258672994212280",
        "title": "公共厕所",
        "address": "宁夏回族自治区石嘴山市大武口区游艺东街与游艺西街交叉口西北方向138米左右",
        "tel": "",
        "category": "基础设施:公共设施:公共厕所",
        "type": 0,
        "location": {
            "lat": 39.016784,
            "lng": 106.376021
        },
        "ad_info": {
            "adcode": 640202,
            "province": "宁夏回族自治区",
            "city": "石嘴山市",
            "district": "大武口区"
        }
    },
    {
        "id": "15824235025461934713",
        "title": "公共厕所",
        "address": "宁夏回族自治区石嘴山市平罗县民族大街与玉皇阁大道交叉口东北方向56米左右",
        "tel": "",
        "category": "基础设施:公共设施:公共厕所",
        "type": 0,
        "location": {
            "lat": 38.91213,
            "lng": 106.52704
        },
        "ad_info": {
            "adcode": 640221,
            "province": "宁夏回族自治区",
            "city": "石嘴山市",
            "district": "平罗县"
        }
    },
    {
        "id": "11755459973487910789",
        "title": "公共厕所",
        "address": "宁夏回族自治区石嘴山市大武口区S301与世纪大道交叉口正东方向66米左右",
        "tel": "",
        "category": "基础设施:公共设施:公共厕所",
        "type": 0,
        "location": {
            "lat": 39.044764,
            "lng": 106.452752
        },
        "ad_info": {
            "adcode": 640202,
            "province": "宁夏回族自治区",
            "city": "石嘴山市",
            "district": "大武口区"
        }
    },
    {
        "id": "14751427843549301060",
        "title": "公共厕所",
        "address": "宁夏回族自治区石嘴山市惠农区北大街与步行街交叉口正东方向39米左右",
        "tel": "",
        "category": "基础设施:公共设施:公共厕所",
        "type": 0,
        "location": {
            "lat": 39.232867,
            "lng": 106.777153
        },
        "ad_info": {
            "adcode": 640205,
            "province": "宁夏回族自治区",
            "city": "石嘴山市",
            "district": "惠农区"
        }
    },
    {
        "id": "14524039970682492428",
        "title": "公共厕所",
        "address": "宁夏回族自治区石嘴山市惠农区G110与简滨路交叉口正北方向55米左右",
        "tel": "",
        "category": "基础设施:公共设施:公共厕所",
        "type": 0,
        "location": {
            "lat": 39.069245,
            "lng": 106.471476
        },
        "ad_info": {
            "adcode": 640205,
            "province": "宁夏回族自治区",
            "city": "石嘴山市",
            "district": "惠农区"
        }
    },
    {
        "id": "15225356757997326474",
        "title": "公共厕所",
        "address": "宁夏回族自治区石嘴山市大武口区山水大道与隆湖公路交叉口东南方向214米左右",
        "tel": "",
        "category": "基础设施:公共设施:公共厕所",
        "type": 0,
        "location": {
            "lat": 38.974996,
            "lng": 106.430911
        },
        "ad_info": {
            "adcode": 640202,
            "province": "宁夏回族自治区",
            "city": "石嘴山市",
            "district": "大武口区"
        }
    },
    {
        "id": "17431926662179604220",
        "title": "公共厕所",
        "address": "宁夏回族自治区石嘴山市平罗县民族大街辅路与贺兰山路辅路交叉口正西方向423米左右",
        "tel": "",
        "category": "基础设施:公共设施:公共厕所",
        "type": 0,
        "location": {
            "lat": 38.928826,
            "lng": 106.521509
        },
        "ad_info": {
            "adcode": 640221,
            "province": "宁夏回族自治区",
            "city": "石嘴山市",
            "district": "平罗县"
        }
    },
    {
        "id": "8250888502701715205",
        "title": "公共厕所",
        "address": "宁夏回族自治区石嘴山市大武口区建设东街与永康北路交叉口西南方向151米左右",
        "tel": "",
        "category": "基础设施:公共设施:公共厕所",
        "type": 0,
        "location": {
            "lat": 39.010373,
            "lng": 106.389639
        },
        "ad_info": {
            "adcode": 640202,
            "province": "宁夏回族自治区",
            "city": "石嘴山市",
            "district": "大武口区"
        }
    },
    {
        "id": "12203068203720589167",
        "title": "公共厕所",
        "address": "宁夏回族自治区石嘴山市大武口区向阳街与贺兰山南路交叉口西南方向64米左右",
        "tel": "",
        "category": "基础设施:公共设施:公共厕所",
        "type": 0,
        "location": {
            "lat": 38.965844,
            "lng": 106.315225
        },
        "ad_info": {
            "adcode": 640202,
            "province": "宁夏回族自治区",
            "city": "石嘴山市",
            "district": "大武口区"
        }
    },
    {
        "id": "12273432568267459270",
        "title": "公共厕所",
        "address": "宁夏回族自治区石嘴山市惠农区惠安大街与福利路交叉口西北方向60米左右",
        "tel": "",
        "category": "基础设施:公共设施:公共厕所",
        "type": 0,
        "location": {
            "lat": 39.234538,
            "lng": 106.784534
        },
        "ad_info": {
            "adcode": 640205,
            "province": "宁夏回族自治区",
            "city": "石嘴山市",
            "district": "惠农区"
        }
    },
    {
        "id": "5036282528470101174",
        "title": "公共厕所",
        "address": "宁夏回族自治区石嘴山市惠农区北大街与园艺路交叉口正东方向164米左右",
        "tel": "",
        "category": "基础设施:公共设施:公共厕所",
        "type": 0,
        "location": {
            "lat": 39.238958,
            "lng": 106.784096
        },
        "ad_info": {
            "adcode": 640205,
            "province": "宁夏回族自治区",
            "city": "石嘴山市",
            "district": "惠农区"
        }
    },
    {
        "id": "5934047177676103570",
        "title": "公共厕所",
        "address": "宁夏回族自治区石嘴山市大武口区建设西街与青山北路交叉口正南方向212米左右",
        "tel": "",
        "category": "基础设施:公共设施:公共厕所",
        "type": 0,
        "location": {
            "lat": 39.019168,
            "lng": 106.378117
        },
        "ad_info": {
            "adcode": 640202,
            "province": "宁夏回族自治区",
            "city": "石嘴山市",
            "district": "大武口区"
        }
    },
    {
        "id": "3508894459382310471",
        "title": "公共厕所",
        "address": "宁夏回族自治区石嘴山市大武口区大渠巷与贺兰山南路交叉口东南方向181米左右",
        "tel": "",
        "category": "基础设施:公共设施:公共厕所",
        "type": 0,
        "location": {
            "lat": 39.00613,
            "lng": 106.36783
        },
        "ad_info": {
            "adcode": 640202,
            "province": "宁夏回族自治区",
            "city": "石嘴山市",
            "district": "大武口区"
        }
    },
    {
        "id": "3162208824948660343",
        "title": "公共卫生间",
        "address": "宁夏回族自治区石嘴山市大武口区永康南路康嘉小区",
        "tel": "",
        "category": "基础设施:公共设施:公共厕所",
        "type": 0,
        "location": {
            "lat": 39.000442,
            "lng": 106.376195
        },
        "ad_info": {
            "adcode": 640202,
            "province": "宁夏回族自治区",
            "city": "石嘴山市",
            "district": "大武口区"
        }
    },
    {
        "id": "7526669060765374168",
        "title": "无障碍公共厕所",
        "address": "宁夏回族自治区石嘴山市大武口区建设西街与裕民北路交叉口西北方向92米左右",
        "tel": "",
        "category": "基础设施:公共设施:公共厕所",
        "type": 0,
        "location": {
            "lat": 39.023659,
            "lng": 106.374251
        },
        "ad_info": {
            "adcode": 640202,
            "province": "宁夏回族自治区",
            "city": "石嘴山市",
            "district": "大武口区"
        }
    },
    {
        "id": "10018615308082644502",
        "title": "公共厕所",
        "address": "宁夏回族自治区石嘴山市大武口区青山南路338号",
        "tel": "",
        "category": "基础设施:公共设施:公共厕所",
        "type": 0,
        "location": {
            "lat": 39.005168,
            "lng": 106.359414
        },
        "ad_info": {
            "adcode": 640202,
            "province": "宁夏回族自治区",
            "city": "石嘴山市",
            "district": "大武口区"
        }
    },
    {
        "id": "5502885527931992183",
        "title": "公共厕所",
        "address": "宁夏回族自治区石嘴山市平罗县萧公大街与贺兰山路交叉口西南方向118米左右",
        "tel": "",
        "category": "基础设施:公共设施:公共厕所",
        "type": 0,
        "location": {
            "lat": 38.918742,
            "lng": 106.536222
        },
        "ad_info": {
            "adcode": 640221,
            "province": "宁夏回族自治区",
            "city": "石嘴山市",
            "district": "平罗县"
        }
    },
    {
        "id": "17245495027057701351",
        "title": "公共厕所",
        "address": "宁夏回族自治区石嘴山市大武口区前进北路与胜利东街交叉口正西方向26米左右",
        "tel": "",
        "category": "基础设施:公共设施:公共厕所",
        "type": 0,
        "location": {
            "lat": 39.016246,
            "lng": 106.390198
        },
        "ad_info": {
            "adcode": 640202,
            "province": "宁夏回族自治区",
            "city": "石嘴山市",
            "district": "大武口区"
        }
    },
    {
        "id": "5843616400593949584",
        "title": "公共厕所",
        "address": "宁夏回族自治区石嘴山市惠农区乐才路与康乐路交叉口东南方向84米左右",
        "tel": "",
        "category": "基础设施:公共设施:公共厕所",
        "type": 0,
        "location": {
            "lat": 39.226067,
            "lng": 106.763034
        },
        "ad_info": {
            "adcode": 640205,
            "province": "宁夏回族自治区",
            "city": "石嘴山市",
            "district": "惠农区"
        }
    },
    {
        "id": "10395160485395999710",
        "title": "公共厕所",
        "address": "宁夏回族自治区石嘴山市大武口区世纪大道与黄河东街交叉口西北方向280米左右",
        "tel": "",
        "category": "基础设施:公共设施:公共厕所",
        "type": 0,
        "location": {
            "lat": 38.996799,
            "lng": 106.377548
        },
        "ad_info": {
            "adcode": 640202,
            "province": "宁夏回族自治区",
            "city": "石嘴山市",
            "district": "大武口区"
        }
    },
    {
        "id": "14473036629950310166",
        "title": "公共厕所",
        "address": "宁夏回族自治区石嘴山市大武口区S301与世纪大道交叉口东南方向1988米左右",
        "tel": "",
        "category": "基础设施:公共设施:公共厕所",
        "type": 0,
        "location": {
            "lat": 39.028263,
            "lng": 106.46126
        },
        "ad_info": {
            "adcode": 640202,
            "province": "宁夏回族自治区",
            "city": "石嘴山市",
            "district": "大武口区"
        }
    },
    {
        "id": "13742013690878607803",
        "title": "公共厕所",
        "address": "宁夏回族自治区石嘴山市大武口区浴二路与站前环路交叉口正西方向89米左右",
        "tel": "",
        "category": "基础设施:公共设施:公共厕所",
        "type": 0,
        "location": {
            "lat": 38.918681,
            "lng": 106.420969
        },
        "ad_info": {
            "adcode": 640202,
            "province": "宁夏回族自治区",
            "city": "石嘴山市",
            "district": "大武口区"
        }
    },
    {
        "id": "9247071584113581566",
        "title": "公共厕所",
        "address": "宁夏回族自治区石嘴山市大武口区游艺西街与金山北路交叉口西南方向179米左右",
        "tel": "",
        "category": "基础设施:公共设施:公共厕所",
        "type": 0,
        "location": {
            "lat": 39.03176,
            "lng": 106.3606
        },
        "ad_info": {
            "adcode": 640202,
            "province": "宁夏回族自治区",
            "city": "石嘴山市",
            "district": "大武口区"
        }
    },
    {
        "id": "11198773529439146248",
        "title": "公共厕所",
        "address": "宁夏回族自治区石嘴山市惠农区德胜路与邮政路交叉口正东方向28米左右",
        "tel": "",
        "category": "基础设施:公共设施:公共厕所",
        "type": 0,
        "location": {
            "lat": 39.23297,
            "lng": 106.78048
        },
        "ad_info": {
            "adcode": 640205,
            "province": "宁夏回族自治区",
            "city": "石嘴山市",
            "district": "惠农区"
        }
    },
    {
        "id": "5412118930682834995",
        "title": "公共厕所",
        "address": "宁夏回族自治区石嘴山市平罗县贺兰山路501号",
        "tel": "",
        "category": "基础设施:公共设施:公共厕所",
        "type": 0,
        "location": {
            "lat": 38.930781,
            "lng": 106.523098
        },
        "ad_info": {
            "adcode": 640221,
            "province": "宁夏回族自治区",
            "city": "石嘴山市",
            "district": "平罗县"
        }
    },
    {
        "id": "1465629443629189218",
        "title": "公共厕所",
        "address": "宁夏回族自治区石嘴山市惠农区德胜路与邮政路交叉口西北方向59米左右",
        "tel": "",
        "category": "基础设施:公共设施:公共厕所",
        "type": 0,
        "location": {
            "lat": 39.233324,
            "lng": 106.779695
        },
        "ad_info": {
            "adcode": 640205,
            "province": "宁夏回族自治区",
            "city": "石嘴山市",
            "district": "惠农区"
        }
    },
    {
        "id": "16179011551230283600",
        "title": "公共厕所",
        "address": "宁夏回族自治区石嘴山市平罗县团结东路与怀通街交叉口正南方向26米左右",
        "tel": "",
        "category": "基础设施:公共设施:公共厕所",
        "type": 0,
        "location": {
            "lat": 38.908616,
            "lng": 106.554095
        },
        "ad_info": {
            "adcode": 640221,
            "province": "宁夏回族自治区",
            "city": "石嘴山市",
            "district": "平罗县"
        }
    },
    {
        "id": "270209105025892540",
        "title": "公共厕所",
        "address": "宁夏回族自治区石嘴山市大武口区五岳路与长庆东街交叉口西北方向37米左右",
        "tel": "",
        "category": "基础设施:公共设施:公共厕所",
        "type": 0,
        "location": {
            "lat": 38.986231,
            "lng": 106.378764
        },
        "ad_info": {
            "adcode": 640202,
            "province": "宁夏回族自治区",
            "city": "石嘴山市",
            "district": "大武口区"
        }
    },
    {
        "id": "12203068203720589167",
        "title": "公共厕所",
        "address": "宁夏回族自治区石嘴山市大武口区向阳街与贺兰山南路交叉口西南方向64米左右",
        "tel": "",
        "category": "基础设施:公共设施:公共厕所",
        "type": 0,
        "location": {
            "lat": 38.965844,
            "lng": 106.315225
        },
        "ad_info": {
            "adcode": 640202,
            "province": "宁夏回族自治区",
            "city": "石嘴山市",
            "district": "大武口区"
        }
    },
    {
        "id": "12273432568267459270",
        "title": "公共厕所",
        "address": "宁夏回族自治区石嘴山市惠农区惠安大街与福利路交叉口西北方向60米左右",
        "tel": "",
        "category": "基础设施:公共设施:公共厕所",
        "type": 0,
        "location": {
            "lat": 39.234538,
            "lng": 106.784534
        },
        "ad_info": {
            "adcode": 640205,
            "province": "宁夏回族自治区",
            "city": "石嘴山市",
            "district": "惠农区"
        }
    },
    {
        "id": "5036282528470101174",
        "title": "公共厕所",
        "address": "宁夏回族自治区石嘴山市惠农区北大街与园艺路交叉口正东方向164米左右",
        "tel": "",
        "category": "基础设施:公共设施:公共厕所",
        "type": 0,
        "location": {
            "lat": 39.238958,
            "lng": 106.784096
        },
        "ad_info": {
            "adcode": 640205,
            "province": "宁夏回族自治区",
            "city": "石嘴山市",
            "district": "惠农区"
        }
    },
    {
        "id": "5934047177676103570",
        "title": "公共厕所",
        "address": "宁夏回族自治区石嘴山市大武口区建设西街与青山北路交叉口正南方向212米左右",
        "tel": "",
        "category": "基础设施:公共设施:公共厕所",
        "type": 0,
        "location": {
            "lat": 39.019168,
            "lng": 106.378117
        },
        "ad_info": {
            "adcode": 640202,
            "province": "宁夏回族自治区",
            "city": "石嘴山市",
            "district": "大武口区"
        }
    },
    {
        "id": "3508894459382310471",
        "title": "公共厕所",
        "address": "宁夏回族自治区石嘴山市大武口区大渠巷与贺兰山南路交叉口东南方向181米左右",
        "tel": "",
        "category": "基础设施:公共设施:公共厕所",
        "type": 0,
        "location": {
            "lat": 39.00613,
            "lng": 106.36783
        },
        "ad_info": {
            "adcode": 640202,
            "province": "宁夏回族自治区",
            "city": "石嘴山市",
            "district": "大武口区"
        }
    },
    {
        "id": "3162208824948660343",
        "title": "公共卫生间",
        "address": "宁夏回族自治区石嘴山市大武口区永康南路康嘉小区",
        "tel": "",
        "category": "基础设施:公共设施:公共厕所",
        "type": 0,
        "location": {
            "lat": 39.000442,
            "lng": 106.376195
        },
        "ad_info": {
            "adcode": 640202,
            "province": "宁夏回族自治区",
            "city": "石嘴山市",
            "district": "大武口区"
        }
    },
    {
        "id": "7526669060765374168",
        "title": "无障碍公共厕所",
        "address": "宁夏回族自治区石嘴山市大武口区建设西街与裕民北路交叉口西北方向92米左右",
        "tel": "",
        "category": "基础设施:公共设施:公共厕所",
        "type": 0,
        "location": {
            "lat": 39.023659,
            "lng": 106.374251
        },
        "ad_info": {
            "adcode": 640202,
            "province": "宁夏回族自治区",
            "city": "石嘴山市",
            "district": "大武口区"
        }
    },
    {
        "id": "10018615308082644502",
        "title": "公共厕所",
        "address": "宁夏回族自治区石嘴山市大武口区青山南路338号",
        "tel": "",
        "category": "基础设施:公共设施:公共厕所",
        "type": 0,
        "location": {
            "lat": 39.005168,
            "lng": 106.359414
        },
        "ad_info": {
            "adcode": 640202,
            "province": "宁夏回族自治区",
            "city": "石嘴山市",
            "district": "大武口区"
        }
    },
    {
        "id": "5502885527931992183",
        "title": "公共厕所",
        "address": "宁夏回族自治区石嘴山市平罗县萧公大街与贺兰山路交叉口西南方向118米左右",
        "tel": "",
        "category": "基础设施:公共设施:公共厕所",
        "type": 0,
        "location": {
            "lat": 38.918742,
            "lng": 106.536222
        },
        "ad_info": {
            "adcode": 640221,
            "province": "宁夏回族自治区",
            "city": "石嘴山市",
            "district": "平罗县"
        }
    },
    {
        "id": "17245495027057701351",
        "title": "公共厕所",
        "address": "宁夏回族自治区石嘴山市大武口区前进北路与胜利东街交叉口正西方向26米左右",
        "tel": "",
        "category": "基础设施:公共设施:公共厕所",
        "type": 0,
        "location": {
            "lat": 39.016246,
            "lng": 106.390198
        },
        "ad_info": {
            "adcode": 640202,
            "province": "宁夏回族自治区",
            "city": "石嘴山市",
            "district": "大武口区"
        }
    },
    {
        "id": "5843616400593949584",
        "title": "公共厕所",
        "address": "宁夏回族自治区石嘴山市惠农区乐才路与康乐路交叉口东南方向84米左右",
        "tel": "",
        "category": "基础设施:公共设施:公共厕所",
        "type": 0,
        "location": {
            "lat": 39.226067,
            "lng": 106.763034
        },
        "ad_info": {
            "adcode": 640205,
            "province": "宁夏回族自治区",
            "city": "石嘴山市",
            "district": "惠农区"
        }
    },
    {
        "id": "10395160485395999710",
        "title": "公共厕所",
        "address": "宁夏回族自治区石嘴山市大武口区世纪大道与黄河东街交叉口西北方向280米左右",
        "tel": "",
        "category": "基础设施:公共设施:公共厕所",
        "type": 0,
        "location": {
            "lat": 38.996799,
            "lng": 106.377548
        },
        "ad_info": {
            "adcode": 640202,
            "province": "宁夏回族自治区",
            "city": "石嘴山市",
            "district": "大武口区"
        }
    },
    {
        "id": "14473036629950310166",
        "title": "公共厕所",
        "address": "宁夏回族自治区石嘴山市大武口区S301与世纪大道交叉口东南方向1988米左右",
        "tel": "",
        "category": "基础设施:公共设施:公共厕所",
        "type": 0,
        "location": {
            "lat": 39.028263,
            "lng": 106.46126
        },
        "ad_info": {
            "adcode": 640202,
            "province": "宁夏回族自治区",
            "city": "石嘴山市",
            "district": "大武口区"
        }
    },
    {
        "id": "13742013690878607803",
        "title": "公共厕所",
        "address": "宁夏回族自治区石嘴山市大武口区浴二路与站前环路交叉口正西方向89米左右",
        "tel": "",
        "category": "基础设施:公共设施:公共厕所",
        "type": 0,
        "location": {
            "lat": 38.918681,
            "lng": 106.420969
        },
        "ad_info": {
            "adcode": 640202,
            "province": "宁夏回族自治区",
            "city": "石嘴山市",
            "district": "大武口区"
        }
    },
    {
        "id": "9247071584113581566",
        "title": "公共厕所",
        "address": "宁夏回族自治区石嘴山市大武口区游艺西街与金山北路交叉口西南方向179米左右",
        "tel": "",
        "category": "基础设施:公共设施:公共厕所",
        "type": 0,
        "location": {
            "lat": 39.03176,
            "lng": 106.3606
        },
        "ad_info": {
            "adcode": 640202,
            "province": "宁夏回族自治区",
            "city": "石嘴山市",
            "district": "大武口区"
        }
    },
    {
        "id": "11198773529439146248",
        "title": "公共厕所",
        "address": "宁夏回族自治区石嘴山市惠农区德胜路与邮政路交叉口正东方向28米左右",
        "tel": "",
        "category": "基础设施:公共设施:公共厕所",
        "type": 0,
        "location": {
            "lat": 39.23297,
            "lng": 106.78048
        },
        "ad_info": {
            "adcode": 640205,
            "province": "宁夏回族自治区",
            "city": "石嘴山市",
            "district": "惠农区"
        }
    },
    {
        "id": "5412118930682834995",
        "title": "公共厕所",
        "address": "宁夏回族自治区石嘴山市平罗县贺兰山路501号",
        "tel": "",
        "category": "基础设施:公共设施:公共厕所",
        "type": 0,
        "location": {
            "lat": 38.930781,
            "lng": 106.523098
        },
        "ad_info": {
            "adcode": 640221,
            "province": "宁夏回族自治区",
            "city": "石嘴山市",
            "district": "平罗县"
        }
    },
    {
        "id": "1465629443629189218",
        "title": "公共厕所",
        "address": "宁夏回族自治区石嘴山市惠农区德胜路与邮政路交叉口西北方向59米左右",
        "tel": "",
        "category": "基础设施:公共设施:公共厕所",
        "type": 0,
        "location": {
            "lat": 39.233324,
            "lng": 106.779695
        },
        "ad_info": {
            "adcode": 640205,
            "province": "宁夏回族自治区",
            "city": "石嘴山市",
            "district": "惠农区"
        }
    },
    {
        "id": "16179011551230283600",
        "title": "公共厕所",
        "address": "宁夏回族自治区石嘴山市平罗县团结东路与怀通街交叉口正南方向26米左右",
        "tel": "",
        "category": "基础设施:公共设施:公共厕所",
        "type": 0,
        "location": {
            "lat": 38.908616,
            "lng": 106.554095
        },
        "ad_info": {
            "adcode": 640221,
            "province": "宁夏回族自治区",
            "city": "石嘴山市",
            "district": "平罗县"
        }
    },
    {
        "id": "270209105025892540",
        "title": "公共厕所",
        "address": "宁夏回族自治区石嘴山市大武口区五岳路与长庆东街交叉口西北方向37米左右",
        "tel": "",
        "category": "基础设施:公共设施:公共厕所",
        "type": 0,
        "location": {
            "lat": 38.986231,
            "lng": 106.378764
        },
        "ad_info": {
            "adcode": 640202,
            "province": "宁夏回族自治区",
            "city": "石嘴山市",
            "district": "大武口区"
        }
    }
]