[
    {
        "id": "3785642144543795927",
        "title": "公共厕所",
        "address": "新疆维吾尔自治区石河子市市府路与西环路交叉口东南方向77米左右",
        "tel": "",
        "category": "基础设施:公共设施:公共厕所",
        "type": 0,
        "location": {
            "lat": 44.294494,
            "lng": 86.036415
        },
        "ad_info": {
            "adcode": 659001,
            "province": "新疆维吾尔自治区",
            "city": "",
            "district": "石河子市"
        }
    },
    {
        "id": "6923182142788173536",
        "title": "公共卫生间",
        "address": "新疆维吾尔自治区石河子市东五路与北一东路交叉口正西方向201米左右",
        "tel": "",
        "category": "基础设施:公共设施:公共厕所",
        "type": 0,
        "location": {
            "lat": 44.29266,
            "lng": 86.082831
        },
        "ad_info": {
            "adcode": 659001,
            "province": "新疆维吾尔自治区",
            "city": "",
            "district": "石河子市"
        }
    },
    {
        "id": "21940796882012495",
        "title": "公共厕所",
        "address": "新疆维吾尔自治区石河子市幸福路与西小路交叉口正西方向191米左右",
        "tel": "",
        "category": "基础设施:公共设施:公共厕所",
        "type": 0,
        "location": {
            "lat": 44.309936,
            "lng": 86.030669
        },
        "ad_info": {
            "adcode": 659001,
            "province": "新疆维吾尔自治区",
            "city": "",
            "district": "石河子市"
        }
    },
    {
        "id": "8254200600917807887",
        "title": "公共厕所",
        "address": "新疆维吾尔自治区石河子市东五路11号",
        "tel": "",
        "category": "基础设施:公共设施:公共厕所",
        "type": 0,
        "location": {
            "lat": 44.310012,
            "lng": 86.083223
        },
        "ad_info": {
            "adcode": 659001,
            "province": "新疆维吾尔自治区",
            "city": "",
            "district": "石河子市"
        }
    },
    {
        "id": "1908222276357476993",
        "title": "公共厕所",
        "address": "新疆维吾尔自治区石河子市上海路与光明路交叉口东北方向182米左右",
        "tel": "",
        "category": "基础设施:公共设施:公共厕所",
        "type": 0,
        "location": {
            "lat": 44.333091,
            "lng": 86.031053
        },
        "ad_info": {
            "adcode": 659001,
            "province": "新疆维吾尔自治区",
            "city": "",
            "district": "石河子市"
        }
    },
    {
        "id": "13732035822496093790",
        "title": "公共卫生间",
        "address": "新疆维吾尔自治区石河子市东三路与北五路交叉口正南方向230米左右",
        "tel": "",
        "category": "基础设施:公共设施:公共厕所",
        "type": 0,
        "location": {
            "lat": 44.310617,
            "lng": 86.065177
        },
        "ad_info": {
            "adcode": 659001,
            "province": "新疆维吾尔自治区",
            "city": "",
            "district": "石河子市"
        }
    },
    {
        "id": "18339745670014008875",
        "title": "公共厕所",
        "address": "新疆维吾尔自治区石河子市东幸福路与东六路交叉口东200米",
        "tel": "",
        "category": "基础设施:公共设施:公共厕所",
        "type": 0,
        "location": {
            "lat": 44.309075,
            "lng": 86.09469
        },
        "ad_info": {
            "adcode": 659001,
            "province": "新疆维吾尔自治区",
            "city": "",
            "district": "石河子市"
        }
    },
    {
        "id": "705030856561257718",
        "title": "公共厕所",
        "address": "新疆维吾尔自治区石河子市东四路40号",
        "tel": "",
        "category": "基础设施:公共设施:公共厕所",
        "type": 0,
        "location": {
            "lat": 44.302754,
            "lng": 86.076756
        },
        "ad_info": {
            "adcode": 659001,
            "province": "新疆维吾尔自治区",
            "city": "",
            "district": "石河子市"
        }
    },
    {
        "id": "16312997452763786678",
        "title": "公共厕所",
        "address": "新疆维吾尔自治区石河子市景观河",
        "tel": "",
        "category": "基础设施:公共设施:公共厕所",
        "type": 0,
        "location": {
            "lat": 44.282994,
            "lng": 86.064772
        },
        "ad_info": {
            "adcode": 659001,
            "province": "新疆维吾尔自治区",
            "city": "",
            "district": "石河子市"
        }
    },
    {
        "id": "4594360791027007262",
        "title": "公共厕所",
        "address": "新疆维吾尔自治区石河子市东小路与北六路交叉口正西方向124米左右",
        "tel": "",
        "category": "基础设施:公共设施:公共厕所",
        "type": 0,
        "location": {
            "lat": 44.316356,
            "lng": 86.045372
        },
        "ad_info": {
            "adcode": 659001,
            "province": "新疆维吾尔自治区",
            "city": "",
            "district": "石河子市"
        }
    },
    {
        "id": "11178213059895544283",
        "title": "公共厕所",
        "address": "新疆维吾尔自治区石河子市绿苑(北二路)西北侧100米",
        "tel": "",
        "category": "基础设施:公共设施:公共厕所",
        "type": 0,
        "location": {
            "lat": 44.296588,
            "lng": 86.058544
        },
        "ad_info": {
            "adcode": 659001,
            "province": "新疆维吾尔自治区",
            "city": "",
            "district": "石河子市"
        }
    },
    {
        "id": "14777944817038500489",
        "title": "公共厕所",
        "address": "新疆维吾尔自治区石河子市北四路与西三路交叉口西北方向115米左右",
        "tel": "",
        "category": "基础设施:公共设施:公共厕所",
        "type": 0,
        "location": {
            "lat": 44.307315,
            "lng": 86.015141
        },
        "ad_info": {
            "adcode": 659001,
            "province": "新疆维吾尔自治区",
            "city": "",
            "district": "石河子市"
        }
    },
    {
        "id": "7625103281811613672",
        "title": "公共厕所",
        "address": "新疆维吾尔自治区石河子市东一路与芝樱巷交叉口正南方向65米左右",
        "tel": "",
        "category": "基础设施:公共设施:公共厕所",
        "type": 0,
        "location": {
            "lat": 44.294349,
            "lng": 86.051368
        },
        "ad_info": {
            "adcode": 659001,
            "province": "新疆维吾尔自治区",
            "city": "",
            "district": "石河子市"
        }
    },
    {
        "id": "9034872888963438636",
        "title": "公共厕所",
        "address": "新疆维吾尔自治区石河子市天山路与西一路交叉口东南方向216米左右",
        "tel": "",
        "category": "基础设施:公共设施:公共厕所",
        "type": 0,
        "location": {
            "lat": 44.285918,
            "lng": 86.029837
        },
        "ad_info": {
            "adcode": 659001,
            "province": "新疆维吾尔自治区",
            "city": "",
            "district": "石河子市"
        }
    },
    {
        "id": "4507258559986631698",
        "title": "公共厕所",
        "address": "新疆维吾尔自治区石河子市军垦路与北八路交叉口正南方向104米左右",
        "tel": "",
        "category": "基础设施:公共设施:公共厕所",
        "type": 0,
        "location": {
            "lat": 44.327682,
            "lng": 86.040627
        },
        "ad_info": {
            "adcode": 659001,
            "province": "新疆维吾尔自治区",
            "city": "",
            "district": "石河子市"
        }
    },
    {
        "id": "14741139090938826286",
        "title": "公共厕所",
        "address": "新疆维吾尔自治区石河子市北二路194号",
        "tel": "",
        "category": "基础设施:公共设施:公共厕所",
        "type": 0,
        "location": {
            "lat": 44.296495,
            "lng": 86.069201
        },
        "ad_info": {
            "adcode": 659001,
            "province": "新疆维吾尔自治区",
            "city": "",
            "district": "石河子市"
        }
    },
    {
        "id": "16127938078614529404",
        "title": "公共厕所",
        "address": "新疆维吾尔自治区石河子市上海路与知青大道交叉口正西方向98米左右",
        "tel": "",
        "category": "基础设施:公共设施:公共厕所",
        "type": 0,
        "location": {
            "lat": 44.331535,
            "lng": 86.016363
        },
        "ad_info": {
            "adcode": 659001,
            "province": "新疆维吾尔自治区",
            "city": "",
            "district": "石河子市"
        }
    },
    {
        "id": "11884700793666210188",
        "title": "公共厕所",
        "address": "新疆维吾尔自治区石河子市东一路63号象牙城里面号",
        "tel": "",
        "category": "基础设施:公共设施:公共厕所",
        "type": 0,
        "location": {
            "lat": 44.304559,
            "lng": 86.051306
        },
        "ad_info": {
            "adcode": 659001,
            "province": "新疆维吾尔自治区",
            "city": "",
            "district": "石河子市"
        }
    },
    {
        "id": "10722496970206501306",
        "title": "公共厕所",
        "address": "新疆维吾尔自治区石河子市建设路与银杏街交叉口正东方向31米左右",
        "tel": "",
        "category": "基础设施:公共设施:公共厕所",
        "type": 0,
        "location": {
            "lat": 44.288549,
            "lng": 86.056378
        },
        "ad_info": {
            "adcode": 659001,
            "province": "新疆维吾尔自治区",
            "city": "",
            "district": "石河子市"
        }
    },
    {
        "id": "14791793067743799946",
        "title": "公共厕所",
        "address": "新疆维吾尔自治区石河子市北四路12号",
        "tel": "",
        "category": "基础设施:公共设施:公共厕所",
        "type": 0,
        "location": {
            "lat": 44.30664,
            "lng": 86.029403
        },
        "ad_info": {
            "adcode": 659001,
            "province": "新疆维吾尔自治区",
            "city": "",
            "district": "石河子市"
        }
    },
    {
        "id": "8008941598504452818",
        "title": "公共厕所",
        "address": "新疆维吾尔自治区石河子市景观河E55号",
        "tel": "",
        "category": "基础设施:公共设施:公共厕所",
        "type": 0,
        "location": {
            "lat": 44.293233,
            "lng": 86.064812
        },
        "ad_info": {
            "adcode": 659001,
            "province": "新疆维吾尔自治区",
            "city": "",
            "district": "石河子市"
        }
    },
    {
        "id": "1760153514557057132",
        "title": "公共厕所",
        "address": "新疆维吾尔自治区石河子市东四路与北九路交叉口东北方向142米左右",
        "tel": "",
        "category": "基础设施:公共设施:公共厕所",
        "type": 0,
        "location": {
            "lat": 44.334087,
            "lng": 86.077286
        },
        "ad_info": {
            "adcode": 659001,
            "province": "新疆维吾尔自治区",
            "city": "",
            "district": "石河子市"
        }
    },
    {
        "id": "9255613693860503627",
        "title": "公共厕所",
        "address": "新疆维吾尔自治区石河子市天山路与海棠街交叉口西南方向231米左右",
        "tel": "",
        "category": "基础设施:公共设施:公共厕所",
        "type": 0,
        "location": {
            "lat": 44.285343,
            "lng": 86.034359
        },
        "ad_info": {
            "adcode": 659001,
            "province": "新疆维吾尔自治区",
            "city": "",
            "district": "石河子市"
        }
    },
    {
        "id": "17590485552676375815",
        "title": "公共厕所",
        "address": "新疆维吾尔自治区石河子市东环路与北三路交叉口西北方向248米左右",
        "tel": "",
        "category": "基础设施:公共设施:公共厕所",
        "type": 0,
        "location": {
            "lat": 44.302355,
            "lng": 86.041306
        },
        "ad_info": {
            "adcode": 659001,
            "province": "新疆维吾尔自治区",
            "city": "",
            "district": "石河子市"
        }
    },
    {
        "id": "9083087625566019015",
        "title": "公共厕所",
        "address": "新疆维吾尔自治区石河子市东一路133-11号",
        "tel": "",
        "category": "基础设施:公共设施:公共厕所",
        "type": 0,
        "location": {
            "lat": 44.291433,
            "lng": 86.051212
        },
        "ad_info": {
            "adcode": 659001,
            "province": "新疆维吾尔自治区",
            "city": "",
            "district": "石河子市"
        }
    },
    {
        "id": "7294332418080485235",
        "title": "公共厕所",
        "address": "新疆维吾尔自治区石河子市东环路与北三路交叉口西北方向126米左右",
        "tel": "",
        "category": "基础设施:公共设施:公共厕所",
        "type": 0,
        "location": {
            "lat": 44.302078,
            "lng": 86.042879
        },
        "ad_info": {
            "adcode": 659001,
            "province": "新疆维吾尔自治区",
            "city": "",
            "district": "石河子市"
        }
    },
    {
        "id": "5568044991559392835",
        "title": "公共厕所",
        "address": "新疆维吾尔自治区石河子市北三路与西二路交叉口正南方向361米左右",
        "tel": "",
        "category": "基础设施:公共设施:公共厕所",
        "type": 0,
        "location": {
            "lat": 44.298232,
            "lng": 86.016217
        },
        "ad_info": {
            "adcode": 659001,
            "province": "新疆维吾尔自治区",
            "city": "",
            "district": "石河子市"
        }
    },
    {
        "id": "14787234064680761062",
        "title": "公共厕所",
        "address": "新疆维吾尔自治区石河子市东环路与建设路交叉口正南方向68米左右",
        "tel": "",
        "category": "基础设施:公共设施:公共厕所",
        "type": 0,
        "location": {
            "lat": 44.287899,
            "lng": 86.043776
        },
        "ad_info": {
            "adcode": 659001,
            "province": "新疆维吾尔自治区",
            "city": "",
            "district": "石河子市"
        }
    },
    {
        "id": "17730990182899755769",
        "title": "公共厕所",
        "address": "新疆维吾尔自治区石河子市东小路与北二路交叉口正北方向215米左右",
        "tel": "",
        "category": "基础设施:公共设施:公共厕所",
        "type": 0,
        "location": {
            "lat": 44.29879,
            "lng": 86.04745
        },
        "ad_info": {
            "adcode": 659001,
            "province": "新疆维吾尔自治区",
            "city": "",
            "district": "石河子市"
        }
    },
    {
        "id": "3744833150192235980",
        "title": "公共厕所",
        "address": "新疆维吾尔自治区石河子市北子午路与乌伊东路辅路交叉口南120米",
        "tel": "",
        "category": "基础设施:公共设施:公共厕所",
        "type": 0,
        "location": {
            "lat": 44.318802,
            "lng": 86.040287
        },
        "ad_info": {
            "adcode": 659001,
            "province": "新疆维吾尔自治区",
            "city": "",
            "district": "石河子市"
        }
    },
    {
        "id": "10684534285183048098",
        "title": "公共厕所",
        "address": "新疆维吾尔自治区石河子市西一路6号小区",
        "tel": "",
        "category": "基础设施:公共设施:公共厕所",
        "type": 0,
        "location": {
            "lat": 44.304045,
            "lng": 86.027506
        },
        "ad_info": {
            "adcode": 659001,
            "province": "新疆维吾尔自治区",
            "city": "",
            "district": "石河子市"
        }
    },
    {
        "id": "15327591768829808452",
        "title": "公共厕所",
        "address": "新疆维吾尔自治区石河子市北三路与西环路交叉口正南方向156米左右",
        "tel": "",
        "category": "基础设施:公共设施:公共厕所",
        "type": 0,
        "location": {
            "lat": 44.300099,
            "lng": 86.035921
        },
        "ad_info": {
            "adcode": 659001,
            "province": "新疆维吾尔自治区",
            "city": "",
            "district": "石河子市"
        }
    },
    {
        "id": "5132180847695815362",
        "title": "公共厕所",
        "address": "新疆维吾尔自治区石河子市东一路与北五路交叉口正西方向114米左右",
        "tel": "",
        "category": "基础设施:公共设施:公共厕所",
        "type": 0,
        "location": {
            "lat": 44.313093,
            "lng": 86.050578
        },
        "ad_info": {
            "adcode": 659001,
            "province": "新疆维吾尔自治区",
            "city": "",
            "district": "石河子市"
        }
    },
    {
        "id": "8528401135307074270",
        "title": "公共厕所",
        "address": "新疆维吾尔自治区石河子市北三路与西环路交叉口正南方向104米左右",
        "tel": "",
        "category": "基础设施:公共设施:公共厕所",
        "type": 0,
        "location": {
            "lat": 44.300563,
            "lng": 86.035342
        },
        "ad_info": {
            "adcode": 659001,
            "province": "新疆维吾尔自治区",
            "city": "",
            "district": "石河子市"
        }
    },
    {
        "id": "4011680414890092153",
        "title": "公共厕所",
        "address": "新疆维吾尔自治区石河子市枫树街与北三路交叉口西北60米",
        "tel": "",
        "category": "基础设施:公共设施:公共厕所",
        "type": 0,
        "location": {
            "lat": 44.301987,
            "lng": 86.088394
        },
        "ad_info": {
            "adcode": 659001,
            "province": "新疆维吾尔自治区",
            "city": "",
            "district": "石河子市"
        }
    },
    {
        "id": "15750125966572679066",
        "title": "公共厕所",
        "address": "新疆维吾尔自治区石河子市东环路与北二路交叉口正西方向138米左右",
        "tel": "",
        "category": "基础设施:公共设施:公共厕所",
        "type": 0,
        "location": {
            "lat": 44.296579,
            "lng": 86.042407
        },
        "ad_info": {
            "adcode": 659001,
            "province": "新疆维吾尔自治区",
            "city": "",
            "district": "石河子市"
        }
    },
    {
        "id": "377613925767493057",
        "title": "公共厕所",
        "address": "新疆维吾尔自治区石河子市北三东路与枫树街交叉口西北方向39米左右",
        "tel": "",
        "category": "基础设施:公共设施:公共厕所",
        "type": 0,
        "location": {
            "lat": 44.301694,
            "lng": 86.088395
        },
        "ad_info": {
            "adcode": 659001,
            "province": "新疆维吾尔自治区",
            "city": "",
            "district": "石河子市"
        }
    },
    {
        "id": "12969188484147148743",
        "title": "公共厕所",
        "address": "新疆维吾尔自治区石河子市北京路石河子职业技术学院分院",
        "tel": "",
        "category": "基础设施:公共设施:公共厕所",
        "type": 0,
        "location": {
            "lat": 44.335798,
            "lng": 86.021022
        },
        "ad_info": {
            "adcode": 659001,
            "province": "新疆维吾尔自治区",
            "city": "",
            "district": "石河子市"
        }
    },
    {
        "id": "15121920952968563846",
        "title": "公共厕所",
        "address": "新疆维吾尔自治区石河子市东三路与北三路交叉口正南方向204米左右",
        "tel": "",
        "category": "基础设施:公共设施:公共厕所",
        "type": 0,
        "location": {
            "lat": 44.299617,
            "lng": 86.065174
        },
        "ad_info": {
            "adcode": 659001,
            "province": "新疆维吾尔自治区",
            "city": "",
            "district": "石河子市"
        }
    },
    {
        "id": "5865019187682488731",
        "title": "公共厕所",
        "address": "新疆维吾尔自治区石河子市东一路与幸福路交叉口正北方向160米左右",
        "tel": "",
        "category": "基础设施:公共设施:公共厕所",
        "type": 0,
        "location": {
            "lat": 44.31117,
            "lng": 86.051327
        },
        "ad_info": {
            "adcode": 659001,
            "province": "新疆维吾尔自治区",
            "city": "",
            "district": "石河子市"
        }
    },
    {
        "id": "4180188219764653782",
        "title": "公共厕所",
        "address": "新疆维吾尔自治区石河子市北二路与西环路交叉口正东方向110米左右",
        "tel": "",
        "category": "基础设施:公共设施:公共厕所",
        "type": 0,
        "location": {
            "lat": 44.29668,
            "lng": 86.0369
        },
        "ad_info": {
            "adcode": 659001,
            "province": "新疆维吾尔自治区",
            "city": "",
            "district": "石河子市"
        }
    },
    {
        "id": "3776127077236616514",
        "title": "公共厕所",
        "address": "新疆维吾尔自治区石河子市幸福路与西一路交叉口正东方向214米左右",
        "tel": "",
        "category": "基础设施:公共设施:公共厕所",
        "type": 0,
        "location": {
            "lat": 44.309129,
            "lng": 86.030559
        },
        "ad_info": {
            "adcode": 659001,
            "province": "新疆维吾尔自治区",
            "city": "",
            "district": "石河子市"
        }
    },
    {
        "id": "5668955309550416481",
        "title": "公共厕所",
        "address": "新疆维吾尔自治区石河子市南子午路与建设路交叉口正北方向125米左右",
        "tel": "",
        "category": "基础设施:公共设施:公共厕所",
        "type": 0,
        "location": {
            "lat": 44.28953,
            "lng": 86.03948
        },
        "ad_info": {
            "adcode": 659001,
            "province": "新疆维吾尔自治区",
            "city": "",
            "district": "石河子市"
        }
    },
    {
        "id": "7300041017051561630",
        "title": "公共厕所(东小路北四路路口23小区)",
        "address": "新疆维吾尔自治区石河子市东小路与北四路交叉口西南方向33米左右",
        "tel": "",
        "category": "基础设施:公共设施:公共厕所",
        "type": 0,
        "location": {
            "lat": 44.306578,
            "lng": 86.04666
        },
        "ad_info": {
            "adcode": 659001,
            "province": "新疆维吾尔自治区",
            "city": "",
            "district": "石河子市"
        }
    },
    {
        "id": "1778531315623007810",
        "title": "公共厕所",
        "address": "新疆维吾尔自治区石河子市东八路与北一东路交叉口东北方向229米左右",
        "tel": "",
        "category": "基础设施:公共设施:公共厕所",
        "type": 0,
        "location": {
            "lat": 44.293933,
            "lng": 86.109489
        },
        "ad_info": {
            "adcode": 659001,
            "province": "新疆维吾尔自治区",
            "city": "",
            "district": "石河子市"
        }
    },
    {
        "id": "9413325630490333347",
        "title": "公共厕所",
        "address": "新疆维吾尔自治区石河子市东六路",
        "tel": "",
        "category": "基础设施:公共设施:公共厕所",
        "type": 0,
        "location": {
            "lat": 44.315106,
            "lng": 86.089401
        },
        "ad_info": {
            "adcode": 659001,
            "province": "新疆维吾尔自治区",
            "city": "",
            "district": "石河子市"
        }
    },
    {
        "id": "17870888863720159948",
        "title": "公共厕所",
        "address": "新疆维吾尔自治区石河子市泰康路与西小路交叉口正北方向52米左右",
        "tel": "",
        "category": "基础设施:公共设施:公共厕所",
        "type": 0,
        "location": {
            "lat": 44.316035,
            "lng": 86.033208
        },
        "ad_info": {
            "adcode": 659001,
            "province": "新疆维吾尔自治区",
            "city": "",
            "district": "石河子市"
        }
    },
    {
        "id": "13634225092341459482",
        "title": "公共厕所",
        "address": "新疆维吾尔自治区石河子市东八路与天山路交叉口东北方向179米左右",
        "tel": "",
        "category": "基础设施:公共设施:公共厕所",
        "type": 0,
        "location": {
            "lat": 44.288534,
            "lng": 86.109011
        },
        "ad_info": {
            "adcode": 659001,
            "province": "新疆维吾尔自治区",
            "city": "",
            "district": "石河子市"
        }
    },
    {
        "id": "923542228183590031",
        "title": "公共厕所",
        "address": "新疆维吾尔自治区石河子市152团卧龙山庄",
        "tel": "",
        "category": "基础设施:公共设施:公共厕所",
        "type": 0,
        "location": {
            "lat": 44.208731,
            "lng": 86.025365
        },
        "ad_info": {
            "adcode": 659001,
            "province": "新疆维吾尔自治区",
            "city": "",
            "district": "石河子市"
        }
    },
    {
        "id": "7225420979625794262",
        "title": "公共厕所",
        "address": "新疆维吾尔自治区石河子市百花声处休闲度假营地南侧80米",
        "tel": "",
        "category": "基础设施:公共设施:公共厕所",
        "type": 0,
        "location": {
            "lat": 44.214496,
            "lng": 85.987017
        },
        "ad_info": {
            "adcode": 659001,
            "province": "新疆维吾尔自治区",
            "city": "",
            "district": "石河子市"
        }
    },
    {
        "id": "9308372514756650750",
        "title": "公共厕所",
        "address": "新疆维吾尔自治区石河子市石河子大学医学院内",
        "tel": "",
        "category": "基础设施:公共设施:公共厕所",
        "type": 0,
        "location": {
            "lat": 44.299602,
            "lng": 86.060797
        },
        "ad_info": {
            "adcode": 659001,
            "province": "新疆维吾尔自治区",
            "city": "",
            "district": "石河子市"
        }
    },
    {
        "id": "7984051708749029616",
        "title": "公共厕所",
        "address": "新疆维吾尔自治区石河子市东六路与乌伊东路交叉口正西方向215米左右",
        "tel": "",
        "category": "基础设施:公共设施:公共厕所",
        "type": 0,
        "location": {
            "lat": 44.314869,
            "lng": 86.089543
        },
        "ad_info": {
            "adcode": 659001,
            "province": "新疆维吾尔自治区",
            "city": "",
            "district": "石河子市"
        }
    },
    {
        "id": "13621606692386040627",
        "title": "公共厕所",
        "address": "新疆维吾尔自治区石河子市东小路与北五路交叉口正北方向142米左右",
        "tel": "",
        "category": "基础设施:公共设施:公共厕所",
        "type": 0,
        "location": {
            "lat": 44.314065,
            "lng": 86.047144
        },
        "ad_info": {
            "adcode": 659001,
            "province": "新疆维吾尔自治区",
            "city": "",
            "district": "石河子市"
        }
    },
    {
        "id": "17190668230525325187",
        "title": "公共厕所",
        "address": "新疆维吾尔自治区石河子市博爱休闲垂钓烧烤庄园",
        "tel": "",
        "category": "基础设施:公共设施:公共厕所",
        "type": 0,
        "location": {
            "lat": 44.379993,
            "lng": 86.013732
        },
        "ad_info": {
            "adcode": 659001,
            "province": "新疆维吾尔自治区",
            "city": "",
            "district": "石河子市"
        }
    },
    {
        "id": "14916989680656032223",
        "title": "公共厕所",
        "address": "新疆维吾尔自治区石河子市东一路与芝樱巷交叉口正南方向112米左右",
        "tel": "",
        "category": "基础设施:公共设施:公共厕所",
        "type": 0,
        "location": {
            "lat": 44.293913,
            "lng": 86.051326
        },
        "ad_info": {
            "adcode": 659001,
            "province": "新疆维吾尔自治区",
            "city": "",
            "district": "石河子市"
        }
    },
    {
        "id": "1619501937558310897",
        "title": "无障碍公共厕所",
        "address": "新疆维吾尔自治区石河子市幸福路与雪松街交叉口正西方向60米左右",
        "tel": "",
        "category": "基础设施:公共设施:公共厕所",
        "type": 0,
        "location": {
            "lat": 44.309734,
            "lng": 86.037037
        },
        "ad_info": {
            "adcode": 659001,
            "province": "新疆维吾尔自治区",
            "city": "",
            "district": "石河子市"
        }
    },
    {
        "id": "12334204968997416767",
        "title": "公共厕所",
        "address": "新疆维吾尔自治区石河子市月季巷与雪松街交叉口东北方向126米左右",
        "tel": "",
        "category": "基础设施:公共设施:公共厕所",
        "type": 0,
        "location": {
            "lat": 44.311254,
            "lng": 86.039333
        },
        "ad_info": {
            "adcode": 659001,
            "province": "新疆维吾尔自治区",
            "city": "",
            "district": "石河子市"
        }
    },
    {
        "id": "9155482695418485139",
        "title": "公共厕所",
        "address": "新疆维吾尔自治区石河子市农贸南巷与西环路交叉口正西方向52米左右",
        "tel": "",
        "category": "基础设施:公共设施:公共厕所",
        "type": 0,
        "location": {
            "lat": 44.304647,
            "lng": 86.035038
        },
        "ad_info": {
            "adcode": 659001,
            "province": "新疆维吾尔自治区",
            "city": "",
            "district": "石河子市"
        }
    },
    {
        "id": "17037483075716180524",
        "title": "公共厕所",
        "address": "新疆维吾尔自治区石河子市东一路54-4号",
        "tel": "",
        "category": "基础设施:公共设施:公共厕所",
        "type": 0,
        "location": {
            "lat": 44.30579,
            "lng": 86.052048
        },
        "ad_info": {
            "adcode": 659001,
            "province": "新疆维吾尔自治区",
            "city": "",
            "district": "石河子市"
        }
    },
    {
        "id": "12282598550629257628",
        "title": "公共厕所",
        "address": "新疆维吾尔自治区石河子市月季巷与雪松街交叉口正西方向163米左右",
        "tel": "",
        "category": "基础设施:公共设施:公共厕所",
        "type": 0,
        "location": {
            "lat": 44.310927,
            "lng": 86.035819
        },
        "ad_info": {
            "adcode": 659001,
            "province": "新疆维吾尔自治区",
            "city": "",
            "district": "石河子市"
        }
    },
    {
        "id": "4610083247430812353",
        "title": "西公园公共厕所",
        "address": "新疆维吾尔自治区石河子市北二路与西一路交叉口西南方向51米左右",
        "tel": "",
        "category": "基础设施:公共设施:公共厕所",
        "type": 0,
        "location": {
            "lat": 44.296624,
            "lng": 86.027435
        },
        "ad_info": {
            "adcode": 659001,
            "province": "新疆维吾尔自治区",
            "city": "",
            "district": "石河子市"
        }
    },
    {
        "id": "10817399157474847062",
        "title": "公共厕所",
        "address": "新疆维吾尔自治区石河子市幸福路与西小路交叉口正南方向105米左右",
        "tel": "",
        "category": "基础设施:公共设施:公共厕所",
        "type": 0,
        "location": {
            "lat": 44.308892,
            "lng": 86.033302
        },
        "ad_info": {
            "adcode": 659001,
            "province": "新疆维吾尔自治区",
            "city": "",
            "district": "石河子市"
        }
    },
    {
        "id": "11532057201092816060",
        "title": "公共厕所",
        "address": "新疆维吾尔自治区石河子市北五路与北子午路交叉口正东方向106米左右",
        "tel": "",
        "category": "基础设施:公共设施:公共厕所",
        "type": 0,
        "location": {
            "lat": 44.313086,
            "lng": 86.041225
        },
        "ad_info": {
            "adcode": 659001,
            "province": "新疆维吾尔自治区",
            "city": "",
            "district": "石河子市"
        }
    },
    {
        "id": "16532679178920855294",
        "title": "西公园公共厕所",
        "address": "新疆维吾尔自治区石河子市北三路与西一路交叉口正西方向292米左右",
        "tel": "",
        "category": "基础设施:公共设施:公共厕所",
        "type": 0,
        "location": {
            "lat": 44.301192,
            "lng": 86.024447
        },
        "ad_info": {
            "adcode": 659001,
            "province": "新疆维吾尔自治区",
            "city": "",
            "district": "石河子市"
        }
    },
    {
        "id": "12226181933950699818",
        "title": "公共厕所",
        "address": "新疆维吾尔自治区石河子市北五路与北子午路交叉口正西方向84米左右",
        "tel": "",
        "category": "基础设施:公共设施:公共厕所",
        "type": 0,
        "location": {
            "lat": 44.312566,
            "lng": 86.038939
        },
        "ad_info": {
            "adcode": 659001,
            "province": "新疆维吾尔自治区",
            "city": "",
            "district": "石河子市"
        }
    },
    {
        "id": "18288133238668949588",
        "title": "公共厕所",
        "address": "新疆维吾尔自治区石河子市北一路与南子午路交叉口东北方向105米左右",
        "tel": "",
        "category": "基础设施:公共设施:公共厕所",
        "type": 0,
        "location": {
            "lat": 44.293128,
            "lng": 86.04055
        },
        "ad_info": {
            "adcode": 659001,
            "province": "新疆维吾尔自治区",
            "city": "",
            "district": "石河子市"
        }
    },
    {
        "id": "7683604154736561251",
        "title": "世纪公园公共厕所",
        "address": "新疆维吾尔自治区石河子市东五路与北二路交叉口正西方向352米左右",
        "tel": "",
        "category": "基础设施:公共设施:公共厕所",
        "type": 0,
        "location": {
            "lat": 44.296929,
            "lng": 86.081083
        },
        "ad_info": {
            "adcode": 659001,
            "province": "新疆维吾尔自治区",
            "city": "",
            "district": "石河子市"
        }
    },
    {
        "id": "4353565555987069200",
        "title": "公共厕所",
        "address": "新疆维吾尔自治区石河子市北五路与西小路交叉口正北方向111米左右",
        "tel": "",
        "category": "基础设施:公共设施:公共厕所",
        "type": 0,
        "location": {
            "lat": 44.313783,
            "lng": 86.033357
        },
        "ad_info": {
            "adcode": 659001,
            "province": "新疆维吾尔自治区",
            "city": "",
            "district": "石河子市"
        }
    },
    {
        "id": "10835114213327212453",
        "title": "无障碍公共厕所",
        "address": "新疆维吾尔自治区石河子市马金辉口腔诊所东侧",
        "tel": "",
        "category": "基础设施:公共设施:公共厕所",
        "type": 0,
        "location": {
            "lat": 44.331353,
            "lng": 86.036591
        },
        "ad_info": {
            "adcode": 659001,
            "province": "新疆维吾尔自治区",
            "city": "",
            "district": "石河子市"
        }
    },
    {
        "id": "591831302902198409",
        "title": "公共厕所",
        "address": "新疆维吾尔自治区石河子市东小路与北五路交叉口正东方向81米左右",
        "tel": "",
        "category": "基础设施:公共设施:公共厕所",
        "type": 0,
        "location": {
            "lat": 44.31259,
            "lng": 86.047894
        },
        "ad_info": {
            "adcode": 659001,
            "province": "新疆维吾尔自治区",
            "city": "",
            "district": "石河子市"
        }
    },
    {
        "id": "15626473266229129434",
        "title": "免费公共厕所",
        "address": "新疆维吾尔自治区石河子市东一路与北一路交叉口正西方向306米左右",
        "tel": "",
        "category": "基础设施:公共设施:公共厕所",
        "type": 0,
        "location": {
            "lat": 44.292614,
            "lng": 86.047926
        },
        "ad_info": {
            "adcode": 659001,
            "province": "新疆维吾尔自治区",
            "city": "",
            "district": "石河子市"
        }
    },
    {
        "id": "13140142167739234614",
        "title": "公共厕所",
        "address": "新疆维吾尔自治区石河子市东环路与北三路交叉口正南方向130米左右",
        "tel": "",
        "category": "基础设施:公共设施:公共厕所",
        "type": 0,
        "location": {
            "lat": 44.300199,
            "lng": 86.044394
        },
        "ad_info": {
            "adcode": 659001,
            "province": "新疆维吾尔自治区",
            "city": "",
            "district": "石河子市"
        }
    },
    {
        "id": "16855151120408597612",
        "title": "无障碍公共厕所",
        "address": "新疆维吾尔自治区石河子市石河子青少年宫东侧",
        "tel": "",
        "category": "基础设施:公共设施:公共厕所",
        "type": 0,
        "location": {
            "lat": 44.300386,
            "lng": 86.078162
        },
        "ad_info": {
            "adcode": 659001,
            "province": "新疆维吾尔自治区",
            "city": "",
            "district": "石河子市"
        }
    },
    {
        "id": "7357702283101684081",
        "title": "天业雅园无障碍公共厕所",
        "address": "新疆维吾尔自治区石河子市全科诊所西北侧",
        "tel": "",
        "category": "基础设施:公共设施:公共厕所",
        "type": 0,
        "location": {
            "lat": 44.30484,
            "lng": 86.088545
        },
        "ad_info": {
            "adcode": 659001,
            "province": "新疆维吾尔自治区",
            "city": "",
            "district": "石河子市"
        }
    },
    {
        "id": "14087531203180218907",
        "title": "公共厕所",
        "address": "新疆维吾尔自治区石河子市西环路石河子第六中学东门东北侧约70米",
        "tel": "",
        "category": "基础设施:公共设施:公共厕所",
        "type": 0,
        "location": {
            "lat": 44.294661,
            "lng": 86.035921
        },
        "ad_info": {
            "adcode": 659001,
            "province": "新疆维吾尔自治区",
            "city": "",
            "district": "石河子市"
        }
    },
    {
        "id": "6940695321231914351",
        "title": "山丹湖村工作站后公共厕所",
        "address": "新疆维吾尔自治区石河子市王桂兰商店东侧120米",
        "tel": "",
        "category": "基础设施:公共设施:公共厕所",
        "type": 0,
        "location": {
            "lat": 44.312297,
            "lng": 86.120572
        },
        "ad_info": {
            "adcode": 659001,
            "province": "新疆维吾尔自治区",
            "city": "",
            "district": "石河子市"
        }
    },
    {
        "id": "4227998191660682824",
        "title": "石河子服务区公共厕所",
        "address": "新疆维吾尔自治区石河子市X904与石西线交叉口东北方向554米左右",
        "tel": "",
        "category": "基础设施:公共设施:公共厕所",
        "type": 0,
        "location": {
            "lat": 44.252936,
            "lng": 86.043242
        },
        "ad_info": {
            "adcode": 659001,
            "province": "新疆维吾尔自治区",
            "city": "",
            "district": "石河子市"
        }
    },
    {
        "id": "3259913997554555957",
        "title": "6小区红星路无障碍公共厕所",
        "address": "新疆维吾尔自治区石河子市红星路与西三路交叉口正东方向66米左右",
        "tel": "",
        "category": "基础设施:公共设施:公共厕所",
        "type": 0,
        "location": {
            "lat": 44.304758,
            "lng": 86.015298
        },
        "ad_info": {
            "adcode": 659001,
            "province": "新疆维吾尔自治区",
            "city": "",
            "district": "石河子市"
        }
    },
    {
        "id": "4436502234105322388",
        "title": "石河子服务区公共厕所",
        "address": "新疆维吾尔自治区石河子市中国石油石河子服务区加气站东侧50米",
        "tel": "",
        "category": "基础设施:公共设施:公共厕所",
        "type": 0,
        "location": {
            "lat": 44.254775,
            "lng": 86.040737
        },
        "ad_info": {
            "adcode": 659001,
            "province": "新疆维吾尔自治区",
            "city": "",
            "district": "石河子市"
        }
    },
    {
        "id": "1163481610785826850",
        "title": "明珠新苑47小区无障碍公共厕所",
        "address": "新疆维吾尔自治区石河子市东五路与北五路交叉口东北方向80米左右",
        "tel": "",
        "category": "基础设施:公共设施:公共厕所",
        "type": 0,
        "location": {
            "lat": 44.313019,
            "lng": 86.086514
        },
        "ad_info": {
            "adcode": 659001,
            "province": "新疆维吾尔自治区",
            "city": "",
            "district": "石河子市"
        }
    },
    {
        "id": "9278822564314168505",
        "title": "四宫村机场路无障碍公共厕所",
        "address": "新疆维吾尔自治区石河子市石城供销社棉花加工厂西侧110米",
        "tel": "",
        "category": "基础设施:公共设施:公共厕所",
        "type": 0,
        "location": {
            "lat": 44.265271,
            "lng": 85.99426
        },
        "ad_info": {
            "adcode": 659001,
            "province": "新疆维吾尔自治区",
            "city": "",
            "district": "石河子市"
        }
    },
    {
        "id": "4922568925899850700",
        "title": "努尔巴克村四段公共厕所",
        "address": "新疆维吾尔自治区石河子市石河子乡四工卫生服务站东北侧80米",
        "tel": "",
        "category": "基础设施:公共设施:公共厕所",
        "type": 0,
        "location": {
            "lat": 44.272619,
            "lng": 86.01426
        },
        "ad_info": {
            "adcode": 659001,
            "province": "新疆维吾尔自治区",
            "city": "",
            "district": "石河子市"
        }
    },
    {
        "id": "5902236104424736879",
        "title": "16小区西环路无障碍公共厕所",
        "address": "新疆维吾尔自治区石河子市北一路与西环路交叉口正南方向133米左右",
        "tel": "",
        "category": "基础设施:公共设施:公共厕所",
        "type": 0,
        "location": {
            "lat": 44.291233,
            "lng": 86.035415
        },
        "ad_info": {
            "adcode": 659001,
            "province": "新疆维吾尔自治区",
            "city": "",
            "district": "石河子市"
        }
    }
]