[
    {
        "id": "17385673308347046756",
        "title": "公共厕所",
        "address": "湖北省神农架林区神农大道神农架国家级自然保护区",
        "tel": "",
        "category": "基础设施:公共设施:公共厕所",
        "type": 0,
        "location": {
            "lat": 31.745891,
            "lng": 110.665528
        },
        "ad_info": {
            "adcode": 429021,
            "province": "湖北省",
            "city": "",
            "district": "神农架林区"
        }
    },
    {
        "id": "2942478487867524896",
        "title": "公共厕所",
        "address": "湖北省神农架林区迎宾大道106号",
        "tel": "",
        "category": "基础设施:公共设施:公共厕所",
        "type": 0,
        "location": {
            "lat": 31.4607,
            "lng": 110.400435
        },
        "ad_info": {
            "adcode": 429021,
            "province": "湖北省",
            "city": "",
            "district": "神农架林区"
        }
    },
    {
        "id": "18133040443393928695",
        "title": "公共厕所",
        "address": "湖北省神农架林区木鱼镇神农顶景区内",
        "tel": "",
        "category": "基础设施:公共设施:公共厕所",
        "type": 0,
        "location": {
            "lat": 31.44349,
            "lng": 110.29411
        },
        "ad_info": {
            "adcode": 429021,
            "province": "湖北省",
            "city": "",
            "district": "神农架林区"
        }
    },
    {
        "id": "17997963841463722448",
        "title": "公共厕所",
        "address": "湖北省神农架林区何西路神农架银海假日酒店",
        "tel": "",
        "category": "基础设施:公共设施:公共厕所",
        "type": 0,
        "location": {
            "lat": 31.460369,
            "lng": 110.401261
        },
        "ad_info": {
            "adcode": 429021,
            "province": "湖北省",
            "city": "",
            "district": "神农架林区"
        }
    },
    {
        "id": "16330796261713552456",
        "title": "公共厕所",
        "address": "湖北省神农架林区阳日大道108号",
        "tel": "",
        "category": "基础设施:公共设施:公共厕所",
        "type": 0,
        "location": {
            "lat": 31.729511,
            "lng": 110.824303
        },
        "ad_info": {
            "adcode": 429021,
            "province": "湖北省",
            "city": "",
            "district": "神农架林区"
        }
    },
    {
        "id": "2863859331952698918",
        "title": "公共厕所",
        "address": "湖北省神农架林区S307与神农大道交叉口东南方向188米左右",
        "tel": "",
        "category": "基础设施:公共设施:公共厕所",
        "type": 0,
        "location": {
            "lat": 31.73598,
            "lng": 110.694808
        },
        "ad_info": {
            "adcode": 429021,
            "province": "湖北省",
            "city": "",
            "district": "神农架林区"
        }
    },
    {
        "id": "6079456325917531764",
        "title": "公共厕所",
        "address": "湖北省神农架林区G209(呼北线)神农架酒壶坪加油站内",
        "tel": "",
        "category": "基础设施:公共设施:公共厕所",
        "type": 0,
        "location": {
            "lat": 31.509003,
            "lng": 110.346731
        },
        "ad_info": {
            "adcode": 429021,
            "province": "湖北省",
            "city": "",
            "district": "神农架林区"
        }
    },
    {
        "id": "15324621246410294092",
        "title": "公共厕所",
        "address": "湖北省神农架林区红坪镇神农架神农顶风景区内(东北角)",
        "tel": "",
        "category": "基础设施:公共设施:公共厕所",
        "type": 0,
        "location": {
            "lat": 31.512144,
            "lng": 110.343052
        },
        "ad_info": {
            "adcode": 429021,
            "province": "湖北省",
            "city": "",
            "district": "神农架林区"
        }
    },
    {
        "id": "14922566417173059527",
        "title": "公共厕所",
        "address": "湖北省神农架林区木鱼镇神农顶风景区神农源内",
        "tel": "",
        "category": "基础设施:公共设施:公共厕所",
        "type": 0,
        "location": {
            "lat": 31.469139,
            "lng": 110.30255
        },
        "ad_info": {
            "adcode": 429021,
            "province": "湖北省",
            "city": "",
            "district": "神农架林区"
        }
    },
    {
        "id": "1478553767193910011",
        "title": "公共厕所",
        "address": "湖北省神农架林区森派云境别院西侧220米",
        "tel": "",
        "category": "基础设施:公共设施:公共厕所",
        "type": 0,
        "location": {
            "lat": 31.452911,
            "lng": 110.40426
        },
        "ad_info": {
            "adcode": 429021,
            "province": "湖北省",
            "city": "",
            "district": "神农架林区"
        }
    }
]