[
    {
        "id": "7857936919326718968",
        "title": "公共厕所",
        "address": "黑龙江省绥化市安达市南横街与奔牛南路交叉口西北方向64米左右",
        "tel": "",
        "category": "基础设施:公共设施:公共厕所",
        "type": 0,
        "location": {
            "lat": 46.414558,
            "lng": 125.344741
        },
        "ad_info": {
            "adcode": 231281,
            "province": "黑龙江省",
            "city": "绥化市",
            "district": "安达市"
        }
    },
    {
        "id": "16589242377875024957",
        "title": "公共厕所",
        "address": "黑龙江省绥化市兰西县东环路与府前路交叉口正西方向331米左右",
        "tel": "",
        "category": "基础设施:公共设施:公共厕所",
        "type": 0,
        "location": {
            "lat": 46.253242,
            "lng": 126.299006
        },
        "ad_info": {
            "adcode": 231222,
            "province": "黑龙江省",
            "city": "绥化市",
            "district": "兰西县"
        }
    },
    {
        "id": "17453861590974868296",
        "title": "公共厕所",
        "address": "黑龙江省绥化市肇东市八仙南路与消防街交叉口西北方向86米左右",
        "tel": "",
        "category": "基础设施:公共设施:公共厕所",
        "type": 0,
        "location": {
            "lat": 46.068626,
            "lng": 125.988937
        },
        "ad_info": {
            "adcode": 231282,
            "province": "黑龙江省",
            "city": "绥化市",
            "district": "肇东市"
        }
    },
    {
        "id": "15672617623530028851",
        "title": "公共厕所",
        "address": "黑龙江省绥化市兰西县西环路与通民路交叉口正南方向397米左右",
        "tel": "",
        "category": "基础设施:公共设施:公共厕所",
        "type": 0,
        "location": {
            "lat": 46.264066,
            "lng": 126.277829
        },
        "ad_info": {
            "adcode": 231222,
            "province": "黑龙江省",
            "city": "绥化市",
            "district": "兰西县"
        }
    },
    {
        "id": "5043116386242164399",
        "title": "公共厕所",
        "address": "黑龙江省绥化市安达市大庆路与牛街交叉口东北方向192米左右",
        "tel": "",
        "category": "基础设施:公共设施:公共厕所",
        "type": 0,
        "location": {
            "lat": 46.426016,
            "lng": 125.356112
        },
        "ad_info": {
            "adcode": 231281,
            "province": "黑龙江省",
            "city": "绥化市",
            "district": "安达市"
        }
    },
    {
        "id": "3115077761826571062",
        "title": "公共厕所",
        "address": "黑龙江省绥化市望奎县枫林园东南侧80米",
        "tel": "",
        "category": "基础设施:公共设施:公共厕所",
        "type": 0,
        "location": {
            "lat": 46.8292,
            "lng": 126.490759
        },
        "ad_info": {
            "adcode": 231221,
            "province": "黑龙江省",
            "city": "绥化市",
            "district": "望奎县"
        }
    },
    {
        "id": "5170347063024872836",
        "title": "公共厕所",
        "address": "黑龙江省绥化市安达市北横街与大庆路交叉口东南方向110米左右",
        "tel": "",
        "category": "基础设施:公共设施:公共厕所",
        "type": 0,
        "location": {
            "lat": 46.427013,
            "lng": 125.35144
        },
        "ad_info": {
            "adcode": 231281,
            "province": "黑龙江省",
            "city": "绥化市",
            "district": "安达市"
        }
    },
    {
        "id": "14376205693021673179",
        "title": "公共厕所",
        "address": "黑龙江省绥化市肇东市正阳大街与通达路交叉口正西方向171米左右",
        "tel": "",
        "category": "基础设施:公共设施:公共厕所",
        "type": 0,
        "location": {
            "lat": 46.059676,
            "lng": 125.969007
        },
        "ad_info": {
            "adcode": 231282,
            "province": "黑龙江省",
            "city": "绥化市",
            "district": "肇东市"
        }
    },
    {
        "id": "13669075915433610613",
        "title": "公共厕所",
        "address": "黑龙江省绥化市安达市眀沈路东50米",
        "tel": "",
        "category": "基础设施:公共设施:公共厕所",
        "type": 0,
        "location": {
            "lat": 46.49512,
            "lng": 125.454702
        },
        "ad_info": {
            "adcode": 231281,
            "province": "黑龙江省",
            "city": "绥化市",
            "district": "安达市"
        }
    },
    {
        "id": "13718162036158594312",
        "title": "公共厕所",
        "address": "黑龙江省绥化市安达市古大湖镇",
        "tel": "",
        "category": "基础设施:公共设施:公共厕所",
        "type": 0,
        "location": {
            "lat": 46.43195,
            "lng": 125.424495
        },
        "ad_info": {
            "adcode": 231281,
            "province": "黑龙江省",
            "city": "绥化市",
            "district": "安达市"
        }
    },
    {
        "id": "4413706229884974572",
        "title": "公共厕所",
        "address": "黑龙江省绥化市安达市体育场路与牛街交叉口东北方向218米左右",
        "tel": "",
        "category": "基础设施:公共设施:公共厕所",
        "type": 0,
        "location": {
            "lat": 46.431792,
            "lng": 125.367117
        },
        "ad_info": {
            "adcode": 231281,
            "province": "黑龙江省",
            "city": "绥化市",
            "district": "安达市"
        }
    },
    {
        "id": "8616263555448753618",
        "title": "公共厕所",
        "address": "黑龙江省绥化市安达市朝阳街与铁西二道街交叉口西南方向75米左右",
        "tel": "",
        "category": "基础设施:公共设施:公共厕所",
        "type": 0,
        "location": {
            "lat": 46.397302,
            "lng": 125.321613
        },
        "ad_info": {
            "adcode": 231281,
            "province": "黑龙江省",
            "city": "绥化市",
            "district": "安达市"
        }
    },
    {
        "id": "17494999360684258524",
        "title": "公共厕所",
        "address": "黑龙江省绥化市安达市滨洲北路与滨洲南路交叉口正南方向28米左右",
        "tel": "",
        "category": "基础设施:公共设施:公共厕所",
        "type": 0,
        "location": {
            "lat": 46.403075,
            "lng": 125.323978
        },
        "ad_info": {
            "adcode": 231281,
            "province": "黑龙江省",
            "city": "绥化市",
            "district": "安达市"
        }
    },
    {
        "id": "1584406434510303354",
        "title": "公共厕所",
        "address": "黑龙江省绥化市安达市大庆路与西青路交叉口西北方向655米左右",
        "tel": "",
        "category": "基础设施:公共设施:公共厕所",
        "type": 0,
        "location": {
            "lat": 46.475822,
            "lng": 125.289836
        },
        "ad_info": {
            "adcode": 231281,
            "province": "黑龙江省",
            "city": "绥化市",
            "district": "安达市"
        }
    },
    {
        "id": "1933677244629958058",
        "title": "公共厕所",
        "address": "黑龙江省绥化市安达市北横街与大庆路交叉口西北方向126米左右",
        "tel": "",
        "category": "基础设施:公共设施:公共厕所",
        "type": 0,
        "location": {
            "lat": 46.428471,
            "lng": 125.349287
        },
        "ad_info": {
            "adcode": 231281,
            "province": "黑龙江省",
            "city": "绥化市",
            "district": "安达市"
        }
    },
    {
        "id": "10979763843488064030",
        "title": "公共厕所",
        "address": "黑龙江省绥化市肇东市一心南路与正阳大街交叉口正东方向75米左右",
        "tel": "",
        "category": "基础设施:公共设施:公共厕所",
        "type": 0,
        "location": {
            "lat": 46.075882,
            "lng": 125.998223
        },
        "ad_info": {
            "adcode": 231282,
            "province": "黑龙江省",
            "city": "绥化市",
            "district": "肇东市"
        }
    },
    {
        "id": "17589994961960511335",
        "title": "公共厕所",
        "address": "黑龙江省绥化市安达市滨洲牛路与金牛路交叉口西北方向342米左右",
        "tel": "",
        "category": "基础设施:公共设施:公共厕所",
        "type": 0,
        "location": {
            "lat": 46.42685,
            "lng": 125.304213
        },
        "ad_info": {
            "adcode": 231281,
            "province": "黑龙江省",
            "city": "绥化市",
            "district": "安达市"
        }
    },
    {
        "id": "6156516946420106660",
        "title": "公共厕所",
        "address": "黑龙江省绥化市安达市Y802与宽街路交叉口东北方向23米左右",
        "tel": "",
        "category": "基础设施:公共设施:公共厕所",
        "type": 0,
        "location": {
            "lat": 46.396514,
            "lng": 125.213192
        },
        "ad_info": {
            "adcode": 231281,
            "province": "黑龙江省",
            "city": "绥化市",
            "district": "安达市"
        }
    },
    {
        "id": "3668747353300470080",
        "title": "公共厕所",
        "address": "黑龙江省绥化市安达市北安街与汗牛路交叉口西南方向350米左右",
        "tel": "",
        "category": "基础设施:公共设施:公共厕所",
        "type": 0,
        "location": {
            "lat": 46.411793,
            "lng": 125.317208
        },
        "ad_info": {
            "adcode": 231281,
            "province": "黑龙江省",
            "city": "绥化市",
            "district": "安达市"
        }
    },
    {
        "id": "11675480096293970269",
        "title": "公共厕所",
        "address": "黑龙江省绥化市海伦市东环路与雷炎大街交叉口正东方向73米左右",
        "tel": "",
        "category": "基础设施:公共设施:公共厕所",
        "type": 0,
        "location": {
            "lat": 47.466388,
            "lng": 126.992897
        },
        "ad_info": {
            "adcode": 231283,
            "province": "黑龙江省",
            "city": "绥化市",
            "district": "海伦市"
        }
    },
    {
        "id": "2497572831861837379",
        "title": "公共厕所",
        "address": "黑龙江省绥化市青冈县东升燃气CNG汽车加气站东北侧80米",
        "tel": "",
        "category": "基础设施:公共设施:公共厕所",
        "type": 0,
        "location": {
            "lat": 46.645094,
            "lng": 126.127304
        },
        "ad_info": {
            "adcode": 231223,
            "province": "黑龙江省",
            "city": "绥化市",
            "district": "青冈县"
        }
    },
    {
        "id": "15893041236998648551",
        "title": "公共厕所",
        "address": "黑龙江省绥化市望奎县东环路与凌枫街交叉口正南方向44米左右",
        "tel": "",
        "category": "基础设施:公共设施:公共厕所",
        "type": 0,
        "location": {
            "lat": 46.831115,
            "lng": 126.499968
        },
        "ad_info": {
            "adcode": 231221,
            "province": "黑龙江省",
            "city": "绥化市",
            "district": "望奎县"
        }
    },
    {
        "id": "9694184093284803619",
        "title": "公共厕所",
        "address": "黑龙江省绥化市望奎县东环路与广场街交叉口西南方向45米左右",
        "tel": "",
        "category": "基础设施:公共设施:公共厕所",
        "type": 0,
        "location": {
            "lat": 46.8374,
            "lng": 126.497955
        },
        "ad_info": {
            "adcode": 231221,
            "province": "黑龙江省",
            "city": "绥化市",
            "district": "望奎县"
        }
    },
    {
        "id": "6415837821746100552",
        "title": "公共厕所",
        "address": "黑龙江省绥化市青冈县文昌街与长江北路交叉口东南方向49米左右",
        "tel": "",
        "category": "基础设施:公共设施:公共厕所",
        "type": 0,
        "location": {
            "lat": 46.695255,
            "lng": 126.100258
        },
        "ad_info": {
            "adcode": 231223,
            "province": "黑龙江省",
            "city": "绥化市",
            "district": "青冈县"
        }
    },
    {
        "id": "1853663879390365029",
        "title": "公共厕所",
        "address": "黑龙江省绥化市绥棱县东北湖街与中心路交叉口正北方向102米左右",
        "tel": "",
        "category": "基础设施:公共设施:公共厕所",
        "type": 0,
        "location": {
            "lat": 47.251108,
            "lng": 127.111766
        },
        "ad_info": {
            "adcode": 231226,
            "province": "黑龙江省",
            "city": "绥化市",
            "district": "绥棱县"
        }
    },
    {
        "id": "16882478095320408699",
        "title": "公共厕所",
        "address": "黑龙江省绥化市绥棱县繁盛大街与西城路交叉口东南方向30米左右",
        "tel": "",
        "category": "基础设施:公共设施:公共厕所",
        "type": 0,
        "location": {
            "lat": 47.243347,
            "lng": 127.102979
        },
        "ad_info": {
            "adcode": 231226,
            "province": "黑龙江省",
            "city": "绥化市",
            "district": "绥棱县"
        }
    },
    {
        "id": "12236188400451027794",
        "title": "公共厕所",
        "address": "黑龙江省绥化市兰西县哈黑路与重庆路交叉口西南方向59米左右",
        "tel": "",
        "category": "基础设施:公共设施:公共厕所",
        "type": 0,
        "location": {
            "lat": 46.238379,
            "lng": 126.263818
        },
        "ad_info": {
            "adcode": 231222,
            "province": "黑龙江省",
            "city": "绥化市",
            "district": "兰西县"
        }
    },
    {
        "id": "17885749721598838138",
        "title": "公共厕所",
        "address": "黑龙江省绥化市安达市Y806与明沈公路交叉口正北方向642米左右",
        "tel": "",
        "category": "基础设施:公共设施:公共厕所",
        "type": 0,
        "location": {
            "lat": 46.315882,
            "lng": 125.313836
        },
        "ad_info": {
            "adcode": 231281,
            "province": "黑龙江省",
            "city": "绥化市",
            "district": "安达市"
        }
    },
    {
        "id": "13213052576075723876",
        "title": "公共厕所",
        "address": "黑龙江省绥化市望奎县G203与交通街交叉口西北方向100米左右",
        "tel": "",
        "category": "基础设施:公共设施:公共厕所",
        "type": 0,
        "location": {
            "lat": 46.831914,
            "lng": 126.507967
        },
        "ad_info": {
            "adcode": 231221,
            "province": "黑龙江省",
            "city": "绥化市",
            "district": "望奎县"
        }
    },
    {
        "id": "14591582263881355553",
        "title": "公共厕所",
        "address": "黑龙江省绥化市兰西县Y712与黑大公路交叉口正南方向692米左右",
        "tel": "",
        "category": "基础设施:公共设施:公共厕所",
        "type": 0,
        "location": {
            "lat": 46.110234,
            "lng": 126.289734
        },
        "ad_info": {
            "adcode": 231222,
            "province": "黑龙江省",
            "city": "绥化市",
            "district": "兰西县"
        }
    },
    {
        "id": "6247876158686195231",
        "title": "公共厕所",
        "address": "黑龙江省绥化市安达市安昌路东50米",
        "tel": "",
        "category": "基础设施:公共设施:公共厕所",
        "type": 0,
        "location": {
            "lat": 46.381989,
            "lng": 125.336326
        },
        "ad_info": {
            "adcode": 231281,
            "province": "黑龙江省",
            "city": "绥化市",
            "district": "安达市"
        }
    },
    {
        "id": "1761983976890499450",
        "title": "公共厕所",
        "address": "黑龙江省绥化市望奎县建设街与解放路交叉口正东方向268米左右",
        "tel": "",
        "category": "基础设施:公共设施:公共厕所",
        "type": 0,
        "location": {
            "lat": 46.840656,
            "lng": 126.493905
        },
        "ad_info": {
            "adcode": 231221,
            "province": "黑龙江省",
            "city": "绥化市",
            "district": "望奎县"
        }
    },
    {
        "id": "18289444773353325800",
        "title": "公共厕所",
        "address": "黑龙江省绥化市望奎县交通街望奎三中",
        "tel": "",
        "category": "基础设施:公共设施:公共厕所",
        "type": 0,
        "location": {
            "lat": 46.828358,
            "lng": 126.491067
        },
        "ad_info": {
            "adcode": 231221,
            "province": "黑龙江省",
            "city": "绥化市",
            "district": "望奎县"
        }
    },
    {
        "id": "13912836372861168162",
        "title": "公共厕所",
        "address": "黑龙江省绥化市兰西县Y712与黑大公路交叉口东南方向1691米左右",
        "tel": "",
        "category": "基础设施:公共设施:公共厕所",
        "type": 0,
        "location": {
            "lat": 46.102235,
            "lng": 126.295962
        },
        "ad_info": {
            "adcode": 231222,
            "province": "黑龙江省",
            "city": "绥化市",
            "district": "兰西县"
        }
    },
    {
        "id": "15995497959366665004",
        "title": "公共厕所",
        "address": "黑龙江省绥化市望奎县Y405与Y408交叉口西南方向37米左右",
        "tel": "",
        "category": "基础设施:公共设施:公共厕所",
        "type": 0,
        "location": {
            "lat": 46.660325,
            "lng": 126.454038
        },
        "ad_info": {
            "adcode": 231221,
            "province": "黑龙江省",
            "city": "绥化市",
            "district": "望奎县"
        }
    },
    {
        "id": "7287565804700520119",
        "title": "公共厕所",
        "address": "黑龙江省绥化市望奎县212省道与401乡道交叉口西南40米",
        "tel": "",
        "category": "基础设施:公共设施:公共厕所",
        "type": 0,
        "location": {
            "lat": 46.836394,
            "lng": 126.509079
        },
        "ad_info": {
            "adcode": 231221,
            "province": "黑龙江省",
            "city": "绥化市",
            "district": "望奎县"
        }
    },
    {
        "id": "4118890928863594941",
        "title": "公共厕所",
        "address": "黑龙江省绥化市望奎县第五中学西南侧270米",
        "tel": "",
        "category": "基础设施:公共设施:公共厕所",
        "type": 0,
        "location": {
            "lat": 46.826472,
            "lng": 126.455364
        },
        "ad_info": {
            "adcode": 231221,
            "province": "黑龙江省",
            "city": "绥化市",
            "district": "望奎县"
        }
    },
    {
        "id": "9602696165928118714",
        "title": "公共厕所",
        "address": "黑龙江省绥化市海伦市中央大街与民生路交叉口西南方向34米左右",
        "tel": "",
        "category": "基础设施:公共设施:公共厕所",
        "type": 0,
        "location": {
            "lat": 47.716932,
            "lng": 127.145702
        },
        "ad_info": {
            "adcode": 231283,
            "province": "黑龙江省",
            "city": "绥化市",
            "district": "海伦市"
        }
    },
    {
        "id": "17273732999564633181",
        "title": "公共厕所",
        "address": "黑龙江省绥化市绥棱县园林大街与市场路交叉口东北方向34米左右",
        "tel": "",
        "category": "基础设施:公共设施:公共厕所",
        "type": 0,
        "location": {
            "lat": 47.238679,
            "lng": 127.122182
        },
        "ad_info": {
            "adcode": 231226,
            "province": "黑龙江省",
            "city": "绥化市",
            "district": "绥棱县"
        }
    },
    {
        "id": "6022202032870783280",
        "title": "公共厕所",
        "address": "黑龙江省绥化市青冈县学府街与竹田路交叉口西北方向35米左右",
        "tel": "",
        "category": "基础设施:公共设施:公共厕所",
        "type": 0,
        "location": {
            "lat": 46.683981,
            "lng": 126.121344
        },
        "ad_info": {
            "adcode": 231223,
            "province": "黑龙江省",
            "city": "绥化市",
            "district": "青冈县"
        }
    },
    {
        "id": "2732098015513351685",
        "title": "公共厕所",
        "address": "黑龙江省绥化市望奎县G203与Y409交叉口正北方向60米左右",
        "tel": "",
        "category": "基础设施:公共设施:公共厕所",
        "type": 0,
        "location": {
            "lat": 46.83029,
            "lng": 126.511201
        },
        "ad_info": {
            "adcode": 231221,
            "province": "黑龙江省",
            "city": "绥化市",
            "district": "望奎县"
        }
    },
    {
        "id": "466283185487802787",
        "title": "公共厕所",
        "address": "黑龙江省绥化市青冈县杏林街与民泽路交叉口正东方向13米左右",
        "tel": "",
        "category": "基础设施:公共设施:公共厕所",
        "type": 0,
        "location": {
            "lat": 46.691358,
            "lng": 126.117759
        },
        "ad_info": {
            "adcode": 231223,
            "province": "黑龙江省",
            "city": "绥化市",
            "district": "青冈县"
        }
    },
    {
        "id": "9461504976154395714",
        "title": "公共厕所",
        "address": "黑龙江省绥化市绥棱县园林大街与惠民路交叉口正北方向137米左右",
        "tel": "",
        "category": "基础设施:公共设施:公共厕所",
        "type": 0,
        "location": {
            "lat": 47.240741,
            "lng": 127.129173
        },
        "ad_info": {
            "adcode": 231226,
            "province": "黑龙江省",
            "city": "绥化市",
            "district": "绥棱县"
        }
    },
    {
        "id": "1573295053058874852",
        "title": "公共厕所",
        "address": "黑龙江省绥化市青冈县长江南路与靖河街交叉口西北方向196米左右",
        "tel": "",
        "category": "基础设施:公共设施:公共厕所",
        "type": 0,
        "location": {
            "lat": 46.674124,
            "lng": 126.104032
        },
        "ad_info": {
            "adcode": 231223,
            "province": "黑龙江省",
            "city": "绥化市",
            "district": "青冈县"
        }
    },
    {
        "id": "6669251785543164653",
        "title": "公共厕所",
        "address": "黑龙江省绥化市庆安县政府路与铁南街交叉口正西方向105米左右",
        "tel": "",
        "category": "基础设施:公共设施:公共厕所",
        "type": 0,
        "location": {
            "lat": 46.886471,
            "lng": 127.506384
        },
        "ad_info": {
            "adcode": 231224,
            "province": "黑龙江省",
            "city": "绥化市",
            "district": "庆安县"
        }
    },
    {
        "id": "8315262899044187300",
        "title": "公共厕所",
        "address": "黑龙江省绥化市肇东市利民南路与消防街交叉口西北方向46米左右",
        "tel": "",
        "category": "基础设施:公共设施:公共厕所",
        "type": 0,
        "location": {
            "lat": 46.061525,
            "lng": 125.979021
        },
        "ad_info": {
            "adcode": 231282,
            "province": "黑龙江省",
            "city": "绥化市",
            "district": "肇东市"
        }
    },
    {
        "id": "4733009443301823894",
        "title": "公共厕所",
        "address": "黑龙江省绥化市北林区新华东街与育才路交叉口正东方向53米左右",
        "tel": "",
        "category": "基础设施:公共设施:公共厕所",
        "type": 0,
        "location": {
            "lat": 46.647246,
            "lng": 126.98155
        },
        "ad_info": {
            "adcode": 231202,
            "province": "黑龙江省",
            "city": "绥化市",
            "district": "北林区"
        }
    },
    {
        "id": "3015660787945215710",
        "title": "公共厕所",
        "address": "黑龙江省绥化市北林区行署街9号",
        "tel": "",
        "category": "基础设施:公共设施:公共厕所",
        "type": 0,
        "location": {
            "lat": 46.639207,
            "lng": 126.979236
        },
        "ad_info": {
            "adcode": 231202,
            "province": "黑龙江省",
            "city": "绥化市",
            "district": "北林区"
        }
    },
    {
        "id": "4393712127711447457",
        "title": "公共厕所",
        "address": "黑龙江省绥化市绥棱县红星路林祥景苑东北400米",
        "tel": "",
        "category": "基础设施:公共设施:公共厕所",
        "type": 0,
        "location": {
            "lat": 47.257815,
            "lng": 127.108993
        },
        "ad_info": {
            "adcode": 231226,
            "province": "黑龙江省",
            "city": "绥化市",
            "district": "绥棱县"
        }
    },
    {
        "id": "855039310194633034",
        "title": "公共厕所",
        "address": "黑龙江省绥化市望奎县北环路与解放路交叉口西南方向24米左右",
        "tel": "",
        "category": "基础设施:公共设施:公共厕所",
        "type": 0,
        "location": {
            "lat": 46.843177,
            "lng": 126.48967
        },
        "ad_info": {
            "adcode": 231221,
            "province": "黑龙江省",
            "city": "绥化市",
            "district": "望奎县"
        }
    },
    {
        "id": "14995013932401376475",
        "title": "公共厕所",
        "address": "黑龙江省绥化市绥棱县丰收路与兴旺街交叉口正南方向83米左右",
        "tel": "",
        "category": "基础设施:公共设施:公共厕所",
        "type": 0,
        "location": {
            "lat": 47.240152,
            "lng": 127.126915
        },
        "ad_info": {
            "adcode": 231226,
            "province": "黑龙江省",
            "city": "绥化市",
            "district": "绥棱县"
        }
    },
    {
        "id": "8832547752900306843",
        "title": "公共厕所",
        "address": "黑龙江省绥化市绥棱县兴林路与创业路交叉口正北方向142米左右",
        "tel": "",
        "category": "基础设施:公共设施:公共厕所",
        "type": 0,
        "location": {
            "lat": 47.263057,
            "lng": 127.101002
        },
        "ad_info": {
            "adcode": 231226,
            "province": "黑龙江省",
            "city": "绥化市",
            "district": "绥棱县"
        }
    },
    {
        "id": "6881297394372200212",
        "title": "公共厕所",
        "address": "黑龙江省绥化市绥棱县G333与X167交叉口西北方向113米左右",
        "tel": "",
        "category": "基础设施:公共设施:公共厕所",
        "type": 0,
        "location": {
            "lat": 47.224475,
            "lng": 127.135283
        },
        "ad_info": {
            "adcode": 231226,
            "province": "黑龙江省",
            "city": "绥化市",
            "district": "绥棱县"
        }
    },
    {
        "id": "16178182056099754547",
        "title": "公共厕所",
        "address": "黑龙江省绥化市肇东市S104与Y913交叉口正北方向1218米左右",
        "tel": "",
        "category": "基础设施:公共设施:公共厕所",
        "type": 0,
        "location": {
            "lat": 45.865559,
            "lng": 126.264468
        },
        "ad_info": {
            "adcode": 231282,
            "province": "黑龙江省",
            "city": "绥化市",
            "district": "肇东市"
        }
    },
    {
        "id": "16998254714507860718",
        "title": "公共厕所",
        "address": "黑龙江省绥化市青冈县S211与Y603交叉口西南方向790米左右",
        "tel": "",
        "category": "基础设施:公共设施:公共厕所",
        "type": 0,
        "location": {
            "lat": 46.824482,
            "lng": 125.628506
        },
        "ad_info": {
            "adcode": 231223,
            "province": "黑龙江省",
            "city": "绥化市",
            "district": "青冈县"
        }
    },
    {
        "id": "729055406336054037",
        "title": "公共厕所",
        "address": "黑龙江省绥化市肇东市一心北路与一心南路交叉口东南方向125米左右",
        "tel": "",
        "category": "基础设施:公共设施:公共厕所",
        "type": 0,
        "location": {
            "lat": 46.07983,
            "lng": 125.991523
        },
        "ad_info": {
            "adcode": 231282,
            "province": "黑龙江省",
            "city": "绥化市",
            "district": "肇东市"
        }
    },
    {
        "id": "15347271119588015100",
        "title": "公共厕所",
        "address": "黑龙江省绥化市肇东市东大北路与东大南路交叉口西北方向151米左右",
        "tel": "",
        "category": "基础设施:公共设施:公共厕所",
        "type": 0,
        "location": {
            "lat": 46.081593,
            "lng": 126.002284
        },
        "ad_info": {
            "adcode": 231282,
            "province": "黑龙江省",
            "city": "绥化市",
            "district": "肇东市"
        }
    },
    {
        "id": "9309476395670257533",
        "title": "公共厕所",
        "address": "黑龙江省绥化市肇东市S311与东利北路交叉口东北方向228米左右",
        "tel": "",
        "category": "基础设施:公共设施:公共厕所",
        "type": 0,
        "location": {
            "lat": 46.090834,
            "lng": 126.004144
        },
        "ad_info": {
            "adcode": 231282,
            "province": "黑龙江省",
            "city": "绥化市",
            "district": "肇东市"
        }
    },
    {
        "id": "2734165514713148374",
        "title": "公共厕所",
        "address": "黑龙江省绥化市肇东市仙女胡同与正阳大街交叉口东南方向83米左右",
        "tel": "",
        "category": "基础设施:公共设施:公共厕所",
        "type": 0,
        "location": {
            "lat": 46.065863,
            "lng": 125.982802
        },
        "ad_info": {
            "adcode": 231282,
            "province": "黑龙江省",
            "city": "绥化市",
            "district": "肇东市"
        }
    },
    {
        "id": "13870595353958576916",
        "title": "公共厕所",
        "address": "黑龙江省绥化市肇东市S311中国石油加油站",
        "tel": "",
        "category": "基础设施:公共设施:公共厕所",
        "type": 0,
        "location": {
            "lat": 45.951171,
            "lng": 125.547303
        },
        "ad_info": {
            "adcode": 231282,
            "province": "黑龙江省",
            "city": "绥化市",
            "district": "肇东市"
        }
    },
    {
        "id": "3589358541938113779",
        "title": "公共厕所",
        "address": "黑龙江省绥化市肇东市Y909与绥满公路交叉口西南方向86米左右",
        "tel": "",
        "category": "基础设施:公共设施:公共厕所",
        "type": 0,
        "location": {
            "lat": 45.957004,
            "lng": 126.063752
        },
        "ad_info": {
            "adcode": 231282,
            "province": "黑龙江省",
            "city": "绥化市",
            "district": "肇东市"
        }
    },
    {
        "id": "3663077371317342516",
        "title": "公共厕所",
        "address": "黑龙江省绥化市肇东市S311与东民北路交叉口东南方向252米左右",
        "tel": "",
        "category": "基础设施:公共设施:公共厕所",
        "type": 0,
        "location": {
            "lat": 46.085357,
            "lng": 126.00135
        },
        "ad_info": {
            "adcode": 231282,
            "province": "黑龙江省",
            "city": "绥化市",
            "district": "肇东市"
        }
    },
    {
        "id": "3029031660070530325",
        "title": "公共厕所",
        "address": "黑龙江省绥化市肇东市东富南路与东直路交叉口东南方向377米左右",
        "tel": "",
        "category": "基础设施:公共设施:公共厕所",
        "type": 0,
        "location": {
            "lat": 46.076719,
            "lng": 126.011319
        },
        "ad_info": {
            "adcode": 231282,
            "province": "黑龙江省",
            "city": "绥化市",
            "district": "肇东市"
        }
    },
    {
        "id": "3877142852704914170",
        "title": "公共厕所",
        "address": "黑龙江省绥化市北林区太平街与红旗路交叉口西北方向282米左右",
        "tel": "",
        "category": "基础设施:公共设施:公共厕所",
        "type": 0,
        "location": {
            "lat": 46.64756,
            "lng": 127.003558
        },
        "ad_info": {
            "adcode": 231202,
            "province": "黑龙江省",
            "city": "绥化市",
            "district": "北林区"
        }
    },
    {
        "id": "13548889034951790191",
        "title": "公共厕所",
        "address": "黑龙江省绥化市庆安县商业街与西商业街交叉口正东方向126米左右",
        "tel": "",
        "category": "基础设施:公共设施:公共厕所",
        "type": 0,
        "location": {
            "lat": 46.878007,
            "lng": 127.508133
        },
        "ad_info": {
            "adcode": 231224,
            "province": "黑龙江省",
            "city": "绥化市",
            "district": "庆安县"
        }
    },
    {
        "id": "12497198059504518382",
        "title": "公共厕所",
        "address": "黑龙江省绥化市北林区文化路与路园街交叉口正南方向56米左右",
        "tel": "",
        "category": "基础设施:公共设施:公共厕所",
        "type": 0,
        "location": {
            "lat": 46.640913,
            "lng": 127.017145
        },
        "ad_info": {
            "adcode": 231202,
            "province": "黑龙江省",
            "city": "绥化市",
            "district": "北林区"
        }
    },
    {
        "id": "11419015500914548862",
        "title": "公共厕所",
        "address": "黑龙江省绥化市肇东市东大北路与东正北路交叉口正东方向27米左右",
        "tel": "",
        "category": "基础设施:公共设施:公共厕所",
        "type": 0,
        "location": {
            "lat": 46.082896,
            "lng": 126.000244
        },
        "ad_info": {
            "adcode": 231282,
            "province": "黑龙江省",
            "city": "绥化市",
            "district": "肇东市"
        }
    },
    {
        "id": "12745240359974744082",
        "title": "公共厕所",
        "address": "黑龙江省绥化市肇东市朝阳街与四明南路交叉口正南方向40米",
        "tel": "",
        "category": "基础设施:公共设施:公共厕所",
        "type": 0,
        "location": {
            "lat": 46.068208,
            "lng": 125.999584
        },
        "ad_info": {
            "adcode": 231282,
            "province": "黑龙江省",
            "city": "绥化市",
            "district": "肇东市"
        }
    },
    {
        "id": "2505110334502047781",
        "title": "公共厕所",
        "address": "黑龙江省绥化市明水县政府路与邮政街交叉口正西方向75米左右",
        "tel": "",
        "category": "基础设施:公共设施:公共厕所",
        "type": 0,
        "location": {
            "lat": 47.18461,
            "lng": 125.901957
        },
        "ad_info": {
            "adcode": 231225,
            "province": "黑龙江省",
            "city": "绥化市",
            "district": "明水县"
        }
    },
    {
        "id": "664431134362242840",
        "title": "公共厕所",
        "address": "黑龙江省绥化市肇东市十祥北路与师范街交叉口东北方向99米左右",
        "tel": "",
        "category": "基础设施:公共设施:公共厕所",
        "type": 0,
        "location": {
            "lat": 46.068229,
            "lng": 125.978858
        },
        "ad_info": {
            "adcode": 231282,
            "province": "黑龙江省",
            "city": "绥化市",
            "district": "肇东市"
        }
    },
    {
        "id": "15072130842721520649",
        "title": "公共厕所",
        "address": "黑龙江省绥化市肇东市一心南路肇东客运站",
        "tel": "",
        "category": "基础设施:公共设施:公共厕所",
        "type": 0,
        "location": {
            "lat": 46.075031,
            "lng": 125.999099
        },
        "ad_info": {
            "adcode": 231282,
            "province": "黑龙江省",
            "city": "绥化市",
            "district": "肇东市"
        }
    },
    {
        "id": "2360534065644580787",
        "title": "公共厕所",
        "address": "黑龙江省绥化市肇东市兴民北路与师范街交叉口西北方向178米左右",
        "tel": "",
        "category": "基础设施:公共设施:公共厕所",
        "type": 0,
        "location": {
            "lat": 46.068291,
            "lng": 125.975383
        },
        "ad_info": {
            "adcode": 231282,
            "province": "黑龙江省",
            "city": "绥化市",
            "district": "肇东市"
        }
    },
    {
        "id": "18246152953647048500",
        "title": "公共厕所",
        "address": "黑龙江省绥化市肇东市G301与昌盛路交叉口正东方向259米左右",
        "tel": "",
        "category": "基础设施:公共设施:公共厕所",
        "type": 0,
        "location": {
            "lat": 46.015117,
            "lng": 125.646898
        },
        "ad_info": {
            "adcode": 231282,
            "province": "黑龙江省",
            "city": "绥化市",
            "district": "肇东市"
        }
    },
    {
        "id": "7309452224049159462",
        "title": "公共厕所",
        "address": "黑龙江省绥化市肇东市七治南路与安阳街交叉口东南方向151米左右",
        "tel": "",
        "category": "基础设施:公共设施:公共厕所",
        "type": 0,
        "location": {
            "lat": 46.062236,
            "lng": 126.000083
        },
        "ad_info": {
            "adcode": 231282,
            "province": "黑龙江省",
            "city": "绥化市",
            "district": "肇东市"
        }
    },
    {
        "id": "9591229660113416196",
        "title": "公共厕所",
        "address": "黑龙江省绥化市肇东市一心北路与向阳街交叉口西北方向64米左右",
        "tel": "",
        "category": "基础设施:公共设施:公共厕所",
        "type": 0,
        "location": {
            "lat": 46.07875,
            "lng": 125.993095
        },
        "ad_info": {
            "adcode": 231282,
            "province": "黑龙江省",
            "city": "绥化市",
            "district": "肇东市"
        }
    },
    {
        "id": "17581388708402099101",
        "title": "公共厕所",
        "address": "黑龙江省绥化市肇东市Y908与绥满公路交叉口正北方向1281米左右",
        "tel": "",
        "category": "基础设施:公共设施:公共厕所",
        "type": 0,
        "location": {
            "lat": 46.010905,
            "lng": 126.029598
        },
        "ad_info": {
            "adcode": 231282,
            "province": "黑龙江省",
            "city": "绥化市",
            "district": "肇东市"
        }
    },
    {
        "id": "5259665062031884589",
        "title": "公共厕所",
        "address": "黑龙江省绥化市肇东市七治南路与安阳街交叉口东南方向60米左右",
        "tel": "",
        "category": "基础设施:公共设施:公共厕所",
        "type": 0,
        "location": {
            "lat": 46.06282,
            "lng": 125.999252
        },
        "ad_info": {
            "adcode": 231282,
            "province": "黑龙江省",
            "city": "绥化市",
            "district": "肇东市"
        }
    },
    {
        "id": "9054018225914250868",
        "title": "公共厕所",
        "address": "黑龙江省绥化市肇东市南二高中东南侧210米",
        "tel": "",
        "category": "基础设施:公共设施:公共厕所",
        "type": 0,
        "location": {
            "lat": 46.051609,
            "lng": 126.014007
        },
        "ad_info": {
            "adcode": 231282,
            "province": "黑龙江省",
            "city": "绥化市",
            "district": "肇东市"
        }
    },
    {
        "id": "1969350556248184983",
        "title": "公共厕所",
        "address": "黑龙江省绥化市北林区北辰东街与龙王路交叉口东北方向267米左右",
        "tel": "",
        "category": "基础设施:公共设施:公共厕所",
        "type": 0,
        "location": {
            "lat": 46.675399,
            "lng": 127.024327
        },
        "ad_info": {
            "adcode": 231202,
            "province": "黑龙江省",
            "city": "绥化市",
            "district": "北林区"
        }
    },
    {
        "id": "12157506861537425501",
        "title": "公共厕所",
        "address": "黑龙江省绥化市北林区万发路与东风街交叉口西北方向73米左右",
        "tel": "",
        "category": "基础设施:公共设施:公共厕所",
        "type": 0,
        "location": {
            "lat": 46.634001,
            "lng": 127.031285
        },
        "ad_info": {
            "adcode": 231202,
            "province": "黑龙江省",
            "city": "绥化市",
            "district": "北林区"
        }
    },
    {
        "id": "1516604705281602726",
        "title": "公共卫生间",
        "address": "黑龙江省绥化市北林区广盛街与长江南路交叉口东南方向171米左右",
        "tel": "",
        "category": "基础设施:公共设施:公共厕所",
        "type": 0,
        "location": {
            "lat": 46.630847,
            "lng": 127.005318
        },
        "ad_info": {
            "adcode": 231202,
            "province": "黑龙江省",
            "city": "绥化市",
            "district": "北林区"
        }
    },
    {
        "id": "14367427835411085688",
        "title": "公共厕所",
        "address": "黑龙江省绥化市明水县哈黑路与环城南路交叉口正南方向1472米左右",
        "tel": "",
        "category": "基础设施:公共设施:公共厕所",
        "type": 0,
        "location": {
            "lat": 47.150691,
            "lng": 125.905752
        },
        "ad_info": {
            "adcode": 231225,
            "province": "黑龙江省",
            "city": "绥化市",
            "district": "明水县"
        }
    },
    {
        "id": "8849325551508509911",
        "title": "公共厕所",
        "address": "黑龙江省绥化市北林区中直北路与北星胡同交叉口西南方向220米左右",
        "tel": "",
        "category": "基础设施:公共设施:公共厕所",
        "type": 0,
        "location": {
            "lat": 46.663195,
            "lng": 126.979932
        },
        "ad_info": {
            "adcode": 231202,
            "province": "黑龙江省",
            "city": "绥化市",
            "district": "北林区"
        }
    },
    {
        "id": "17735600645850590491",
        "title": "公共厕所",
        "address": "黑龙江省绥化市北林区广顺东街与祥富路交叉口正东方向55米左右",
        "tel": "",
        "category": "基础设施:公共设施:公共厕所",
        "type": 0,
        "location": {
            "lat": 46.626864,
            "lng": 127.003074
        },
        "ad_info": {
            "adcode": 231202,
            "province": "黑龙江省",
            "city": "绥化市",
            "district": "北林区"
        }
    },
    {
        "id": "7248410115374996532",
        "title": "公共厕所",
        "address": "黑龙江省绥化市北林区G203与Y009交叉口正东方向855米左右",
        "tel": "",
        "category": "基础设施:公共设施:公共厕所",
        "type": 0,
        "location": {
            "lat": 46.642815,
            "lng": 126.853214
        },
        "ad_info": {
            "adcode": 231202,
            "province": "黑龙江省",
            "city": "绥化市",
            "district": "北林区"
        }
    },
    {
        "id": "17437373283950891047",
        "title": "公共厕所",
        "address": "黑龙江省绥化市北林区和平路与绥巴路交叉口正南方向245米左右",
        "tel": "",
        "category": "基础设施:公共设施:公共厕所",
        "type": 0,
        "location": {
            "lat": 46.62864,
            "lng": 127.01274
        },
        "ad_info": {
            "adcode": 231202,
            "province": "黑龙江省",
            "city": "绥化市",
            "district": "北林区"
        }
    },
    {
        "id": "16686396470696718497",
        "title": "公共厕所",
        "address": "黑龙江省绥化市北林区167县道北50米",
        "tel": "",
        "category": "基础设施:公共设施:公共厕所",
        "type": 0,
        "location": {
            "lat": 46.885317,
            "lng": 127.105578
        },
        "ad_info": {
            "adcode": 231202,
            "province": "黑龙江省",
            "city": "绥化市",
            "district": "北林区"
        }
    },
    {
        "id": "7529204548427967704",
        "title": "公共厕所",
        "address": "黑龙江省绥化市北林区G222与嘉临公路交叉口西南方向986米左右",
        "tel": "",
        "category": "基础设施:公共设施:公共厕所",
        "type": 0,
        "location": {
            "lat": 46.525712,
            "lng": 126.905714
        },
        "ad_info": {
            "adcode": 231202,
            "province": "黑龙江省",
            "city": "绥化市",
            "district": "北林区"
        }
    },
    {
        "id": "5024707143853277479",
        "title": "公共厕所",
        "address": "黑龙江省绥化市庆安县铁南街138号",
        "tel": "",
        "category": "基础设施:公共设施:公共厕所",
        "type": 0,
        "location": {
            "lat": 46.887573,
            "lng": 127.503184
        },
        "ad_info": {
            "adcode": 231224,
            "province": "黑龙江省",
            "city": "绥化市",
            "district": "庆安县"
        }
    },
    {
        "id": "14579498870764133454",
        "title": "公共厕所",
        "address": "黑龙江省绥化市北林区Y008与Y012交叉口正西方向494米左右",
        "tel": "",
        "category": "基础设施:公共设施:公共厕所",
        "type": 0,
        "location": {
            "lat": 46.598873,
            "lng": 126.625317
        },
        "ad_info": {
            "adcode": 231202,
            "province": "黑龙江省",
            "city": "绥化市",
            "district": "北林区"
        }
    },
    {
        "id": "11547245528650517129",
        "title": "公共厕所",
        "address": "黑龙江省绥化市北林区G203与Y009交叉口正东方向867米左右",
        "tel": "",
        "category": "基础设施:公共设施:公共厕所",
        "type": 0,
        "location": {
            "lat": 46.643451,
            "lng": 126.853286
        },
        "ad_info": {
            "adcode": 231202,
            "province": "黑龙江省",
            "city": "绥化市",
            "district": "北林区"
        }
    },
    {
        "id": "18366406936537696868",
        "title": "公共厕所",
        "address": "黑龙江省绥化市北林区哈铁综合后勤保障基地东北侧290米",
        "tel": "",
        "category": "基础设施:公共设施:公共厕所",
        "type": 0,
        "location": {
            "lat": 46.654211,
            "lng": 127.001484
        },
        "ad_info": {
            "adcode": 231202,
            "province": "黑龙江省",
            "city": "绥化市",
            "district": "北林区"
        }
    },
    {
        "id": "10178689703698884151",
        "title": "公共厕所",
        "address": "黑龙江省绥化市北林区鑫悦驾校东侧",
        "tel": "",
        "category": "基础设施:公共设施:公共厕所",
        "type": 0,
        "location": {
            "lat": 46.639482,
            "lng": 126.970624
        },
        "ad_info": {
            "adcode": 231202,
            "province": "黑龙江省",
            "city": "绥化市",
            "district": "北林区"
        }
    },
    {
        "id": "9616342497763753019",
        "title": "公共厕所",
        "address": "黑龙江省绥化市北林区新兴街晓敏幼儿园东南250米",
        "tel": "",
        "category": "基础设施:公共设施:公共厕所",
        "type": 0,
        "location": {
            "lat": 46.662715,
            "lng": 127.000626
        },
        "ad_info": {
            "adcode": 231202,
            "province": "黑龙江省",
            "city": "绥化市",
            "district": "北林区"
        }
    },
    {
        "id": "9513956386397876721",
        "title": "公共厕所",
        "address": "黑龙江省绥化市北林区G222与Y010交叉口东北方向78米左右",
        "tel": "",
        "category": "基础设施:公共设施:公共厕所",
        "type": 0,
        "location": {
            "lat": 46.489822,
            "lng": 126.797346
        },
        "ad_info": {
            "adcode": 231202,
            "province": "黑龙江省",
            "city": "绥化市",
            "district": "北林区"
        }
    },
    {
        "id": "4428622097802184148",
        "title": "公共厕所",
        "address": "黑龙江省绥化市北林区广源街与教堂胡同交叉口西南方向17米左右",
        "tel": "",
        "category": "基础设施:公共设施:公共厕所",
        "type": 0,
        "location": {
            "lat": 46.631166,
            "lng": 126.983244
        },
        "ad_info": {
            "adcode": 231202,
            "province": "黑龙江省",
            "city": "绥化市",
            "district": "北林区"
        }
    },
    {
        "id": "139447843172955510",
        "title": "公共厕所",
        "address": "黑龙江省绥化市北林区东风街与城建街交叉口正南方向183米左右",
        "tel": "",
        "category": "基础设施:公共设施:公共厕所",
        "type": 0,
        "location": {
            "lat": 46.632471,
            "lng": 127.028301
        },
        "ad_info": {
            "adcode": 231202,
            "province": "黑龙江省",
            "city": "绥化市",
            "district": "北林区"
        }
    },
    {
        "id": "17662396432641951470",
        "title": "公共厕所",
        "address": "黑龙江省绥化市北林区永安路与绥巴路交叉口东北方向93米左右",
        "tel": "",
        "category": "基础设施:公共设施:公共厕所",
        "type": 0,
        "location": {
            "lat": 46.632022,
            "lng": 127.011375
        },
        "ad_info": {
            "adcode": 231202,
            "province": "黑龙江省",
            "city": "绥化市",
            "district": "北林区"
        }
    },
    {
        "id": "8415402492843653015",
        "title": "公共厕所",
        "address": "黑龙江省绥化市北林区红星街人民广场(西南角)",
        "tel": "",
        "category": "基础设施:公共设施:公共厕所",
        "type": 0,
        "location": {
            "lat": 46.649358,
            "lng": 126.967918
        },
        "ad_info": {
            "adcode": 231202,
            "province": "黑龙江省",
            "city": "绥化市",
            "district": "北林区"
        }
    },
    {
        "id": "9828072230464245586",
        "title": "公共厕所",
        "address": "黑龙江省绥化市北林区光明胡同与西市街交叉口正北方向33米左右",
        "tel": "",
        "category": "基础设施:公共设施:公共厕所",
        "type": 0,
        "location": {
            "lat": 46.637672,
            "lng": 126.973006
        },
        "ad_info": {
            "adcode": 231202,
            "province": "黑龙江省",
            "city": "绥化市",
            "district": "北林区"
        }
    },
    {
        "id": "12221827743579762329",
        "title": "公共厕所",
        "address": "黑龙江省绥化市北林区太平街与铁兴路交叉口西北方向119米左右",
        "tel": "",
        "category": "基础设施:公共设施:公共厕所",
        "type": 0,
        "location": {
            "lat": 46.643327,
            "lng": 127.015684
        },
        "ad_info": {
            "adcode": 231202,
            "province": "黑龙江省",
            "city": "绥化市",
            "district": "北林区"
        }
    },
    {
        "id": "3831962504571779868",
        "title": "安达服务区公共厕所",
        "address": "黑龙江省绥化市安达市G10绥满高速附近",
        "tel": "",
        "category": "基础设施:公共设施:公共厕所",
        "type": 0,
        "location": {
            "lat": 46.352688,
            "lng": 125.459399
        },
        "ad_info": {
            "adcode": 231281,
            "province": "黑龙江省",
            "city": "绥化市",
            "district": "安达市"
        }
    },
    {
        "id": "8599658624236632141",
        "title": "公共厕所",
        "address": "黑龙江省绥化市庆安县中央东大街与政府路交叉口正南方向49米左右",
        "tel": "",
        "category": "基础设施:公共设施:公共厕所",
        "type": 0,
        "location": {
            "lat": 46.879634,
            "lng": 127.508562
        },
        "ad_info": {
            "adcode": 231224,
            "province": "黑龙江省",
            "city": "绥化市",
            "district": "庆安县"
        }
    },
    {
        "id": "5965842051350855426",
        "title": "安达服务区公共厕所",
        "address": "黑龙江省绥化市安达市羊草镇G10绥满高速附近",
        "tel": "",
        "category": "基础设施:公共设施:公共厕所",
        "type": 0,
        "location": {
            "lat": 46.352982,
            "lng": 125.45627
        },
        "ad_info": {
            "adcode": 231281,
            "province": "黑龙江省",
            "city": "绥化市",
            "district": "安达市"
        }
    },
    {
        "id": "13507820457049655975",
        "title": "望奎服务区公共厕所",
        "address": "黑龙江省绥化市望奎县望奎服务区附近",
        "tel": "",
        "category": "基础设施:公共设施:公共厕所",
        "type": 0,
        "location": {
            "lat": 47.040845,
            "lng": 126.848871
        },
        "ad_info": {
            "adcode": 231221,
            "province": "黑龙江省",
            "city": "绥化市",
            "district": "望奎县"
        }
    },
    {
        "id": "9409918546370383978",
        "title": "望奎服务区公共厕所",
        "address": "黑龙江省绥化市望奎县莲花镇宽五东绥北高速公路望奎服务区",
        "tel": "",
        "category": "基础设施:公共设施:公共厕所",
        "type": 0,
        "location": {
            "lat": 47.040104,
            "lng": 126.850576
        },
        "ad_info": {
            "adcode": 231221,
            "province": "黑龙江省",
            "city": "绥化市",
            "district": "望奎县"
        }
    },
    {
        "id": "1360419791737317409",
        "title": "站前公共厕所",
        "address": "黑龙江省绥化市肇东市东正北路与东正南路交叉口西南方向188米左右",
        "tel": "",
        "category": "基础设施:公共设施:公共厕所",
        "type": 0,
        "location": {
            "lat": 46.078508,
            "lng": 125.999878
        },
        "ad_info": {
            "adcode": 231282,
            "province": "黑龙江省",
            "city": "绥化市",
            "district": "肇东市"
        }
    },
    {
        "id": "13009340948213920878",
        "title": "建兴服务区公共厕所",
        "address": "黑龙江省绥化市绥棱县前嫩高速公路",
        "tel": "",
        "category": "基础设施:公共设施:公共厕所",
        "type": 0,
        "location": {
            "lat": 47.797123,
            "lng": 127.882765
        },
        "ad_info": {
            "adcode": 231226,
            "province": "黑龙江省",
            "city": "绥化市",
            "district": "绥棱县"
        }
    },
    {
        "id": "17159515514551736664",
        "title": "肇东服务区公共厕所",
        "address": "黑龙江省绥化市肇东市绥满高速肇东服务区",
        "tel": "",
        "category": "基础设施:公共设施:公共厕所",
        "type": 0,
        "location": {
            "lat": 46.041942,
            "lng": 125.937714
        },
        "ad_info": {
            "adcode": 231282,
            "province": "黑龙江省",
            "city": "绥化市",
            "district": "肇东市"
        }
    },
    {
        "id": "12523865209290299248",
        "title": "海伦服务区公共厕所",
        "address": "黑龙江省绥化市海伦市S101与Y307交叉口西北方向1820米左右",
        "tel": "",
        "category": "基础设施:公共设施:公共厕所",
        "type": 0,
        "location": {
            "lat": 47.480752,
            "lng": 126.900615
        },
        "ad_info": {
            "adcode": 231283,
            "province": "黑龙江省",
            "city": "绥化市",
            "district": "海伦市"
        }
    },
    {
        "id": "3573939023010808429",
        "title": "海伦服务区公共厕所",
        "address": "黑龙江省绥化市海伦市S101与Y307交叉口西北方向1958米左右",
        "tel": "",
        "category": "基础设施:公共设施:公共厕所",
        "type": 0,
        "location": {
            "lat": 47.481843,
            "lng": 126.899335
        },
        "ad_info": {
            "adcode": 231283,
            "province": "黑龙江省",
            "city": "绥化市",
            "district": "海伦市"
        }
    },
    {
        "id": "16792517662855408675",
        "title": "建兴服务区公共厕所",
        "address": "黑龙江省绥化市绥棱县前嫩高速公路",
        "tel": "",
        "category": "基础设施:公共设施:公共厕所",
        "type": 0,
        "location": {
            "lat": 47.797055,
            "lng": 127.885494
        },
        "ad_info": {
            "adcode": 231226,
            "province": "黑龙江省",
            "city": "绥化市",
            "district": "绥棱县"
        }
    },
    {
        "id": "13792295845454477029",
        "title": "肯德基(正阳餐厅)-洗手间",
        "address": "黑龙江省绥化市肇东市三友北路与三友南路交叉口正北方向42米左右",
        "tel": "",
        "category": "基础设施:公共设施:公共厕所",
        "type": 0,
        "location": {
            "lat": 46.074394,
            "lng": 125.9943
        },
        "ad_info": {
            "adcode": 231282,
            "province": "黑龙江省",
            "city": "绥化市",
            "district": "肇东市"
        }
    },
    {
        "id": "8169251541089312559",
        "title": "绥化服务区公共厕所",
        "address": "黑龙江省绥化市北林区津河镇鹤哈高速公路绥化服务区",
        "tel": "",
        "category": "基础设施:公共设施:公共厕所",
        "type": 0,
        "location": {
            "lat": 46.701842,
            "lng": 127.124967
        },
        "ad_info": {
            "adcode": 231202,
            "province": "黑龙江省",
            "city": "绥化市",
            "district": "北林区"
        }
    },
    {
        "id": "8552847671464875590",
        "title": "庆安服务区公共厕所",
        "address": "黑龙江省绥化市庆安县鹤哈高速庆安服务区",
        "tel": "",
        "category": "基础设施:公共设施:公共厕所",
        "type": 0,
        "location": {
            "lat": 46.861487,
            "lng": 127.61264
        },
        "ad_info": {
            "adcode": 231224,
            "province": "黑龙江省",
            "city": "绥化市",
            "district": "庆安县"
        }
    },
    {
        "id": "16664657154748069578",
        "title": "绥化服务区第二公共厕所",
        "address": "黑龙江省绥化市北林区G1111鹤哈高速附近",
        "tel": "",
        "category": "基础设施:公共设施:公共厕所",
        "type": 0,
        "location": {
            "lat": 46.701246,
            "lng": 127.127184
        },
        "ad_info": {
            "adcode": 231202,
            "province": "黑龙江省",
            "city": "绥化市",
            "district": "北林区"
        }
    },
    {
        "id": "11647912681591776851",
        "title": "日月峡服务区第二公共厕所",
        "address": "黑龙江省绥化市庆安县日月峡服务区与G1111鹤哈高速出口交叉口西北80米",
        "tel": "",
        "category": "基础设施:公共设施:公共厕所",
        "type": 0,
        "location": {
            "lat": 47.19851,
            "lng": 128.363368
        },
        "ad_info": {
            "adcode": 231224,
            "province": "黑龙江省",
            "city": "绥化市",
            "district": "庆安县"
        }
    },
    {
        "id": "8151749457526797364",
        "title": "绥化服务区第一公共厕所",
        "address": "黑龙江省绥化市北林区津河镇鹤哈高速公路绥化服务区",
        "tel": "",
        "category": "基础设施:公共设施:公共厕所",
        "type": 0,
        "location": {
            "lat": 46.700851,
            "lng": 127.126676
        },
        "ad_info": {
            "adcode": 231202,
            "province": "黑龙江省",
            "city": "绥化市",
            "district": "北林区"
        }
    },
    {
        "id": "1564539177115891684",
        "title": "望龙山国家森林公园公共厕所",
        "address": "黑龙江省绥化市庆安县Y401与依吉密大桥交叉口正北方向441米左右",
        "tel": "",
        "category": "基础设施:公共设施:公共厕所",
        "type": 0,
        "location": {
            "lat": 47.080634,
            "lng": 127.940436
        },
        "ad_info": {
            "adcode": 231224,
            "province": "黑龙江省",
            "city": "绥化市",
            "district": "庆安县"
        }
    },
    {
        "id": "15921487206827630646",
        "title": "日月峡服务区公共厕所",
        "address": "黑龙江省绥化市庆安县日月峡服务区与G1111鹤哈高速出口交叉口北200米",
        "tel": "",
        "category": "基础设施:公共设施:公共厕所",
        "type": 0,
        "location": {
            "lat": 47.199558,
            "lng": 128.36329
        },
        "ad_info": {
            "adcode": 231224,
            "province": "黑龙江省",
            "city": "绥化市",
            "district": "庆安县"
        }
    },
    {
        "id": "11958117766328258785",
        "title": "公共厕所",
        "address": "黑龙江省绥化市安达市北环路与敬牛路交叉口东南方向118米左右",
        "tel": "",
        "category": "基础设施:公共设施:公共厕所",
        "type": 0,
        "location": {
            "lat": 46.413505,
            "lng": 125.326842
        },
        "ad_info": {
            "adcode": 231281,
            "province": "黑龙江省",
            "city": "绥化市",
            "district": "安达市"
        }
    },
    {
        "id": "15077964550380193084",
        "title": "公共厕所",
        "address": "黑龙江省绥化市兰西县北环路与西二道街交叉口正南方向206米左右",
        "tel": "",
        "category": "基础设施:公共设施:公共厕所",
        "type": 0,
        "location": {
            "lat": 46.270891,
            "lng": 126.283807
        },
        "ad_info": {
            "adcode": 231222,
            "province": "黑龙江省",
            "city": "绥化市",
            "district": "兰西县"
        }
    },
    {
        "id": "5275580613137989546",
        "title": "公共卫生间",
        "address": "黑龙江省绥化市北林区祥富路与继光胡同交叉口东南方向77米左右",
        "tel": "",
        "category": "基础设施:公共设施:公共厕所",
        "type": 0,
        "location": {
            "lat": 46.62843,
            "lng": 127.001634
        },
        "ad_info": {
            "adcode": 231202,
            "province": "黑龙江省",
            "city": "绥化市",
            "district": "北林区"
        }
    },
    {
        "id": "4675701908474703108",
        "title": "公共厕所",
        "address": "黑龙江省绥化市肇东市丰庆胡同与四明南路交叉口正北方向36米左右",
        "tel": "",
        "category": "基础设施:公共设施:公共厕所",
        "type": 0,
        "location": {
            "lat": 46.062622,
            "lng": 126.009232
        },
        "ad_info": {
            "adcode": 231282,
            "province": "黑龙江省",
            "city": "绥化市",
            "district": "肇东市"
        }
    },
    {
        "id": "7508771577587010820",
        "title": "公共厕所",
        "address": "黑龙江省绥化市安达市北横街与滨洲牛路交叉口西北方向74米左右",
        "tel": "",
        "category": "基础设施:公共设施:公共厕所",
        "type": 0,
        "location": {
            "lat": 46.408553,
            "lng": 125.322681
        },
        "ad_info": {
            "adcode": 231281,
            "province": "黑龙江省",
            "city": "绥化市",
            "district": "安达市"
        }
    },
    {
        "id": "7188844411961654680",
        "title": "公共厕所",
        "address": "黑龙江省绥化市海伦市东环路与雷炎大街交叉口正东方向161米左右",
        "tel": "",
        "category": "基础设施:公共设施:公共厕所",
        "type": 0,
        "location": {
            "lat": 47.466529,
            "lng": 126.994049
        },
        "ad_info": {
            "adcode": 231283,
            "province": "黑龙江省",
            "city": "绥化市",
            "district": "海伦市"
        }
    },
    {
        "id": "6422841489631770636",
        "title": "公共卫生间",
        "address": "黑龙江省绥化市北林区九中胡同与花园东街交叉口正西方向35米左右",
        "tel": "",
        "category": "基础设施:公共设施:公共厕所",
        "type": 0,
        "location": {
            "lat": 46.622851,
            "lng": 126.997657
        },
        "ad_info": {
            "adcode": 231202,
            "province": "黑龙江省",
            "city": "绥化市",
            "district": "北林区"
        }
    },
    {
        "id": "14275365385621819542",
        "title": "公共厕所",
        "address": "黑龙江省绥化市绥棱县兴林路与迎宾路交叉口正南方向64米左右",
        "tel": "",
        "category": "基础设施:公共设施:公共厕所",
        "type": 0,
        "location": {
            "lat": 47.260721,
            "lng": 127.103507
        },
        "ad_info": {
            "adcode": 231226,
            "province": "黑龙江省",
            "city": "绥化市",
            "district": "绥棱县"
        }
    },
    {
        "id": "5070514202443357378",
        "title": "公共厕所",
        "address": "黑龙江省绥化市明水县哈黑路与文翰街交叉口正南方向142米左右",
        "tel": "",
        "category": "基础设施:公共设施:公共厕所",
        "type": 0,
        "location": {
            "lat": 47.175999,
            "lng": 125.902425
        },
        "ad_info": {
            "adcode": 231225,
            "province": "黑龙江省",
            "city": "绥化市",
            "district": "明水县"
        }
    },
    {
        "id": "10270976280654965261",
        "title": "公共厕所",
        "address": "黑龙江省绥化市北林区北辰西街与康庄北路交叉口正东方向185米左右",
        "tel": "",
        "category": "基础设施:公共设施:公共厕所",
        "type": 0,
        "location": {
            "lat": 46.662478,
            "lng": 126.961511
        },
        "ad_info": {
            "adcode": 231202,
            "province": "黑龙江省",
            "city": "绥化市",
            "district": "北林区"
        }
    },
    {
        "id": "15187236092841742912",
        "title": "公共厕所",
        "address": "黑龙江省绥化市青冈县政源街与新怡路交叉口西北方向30米左右",
        "tel": "",
        "category": "基础设施:公共设施:公共厕所",
        "type": 0,
        "location": {
            "lat": 46.68889,
            "lng": 126.106072
        },
        "ad_info": {
            "adcode": 231223,
            "province": "黑龙江省",
            "city": "绥化市",
            "district": "青冈县"
        }
    },
    {
        "id": "1304235400876200317",
        "title": "公共厕所",
        "address": "黑龙江省绥化市安达市北环路与红星路交叉口东南方向490米左右",
        "tel": "",
        "category": "基础设施:公共设施:公共厕所",
        "type": 0,
        "location": {
            "lat": 46.40477,
            "lng": 125.308948
        },
        "ad_info": {
            "adcode": 231281,
            "province": "黑龙江省",
            "city": "绥化市",
            "district": "安达市"
        }
    },
    {
        "id": "2542622825073407932",
        "title": "公共厕所",
        "address": "黑龙江省绥化市北林区兴绥路与双龙路交叉口正南方向379米左右",
        "tel": "",
        "category": "基础设施:公共设施:公共厕所",
        "type": 0,
        "location": {
            "lat": 46.560997,
            "lng": 126.985954
        },
        "ad_info": {
            "adcode": 231202,
            "province": "黑龙江省",
            "city": "绥化市",
            "district": "北林区"
        }
    },
    {
        "id": "16229645233169711225",
        "title": "公共厕所",
        "address": "黑龙江省绥化市肇东市S311与东民北路交叉口正西方向70米左右",
        "tel": "",
        "category": "基础设施:公共设施:公共厕所",
        "type": 0,
        "location": {
            "lat": 46.086724,
            "lng": 125.998174
        },
        "ad_info": {
            "adcode": 231282,
            "province": "黑龙江省",
            "city": "绥化市",
            "district": "肇东市"
        }
    },
    {
        "id": "745763334504427621",
        "title": "公共厕所",
        "address": "黑龙江省绥化市肇东市十祥南路与正阳大街交叉口正北方向54米左右",
        "tel": "",
        "category": "基础设施:公共设施:公共厕所",
        "type": 0,
        "location": {
            "lat": 46.065999,
            "lng": 125.980982
        },
        "ad_info": {
            "adcode": 231282,
            "province": "黑龙江省",
            "city": "绥化市",
            "district": "肇东市"
        }
    },
    {
        "id": "375569680734181661",
        "title": "公共卫生间",
        "address": "黑龙江省绥化市北林区西市街与通旺街交叉口东南方向48米左右",
        "tel": "",
        "category": "基础设施:公共设施:公共厕所",
        "type": 0,
        "location": {
            "lat": 46.636232,
            "lng": 126.975025
        },
        "ad_info": {
            "adcode": 231202,
            "province": "黑龙江省",
            "city": "绥化市",
            "district": "北林区"
        }
    },
    {
        "id": "6008147734499754458",
        "title": "公共厕所",
        "address": "黑龙江省绥化市北林区通北汽车加气站东南侧200米",
        "tel": "",
        "category": "基础设施:公共设施:公共厕所",
        "type": 0,
        "location": {
            "lat": 46.670287,
            "lng": 126.97828
        },
        "ad_info": {
            "adcode": 231202,
            "province": "黑龙江省",
            "city": "绥化市",
            "district": "北林区"
        }
    },
    {
        "id": "11348217762273622583",
        "title": "公共卫生间",
        "address": "黑龙江省绥化市北林区新华东街与新华西街交叉口正北方向178米左右",
        "tel": "",
        "category": "基础设施:公共设施:公共厕所",
        "type": 0,
        "location": {
            "lat": 46.648195,
            "lng": 126.973657
        },
        "ad_info": {
            "adcode": 231202,
            "province": "黑龙江省",
            "city": "绥化市",
            "district": "北林区"
        }
    },
    {
        "id": "15302606368921243107",
        "title": "公共厕所",
        "address": "黑龙江省绥化市海伦市硒都大道雷炎公园内(北侧)",
        "tel": "",
        "category": "基础设施:公共设施:公共厕所",
        "type": 0,
        "location": {
            "lat": 47.455606,
            "lng": 126.945069
        },
        "ad_info": {
            "adcode": 231283,
            "province": "黑龙江省",
            "city": "绥化市",
            "district": "海伦市"
        }
    },
    {
        "id": "6687531379262910811",
        "title": "银山服务区公共厕所",
        "address": "黑龙江省绥化市肇东市S22哈肇高速与银山服务区交叉口西500米",
        "tel": "",
        "category": "基础设施:公共设施:公共厕所",
        "type": 0,
        "location": {
            "lat": 45.852864,
            "lng": 126.007484
        },
        "ad_info": {
            "adcode": 231282,
            "province": "黑龙江省",
            "city": "绥化市",
            "district": "肇东市"
        }
    },
    {
        "id": "15999682170877787499",
        "title": "公共厕所",
        "address": "黑龙江省绥化市北林区正义街与黄河北路交叉口东南方向39米左右",
        "tel": "",
        "category": "基础设施:公共设施:公共厕所",
        "type": 0,
        "location": {
            "lat": 46.658763,
            "lng": 126.970455
        },
        "ad_info": {
            "adcode": 231202,
            "province": "黑龙江省",
            "city": "绥化市",
            "district": "北林区"
        }
    },
    {
        "id": "14378305710198550627",
        "title": "公共厕所",
        "address": "黑龙江省绥化市北林区绥望路与静安路交叉口正西方向111米左右",
        "tel": "",
        "category": "基础设施:公共设施:公共厕所",
        "type": 0,
        "location": {
            "lat": 46.639778,
            "lng": 126.953989
        },
        "ad_info": {
            "adcode": 231202,
            "province": "黑龙江省",
            "city": "绥化市",
            "district": "北林区"
        }
    },
    {
        "id": "13137664921981346033",
        "title": "公共厕所",
        "address": "黑龙江省绥化市北林区黄河北路70号",
        "tel": "",
        "category": "基础设施:公共设施:公共厕所",
        "type": 0,
        "location": {
            "lat": 46.635768,
            "lng": 126.976297
        },
        "ad_info": {
            "adcode": 231202,
            "province": "黑龙江省",
            "city": "绥化市",
            "district": "北林区"
        }
    },
    {
        "id": "5225395331338702483",
        "title": "公共厕所",
        "address": "黑龙江省绥化市海伦市复兴路与牌楼路交叉口东北方向46米左右",
        "tel": "",
        "category": "基础设施:公共设施:公共厕所",
        "type": 0,
        "location": {
            "lat": 47.460392,
            "lng": 126.981809
        },
        "ad_info": {
            "adcode": 231283,
            "province": "黑龙江省",
            "city": "绥化市",
            "district": "海伦市"
        }
    },
    {
        "id": "1141209600359925271",
        "title": "公共厕所",
        "address": "黑龙江省绥化市北林区西直南路169号",
        "tel": "",
        "category": "基础设施:公共设施:公共厕所",
        "type": 0,
        "location": {
            "lat": 46.622805,
            "lng": 126.982878
        },
        "ad_info": {
            "adcode": 231202,
            "province": "黑龙江省",
            "city": "绥化市",
            "district": "北林区"
        }
    },
    {
        "id": "305918478308993276",
        "title": "公共厕所",
        "address": "黑龙江省绥化市安达市松基南路与金牛南路交叉口正北方向52米左右",
        "tel": "",
        "category": "基础设施:公共设施:公共厕所",
        "type": 0,
        "location": {
            "lat": 46.408035,
            "lng": 125.333081
        },
        "ad_info": {
            "adcode": 231281,
            "province": "黑龙江省",
            "city": "绥化市",
            "district": "安达市"
        }
    },
    {
        "id": "10426412008551464890",
        "title": "公共厕所",
        "address": "黑龙江省绥化市海伦市G333与Y308交叉口正东方向77米左右",
        "tel": "",
        "category": "基础设施:公共设施:公共厕所",
        "type": 0,
        "location": {
            "lat": 47.236377,
            "lng": 126.992629
        },
        "ad_info": {
            "adcode": 231283,
            "province": "黑龙江省",
            "city": "绥化市",
            "district": "海伦市"
        }
    },
    {
        "id": "15515608457271415073",
        "title": "无障碍公共厕所",
        "address": "黑龙江省绥化市青冈县健康街与新怡路交叉口正西方向53米左右",
        "tel": "",
        "category": "基础设施:公共设施:公共厕所",
        "type": 0,
        "location": {
            "lat": 46.697558,
            "lng": 126.103695
        },
        "ad_info": {
            "adcode": 231223,
            "province": "黑龙江省",
            "city": "绥化市",
            "district": "青冈县"
        }
    },
    {
        "id": "11135144595485744817",
        "title": "银山服务区公共厕所",
        "address": "黑龙江省绥化市肇东市S22哈肇高速与银山服务区交叉口西360米",
        "tel": "",
        "category": "基础设施:公共设施:公共厕所",
        "type": 0,
        "location": {
            "lat": 45.854834,
            "lng": 126.009664
        },
        "ad_info": {
            "adcode": 231282,
            "province": "黑龙江省",
            "city": "绥化市",
            "district": "肇东市"
        }
    },
    {
        "id": "2248491467897796464",
        "title": "公共厕所",
        "address": "黑龙江省绥化市绥棱县安民路与广场街交叉口东南方向27米左右",
        "tel": "",
        "category": "基础设施:公共设施:公共厕所",
        "type": 0,
        "location": {
            "lat": 47.248756,
            "lng": 127.116813
        },
        "ad_info": {
            "adcode": 231226,
            "province": "黑龙江省",
            "city": "绥化市",
            "district": "绥棱县"
        }
    },
    {
        "id": "3349443049892754671",
        "title": "公共厕所",
        "address": "黑龙江省绥化市望奎县304省道南50米",
        "tel": "",
        "category": "基础设施:公共设施:公共厕所",
        "type": 0,
        "location": {
            "lat": 46.797424,
            "lng": 126.372153
        },
        "ad_info": {
            "adcode": 231221,
            "province": "黑龙江省",
            "city": "绥化市",
            "district": "望奎县"
        }
    },
    {
        "id": "8310444450793856979",
        "title": "公共厕所",
        "address": "黑龙江省绥化市北林区花园东街与长江南路交叉口正东方向139米左右",
        "tel": "",
        "category": "基础设施:公共设施:公共厕所",
        "type": 0,
        "location": {
            "lat": 46.625837,
            "lng": 127.008195
        },
        "ad_info": {
            "adcode": 231202,
            "province": "黑龙江省",
            "city": "绥化市",
            "district": "北林区"
        }
    },
    {
        "id": "11849470048972860824",
        "title": "公共厕所",
        "address": "黑龙江省绥化市北林区太平街与育新路交叉口正东方向23米左右",
        "tel": "",
        "category": "基础设施:公共设施:公共厕所",
        "type": 0,
        "location": {
            "lat": 46.639161,
            "lng": 127.026531
        },
        "ad_info": {
            "adcode": 231202,
            "province": "黑龙江省",
            "city": "绥化市",
            "district": "北林区"
        }
    },
    {
        "id": "6063728398367725919",
        "title": "公共厕所",
        "address": "黑龙江省绥化市肇东市小十五道街与西园街交叉口西南方向124米左右",
        "tel": "",
        "category": "基础设施:公共设施:公共厕所",
        "type": 0,
        "location": {
            "lat": 46.056565,
            "lng": 125.980976
        },
        "ad_info": {
            "adcode": 231282,
            "province": "黑龙江省",
            "city": "绥化市",
            "district": "肇东市"
        }
    },
    {
        "id": "3286113303812252015",
        "title": "公共厕所",
        "address": "黑龙江省绥化市望奎县东环路与花园街交叉口正西方向35米左右",
        "tel": "",
        "category": "基础设施:公共设施:公共厕所",
        "type": 0,
        "location": {
            "lat": 46.842607,
            "lng": 126.497076
        },
        "ad_info": {
            "adcode": 231221,
            "province": "黑龙江省",
            "city": "绥化市",
            "district": "望奎县"
        }
    },
    {
        "id": "7320273905344961992",
        "title": "公共厕所",
        "address": "黑龙江省绥化市北林区G203与Y010交叉口正西方向31米左右",
        "tel": "",
        "category": "基础设施:公共设施:公共厕所",
        "type": 0,
        "location": {
            "lat": 46.632292,
            "lng": 126.7265
        },
        "ad_info": {
            "adcode": 231202,
            "province": "黑龙江省",
            "city": "绥化市",
            "district": "北林区"
        }
    },
    {
        "id": "2844861392072048126",
        "title": "公共厕所",
        "address": "黑龙江省绥化市明水县",
        "tel": "",
        "category": "基础设施:公共设施:公共厕所",
        "type": 0,
        "location": {
            "lat": 47.099188,
            "lng": 125.677284
        },
        "ad_info": {
            "adcode": 231225,
            "province": "黑龙江省",
            "city": "绥化市",
            "district": "明水县"
        }
    },
    {
        "id": "12910516815689717989",
        "title": "服务区公共厕所",
        "address": "黑龙江省绥化市北林区鹤哈高速",
        "tel": "",
        "category": "基础设施:公共设施:公共厕所",
        "type": 0,
        "location": {
            "lat": 46.696605,
            "lng": 127.114076
        },
        "ad_info": {
            "adcode": 231202,
            "province": "黑龙江省",
            "city": "绥化市",
            "district": "北林区"
        }
    },
    {
        "id": "3365011839033270489",
        "title": "公共厕所",
        "address": "黑龙江省绥化市北林区中兴东大街500号",
        "tel": "",
        "category": "基础设施:公共设施:公共厕所",
        "type": 0,
        "location": {
            "lat": 46.638024,
            "lng": 127.008736
        },
        "ad_info": {
            "adcode": 231202,
            "province": "黑龙江省",
            "city": "绥化市",
            "district": "北林区"
        }
    },
    {
        "id": "1779287133558481739",
        "title": "公共厕所",
        "address": "黑龙江省绥化市望奎县西环路文化广场东侧约230米咯",
        "tel": "",
        "category": "基础设施:公共设施:公共厕所",
        "type": 0,
        "location": {
            "lat": 46.83184,
            "lng": 126.466718
        },
        "ad_info": {
            "adcode": 231221,
            "province": "黑龙江省",
            "city": "绥化市",
            "district": "望奎县"
        }
    },
    {
        "id": "17269321627930008832",
        "title": "公共厕所",
        "address": "黑龙江省绥化市北林区S101与中直北路交叉口西北方向122米左右",
        "tel": "",
        "category": "基础设施:公共设施:公共厕所",
        "type": 0,
        "location": {
            "lat": 46.670366,
            "lng": 126.977928
        },
        "ad_info": {
            "adcode": 231202,
            "province": "黑龙江省",
            "city": "绥化市",
            "district": "北林区"
        }
    },
    {
        "id": "10036878316757173623",
        "title": "保林停车区公共卫生间",
        "address": "黑龙江省绥化市肇东市S22哈肇高速与保林停车区交叉口西400米",
        "tel": "",
        "category": "基础设施:公共设施:公共厕所",
        "type": 0,
        "location": {
            "lat": 45.833027,
            "lng": 125.722552
        },
        "ad_info": {
            "adcode": 231282,
            "province": "黑龙江省",
            "city": "绥化市",
            "district": "肇东市"
        }
    },
    {
        "id": "8338080410078722317",
        "title": "公共厕所",
        "address": "黑龙江省绥化市肇东市五权北路与北直街交叉口正北方向54米左右",
        "tel": "",
        "category": "基础设施:公共设施:公共厕所",
        "type": 0,
        "location": {
            "lat": 46.076841,
            "lng": 125.98498
        },
        "ad_info": {
            "adcode": 231282,
            "province": "黑龙江省",
            "city": "绥化市",
            "district": "肇东市"
        }
    },
    {
        "id": "16242349004896581721",
        "title": "公共厕所",
        "address": "黑龙江省绥化市肇东市301国道西50米",
        "tel": "",
        "category": "基础设施:公共设施:公共厕所",
        "type": 0,
        "location": {
            "lat": 46.085516,
            "lng": 125.553725
        },
        "ad_info": {
            "adcode": 231282,
            "province": "黑龙江省",
            "city": "绥化市",
            "district": "肇东市"
        }
    },
    {
        "id": "17539745769180952007",
        "title": "公共厕所",
        "address": "黑龙江省绥化市海伦市G333与六吉小桥交叉口正西方向361米左右",
        "tel": "",
        "category": "基础设施:公共设施:公共厕所",
        "type": 0,
        "location": {
            "lat": 47.423888,
            "lng": 126.744461
        },
        "ad_info": {
            "adcode": 231283,
            "province": "黑龙江省",
            "city": "绥化市",
            "district": "海伦市"
        }
    },
    {
        "id": "16761972443662564723",
        "title": "公共厕所",
        "address": "黑龙江省绥化市肇东市三友南路与朝阳街交叉口东南方向76米左右",
        "tel": "",
        "category": "基础设施:公共设施:公共厕所",
        "type": 0,
        "location": {
            "lat": 46.069061,
            "lng": 126.001739
        },
        "ad_info": {
            "adcode": 231282,
            "province": "黑龙江省",
            "city": "绥化市",
            "district": "肇东市"
        }
    },
    {
        "id": "3674676630120969448",
        "title": "公共厕所",
        "address": "黑龙江省绥化市北林区兴绥路与昆山路交叉口正南方向192米左右",
        "tel": "",
        "category": "基础设施:公共设施:公共厕所",
        "type": 0,
        "location": {
            "lat": 46.596247,
            "lng": 126.982399
        },
        "ad_info": {
            "adcode": 231202,
            "province": "黑龙江省",
            "city": "绥化市",
            "district": "北林区"
        }
    },
    {
        "id": "6786795620924002471",
        "title": "公共厕所",
        "address": "黑龙江省绥化市北林区太平街与铁兴路交叉口正北方向153米左右",
        "tel": "",
        "category": "基础设施:公共设施:公共厕所",
        "type": 0,
        "location": {
            "lat": 46.643956,
            "lng": 127.016208
        },
        "ad_info": {
            "adcode": 231202,
            "province": "黑龙江省",
            "city": "绥化市",
            "district": "北林区"
        }
    },
    {
        "id": "17374189810244612837",
        "title": "公共厕所",
        "address": "黑龙江省绥化市望奎县解放路望奎体育运动中心",
        "tel": "",
        "category": "基础设施:公共设施:公共厕所",
        "type": 0,
        "location": {
            "lat": 46.837148,
            "lng": 126.490831
        },
        "ad_info": {
            "adcode": 231221,
            "province": "黑龙江省",
            "city": "绥化市",
            "district": "望奎县"
        }
    },
    {
        "id": "11234273744618672332",
        "title": "公共厕所",
        "address": "黑龙江省绥化市北林区绥巴路与花园东街交叉口西北方向277米左右",
        "tel": "",
        "category": "基础设施:公共设施:公共厕所",
        "type": 0,
        "location": {
            "lat": 46.62916,
            "lng": 127.015854
        },
        "ad_info": {
            "adcode": 231202,
            "province": "黑龙江省",
            "city": "绥化市",
            "district": "北林区"
        }
    },
    {
        "id": "836496837009752419",
        "title": "公共厕所",
        "address": "黑龙江省绥化市北林区北辰路与通庆路交叉口正北方向93米左右",
        "tel": "",
        "category": "基础设施:公共设施:公共厕所",
        "type": 0,
        "location": {
            "lat": 46.662296,
            "lng": 126.992808
        },
        "ad_info": {
            "adcode": 231202,
            "province": "黑龙江省",
            "city": "绥化市",
            "district": "北林区"
        }
    },
    {
        "id": "3096747226116268304",
        "title": "公共厕所",
        "address": "黑龙江省绥化市绥棱县兴林路与迎宾路交叉口正东方向251米左右",
        "tel": "",
        "category": "基础设施:公共设施:公共厕所",
        "type": 0,
        "location": {
            "lat": 47.260984,
            "lng": 127.106804
        },
        "ad_info": {
            "adcode": 231226,
            "province": "黑龙江省",
            "city": "绥化市",
            "district": "绥棱县"
        }
    },
    {
        "id": "1336116260117276544",
        "title": "公共厕所",
        "address": "黑龙江省绥化市兰西县东二道街与柴市街交叉口东北方向620米左右",
        "tel": "",
        "category": "基础设施:公共设施:公共厕所",
        "type": 0,
        "location": {
            "lat": 46.268167,
            "lng": 126.299761
        },
        "ad_info": {
            "adcode": 231222,
            "province": "黑龙江省",
            "city": "绥化市",
            "district": "兰西县"
        }
    },
    {
        "id": "2642923578835416774",
        "title": "公共厕所",
        "address": "黑龙江省绥化市肇东市五权南路与安阳街交叉口西北方向175米左右",
        "tel": "",
        "category": "基础设施:公共设施:公共厕所",
        "type": 0,
        "location": {
            "lat": 46.066459,
            "lng": 126.000106
        },
        "ad_info": {
            "adcode": 231282,
            "province": "黑龙江省",
            "city": "绥化市",
            "district": "肇东市"
        }
    },
    {
        "id": "9879325956275681609",
        "title": "公共厕所",
        "address": "黑龙江省绥化市北林区和平路与绥巴路交叉口正南方向54米左右",
        "tel": "",
        "category": "基础设施:公共设施:公共厕所",
        "type": 0,
        "location": {
            "lat": 46.630283,
            "lng": 127.011661
        },
        "ad_info": {
            "adcode": 231202,
            "province": "黑龙江省",
            "city": "绥化市",
            "district": "北林区"
        }
    },
    {
        "id": "9527909253436392990",
        "title": "公共厕所",
        "address": "黑龙江省绥化市肇东市东正南路与南直街交叉口西北方向175米左右",
        "tel": "",
        "category": "基础设施:公共设施:公共厕所",
        "type": 0,
        "location": {
            "lat": 46.078436,
            "lng": 126.003818
        },
        "ad_info": {
            "adcode": 231282,
            "province": "黑龙江省",
            "city": "绥化市",
            "district": "肇东市"
        }
    },
    {
        "id": "8707032347633023962",
        "title": "公共厕所",
        "address": "黑龙江省绥化市明水县团结路与文翰街交叉口东南方向14米左右",
        "tel": "",
        "category": "基础设施:公共设施:公共厕所",
        "type": 0,
        "location": {
            "lat": 47.178786,
            "lng": 125.91054
        },
        "ad_info": {
            "adcode": 231225,
            "province": "黑龙江省",
            "city": "绥化市",
            "district": "明水县"
        }
    },
    {
        "id": "7480939982517006344",
        "title": "公共厕所",
        "address": "黑龙江省绥化市肇东市S311与东利北路交叉口东南方向265米左右",
        "tel": "",
        "category": "基础设施:公共设施:公共厕所",
        "type": 0,
        "location": {
            "lat": 46.087631,
            "lng": 126.004318
        },
        "ad_info": {
            "adcode": 231282,
            "province": "黑龙江省",
            "city": "绥化市",
            "district": "肇东市"
        }
    },
    {
        "id": "4868562200627474040",
        "title": "公共厕所",
        "address": "黑龙江省绥化市安达市G203与大同路交叉口西北方向162米左右",
        "tel": "",
        "category": "基础设施:公共设施:公共厕所",
        "type": 0,
        "location": {
            "lat": 46.391265,
            "lng": 125.329408
        },
        "ad_info": {
            "adcode": 231281,
            "province": "黑龙江省",
            "city": "绥化市",
            "district": "安达市"
        }
    },
    {
        "id": "10867400276906406921",
        "title": "公共厕所",
        "address": "黑龙江省绥化市肇东市东大南路与东直路交叉口东南方向69米左右",
        "tel": "",
        "category": "基础设施:公共设施:公共厕所",
        "type": 0,
        "location": {
            "lat": 46.07784,
            "lng": 126.007311
        },
        "ad_info": {
            "adcode": 231282,
            "province": "黑龙江省",
            "city": "绥化市",
            "district": "肇东市"
        }
    },
    {
        "id": "1561149030255587001",
        "title": "公共厕所",
        "address": "黑龙江省绥化市北林区江川街与育才路交叉口东南方向31米左右",
        "tel": "",
        "category": "基础设施:公共设施:公共厕所",
        "type": 0,
        "location": {
            "lat": 46.654683,
            "lng": 126.978646
        },
        "ad_info": {
            "adcode": 231202,
            "province": "黑龙江省",
            "city": "绥化市",
            "district": "北林区"
        }
    },
    {
        "id": "16501259984168815493",
        "title": "公共厕所",
        "address": "黑龙江省绥化市绥棱县兴旺街与双鑫路交叉口西南方向37米左右",
        "tel": "",
        "category": "基础设施:公共设施:公共厕所",
        "type": 0,
        "location": {
            "lat": 47.239054,
            "lng": 127.116248
        },
        "ad_info": {
            "adcode": 231226,
            "province": "黑龙江省",
            "city": "绥化市",
            "district": "绥棱县"
        }
    },
    {
        "id": "17544623243472725675",
        "title": "公共厕所",
        "address": "黑龙江省绥化市肇东市十祥南路与太平路交叉口东北方向19米左右",
        "tel": "",
        "category": "基础设施:公共设施:公共厕所",
        "type": 0,
        "location": {
            "lat": 46.061996,
            "lng": 125.991378
        },
        "ad_info": {
            "adcode": 231282,
            "province": "黑龙江省",
            "city": "绥化市",
            "district": "肇东市"
        }
    },
    {
        "id": "12103086675019441232",
        "title": "公共厕所",
        "address": "黑龙江省绥化市庆安县G333与庆兴线交叉口正西方向1004米左右",
        "tel": "",
        "category": "基础设施:公共设施:公共厕所",
        "type": 0,
        "location": {
            "lat": 46.646343,
            "lng": 127.505787
        },
        "ad_info": {
            "adcode": 231224,
            "province": "黑龙江省",
            "city": "绥化市",
            "district": "庆安县"
        }
    },
    {
        "id": "10632415463076184537",
        "title": "公共厕所",
        "address": "黑龙江省绥化市肇东市利民南路与消防街交叉口西北方向131米左右",
        "tel": "",
        "category": "基础设施:公共设施:公共厕所",
        "type": 0,
        "location": {
            "lat": 46.062006,
            "lng": 125.978152
        },
        "ad_info": {
            "adcode": 231282,
            "province": "黑龙江省",
            "city": "绥化市",
            "district": "肇东市"
        }
    },
    {
        "id": "14264216890380494930",
        "title": "公共厕所",
        "address": "黑龙江省绥化市安达市北环路与大庆路交叉口西南方向64米左右",
        "tel": "",
        "category": "基础设施:公共设施:公共厕所",
        "type": 0,
        "location": {
            "lat": 46.433536,
            "lng": 125.339892
        },
        "ad_info": {
            "adcode": 231281,
            "province": "黑龙江省",
            "city": "绥化市",
            "district": "安达市"
        }
    },
    {
        "id": "5420470448901634193",
        "title": "公共厕所",
        "address": "黑龙江省绥化市明水县哈黑路与环城南路交叉口正南方向1023米左右",
        "tel": "",
        "category": "基础设施:公共设施:公共厕所",
        "type": 0,
        "location": {
            "lat": 47.154773,
            "lng": 125.907071
        },
        "ad_info": {
            "adcode": 231225,
            "province": "黑龙江省",
            "city": "绥化市",
            "district": "明水县"
        }
    },
    {
        "id": "17367820166548377445",
        "title": "公共厕所",
        "address": "黑龙江省绥化市绥棱县为民路与利民街交叉口西北方向22米左右",
        "tel": "",
        "category": "基础设施:公共设施:公共厕所",
        "type": 0,
        "location": {
            "lat": 47.248922,
            "lng": 127.086225
        },
        "ad_info": {
            "adcode": 231226,
            "province": "黑龙江省",
            "city": "绥化市",
            "district": "绥棱县"
        }
    },
    {
        "id": "6659378269744494387",
        "title": "公共厕所",
        "address": "黑龙江省绥化市肇东市七治北路与北直街交叉口正东方向29米左右",
        "tel": "",
        "category": "基础设施:公共设施:公共厕所",
        "type": 0,
        "location": {
            "lat": 46.074272,
            "lng": 125.982292
        },
        "ad_info": {
            "adcode": 231282,
            "province": "黑龙江省",
            "city": "绥化市",
            "district": "肇东市"
        }
    },
    {
        "id": "12767528779219858923",
        "title": "公共厕所",
        "address": "黑龙江省绥化市明水县Y504与黑大公路交叉口西南方向293米左右",
        "tel": "",
        "category": "基础设施:公共设施:公共厕所",
        "type": 0,
        "location": {
            "lat": 47.297212,
            "lng": 125.928999
        },
        "ad_info": {
            "adcode": 231225,
            "province": "黑龙江省",
            "city": "绥化市",
            "district": "明水县"
        }
    },
    {
        "id": "9101770457819760681",
        "title": "庆安服务区公共厕所",
        "address": "黑龙江省绥化市庆安县丰收乡鹤哈高速公路庆安服务区附近",
        "tel": "",
        "category": "基础设施:公共设施:公共厕所",
        "type": 0,
        "location": {
            "lat": 46.859699,
            "lng": 127.612518
        },
        "ad_info": {
            "adcode": 231224,
            "province": "黑龙江省",
            "city": "绥化市",
            "district": "庆安县"
        }
    },
    {
        "id": "13573344922929376751",
        "title": "公共厕所",
        "address": "黑龙江省绥化市兰西县S213与Y705交叉口正北方向406米左右",
        "tel": "",
        "category": "基础设施:公共设施:公共厕所",
        "type": 0,
        "location": {
            "lat": 46.437674,
            "lng": 125.897793
        },
        "ad_info": {
            "adcode": 231222,
            "province": "黑龙江省",
            "city": "绥化市",
            "district": "兰西县"
        }
    },
    {
        "id": "9023496039046678259",
        "title": "公共厕所",
        "address": "黑龙江省绥化市安达市大同路与致远牛路交叉口西北方向135米左右",
        "tel": "",
        "category": "基础设施:公共设施:公共厕所",
        "type": 0,
        "location": {
            "lat": 46.392656,
            "lng": 125.33026
        },
        "ad_info": {
            "adcode": 231281,
            "province": "黑龙江省",
            "city": "绥化市",
            "district": "安达市"
        }
    },
    {
        "id": "8196762076699400599",
        "title": "公共厕所",
        "address": "黑龙江省绥化市肇东市太平路与康乐街交叉口西北方向36米左右",
        "tel": "",
        "category": "基础设施:公共设施:公共厕所",
        "type": 0,
        "location": {
            "lat": 46.057987,
            "lng": 125.990103
        },
        "ad_info": {
            "adcode": 231282,
            "province": "黑龙江省",
            "city": "绥化市",
            "district": "肇东市"
        }
    },
    {
        "id": "10160350200741129908",
        "title": "公共厕所",
        "address": "黑龙江省绥化市北林区府西街与新兴西街交叉口东南方向60米左右",
        "tel": "",
        "category": "基础设施:公共设施:公共厕所",
        "type": 0,
        "location": {
            "lat": 46.655492,
            "lng": 126.96621
        },
        "ad_info": {
            "adcode": 231202,
            "province": "黑龙江省",
            "city": "绥化市",
            "district": "北林区"
        }
    },
    {
        "id": "3025758383770047814",
        "title": "公共厕所",
        "address": "黑龙江省绥化市北林区新兴东街与长江北路交叉口东南方向247米左右",
        "tel": "",
        "category": "基础设施:公共设施:公共厕所",
        "type": 0,
        "location": {
            "lat": 46.655334,
            "lng": 126.99847
        },
        "ad_info": {
            "adcode": 231202,
            "province": "黑龙江省",
            "city": "绥化市",
            "district": "北林区"
        }
    },
    {
        "id": "3525066907844577493",
        "title": "公共厕所",
        "address": "黑龙江省绥化市肇东市北环路与南环路交叉口正西方向100米左右",
        "tel": "",
        "category": "基础设施:公共设施:公共厕所",
        "type": 0,
        "location": {
            "lat": 46.050459,
            "lng": 125.948388
        },
        "ad_info": {
            "adcode": 231282,
            "province": "黑龙江省",
            "city": "绥化市",
            "district": "肇东市"
        }
    },
    {
        "id": "12403340052591598018",
        "title": "公共厕所",
        "address": "黑龙江省绥化市安达市学府北路安达市第二中学",
        "tel": "",
        "category": "基础设施:公共设施:公共厕所",
        "type": 0,
        "location": {
            "lat": 46.415053,
            "lng": 125.338565
        },
        "ad_info": {
            "adcode": 231281,
            "province": "黑龙江省",
            "city": "绥化市",
            "district": "安达市"
        }
    },
    {
        "id": "10762464733440100686",
        "title": "公共厕所",
        "address": "黑龙江省绥化市北林区太平街与育新路交叉口正南方向134米左右",
        "tel": "",
        "category": "基础设施:公共设施:公共厕所",
        "type": 0,
        "location": {
            "lat": 46.638057,
            "lng": 127.025618
        },
        "ad_info": {
            "adcode": 231202,
            "province": "黑龙江省",
            "city": "绥化市",
            "district": "北林区"
        }
    },
    {
        "id": "6740301714424792562",
        "title": "公共厕所",
        "address": "黑龙江省绥化市海伦市中海石油加油站东北侧200米",
        "tel": "",
        "category": "基础设施:公共设施:公共厕所",
        "type": 0,
        "location": {
            "lat": 47.659841,
            "lng": 126.864946
        },
        "ad_info": {
            "adcode": 231283,
            "province": "黑龙江省",
            "city": "绥化市",
            "district": "海伦市"
        }
    },
    {
        "id": "1561149030255587001",
        "title": "公共厕所",
        "address": "黑龙江省绥化市北林区江川街与育才路交叉口东南方向31米左右",
        "tel": "",
        "category": "基础设施:公共设施:公共厕所",
        "type": 0,
        "location": {
            "lat": 46.654683,
            "lng": 126.978646
        },
        "ad_info": {
            "adcode": 231202,
            "province": "黑龙江省",
            "city": "绥化市",
            "district": "北林区"
        }
    },
    {
        "id": "16501259984168815493",
        "title": "公共厕所",
        "address": "黑龙江省绥化市绥棱县兴旺街与双鑫路交叉口西南方向37米左右",
        "tel": "",
        "category": "基础设施:公共设施:公共厕所",
        "type": 0,
        "location": {
            "lat": 47.239054,
            "lng": 127.116248
        },
        "ad_info": {
            "adcode": 231226,
            "province": "黑龙江省",
            "city": "绥化市",
            "district": "绥棱县"
        }
    },
    {
        "id": "17544623243472725675",
        "title": "公共厕所",
        "address": "黑龙江省绥化市肇东市十祥南路与太平路交叉口东北方向19米左右",
        "tel": "",
        "category": "基础设施:公共设施:公共厕所",
        "type": 0,
        "location": {
            "lat": 46.061996,
            "lng": 125.991378
        },
        "ad_info": {
            "adcode": 231282,
            "province": "黑龙江省",
            "city": "绥化市",
            "district": "肇东市"
        }
    },
    {
        "id": "12103086675019441232",
        "title": "公共厕所",
        "address": "黑龙江省绥化市庆安县G333与庆兴线交叉口正西方向1004米左右",
        "tel": "",
        "category": "基础设施:公共设施:公共厕所",
        "type": 0,
        "location": {
            "lat": 46.646343,
            "lng": 127.505787
        },
        "ad_info": {
            "adcode": 231224,
            "province": "黑龙江省",
            "city": "绥化市",
            "district": "庆安县"
        }
    },
    {
        "id": "10632415463076184537",
        "title": "公共厕所",
        "address": "黑龙江省绥化市肇东市利民南路与消防街交叉口西北方向131米左右",
        "tel": "",
        "category": "基础设施:公共设施:公共厕所",
        "type": 0,
        "location": {
            "lat": 46.062006,
            "lng": 125.978152
        },
        "ad_info": {
            "adcode": 231282,
            "province": "黑龙江省",
            "city": "绥化市",
            "district": "肇东市"
        }
    },
    {
        "id": "14264216890380494930",
        "title": "公共厕所",
        "address": "黑龙江省绥化市安达市北环路与大庆路交叉口西南方向64米左右",
        "tel": "",
        "category": "基础设施:公共设施:公共厕所",
        "type": 0,
        "location": {
            "lat": 46.433536,
            "lng": 125.339892
        },
        "ad_info": {
            "adcode": 231281,
            "province": "黑龙江省",
            "city": "绥化市",
            "district": "安达市"
        }
    },
    {
        "id": "5420470448901634193",
        "title": "公共厕所",
        "address": "黑龙江省绥化市明水县哈黑路与环城南路交叉口正南方向1023米左右",
        "tel": "",
        "category": "基础设施:公共设施:公共厕所",
        "type": 0,
        "location": {
            "lat": 47.154773,
            "lng": 125.907071
        },
        "ad_info": {
            "adcode": 231225,
            "province": "黑龙江省",
            "city": "绥化市",
            "district": "明水县"
        }
    },
    {
        "id": "17367820166548377445",
        "title": "公共厕所",
        "address": "黑龙江省绥化市绥棱县为民路与利民街交叉口西北方向22米左右",
        "tel": "",
        "category": "基础设施:公共设施:公共厕所",
        "type": 0,
        "location": {
            "lat": 47.248922,
            "lng": 127.086225
        },
        "ad_info": {
            "adcode": 231226,
            "province": "黑龙江省",
            "city": "绥化市",
            "district": "绥棱县"
        }
    },
    {
        "id": "6659378269744494387",
        "title": "公共厕所",
        "address": "黑龙江省绥化市肇东市七治北路与北直街交叉口正东方向29米左右",
        "tel": "",
        "category": "基础设施:公共设施:公共厕所",
        "type": 0,
        "location": {
            "lat": 46.074272,
            "lng": 125.982292
        },
        "ad_info": {
            "adcode": 231282,
            "province": "黑龙江省",
            "city": "绥化市",
            "district": "肇东市"
        }
    },
    {
        "id": "12767528779219858923",
        "title": "公共厕所",
        "address": "黑龙江省绥化市明水县Y504与黑大公路交叉口西南方向293米左右",
        "tel": "",
        "category": "基础设施:公共设施:公共厕所",
        "type": 0,
        "location": {
            "lat": 47.297212,
            "lng": 125.928999
        },
        "ad_info": {
            "adcode": 231225,
            "province": "黑龙江省",
            "city": "绥化市",
            "district": "明水县"
        }
    },
    {
        "id": "9101770457819760681",
        "title": "庆安服务区公共厕所",
        "address": "黑龙江省绥化市庆安县丰收乡鹤哈高速公路庆安服务区附近",
        "tel": "",
        "category": "基础设施:公共设施:公共厕所",
        "type": 0,
        "location": {
            "lat": 46.859699,
            "lng": 127.612518
        },
        "ad_info": {
            "adcode": 231224,
            "province": "黑龙江省",
            "city": "绥化市",
            "district": "庆安县"
        }
    },
    {
        "id": "13573344922929376751",
        "title": "公共厕所",
        "address": "黑龙江省绥化市兰西县S213与Y705交叉口正北方向406米左右",
        "tel": "",
        "category": "基础设施:公共设施:公共厕所",
        "type": 0,
        "location": {
            "lat": 46.437674,
            "lng": 125.897793
        },
        "ad_info": {
            "adcode": 231222,
            "province": "黑龙江省",
            "city": "绥化市",
            "district": "兰西县"
        }
    },
    {
        "id": "9023496039046678259",
        "title": "公共厕所",
        "address": "黑龙江省绥化市安达市大同路与致远牛路交叉口西北方向135米左右",
        "tel": "",
        "category": "基础设施:公共设施:公共厕所",
        "type": 0,
        "location": {
            "lat": 46.392656,
            "lng": 125.33026
        },
        "ad_info": {
            "adcode": 231281,
            "province": "黑龙江省",
            "city": "绥化市",
            "district": "安达市"
        }
    },
    {
        "id": "8196762076699400599",
        "title": "公共厕所",
        "address": "黑龙江省绥化市肇东市太平路与康乐街交叉口西北方向36米左右",
        "tel": "",
        "category": "基础设施:公共设施:公共厕所",
        "type": 0,
        "location": {
            "lat": 46.057987,
            "lng": 125.990103
        },
        "ad_info": {
            "adcode": 231282,
            "province": "黑龙江省",
            "city": "绥化市",
            "district": "肇东市"
        }
    },
    {
        "id": "10160350200741129908",
        "title": "公共厕所",
        "address": "黑龙江省绥化市北林区府西街与新兴西街交叉口东南方向60米左右",
        "tel": "",
        "category": "基础设施:公共设施:公共厕所",
        "type": 0,
        "location": {
            "lat": 46.655492,
            "lng": 126.96621
        },
        "ad_info": {
            "adcode": 231202,
            "province": "黑龙江省",
            "city": "绥化市",
            "district": "北林区"
        }
    },
    {
        "id": "3025758383770047814",
        "title": "公共厕所",
        "address": "黑龙江省绥化市北林区新兴东街与长江北路交叉口东南方向247米左右",
        "tel": "",
        "category": "基础设施:公共设施:公共厕所",
        "type": 0,
        "location": {
            "lat": 46.655334,
            "lng": 126.99847
        },
        "ad_info": {
            "adcode": 231202,
            "province": "黑龙江省",
            "city": "绥化市",
            "district": "北林区"
        }
    },
    {
        "id": "3525066907844577493",
        "title": "公共厕所",
        "address": "黑龙江省绥化市肇东市北环路与南环路交叉口正西方向100米左右",
        "tel": "",
        "category": "基础设施:公共设施:公共厕所",
        "type": 0,
        "location": {
            "lat": 46.050459,
            "lng": 125.948388
        },
        "ad_info": {
            "adcode": 231282,
            "province": "黑龙江省",
            "city": "绥化市",
            "district": "肇东市"
        }
    },
    {
        "id": "12403340052591598018",
        "title": "公共厕所",
        "address": "黑龙江省绥化市安达市学府北路安达市第二中学",
        "tel": "",
        "category": "基础设施:公共设施:公共厕所",
        "type": 0,
        "location": {
            "lat": 46.415053,
            "lng": 125.338565
        },
        "ad_info": {
            "adcode": 231281,
            "province": "黑龙江省",
            "city": "绥化市",
            "district": "安达市"
        }
    },
    {
        "id": "10762464733440100686",
        "title": "公共厕所",
        "address": "黑龙江省绥化市北林区太平街与育新路交叉口正南方向134米左右",
        "tel": "",
        "category": "基础设施:公共设施:公共厕所",
        "type": 0,
        "location": {
            "lat": 46.638057,
            "lng": 127.025618
        },
        "ad_info": {
            "adcode": 231202,
            "province": "黑龙江省",
            "city": "绥化市",
            "district": "北林区"
        }
    },
    {
        "id": "6740301714424792562",
        "title": "公共厕所",
        "address": "黑龙江省绥化市海伦市中海石油加油站东北侧200米",
        "tel": "",
        "category": "基础设施:公共设施:公共厕所",
        "type": 0,
        "location": {
            "lat": 47.659841,
            "lng": 126.864946
        },
        "ad_info": {
            "adcode": 231283,
            "province": "黑龙江省",
            "city": "绥化市",
            "district": "海伦市"
        }
    }
]