[
    {
        "id": "4486080969216051814",
        "title": "公共厕所",
        "address": "广东省肇庆市端州区七星二路与石牌路交叉口西南方向70米左右",
        "tel": "",
        "category": "基础设施:公共设施:公共厕所",
        "type": 0,
        "location": {
            "lat": 23.087854,
            "lng": 112.475975
        },
        "ad_info": {
            "adcode": 441202,
            "province": "广东省",
            "city": "肇庆市",
            "district": "端州区"
        }
    },
    {
        "id": "13340491827130833559",
        "title": "公共厕所",
        "address": "广东省肇庆市端州区端州五路9号",
        "tel": "",
        "category": "基础设施:公共设施:公共厕所",
        "type": 0,
        "location": {
            "lat": 23.054546,
            "lng": 112.467624
        },
        "ad_info": {
            "adcode": 441202,
            "province": "广东省",
            "city": "肇庆市",
            "district": "端州区"
        }
    },
    {
        "id": "49656456007843221",
        "title": "公共厕所",
        "address": "广东省肇庆市端州区宋城一路与豪居路交叉口正东方向48米左右",
        "tel": "",
        "category": "基础设施:公共设施:公共厕所",
        "type": 0,
        "location": {
            "lat": 23.048901,
            "lng": 112.467752
        },
        "ad_info": {
            "adcode": 441202,
            "province": "广东省",
            "city": "肇庆市",
            "district": "端州区"
        }
    },
    {
        "id": "8510998265860139839",
        "title": "公共厕所",
        "address": "广东省肇庆市端州区人民中路与草场路交叉口正东方向112米左右",
        "tel": "",
        "category": "基础设施:公共设施:公共厕所",
        "type": 0,
        "location": {
            "lat": 23.049841,
            "lng": 112.462843
        },
        "ad_info": {
            "adcode": 441202,
            "province": "广东省",
            "city": "肇庆市",
            "district": "端州区"
        }
    },
    {
        "id": "11004844563256753589",
        "title": "公共厕所",
        "address": "广东省肇庆市端州区市场四街与河旁路交叉口正西方向41米左右",
        "tel": "",
        "category": "基础设施:公共设施:公共厕所",
        "type": 0,
        "location": {
            "lat": 23.057581,
            "lng": 112.504541
        },
        "ad_info": {
            "adcode": 441202,
            "province": "广东省",
            "city": "肇庆市",
            "district": "端州区"
        }
    },
    {
        "id": "17069974449405544005",
        "title": "公共厕所",
        "address": "广东省肇庆市端州区端州七路与大桥路辅路交叉口西120米",
        "tel": "",
        "category": "基础设施:公共设施:公共厕所",
        "type": 0,
        "location": {
            "lat": 23.05373,
            "lng": 112.445176
        },
        "ad_info": {
            "adcode": 441202,
            "province": "广东省",
            "city": "肇庆市",
            "district": "端州区"
        }
    },
    {
        "id": "18213949695787586524",
        "title": "公共厕所",
        "address": "广东省肇庆市端州区城中路与府前路交叉口东南方向12米左右",
        "tel": "",
        "category": "基础设施:公共设施:公共厕所",
        "type": 0,
        "location": {
            "lat": 23.046987,
            "lng": 112.46042
        },
        "ad_info": {
            "adcode": 441202,
            "province": "广东省",
            "city": "肇庆市",
            "district": "端州区"
        }
    },
    {
        "id": "15925975271533111892",
        "title": "公共厕所",
        "address": "广东省肇庆市端州区景泰路与泰安路交叉口正西方向58米左右",
        "tel": "",
        "category": "基础设施:公共设施:公共厕所",
        "type": 0,
        "location": {
            "lat": 23.060982,
            "lng": 112.490872
        },
        "ad_info": {
            "adcode": 441202,
            "province": "广东省",
            "city": "肇庆市",
            "district": "端州区"
        }
    },
    {
        "id": "16969387863496151665",
        "title": "公共厕所",
        "address": "广东省肇庆市端州区西江北路七星岩景区",
        "tel": "",
        "category": "基础设施:公共设施:公共厕所",
        "type": 0,
        "location": {
            "lat": 23.076754,
            "lng": 112.449249
        },
        "ad_info": {
            "adcode": 441202,
            "province": "广东省",
            "city": "肇庆市",
            "district": "端州区"
        }
    },
    {
        "id": "3266136168003290874",
        "title": "公共厕所",
        "address": "广东省肇庆市端州区星湖大道与棠岗路交叉口西北方向228米左右",
        "tel": "",
        "category": "基础设施:公共设施:公共厕所",
        "type": 0,
        "location": {
            "lat": 23.072828,
            "lng": 112.488177
        },
        "ad_info": {
            "adcode": 441202,
            "province": "广东省",
            "city": "肇庆市",
            "district": "端州区"
        }
    },
    {
        "id": "11915780469154280555",
        "title": "公共厕所",
        "address": "广东省肇庆市端州区端州五路18号1楼",
        "tel": "",
        "category": "基础设施:公共设施:公共厕所",
        "type": 0,
        "location": {
            "lat": 23.052772,
            "lng": 112.462776
        },
        "ad_info": {
            "adcode": 441202,
            "province": "广东省",
            "city": "肇庆市",
            "district": "端州区"
        }
    },
    {
        "id": "10583007520384317002",
        "title": "公共厕所",
        "address": "广东省肇庆市端州区黄岗街道端州大道邓氏宗祠",
        "tel": "",
        "category": "基础设施:公共设施:公共厕所",
        "type": 0,
        "location": {
            "lat": 23.115708,
            "lng": 112.515735
        },
        "ad_info": {
            "adcode": 441202,
            "province": "广东省",
            "city": "肇庆市",
            "district": "端州区"
        }
    },
    {
        "id": "6699482921459446531",
        "title": "公共厕所",
        "address": "广东省肇庆市端州区建设二路与聚贤路交叉口正北方向120米左右",
        "tel": "",
        "category": "基础设施:公共设施:公共厕所",
        "type": 0,
        "location": {
            "lat": 23.050013,
            "lng": 112.485386
        },
        "ad_info": {
            "adcode": 441202,
            "province": "广东省",
            "city": "肇庆市",
            "district": "端州区"
        }
    },
    {
        "id": "8242317934699978674",
        "title": "公共厕所",
        "address": "广东省肇庆市端州区西江北路肇庆体育中心",
        "tel": "",
        "category": "基础设施:公共设施:公共厕所",
        "type": 0,
        "location": {
            "lat": 23.058989,
            "lng": 112.451329
        },
        "ad_info": {
            "adcode": 441202,
            "province": "广东省",
            "city": "肇庆市",
            "district": "端州区"
        }
    },
    {
        "id": "18025971618955302463",
        "title": "公共厕所",
        "address": "广东省肇庆市端州区端州一路与蓝塘中路交叉口西北方向272米左右",
        "tel": "",
        "category": "基础设施:公共设施:公共厕所",
        "type": 0,
        "location": {
            "lat": 23.08764,
            "lng": 112.515933
        },
        "ad_info": {
            "adcode": 441202,
            "province": "广东省",
            "city": "肇庆市",
            "district": "端州区"
        }
    },
    {
        "id": "16130316472417846399",
        "title": "公共卫生间",
        "address": "广东省肇庆市端州区蓝塘村171号蓝塘1队",
        "tel": "",
        "category": "基础设施:公共设施:公共厕所",
        "type": 0,
        "location": {
            "lat": 23.086932,
            "lng": 112.514911
        },
        "ad_info": {
            "adcode": 441202,
            "province": "广东省",
            "city": "肇庆市",
            "district": "端州区"
        }
    },
    {
        "id": "3921716965877752868",
        "title": "公共厕所",
        "address": "广东省肇庆市端州区永和三巷与龙珠北路交叉口正西方向21米左右",
        "tel": "",
        "category": "基础设施:公共设施:公共厕所",
        "type": 0,
        "location": {
            "lat": 23.06626,
            "lng": 112.42831
        },
        "ad_info": {
            "adcode": 441202,
            "province": "广东省",
            "city": "肇庆市",
            "district": "端州区"
        }
    },
    {
        "id": "5878409870679384565",
        "title": "公共厕所",
        "address": "广东省肇庆市端州区二塔路与建设二路交叉口正南方向51米左右",
        "tel": "",
        "category": "基础设施:公共设施:公共厕所",
        "type": 0,
        "location": {
            "lat": 23.052546,
            "lng": 112.498645
        },
        "ad_info": {
            "adcode": 441202,
            "province": "广东省",
            "city": "肇庆市",
            "district": "端州区"
        }
    },
    {
        "id": "9230394511301657687",
        "title": "公共厕所",
        "address": "广东省肇庆市端州区翠湖路肇庆体育中心",
        "tel": "",
        "category": "基础设施:公共设施:公共厕所",
        "type": 0,
        "location": {
            "lat": 23.061408,
            "lng": 112.454738
        },
        "ad_info": {
            "adcode": 441202,
            "province": "广东省",
            "city": "肇庆市",
            "district": "端州区"
        }
    },
    {
        "id": "8227004571471114076",
        "title": "公共厕所",
        "address": "广东省肇庆市端州区莲湖中路与莲湖中路二街交叉口西北方向122米左右",
        "tel": "",
        "category": "基础设施:公共设施:公共厕所",
        "type": 0,
        "location": {
            "lat": 23.059886,
            "lng": 112.474134
        },
        "ad_info": {
            "adcode": 441202,
            "province": "广东省",
            "city": "肇庆市",
            "district": "端州区"
        }
    },
    {
        "id": "10005681054225298130",
        "title": "公共厕所",
        "address": "广东省肇庆市端州区东湖中路与东湖南路交叉口正北方向154米左右",
        "tel": "",
        "category": "基础设施:公共设施:公共厕所",
        "type": 0,
        "location": {
            "lat": 23.080404,
            "lng": 112.516453
        },
        "ad_info": {
            "adcode": 441202,
            "province": "广东省",
            "city": "肇庆市",
            "district": "端州区"
        }
    },
    {
        "id": "2654799616588846674",
        "title": "公共厕所",
        "address": "广东省肇庆市端州区星湖大道与龙景路交叉口东南方向111米左右",
        "tel": "",
        "category": "基础设施:公共设施:公共厕所",
        "type": 0,
        "location": {
            "lat": 23.059853,
            "lng": 112.482488
        },
        "ad_info": {
            "adcode": 441202,
            "province": "广东省",
            "city": "肇庆市",
            "district": "端州区"
        }
    },
    {
        "id": "9325275394192704242",
        "title": "公共厕所",
        "address": "广东省肇庆市端州区天宁北路与天宁南路交叉口东北方向119米左右",
        "tel": "",
        "category": "基础设施:公共设施:公共厕所",
        "type": 0,
        "location": {
            "lat": 23.051232,
            "lng": 112.470066
        },
        "ad_info": {
            "adcode": 441202,
            "province": "广东省",
            "city": "肇庆市",
            "district": "端州区"
        }
    },
    {
        "id": "12782669769465964452",
        "title": "公共厕所",
        "address": "广东省肇庆市端州区正东路与麒麟街交叉口西北方向15米左右",
        "tel": "",
        "category": "基础设施:公共设施:公共厕所",
        "type": 0,
        "location": {
            "lat": 23.046457,
            "lng": 112.46615
        },
        "ad_info": {
            "adcode": 441202,
            "province": "广东省",
            "city": "肇庆市",
            "district": "端州区"
        }
    },
    {
        "id": "9077719672405520784",
        "title": "公共厕所",
        "address": "广东省肇庆市端州区棠美北路与棠美南路交叉口正东方向186米左右",
        "tel": "",
        "category": "基础设施:公共设施:公共厕所",
        "type": 0,
        "location": {
            "lat": 23.063928,
            "lng": 112.417063
        },
        "ad_info": {
            "adcode": 441202,
            "province": "广东省",
            "city": "肇庆市",
            "district": "端州区"
        }
    },
    {
        "id": "15453779145006789508",
        "title": "公共厕所",
        "address": "广东省肇庆市端州区凯德广场商圈芹田路雅图花园",
        "tel": "",
        "category": "基础设施:公共设施:公共厕所",
        "type": 0,
        "location": {
            "lat": 23.053269,
            "lng": 112.476919
        },
        "ad_info": {
            "adcode": 441202,
            "province": "广东省",
            "city": "肇庆市",
            "district": "端州区"
        }
    },
    {
        "id": "3728682598385794547",
        "title": "公共厕所",
        "address": "广东省肇庆市四会市大旺大道40号",
        "tel": "",
        "category": "基础设施:公共设施:公共厕所",
        "type": 0,
        "location": {
            "lat": 23.309753,
            "lng": 112.831848
        },
        "ad_info": {
            "adcode": 441284,
            "province": "广东省",
            "city": "肇庆市",
            "district": "四会市"
        }
    },
    {
        "id": "4119419149692490021",
        "title": "公共厕所",
        "address": "广东省肇庆市怀集县G234与幸福一路交叉口正西方向227米左右",
        "tel": "",
        "category": "基础设施:公共设施:公共厕所",
        "type": 0,
        "location": {
            "lat": 23.910509,
            "lng": 112.170155
        },
        "ad_info": {
            "adcode": 441224,
            "province": "广东省",
            "city": "肇庆市",
            "district": "怀集县"
        }
    },
    {
        "id": "17150371732319946026",
        "title": "公共厕所",
        "address": "广东省肇庆市端州区端州一路与肇庆大桥交叉口东南方向168米左右",
        "tel": "",
        "category": "基础设施:公共设施:公共厕所",
        "type": 0,
        "location": {
            "lat": 23.067647,
            "lng": 112.515116
        },
        "ad_info": {
            "adcode": 441202,
            "province": "广东省",
            "city": "肇庆市",
            "district": "端州区"
        }
    },
    {
        "id": "5682406266633066258",
        "title": "公共厕所",
        "address": "广东省肇庆市端州区八一路与端州六路交叉口东南方向53米左右",
        "tel": "",
        "category": "基础设施:公共设施:公共厕所",
        "type": 0,
        "location": {
            "lat": 23.052338,
            "lng": 112.453149
        },
        "ad_info": {
            "adcode": 441202,
            "province": "广东省",
            "city": "肇庆市",
            "district": "端州区"
        }
    },
    {
        "id": "10425437392220428352",
        "title": "公共厕所",
        "address": "广东省肇庆市端州区光明街正巷与建设三路交叉口正南方向211米左右",
        "tel": "",
        "category": "基础设施:公共设施:公共厕所",
        "type": 0,
        "location": {
            "lat": 23.046985,
            "lng": 112.472565
        },
        "ad_info": {
            "adcode": 441202,
            "province": "广东省",
            "city": "肇庆市",
            "district": "端州区"
        }
    },
    {
        "id": "14191344105585507104",
        "title": "公共厕所",
        "address": "广东省肇庆市端州区人民中路与草场路交叉口正东方向142米左右",
        "tel": "",
        "category": "基础设施:公共设施:公共厕所",
        "type": 0,
        "location": {
            "lat": 23.050202,
            "lng": 112.463091
        },
        "ad_info": {
            "adcode": 441202,
            "province": "广东省",
            "city": "肇庆市",
            "district": "端州区"
        }
    },
    {
        "id": "17458407934988403250",
        "title": "百花园市场厕所",
        "address": "广东省肇庆市端州区桂花一街与桂花二路交叉口正西方向35米左右",
        "tel": "",
        "category": "基础设施:公共设施:公共厕所",
        "type": 0,
        "location": {
            "lat": 23.059303,
            "lng": 112.449216
        },
        "ad_info": {
            "adcode": 441202,
            "province": "广东省",
            "city": "肇庆市",
            "district": "端州区"
        }
    },
    {
        "id": "10380033889724337196",
        "title": "公共厕所",
        "address": "广东省肇庆市四会市城中路与汇源路交叉口东南方向60米左右",
        "tel": "",
        "category": "基础设施:公共设施:公共厕所",
        "type": 0,
        "location": {
            "lat": 23.342044,
            "lng": 112.688656
        },
        "ad_info": {
            "adcode": 441284,
            "province": "广东省",
            "city": "肇庆市",
            "district": "四会市"
        }
    },
    {
        "id": "1665318219814223632",
        "title": "公共厕所",
        "address": "广东省肇庆市端州区S8广佛肇高速与S8广佛肇高速出口交叉口东400米",
        "tel": "",
        "category": "基础设施:公共设施:公共厕所",
        "type": 0,
        "location": {
            "lat": 23.122855,
            "lng": 112.516275
        },
        "ad_info": {
            "adcode": 441202,
            "province": "广东省",
            "city": "肇庆市",
            "district": "端州区"
        }
    },
    {
        "id": "14011834851266175033",
        "title": "公共厕所",
        "address": "广东省肇庆市四会市曙光街103号大旺公园内",
        "tel": "",
        "category": "基础设施:公共设施:公共厕所",
        "type": 0,
        "location": {
            "lat": 23.30235,
            "lng": 112.811575
        },
        "ad_info": {
            "adcode": 441284,
            "province": "广东省",
            "city": "肇庆市",
            "district": "四会市"
        }
    },
    {
        "id": "8239097375656755944",
        "title": "公共厕所",
        "address": "广东省肇庆市鼎湖区福星街与福龙街交叉口东南方向26米左右",
        "tel": "",
        "category": "基础设施:公共设施:公共厕所",
        "type": 0,
        "location": {
            "lat": 23.156647,
            "lng": 112.562549
        },
        "ad_info": {
            "adcode": 441203,
            "province": "广东省",
            "city": "肇庆市",
            "district": "鼎湖区"
        }
    },
    {
        "id": "1083283233382713139",
        "title": "公共厕所",
        "address": "广东省肇庆市四会市宝盈路与工业大街交叉口东北方向50米左右",
        "tel": "",
        "category": "基础设施:公共设施:公共厕所",
        "type": 0,
        "location": {
            "lat": 23.280473,
            "lng": 112.84252
        },
        "ad_info": {
            "adcode": 441284,
            "province": "广东省",
            "city": "肇庆市",
            "district": "四会市"
        }
    },
    {
        "id": "17852895724465889921",
        "title": "公共厕所",
        "address": "广东省肇庆市四会市四会大道与广场南路交叉口东北方向140米左右",
        "tel": "",
        "category": "基础设施:公共设施:公共厕所",
        "type": 0,
        "location": {
            "lat": 23.321079,
            "lng": 112.727949
        },
        "ad_info": {
            "adcode": 441284,
            "province": "广东省",
            "city": "肇庆市",
            "district": "四会市"
        }
    },
    {
        "id": "4744441488387461354",
        "title": "公共厕所",
        "address": "广东省肇庆市怀集县中国石油怀集河南加油站(怀集县招商局北)西北侧120米",
        "tel": "",
        "category": "基础设施:公共设施:公共厕所",
        "type": 0,
        "location": {
            "lat": 23.889755,
            "lng": 112.190626
        },
        "ad_info": {
            "adcode": 441224,
            "province": "广东省",
            "city": "肇庆市",
            "district": "怀集县"
        }
    },
    {
        "id": "1263413524181041963",
        "title": "公共厕所",
        "address": "广东省肇庆市高要区金龙大道267号",
        "tel": "",
        "category": "基础设施:公共设施:公共厕所",
        "type": 0,
        "location": {
            "lat": 23.085592,
            "lng": 112.772807
        },
        "ad_info": {
            "adcode": 441204,
            "province": "广东省",
            "city": "肇庆市",
            "district": "高要区"
        }
    },
    {
        "id": "7227699621740005803",
        "title": "公共厕所",
        "address": "广东省肇庆市鼎湖区鼎盛路加油站旁",
        "tel": "",
        "category": "基础设施:公共设施:公共厕所",
        "type": 0,
        "location": {
            "lat": 23.156141,
            "lng": 112.56139
        },
        "ad_info": {
            "adcode": 441203,
            "province": "广东省",
            "city": "肇庆市",
            "district": "鼎湖区"
        }
    },
    {
        "id": "13562772203733952174",
        "title": "公共厕所",
        "address": "广东省肇庆市四会市农场路大旺公园(东南角)",
        "tel": "",
        "category": "基础设施:公共设施:公共厕所",
        "type": 0,
        "location": {
            "lat": 23.302248,
            "lng": 112.815239
        },
        "ad_info": {
            "adcode": 441284,
            "province": "广东省",
            "city": "肇庆市",
            "district": "四会市"
        }
    },
    {
        "id": "11159958203135399276",
        "title": "公共厕所",
        "address": "广东省肇庆市怀集县幸福一路与幸福一路八巷交叉口正西方向87米左右",
        "tel": "",
        "category": "基础设施:公共设施:公共厕所",
        "type": 0,
        "location": {
            "lat": 23.910007,
            "lng": 112.17528
        },
        "ad_info": {
            "adcode": 441224,
            "province": "广东省",
            "city": "肇庆市",
            "district": "怀集县"
        }
    },
    {
        "id": "7611990985528177666",
        "title": "无障碍公共厕所",
        "address": "广东省肇庆市端州区新风北路与祥福路交叉口东南方向83米左右",
        "tel": "",
        "category": "基础设施:公共设施:公共厕所",
        "type": 0,
        "location": {
            "lat": 23.06386,
            "lng": 112.505456
        },
        "ad_info": {
            "adcode": 441202,
            "province": "广东省",
            "city": "肇庆市",
            "district": "端州区"
        }
    },
    {
        "id": "15928142356154782",
        "title": "公共厕所",
        "address": "广东省肇庆市端州区黄岗街道棠兴路翠岗花园西(朗晴轩附近)",
        "tel": "",
        "category": "基础设施:公共设施:公共厕所",
        "type": 0,
        "location": {
            "lat": 23.061757,
            "lng": 112.494462
        },
        "ad_info": {
            "adcode": 441202,
            "province": "广东省",
            "city": "肇庆市",
            "district": "端州区"
        }
    },
    {
        "id": "16250079137567492036",
        "title": "公共厕所",
        "address": "广东省肇庆市鼎湖区同兴路与大潭路交叉口正南方向223米左右",
        "tel": "",
        "category": "基础设施:公共设施:公共厕所",
        "type": 0,
        "location": {
            "lat": 23.168226,
            "lng": 112.588071
        },
        "ad_info": {
            "adcode": 441203,
            "province": "广东省",
            "city": "肇庆市",
            "district": "鼎湖区"
        }
    },
    {
        "id": "7466494543360175271",
        "title": "公共厕所",
        "address": "广东省肇庆市高要区跃龙路与金马南路交叉口正东方向17米左右",
        "tel": "",
        "category": "基础设施:公共设施:公共厕所",
        "type": 0,
        "location": {
            "lat": 22.993173,
            "lng": 112.4242
        },
        "ad_info": {
            "adcode": 441204,
            "province": "广东省",
            "city": "肇庆市",
            "district": "高要区"
        }
    },
    {
        "id": "12351769071828013674",
        "title": "公共厕所",
        "address": "广东省肇庆市高要区振兴一路与清湖路交叉口西南方向34米左右",
        "tel": "",
        "category": "基础设施:公共设施:公共厕所",
        "type": 0,
        "location": {
            "lat": 23.029642,
            "lng": 112.464625
        },
        "ad_info": {
            "adcode": 441204,
            "province": "广东省",
            "city": "肇庆市",
            "district": "高要区"
        }
    },
    {
        "id": "18293479242378822683",
        "title": "公共厕所",
        "address": "广东省肇庆市鼎湖区水坑大道与东进大道辅路交叉口北140米",
        "tel": "",
        "category": "基础设施:公共设施:公共厕所",
        "type": 0,
        "location": {
            "lat": 23.193188,
            "lng": 112.576768
        },
        "ad_info": {
            "adcode": 441203,
            "province": "广东省",
            "city": "肇庆市",
            "district": "鼎湖区"
        }
    },
    {
        "id": "9988413182005692135",
        "title": "公共厕所",
        "address": "广东省肇庆市端州区天宁北路辅路与端州四路交叉口正东方向93米左右",
        "tel": "",
        "category": "基础设施:公共设施:公共厕所",
        "type": 0,
        "location": {
            "lat": 23.054174,
            "lng": 112.470952
        },
        "ad_info": {
            "adcode": 441202,
            "province": "广东省",
            "city": "肇庆市",
            "district": "端州区"
        }
    },
    {
        "id": "16340092021493423429",
        "title": "公共厕所",
        "address": "广东省肇庆市鼎湖区Y156与东进大道辅路交叉口正西方向283米左右",
        "tel": "",
        "category": "基础设施:公共设施:公共厕所",
        "type": 0,
        "location": {
            "lat": 23.230811,
            "lng": 112.614838
        },
        "ad_info": {
            "adcode": 441203,
            "province": "广东省",
            "city": "肇庆市",
            "district": "鼎湖区"
        }
    },
    {
        "id": "12436015176724391995",
        "title": "公共厕所",
        "address": "广东省肇庆市怀集县S262与政德街交叉口西北方向80米左右",
        "tel": "",
        "category": "基础设施:公共设施:公共厕所",
        "type": 0,
        "location": {
            "lat": 24.086576,
            "lng": 112.342474
        },
        "ad_info": {
            "adcode": 441224,
            "province": "广东省",
            "city": "肇庆市",
            "district": "怀集县"
        }
    },
    {
        "id": "6389765291971015940",
        "title": "公共厕所",
        "address": "广东省肇庆市高要区府前大街与要南一路交叉口正西方向243米左右",
        "tel": "",
        "category": "基础设施:公共设施:公共厕所",
        "type": 0,
        "location": {
            "lat": 23.025527,
            "lng": 112.450436
        },
        "ad_info": {
            "adcode": 441204,
            "province": "广东省",
            "city": "肇庆市",
            "district": "高要区"
        }
    },
    {
        "id": "9706647683868373868",
        "title": "塘基头公共厕所",
        "address": "广东省肇庆市端州区中衙巷与城中路交叉口正南方向108米左右",
        "tel": "",
        "category": "基础设施:公共设施:公共厕所",
        "type": 0,
        "location": {
            "lat": 23.046026,
            "lng": 112.463016
        },
        "ad_info": {
            "adcode": 441202,
            "province": "广东省",
            "city": "肇庆市",
            "district": "端州区"
        }
    },
    {
        "id": "14045584135050752658",
        "title": "公共厕所",
        "address": "广东省肇庆市高要区文直路与新龙东路交叉口正东方向169米左右",
        "tel": "",
        "category": "基础设施:公共设施:公共厕所",
        "type": 0,
        "location": {
            "lat": 23.172443,
            "lng": 112.293207
        },
        "ad_info": {
            "adcode": 441204,
            "province": "广东省",
            "city": "肇庆市",
            "district": "高要区"
        }
    },
    {
        "id": "1272451800653157817",
        "title": "公共厕所",
        "address": "广东省肇庆市高要区南兴三路与桥西二路交叉口东北方向120米左右",
        "tel": "",
        "category": "基础设施:公共设施:公共厕所",
        "type": 0,
        "location": {
            "lat": 23.028892,
            "lng": 112.446972
        },
        "ad_info": {
            "adcode": 441204,
            "province": "广东省",
            "city": "肇庆市",
            "district": "高要区"
        }
    },
    {
        "id": "12671565722105564520",
        "title": "公共厕所",
        "address": "广东省肇庆市端州区东湖中路与彩霞一街交叉口正南方向89米左右",
        "tel": "",
        "category": "基础设施:公共设施:公共厕所",
        "type": 0,
        "location": {
            "lat": 23.079325,
            "lng": 112.511159
        },
        "ad_info": {
            "adcode": 441202,
            "province": "广东省",
            "city": "肇庆市",
            "district": "端州区"
        }
    },
    {
        "id": "3121266188567026107",
        "title": "公共厕所",
        "address": "广东省肇庆市高要区303乡道与272省道交叉口西南400米",
        "tel": "",
        "category": "基础设施:公共设施:公共厕所",
        "type": 0,
        "location": {
            "lat": 23.00764,
            "lng": 112.573489
        },
        "ad_info": {
            "adcode": 441204,
            "province": "广东省",
            "city": "肇庆市",
            "district": "高要区"
        }
    },
    {
        "id": "18047217545037293949",
        "title": "公共厕所",
        "address": "广东省肇庆市端州区人民中路与人民南路交叉口正南方向70米左右",
        "tel": "",
        "category": "基础设施:公共设施:公共厕所",
        "type": 0,
        "location": {
            "lat": 23.04875,
            "lng": 112.461413
        },
        "ad_info": {
            "adcode": 441202,
            "province": "广东省",
            "city": "肇庆市",
            "district": "端州区"
        }
    },
    {
        "id": "9006393636861265121",
        "title": "公共厕所",
        "address": "广东省肇庆市高要区金渡镇自由通讯旁(华丰特惠商场附近)",
        "tel": "",
        "category": "基础设施:公共设施:公共厕所",
        "type": 0,
        "location": {
            "lat": 23.050904,
            "lng": 112.55371
        },
        "ad_info": {
            "adcode": 441204,
            "province": "广东省",
            "city": "肇庆市",
            "district": "高要区"
        }
    },
    {
        "id": "13920704376970138528",
        "title": "公共厕所",
        "address": "广东省肇庆市高要区市场西路与金光大道交叉口东北方向47米左右",
        "tel": "",
        "category": "基础设施:公共设施:公共厕所",
        "type": 0,
        "location": {
            "lat": 23.083278,
            "lng": 112.768883
        },
        "ad_info": {
            "adcode": 441204,
            "province": "广东省",
            "city": "肇庆市",
            "district": "高要区"
        }
    },
    {
        "id": "5172481241174305822",
        "title": "公共厕所",
        "address": "广东省肇庆市怀集县幸福一路一巷与幸福一路交叉口正北方向63米左右",
        "tel": "",
        "category": "基础设施:公共设施:公共厕所",
        "type": 0,
        "location": {
            "lat": 23.906324,
            "lng": 112.180957
        },
        "ad_info": {
            "adcode": 441224,
            "province": "广东省",
            "city": "肇庆市",
            "district": "怀集县"
        }
    },
    {
        "id": "154662786557559378",
        "title": "公共厕所",
        "address": "广东省肇庆市高要区Y274与永庆西路交叉口正南方向75米左右",
        "tel": "",
        "category": "基础设施:公共设施:公共厕所",
        "type": 0,
        "location": {
            "lat": 23.07333,
            "lng": 112.780578
        },
        "ad_info": {
            "adcode": 441204,
            "province": "广东省",
            "city": "肇庆市",
            "district": "高要区"
        }
    },
    {
        "id": "16193667387441051000",
        "title": "公共厕所",
        "address": "广东省肇庆市高要区G324与Y172交叉口正西方向157米左右",
        "tel": "",
        "category": "基础设施:公共设施:公共厕所",
        "type": 0,
        "location": {
            "lat": 22.949517,
            "lng": 112.370301
        },
        "ad_info": {
            "adcode": 441204,
            "province": "广东省",
            "city": "肇庆市",
            "district": "高要区"
        }
    },
    {
        "id": "6286642533480199168",
        "title": "公共厕所",
        "address": "广东省肇庆市端州区端州四路广东仪表厂宿舍-二区",
        "tel": "",
        "category": "基础设施:公共设施:公共厕所",
        "type": 0,
        "location": {
            "lat": 23.058118,
            "lng": 112.478339
        },
        "ad_info": {
            "adcode": 441202,
            "province": "广东省",
            "city": "肇庆市",
            "district": "端州区"
        }
    },
    {
        "id": "10915371466949242687",
        "title": "公共厕所",
        "address": "广东省肇庆市高要区X437与望下街交叉口西南方向807米左右",
        "tel": "",
        "category": "基础设施:公共设施:公共厕所",
        "type": 0,
        "location": {
            "lat": 22.97685,
            "lng": 112.531822
        },
        "ad_info": {
            "adcode": 441204,
            "province": "广东省",
            "city": "肇庆市",
            "district": "高要区"
        }
    },
    {
        "id": "17330874024836568260",
        "title": "公共厕所",
        "address": "广东省肇庆市高要区南阳里牌坊东侧110米",
        "tel": "",
        "category": "基础设施:公共设施:公共厕所",
        "type": 0,
        "location": {
            "lat": 23.051035,
            "lng": 112.580072
        },
        "ad_info": {
            "adcode": 441204,
            "province": "广东省",
            "city": "肇庆市",
            "district": "高要区"
        }
    },
    {
        "id": "10384136232296283060",
        "title": "公共厕所",
        "address": "广东省肇庆市高要区S273与文化广场路交叉口东南方向68米左右",
        "tel": "",
        "category": "基础设施:公共设施:公共厕所",
        "type": 0,
        "location": {
            "lat": 22.947988,
            "lng": 112.416872
        },
        "ad_info": {
            "adcode": 441204,
            "province": "广东省",
            "city": "肇庆市",
            "district": "高要区"
        }
    },
    {
        "id": "9088687752855604420",
        "title": "公共厕所",
        "address": "广东省肇庆市广宁县Y051与南东三路交叉口正南方向59米左右",
        "tel": "",
        "category": "基础设施:公共设施:公共厕所",
        "type": 0,
        "location": {
            "lat": 23.626315,
            "lng": 112.426065
        },
        "ad_info": {
            "adcode": 441223,
            "province": "广东省",
            "city": "肇庆市",
            "district": "广宁县"
        }
    },
    {
        "id": "14282912376643049248",
        "title": "嘉湖国际大酒店黄塘店-洗手间",
        "address": "广东省肇庆市端州区黄塘路嘉湖国际大酒店(黄塘店)",
        "tel": "",
        "category": "基础设施:公共设施:公共厕所",
        "type": 0,
        "location": {
            "lat": 23.057986,
            "lng": 112.448795
        },
        "ad_info": {
            "adcode": 441202,
            "province": "广东省",
            "city": "肇庆市",
            "district": "端州区"
        }
    },
    {
        "id": "11042839493188068471",
        "title": "公共厕所",
        "address": "广东省肇庆市封开县佳旺运输有限公司西侧290米",
        "tel": "",
        "category": "基础设施:公共设施:公共厕所",
        "type": 0,
        "location": {
            "lat": 23.463653,
            "lng": 111.45913
        },
        "ad_info": {
            "adcode": 441225,
            "province": "广东省",
            "city": "肇庆市",
            "district": "封开县"
        }
    },
    {
        "id": "7534234416978939682",
        "title": "公共厕所",
        "address": "广东省肇庆市高要区G324与腰岗桥交叉口正西方向1172米左右",
        "tel": "",
        "category": "基础设施:公共设施:公共厕所",
        "type": 0,
        "location": {
            "lat": 23.040797,
            "lng": 112.572162
        },
        "ad_info": {
            "adcode": 441204,
            "province": "广东省",
            "city": "肇庆市",
            "district": "高要区"
        }
    },
    {
        "id": "834728270220622958",
        "title": "公共厕所",
        "address": "广东省肇庆市高要区Y250与联安围交叉口正东方向214米左右",
        "tel": "",
        "category": "基础设施:公共设施:公共厕所",
        "type": 0,
        "location": {
            "lat": 23.056852,
            "lng": 112.541011
        },
        "ad_info": {
            "adcode": 441204,
            "province": "广东省",
            "city": "肇庆市",
            "district": "高要区"
        }
    },
    {
        "id": "18318167294228282308",
        "title": "公共厕所",
        "address": "广东省肇庆市端州区宾日路与端州一路交叉口正东方向405米左右",
        "tel": "",
        "category": "基础设施:公共设施:公共厕所",
        "type": 0,
        "location": {
            "lat": 23.074704,
            "lng": 112.519899
        },
        "ad_info": {
            "adcode": 441202,
            "province": "广东省",
            "city": "肇庆市",
            "district": "端州区"
        }
    },
    {
        "id": "15288764412556170943",
        "title": "无障碍公共厕所",
        "address": "广东省肇庆市端州区沙墩路侨寓小区",
        "tel": "",
        "category": "基础设施:公共设施:公共厕所",
        "type": 0,
        "location": {
            "lat": 23.054832,
            "lng": 112.487111
        },
        "ad_info": {
            "adcode": 441202,
            "province": "广东省",
            "city": "肇庆市",
            "district": "端州区"
        }
    },
    {
        "id": "13670896251867279059",
        "title": "东岗社区体育公园公共厕所",
        "address": "广东省肇庆市端州区东岗东路与东岗路交叉口正东方向164米左右",
        "tel": "",
        "category": "基础设施:公共设施:公共厕所",
        "type": 0,
        "location": {
            "lat": 23.095223,
            "lng": 112.507106
        },
        "ad_info": {
            "adcode": 441202,
            "province": "广东省",
            "city": "肇庆市",
            "district": "端州区"
        }
    },
    {
        "id": "1234732090243933563",
        "title": "公共厕所",
        "address": "广东省肇庆市广宁县Y477与五和二桥交叉口西南方向706米左右",
        "tel": "",
        "category": "基础设施:公共设施:公共厕所",
        "type": 0,
        "location": {
            "lat": 23.454532,
            "lng": 112.355913
        },
        "ad_info": {
            "adcode": 441223,
            "province": "广东省",
            "city": "肇庆市",
            "district": "广宁县"
        }
    },
    {
        "id": "15043843207778087421",
        "title": "公共厕所",
        "address": "广东省肇庆市广宁县X422与X445交叉口正东方向605米左右",
        "tel": "",
        "category": "基础设施:公共设施:公共厕所",
        "type": 0,
        "location": {
            "lat": 23.556911,
            "lng": 112.426434
        },
        "ad_info": {
            "adcode": 441223,
            "province": "广东省",
            "city": "肇庆市",
            "district": "广宁县"
        }
    },
    {
        "id": "2974582632898859647",
        "title": "公共厕所",
        "address": "广东省肇庆市广宁县南街镇红星社区大务寨入口",
        "tel": "",
        "category": "基础设施:公共设施:公共厕所",
        "type": 0,
        "location": {
            "lat": 23.644356,
            "lng": 112.444093
        },
        "ad_info": {
            "adcode": 441223,
            "province": "广东省",
            "city": "肇庆市",
            "district": "广宁县"
        }
    },
    {
        "id": "1715909265715055245",
        "title": "公共厕所",
        "address": "广东省肇庆市广宁县联星村卫生站北侧",
        "tel": "",
        "category": "基础设施:公共设施:公共厕所",
        "type": 0,
        "location": {
            "lat": 23.790165,
            "lng": 112.680904
        },
        "ad_info": {
            "adcode": 441223,
            "province": "广东省",
            "city": "肇庆市",
            "district": "广宁县"
        }
    },
    {
        "id": "1547707552817762450",
        "title": "公共厕所",
        "address": "广东省肇庆市广宁县竹海大观旅业西",
        "tel": "",
        "category": "基础设施:公共设施:公共厕所",
        "type": 0,
        "location": {
            "lat": 23.589532,
            "lng": 112.394873
        },
        "ad_info": {
            "adcode": 441223,
            "province": "广东省",
            "city": "肇庆市",
            "district": "广宁县"
        }
    },
    {
        "id": "13401018576255673022",
        "title": "公共厕所",
        "address": "广东省肇庆市广宁县S260与Y461交叉口正南方向42米左右",
        "tel": "",
        "category": "基础设施:公共设施:公共厕所",
        "type": 0,
        "location": {
            "lat": 23.829437,
            "lng": 112.589009
        },
        "ad_info": {
            "adcode": 441223,
            "province": "广东省",
            "city": "肇庆市",
            "district": "广宁县"
        }
    },
    {
        "id": "7312433939800227012",
        "title": "怀城服务区第一公共厕所",
        "address": "广东省肇庆市怀集县二广高速怀城服务区",
        "tel": "",
        "category": "基础设施:公共设施:公共厕所",
        "type": 0,
        "location": {
            "lat": 23.814983,
            "lng": 112.222117
        },
        "ad_info": {
            "adcode": 441224,
            "province": "广东省",
            "city": "肇庆市",
            "district": "怀集县"
        }
    },
    {
        "id": "9103990745775387894",
        "title": "公共厕所",
        "address": "广东省肇庆市高要区永安街与永安街西一巷交叉口正北方向18米左右",
        "tel": "",
        "category": "基础设施:公共设施:公共厕所",
        "type": 0,
        "location": {
            "lat": 23.016281,
            "lng": 112.435837
        },
        "ad_info": {
            "adcode": 441204,
            "province": "广东省",
            "city": "肇庆市",
            "district": "高要区"
        }
    },
    {
        "id": "5174528611078481378",
        "title": "公共厕所",
        "address": "广东省肇庆市四会市玉器街马田市场",
        "tel": "",
        "category": "基础设施:公共设施:公共厕所",
        "type": 0,
        "location": {
            "lat": 23.342075,
            "lng": 112.70366
        },
        "ad_info": {
            "adcode": 441284,
            "province": "广东省",
            "city": "肇庆市",
            "district": "四会市"
        }
    },
    {
        "id": "2729070326460652963",
        "title": "公共厕所",
        "address": "广东省肇庆市高要区文峰路与镇塘路交叉口正北方向53米左右",
        "tel": "",
        "category": "基础设施:公共设施:公共厕所",
        "type": 0,
        "location": {
            "lat": 23.020249,
            "lng": 112.467689
        },
        "ad_info": {
            "adcode": 441204,
            "province": "广东省",
            "city": "肇庆市",
            "district": "高要区"
        }
    },
    {
        "id": "15465097664501534166",
        "title": "公共厕所",
        "address": "广东省肇庆市四会市仓丰大道与新风路交叉口东南方向159米左右",
        "tel": "",
        "category": "基础设施:公共设施:公共厕所",
        "type": 0,
        "location": {
            "lat": 23.345451,
            "lng": 112.687598
        },
        "ad_info": {
            "adcode": 441284,
            "province": "广东省",
            "city": "肇庆市",
            "district": "四会市"
        }
    },
    {
        "id": "6101946137700901293",
        "title": "公共厕所",
        "address": "广东省肇庆市四会市沙田园四街新田园市场",
        "tel": "",
        "category": "基础设施:公共设施:公共厕所",
        "type": 0,
        "location": {
            "lat": 23.350878,
            "lng": 112.711426
        },
        "ad_info": {
            "adcode": 441284,
            "province": "广东省",
            "city": "肇庆市",
            "district": "四会市"
        }
    },
    {
        "id": "15227765906924611465",
        "title": "怀城服务区第二公共厕所",
        "address": "广东省肇庆市怀集县G55二广高速附近",
        "tel": "",
        "category": "基础设施:公共设施:公共厕所",
        "type": 0,
        "location": {
            "lat": 23.814317,
            "lng": 112.22078
        },
        "ad_info": {
            "adcode": 441224,
            "province": "广东省",
            "city": "肇庆市",
            "district": "怀集县"
        }
    },
    {
        "id": "4630639741057783011",
        "title": "公共厕所",
        "address": "广东省肇庆市四会市沙田园一路与清塘大道交叉口东南方向31米左右",
        "tel": "",
        "category": "基础设施:公共设施:公共厕所",
        "type": 0,
        "location": {
            "lat": 23.348563,
            "lng": 112.70678
        },
        "ad_info": {
            "adcode": 441284,
            "province": "广东省",
            "city": "肇庆市",
            "district": "四会市"
        }
    },
    {
        "id": "3601652977258984633",
        "title": "公共厕所",
        "address": "广东省肇庆市高要区南兴四路与德星路交叉口东南方向42米左右",
        "tel": "",
        "category": "基础设施:公共设施:公共厕所",
        "type": 0,
        "location": {
            "lat": 23.025738,
            "lng": 112.43842
        },
        "ad_info": {
            "adcode": 441204,
            "province": "广东省",
            "city": "肇庆市",
            "district": "高要区"
        }
    },
    {
        "id": "16319778362317180618",
        "title": "公共厕所",
        "address": "广东省肇庆市高要区上岸路与南兴二路交叉口西北方向76米左右",
        "tel": "",
        "category": "基础设施:公共设施:公共厕所",
        "type": 0,
        "location": {
            "lat": 23.028729,
            "lng": 112.456864
        },
        "ad_info": {
            "adcode": 441204,
            "province": "广东省",
            "city": "肇庆市",
            "district": "高要区"
        }
    },
    {
        "id": "18152976493745989954",
        "title": "公共厕所",
        "address": "广东省肇庆市高要区南兴三路与南兴四路交叉口西南方向82米左右",
        "tel": "",
        "category": "基础设施:公共设施:公共厕所",
        "type": 0,
        "location": {
            "lat": 23.02751,
            "lng": 112.440451
        },
        "ad_info": {
            "adcode": 441204,
            "province": "广东省",
            "city": "肇庆市",
            "district": "高要区"
        }
    },
    {
        "id": "9979576864176227510",
        "title": "怀城服务区第一公共厕所",
        "address": "广东省肇庆市怀集县二广高速附近",
        "tel": "",
        "category": "基础设施:公共设施:公共厕所",
        "type": 0,
        "location": {
            "lat": 23.812034,
            "lng": 112.221099
        },
        "ad_info": {
            "adcode": 441224,
            "province": "广东省",
            "city": "肇庆市",
            "district": "怀集县"
        }
    },
    {
        "id": "3390933814661316465",
        "title": "怀城服务区第二公共厕所",
        "address": "广东省肇庆市怀集县G55二广高速与怀城服务区交叉口西北380米",
        "tel": "",
        "category": "基础设施:公共设施:公共厕所",
        "type": 0,
        "location": {
            "lat": 23.812215,
            "lng": 112.22267
        },
        "ad_info": {
            "adcode": 441224,
            "province": "广东省",
            "city": "肇庆市",
            "district": "怀集县"
        }
    },
    {
        "id": "3080681153107818740",
        "title": "无障碍公共厕所",
        "address": "广东省肇庆市高要区广新二路与桂源路交叉口西南方向54米左右",
        "tel": "",
        "category": "基础设施:公共设施:公共厕所",
        "type": 0,
        "location": {
            "lat": 23.02671,
            "lng": 112.45403
        },
        "ad_info": {
            "adcode": 441204,
            "province": "广东省",
            "city": "肇庆市",
            "district": "高要区"
        }
    },
    {
        "id": "10846735906821809782",
        "title": "鼎湖服务区公共厕所",
        "address": "广东省肇庆市鼎湖区S260与黄竹园大街交叉口正北方向397米左右",
        "tel": "",
        "category": "基础设施:公共设施:公共厕所",
        "type": 0,
        "location": {
            "lat": 23.216519,
            "lng": 112.695009
        },
        "ad_info": {
            "adcode": 441203,
            "province": "广东省",
            "city": "肇庆市",
            "district": "鼎湖区"
        }
    },
    {
        "id": "814441547811577074",
        "title": "广宁服务区东区公共厕所",
        "address": "广东省肇庆市广宁县二广高速与宾亨收费站立交桥交叉口正北方向1236米左右",
        "tel": "",
        "category": "基础设施:公共设施:公共厕所",
        "type": 0,
        "location": {
            "lat": 23.521169,
            "lng": 112.439859
        },
        "ad_info": {
            "adcode": 441223,
            "province": "广东省",
            "city": "肇庆市",
            "district": "广宁县"
        }
    },
    {
        "id": "1907429765077107157",
        "title": "赤坑镇花山村委会旺洞口村公共厕所",
        "address": "广东省肇庆市广宁县X443与Y472交叉口西北方向14米左右",
        "tel": "",
        "category": "基础设施:公共设施:公共厕所",
        "type": 0,
        "location": {
            "lat": 23.855445,
            "lng": 112.523831
        },
        "ad_info": {
            "adcode": 441223,
            "province": "广东省",
            "city": "肇庆市",
            "district": "广宁县"
        }
    },
    {
        "id": "12880569903636726294",
        "title": "蚬岗服务区公共厕所",
        "address": "广东省肇庆市高要区G324与Y266交叉口西北方向712米左右",
        "tel": "",
        "category": "基础设施:公共设施:公共厕所",
        "type": 0,
        "location": {
            "lat": 23.049772,
            "lng": 112.633596
        },
        "ad_info": {
            "adcode": 441204,
            "province": "广东省",
            "city": "肇庆市",
            "district": "高要区"
        }
    },
    {
        "id": "10245936027441387326",
        "title": "公共厕所",
        "address": "广东省肇庆市德庆县合富西街与康城大道东交叉口北100米",
        "tel": "",
        "category": "基础设施:公共设施:公共厕所",
        "type": 0,
        "location": {
            "lat": 23.141972,
            "lng": 111.791724
        },
        "ad_info": {
            "adcode": 441226,
            "province": "广东省",
            "city": "肇庆市",
            "district": "德庆县"
        }
    },
    {
        "id": "12875580775744969929",
        "title": "玉城公共厕所",
        "address": "广东省肇庆市四会市观海路与贵华路交叉口西南120米",
        "tel": "",
        "category": "基础设施:公共设施:公共厕所",
        "type": 0,
        "location": {
            "lat": 23.324401,
            "lng": 112.712099
        },
        "ad_info": {
            "adcode": 441284,
            "province": "广东省",
            "city": "肇庆市",
            "district": "四会市"
        }
    },
    {
        "id": "5594393035644304375",
        "title": "水南服务区公共厕所",
        "address": "广东省肇庆市高要区中国海油水南服务区加油站西南侧120米",
        "tel": "",
        "category": "基础设施:公共设施:公共厕所",
        "type": 0,
        "location": {
            "lat": 23.290921,
            "lng": 112.392015
        },
        "ad_info": {
            "adcode": 441204,
            "province": "广东省",
            "city": "肇庆市",
            "district": "高要区"
        }
    },
    {
        "id": "8418109029469937203",
        "title": "坑口镇上带村委会罗坳村公共厕所",
        "address": "广东省肇庆市广宁县坑口镇柏乐副食商店北侧",
        "tel": "",
        "category": "基础设施:公共设施:公共厕所",
        "type": 0,
        "location": {
            "lat": 23.736109,
            "lng": 112.40947
        },
        "ad_info": {
            "adcode": 441223,
            "province": "广东省",
            "city": "肇庆市",
            "district": "广宁县"
        }
    },
    {
        "id": "3171757828611076570",
        "title": "荷木村委会长安村公共厕所",
        "address": "广东省肇庆市广宁县南街镇荷木村委会长安村锦绣长安一楼",
        "tel": "",
        "category": "基础设施:公共设施:公共厕所",
        "type": 0,
        "location": {
            "lat": 23.622092,
            "lng": 112.493557
        },
        "ad_info": {
            "adcode": 441223,
            "province": "广东省",
            "city": "肇庆市",
            "district": "广宁县"
        }
    },
    {
        "id": "2814684914147513999",
        "title": "五一休闲公园环保公共厕所",
        "address": "广东省肇庆市广宁县新宁南路49号五一休闲公园",
        "tel": "",
        "category": "基础设施:公共设施:公共厕所",
        "type": 0,
        "location": {
            "lat": 23.631363,
            "lng": 112.442188
        },
        "ad_info": {
            "adcode": 441223,
            "province": "广东省",
            "city": "肇庆市",
            "district": "广宁县"
        }
    },
    {
        "id": "15771891734340909343",
        "title": "公共厕所",
        "address": "广东省肇庆市德庆县百川东路与百川路交叉口西南方向323米左右",
        "tel": "",
        "category": "基础设施:公共设施:公共厕所",
        "type": 0,
        "location": {
            "lat": 23.400224,
            "lng": 112.11335
        },
        "ad_info": {
            "adcode": 441226,
            "province": "广东省",
            "city": "肇庆市",
            "district": "德庆县"
        }
    },
    {
        "id": "6241229471670655377",
        "title": "荷木村委会莫坑下寨公共厕所",
        "address": "广东省肇庆市广宁县南街镇荷木村委会莫坑下寨下寨村文化中心旁",
        "tel": "",
        "category": "基础设施:公共设施:公共厕所",
        "type": 0,
        "location": {
            "lat": 23.63954,
            "lng": 112.49692
        },
        "ad_info": {
            "adcode": 441223,
            "province": "广东省",
            "city": "肇庆市",
            "district": "广宁县"
        }
    },
    {
        "id": "9504633186386103514",
        "title": "石咀镇建中村委会大坡村公共厕所",
        "address": "广东省肇庆市广宁县X444与Y459交叉口正东方向1900米左右",
        "tel": "",
        "category": "基础设施:公共设施:公共厕所",
        "type": 0,
        "location": {
            "lat": 23.617553,
            "lng": 112.189278
        },
        "ad_info": {
            "adcode": 441223,
            "province": "广东省",
            "city": "肇庆市",
            "district": "广宁县"
        }
    },
    {
        "id": "6590917115432953723",
        "title": "公共厕所",
        "address": "广东省肇庆市德庆县G321与Y983交叉口正南方向44米左右",
        "tel": "",
        "category": "基础设施:公共设施:公共厕所",
        "type": 0,
        "location": {
            "lat": 23.133819,
            "lng": 111.980056
        },
        "ad_info": {
            "adcode": 441226,
            "province": "广东省",
            "city": "肇庆市",
            "district": "德庆县"
        }
    },
    {
        "id": "4185618405659724069",
        "title": "本策村委会芋坑公共厕所",
        "address": "广东省肇庆市广宁县南街镇本策村委会芋坑村村口对面(355国道旁)",
        "tel": "",
        "category": "基础设施:公共设施:公共厕所",
        "type": 0,
        "location": {
            "lat": 23.613885,
            "lng": 112.374974
        },
        "ad_info": {
            "adcode": 441223,
            "province": "广东省",
            "city": "肇庆市",
            "district": "广宁县"
        }
    },
    {
        "id": "8931665066993562291",
        "title": "公共卫生间振兴路",
        "address": "广东省肇庆市高要区要南一路47号",
        "tel": "",
        "category": "基础设施:公共设施:公共厕所",
        "type": 0,
        "location": {
            "lat": 23.029282,
            "lng": 112.454365
        },
        "ad_info": {
            "adcode": 441204,
            "province": "广东省",
            "city": "肇庆市",
            "district": "高要区"
        }
    },
    {
        "id": "12146007537997040168",
        "title": "广宁服务区第二公共厕所",
        "address": "广东省肇庆市广宁县二广高速与宾亨收费站立交桥交叉口西北方向1229米左右",
        "tel": "",
        "category": "基础设施:公共设施:公共厕所",
        "type": 0,
        "location": {
            "lat": 23.520514,
            "lng": 112.438452
        },
        "ad_info": {
            "adcode": 441223,
            "province": "广东省",
            "city": "肇庆市",
            "district": "广宁县"
        }
    },
    {
        "id": "3287568738864828443",
        "title": "广宁粤运汽车站候车室卫生间",
        "address": "广东省肇庆市广宁县人民路与南东一路交叉口正南方向376米左右",
        "tel": "",
        "category": "基础设施:公共设施:公共厕所",
        "type": 0,
        "location": {
            "lat": 23.623877,
            "lng": 112.432531
        },
        "ad_info": {
            "adcode": 441223,
            "province": "广东省",
            "city": "肇庆市",
            "district": "广宁县"
        }
    },
    {
        "id": "6121179441571511354",
        "title": "林洞村委会安龙崀公共厕所",
        "address": "广东省肇庆市广宁县S525与Y527交叉口正东方向563米左右",
        "tel": "",
        "category": "基础设施:公共设施:公共厕所",
        "type": 0,
        "location": {
            "lat": 23.70927,
            "lng": 112.517538
        },
        "ad_info": {
            "adcode": 441223,
            "province": "广东省",
            "city": "肇庆市",
            "district": "广宁县"
        }
    },
    {
        "id": "1897896720590855360",
        "title": "排沙镇大罗村委会南蛇村公共厕所",
        "address": "广东省肇庆市广宁县排沙镇附近",
        "tel": "",
        "category": "基础设施:公共设施:公共厕所",
        "type": 0,
        "location": {
            "lat": 23.599674,
            "lng": 112.545385
        },
        "ad_info": {
            "adcode": 441223,
            "province": "广东省",
            "city": "肇庆市",
            "district": "广宁县"
        }
    },
    {
        "id": "14013044973348421164",
        "title": "公共厕所",
        "address": "广东省肇庆市四会市卫民路与四会大道交叉口东北方向181米左右",
        "tel": "",
        "category": "基础设施:公共设施:公共厕所",
        "type": 0,
        "location": {
            "lat": 23.336272,
            "lng": 112.716417
        },
        "ad_info": {
            "adcode": 441284,
            "province": "广东省",
            "city": "肇庆市",
            "district": "四会市"
        }
    },
    {
        "id": "9831990822352217722",
        "title": "公共厕所",
        "address": "广东省肇庆市德庆县康城大道西与朝辉路交叉口东南方向82米左右",
        "tel": "",
        "category": "基础设施:公共设施:公共厕所",
        "type": 0,
        "location": {
            "lat": 23.140564,
            "lng": 111.770885
        },
        "ad_info": {
            "adcode": 441226,
            "province": "广东省",
            "city": "肇庆市",
            "district": "德庆县"
        }
    },
    {
        "id": "1819645634112612359",
        "title": "丰源村委会姓梁寨公共厕所",
        "address": "广东省肇庆市广宁县X422与文旅路交叉口正东方向1164米左右",
        "tel": "",
        "category": "基础设施:公共设施:公共厕所",
        "type": 0,
        "location": {
            "lat": 23.584843,
            "lng": 112.407509
        },
        "ad_info": {
            "adcode": 441223,
            "province": "广东省",
            "city": "肇庆市",
            "district": "广宁县"
        }
    },
    {
        "id": "7891676011950497535",
        "title": "公共厕所",
        "address": "广东省肇庆市端州区睦岗街道棠下五村一巷18号肇庆市恒峰仪表有限公司-棠下社区标志牌前方",
        "tel": "",
        "category": "基础设施:公共设施:公共厕所",
        "type": 0,
        "location": {
            "lat": 23.070565,
            "lng": 112.409924
        },
        "ad_info": {
            "adcode": 441202,
            "province": "广东省",
            "city": "肇庆市",
            "district": "端州区"
        }
    },
    {
        "id": "8969089753824440295",
        "title": "公共厕所",
        "address": "广东省肇庆市高要区S273与迎宾路交叉口东南方向226米左右",
        "tel": "",
        "category": "基础设施:公共设施:公共厕所",
        "type": 0,
        "location": {
            "lat": 22.855055,
            "lng": 112.419039
        },
        "ad_info": {
            "adcode": 441204,
            "province": "广东省",
            "city": "肇庆市",
            "district": "高要区"
        }
    },
    {
        "id": "5414496350728099768",
        "title": "公共厕所",
        "address": "广东省肇庆市高要区Y250与联安围交叉口正北方向83米左右",
        "tel": "",
        "category": "基础设施:公共设施:公共厕所",
        "type": 0,
        "location": {
            "lat": 23.057751,
            "lng": 112.538854
        },
        "ad_info": {
            "adcode": 441204,
            "province": "广东省",
            "city": "肇庆市",
            "district": "高要区"
        }
    },
    {
        "id": "2464587403007636934",
        "title": "龙甫服务区公共厕所",
        "address": "广东省肇庆市四会市S118与芙蓉大道交叉口西南方向1571米左右",
        "tel": "",
        "category": "基础设施:公共设施:公共厕所",
        "type": 0,
        "location": {
            "lat": 23.377509,
            "lng": 112.714786
        },
        "ad_info": {
            "adcode": 441284,
            "province": "广东省",
            "city": "肇庆市",
            "district": "四会市"
        }
    },
    {
        "id": "16868257724716339673",
        "title": "公共厕所",
        "address": "广东省肇庆市广宁县X422与罗锅口桥交叉口正东方向70米左右",
        "tel": "",
        "category": "基础设施:公共设施:公共厕所",
        "type": 0,
        "location": {
            "lat": 23.573882,
            "lng": 112.400208
        },
        "ad_info": {
            "adcode": 441223,
            "province": "广东省",
            "city": "肇庆市",
            "district": "广宁县"
        }
    },
    {
        "id": "13315055368234419651",
        "title": "公共厕所",
        "address": "广东省肇庆市四会市兴龙街与水闸路交叉口西北方向48米左右",
        "tel": "",
        "category": "基础设施:公共设施:公共厕所",
        "type": 0,
        "location": {
            "lat": 23.341521,
            "lng": 112.695148
        },
        "ad_info": {
            "adcode": 441284,
            "province": "广东省",
            "city": "肇庆市",
            "district": "四会市"
        }
    },
    {
        "id": "9295865929900775139",
        "title": "公共厕所",
        "address": "广东省肇庆市鼎湖区天后路与沿江路交叉口东北方向448米左右",
        "tel": "",
        "category": "基础设施:公共设施:公共厕所",
        "type": 0,
        "location": {
            "lat": 23.137985,
            "lng": 112.575436
        },
        "ad_info": {
            "adcode": 441203,
            "province": "广东省",
            "city": "肇庆市",
            "district": "鼎湖区"
        }
    },
    {
        "id": "8232461488973126256",
        "title": "公共厕所",
        "address": "广东省肇庆市高要区南兴一路与沿江二路交叉口西北方向215米左右",
        "tel": "",
        "category": "基础设施:公共设施:公共厕所",
        "type": 0,
        "location": {
            "lat": 23.030451,
            "lng": 112.473179
        },
        "ad_info": {
            "adcode": 441204,
            "province": "广东省",
            "city": "肇庆市",
            "district": "高要区"
        }
    },
    {
        "id": "13885131915234684070",
        "title": "地豆服务区公共厕所",
        "address": "广东省肇庆市四会市中国石油地豆服务区加油站北侧120米",
        "tel": "",
        "category": "基础设施:公共设施:公共厕所",
        "type": 0,
        "location": {
            "lat": 23.567094,
            "lng": 112.688057
        },
        "ad_info": {
            "adcode": 441284,
            "province": "广东省",
            "city": "肇庆市",
            "district": "四会市"
        }
    },
    {
        "id": "12722638036961378041",
        "title": "公共厕所",
        "address": "广东省肇庆市四会市迎宾大道与大旺收费站立交交叉口南180米",
        "tel": "",
        "category": "基础设施:公共设施:公共厕所",
        "type": 0,
        "location": {
            "lat": 23.259955,
            "lng": 112.810549
        },
        "ad_info": {
            "adcode": 441284,
            "province": "广东省",
            "city": "肇庆市",
            "district": "四会市"
        }
    },
    {
        "id": "6889703898622649204",
        "title": "公共厕所",
        "address": "广东省肇庆市四会市迎宾大道35号",
        "tel": "",
        "category": "基础设施:公共设施:公共厕所",
        "type": 0,
        "location": {
            "lat": 23.286633,
            "lng": 112.814143
        },
        "ad_info": {
            "adcode": 441284,
            "province": "广东省",
            "city": "肇庆市",
            "district": "四会市"
        }
    },
    {
        "id": "3364819106897398392",
        "title": "公共厕所",
        "address": "广东省肇庆市高要区S272与Y303交叉口西南方向404米左右",
        "tel": "",
        "category": "基础设施:公共设施:公共厕所",
        "type": 0,
        "location": {
            "lat": 23.008313,
            "lng": 112.572168
        },
        "ad_info": {
            "adcode": 441204,
            "province": "广东省",
            "city": "肇庆市",
            "district": "高要区"
        }
    },
    {
        "id": "17318470933390911551",
        "title": "公共厕所",
        "address": "广东省肇庆市端州区大鼎路与山河路交叉口东南方向170米左右",
        "tel": "",
        "category": "基础设施:公共设施:公共厕所",
        "type": 0,
        "location": {
            "lat": 23.055015,
            "lng": 112.430289
        },
        "ad_info": {
            "adcode": 441202,
            "province": "广东省",
            "city": "肇庆市",
            "district": "端州区"
        }
    },
    {
        "id": "4697082255256744351",
        "title": "公共厕所",
        "address": "广东省肇庆市广宁县中华西路怡景花园斜对面",
        "tel": "",
        "category": "基础设施:公共设施:公共厕所",
        "type": 0,
        "location": {
            "lat": 23.628485,
            "lng": 112.433974
        },
        "ad_info": {
            "adcode": 441223,
            "province": "广东省",
            "city": "肇庆市",
            "district": "广宁县"
        }
    },
    {
        "id": "17046202736526166320",
        "title": "公共厕所",
        "address": "广东省肇庆市怀集县G234与Y990交叉口东北方向148米左右",
        "tel": "",
        "category": "基础设施:公共设施:公共厕所",
        "type": 0,
        "location": {
            "lat": 24.069315,
            "lng": 112.178497
        },
        "ad_info": {
            "adcode": 441224,
            "province": "广东省",
            "city": "肇庆市",
            "district": "怀集县"
        }
    },
    {
        "id": "8699212860504399610",
        "title": "本策委会新圩村公共厕所",
        "address": "广东省肇庆市广宁县南东二路与南东四路交叉口东南方向387米左右",
        "tel": "",
        "category": "基础设施:公共设施:公共厕所",
        "type": 0,
        "location": {
            "lat": 23.6066,
            "lng": 112.398142
        },
        "ad_info": {
            "adcode": 441223,
            "province": "广东省",
            "city": "肇庆市",
            "district": "广宁县"
        }
    },
    {
        "id": "14042739323947078554",
        "title": "公共厕所",
        "address": "广东省肇庆市怀集县Y656与Y707交叉口正北方向408米左右",
        "tel": "",
        "category": "基础设施:公共设施:公共厕所",
        "type": 0,
        "location": {
            "lat": 23.620266,
            "lng": 112.071451
        },
        "ad_info": {
            "adcode": 441224,
            "province": "广东省",
            "city": "肇庆市",
            "district": "怀集县"
        }
    },
    {
        "id": "7373527957196784371",
        "title": "公共厕所",
        "address": "广东省肇庆市德庆县G234与马圩大道交叉口正西方向100米左右",
        "tel": "",
        "category": "基础设施:公共设施:公共厕所",
        "type": 0,
        "location": {
            "lat": 23.226958,
            "lng": 111.842785
        },
        "ad_info": {
            "adcode": 441226,
            "province": "广东省",
            "city": "肇庆市",
            "district": "德庆县"
        }
    },
    {
        "id": "2137348938634932213",
        "title": "大塘村委庙各公共厕所",
        "address": "广东省肇庆市广宁县大塘村",
        "tel": "",
        "category": "基础设施:公共设施:公共厕所",
        "type": 0,
        "location": {
            "lat": 23.795001,
            "lng": 112.507144
        },
        "ad_info": {
            "adcode": 441223,
            "province": "广东省",
            "city": "肇庆市",
            "district": "广宁县"
        }
    },
    {
        "id": "8176470592518544088",
        "title": "公共厕所",
        "address": "广东省肇庆市高要区S272与榄塘社区三街交叉口西北方向297米左右",
        "tel": "",
        "category": "基础设施:公共设施:公共厕所",
        "type": 0,
        "location": {
            "lat": 23.027852,
            "lng": 112.545957
        },
        "ad_info": {
            "adcode": 441204,
            "province": "广东省",
            "city": "肇庆市",
            "district": "高要区"
        }
    },
    {
        "id": "17654794808024925422",
        "title": "公共厕所",
        "address": "广东省肇庆市鼎湖区凤龙街与民乐街交叉口正北方向31米左右",
        "tel": "",
        "category": "基础设施:公共设施:公共厕所",
        "type": 0,
        "location": {
            "lat": 23.200912,
            "lng": 112.569231
        },
        "ad_info": {
            "adcode": 441203,
            "province": "广东省",
            "city": "肇庆市",
            "district": "鼎湖区"
        }
    },
    {
        "id": "4925797937897984019",
        "title": "公共厕所",
        "address": "广东省肇庆市端州区西排路与西湖路交叉口西北方向26米左右",
        "tel": "",
        "category": "基础设施:公共设施:公共厕所",
        "type": 0,
        "location": {
            "lat": 23.046896,
            "lng": 112.431137
        },
        "ad_info": {
            "adcode": 441202,
            "province": "广东省",
            "city": "肇庆市",
            "district": "端州区"
        }
    },
    {
        "id": "1971920934099978807",
        "title": "公共厕所",
        "address": "广东省肇庆市怀集县国泰路与怀集商业步行街交叉口正东方向133米左右",
        "tel": "",
        "category": "基础设施:公共设施:公共厕所",
        "type": 0,
        "location": {
            "lat": 23.911751,
            "lng": 112.182892
        },
        "ad_info": {
            "adcode": 441224,
            "province": "广东省",
            "city": "肇庆市",
            "district": "怀集县"
        }
    },
    {
        "id": "5928184399353545961",
        "title": "莲花公园公共厕所",
        "address": "广东省肇庆市德庆县仁寿中路",
        "tel": "",
        "category": "基础设施:公共设施:公共厕所",
        "type": 0,
        "location": {
            "lat": 23.141192,
            "lng": 111.783932
        },
        "ad_info": {
            "adcode": 441226,
            "province": "广东省",
            "city": "肇庆市",
            "district": "德庆县"
        }
    },
    {
        "id": "3171118645237794476",
        "title": "务水盐田片上车公共厕所",
        "address": "广东省肇庆市广宁县洲仔镇务水村盐田片",
        "tel": "",
        "category": "基础设施:公共设施:公共厕所",
        "type": 0,
        "location": {
            "lat": 23.602847,
            "lng": 112.259869
        },
        "ad_info": {
            "adcode": 441223,
            "province": "广东省",
            "city": "肇庆市",
            "district": "广宁县"
        }
    },
    {
        "id": "11120963808335958951",
        "title": "林洞村委会大寨村公共厕所",
        "address": "广东省肇庆市广宁县S525与Y527交叉口东南方向1046米左右",
        "tel": "",
        "category": "基础设施:公共设施:公共厕所",
        "type": 0,
        "location": {
            "lat": 23.704656,
            "lng": 112.52073
        },
        "ad_info": {
            "adcode": 441223,
            "province": "广东省",
            "city": "肇庆市",
            "district": "广宁县"
        }
    },
    {
        "id": "7105883546003325963",
        "title": "蚬岗服务区公共厕所",
        "address": "广东省肇庆市高要区蚬岗服务区与G80广昆高速交叉口东北340米",
        "tel": "",
        "category": "基础设施:公共设施:公共厕所",
        "type": 0,
        "location": {
            "lat": 23.049667,
            "lng": 112.632537
        },
        "ad_info": {
            "adcode": 441204,
            "province": "广东省",
            "city": "肇庆市",
            "district": "高要区"
        }
    },
    {
        "id": "13129459234017691196",
        "title": "无障碍公共厕所",
        "address": "广东省肇庆市德庆县朝阳东路与通津路交叉口正南方向25米左右",
        "tel": "",
        "category": "基础设施:公共设施:公共厕所",
        "type": 0,
        "location": {
            "lat": 23.138237,
            "lng": 111.777469
        },
        "ad_info": {
            "adcode": 441226,
            "province": "广东省",
            "city": "肇庆市",
            "district": "德庆县"
        }
    },
    {
        "id": "9449408416393997416",
        "title": "公共厕所",
        "address": "广东省肇庆市端州区和平路城东公园内",
        "tel": "",
        "category": "基础设施:公共设施:公共厕所",
        "type": 0,
        "location": {
            "lat": 23.055008,
            "lng": 112.48933
        },
        "ad_info": {
            "adcode": 441202,
            "province": "广东省",
            "city": "肇庆市",
            "district": "端州区"
        }
    },
    {
        "id": "1184853344747021075",
        "title": "公共厕所",
        "address": "广东省肇庆市端州区裕华街14号",
        "tel": "",
        "category": "基础设施:公共设施:公共厕所",
        "type": 0,
        "location": {
            "lat": 23.067035,
            "lng": 112.422873
        },
        "ad_info": {
            "adcode": 441202,
            "province": "广东省",
            "city": "肇庆市",
            "district": "端州区"
        }
    },
    {
        "id": "6099342738469042926",
        "title": "公共厕所",
        "address": "广东省肇庆市端州区惠福坊六巷与白石村路交叉口正南方向231米左右",
        "tel": "",
        "category": "基础设施:公共设施:公共厕所",
        "type": 0,
        "location": {
            "lat": 23.063898,
            "lng": 112.51378
        },
        "ad_info": {
            "adcode": 441202,
            "province": "广东省",
            "city": "肇庆市",
            "district": "端州区"
        }
    },
    {
        "id": "4434026116589666518",
        "title": "公共厕所",
        "address": "广东省肇庆市高要区湖西二路与要南一路交叉口正南方向210米左右",
        "tel": "",
        "category": "基础设施:公共设施:公共厕所",
        "type": 0,
        "location": {
            "lat": 23.022515,
            "lng": 112.453336
        },
        "ad_info": {
            "adcode": 441204,
            "province": "广东省",
            "city": "肇庆市",
            "district": "高要区"
        }
    },
    {
        "id": "12276685817161846646",
        "title": "公共厕所",
        "address": "广东省肇庆市德庆县S265与永丰大街交叉口正西方向30米左右",
        "tel": "",
        "category": "基础设施:公共设施:公共厕所",
        "type": 0,
        "location": {
            "lat": 23.33623,
            "lng": 112.119803
        },
        "ad_info": {
            "adcode": 441226,
            "province": "广东省",
            "city": "肇庆市",
            "district": "德庆县"
        }
    },
    {
        "id": "15173459136353714633",
        "title": "公共厕所",
        "address": "广东省肇庆市端州区体育路与南溪路交叉口东南方向101米左右",
        "tel": "",
        "category": "基础设施:公共设施:公共厕所",
        "type": 0,
        "location": {
            "lat": 23.044516,
            "lng": 112.460619
        },
        "ad_info": {
            "adcode": 441202,
            "province": "广东省",
            "city": "肇庆市",
            "district": "端州区"
        }
    },
    {
        "id": "8129471949215213304",
        "title": "公共厕所",
        "address": "广东省肇庆市广宁县S264与Y481交叉口正西方向84米左右",
        "tel": "",
        "category": "基础设施:公共设施:公共厕所",
        "type": 0,
        "location": {
            "lat": 23.457787,
            "lng": 112.367757
        },
        "ad_info": {
            "adcode": 441223,
            "province": "广东省",
            "city": "肇庆市",
            "district": "广宁县"
        }
    },
    {
        "id": "10397318951755827995",
        "title": "罗坑公共厕所",
        "address": "广东省肇庆市广宁县",
        "tel": "0758-8700288",
        "category": "基础设施:公共设施:公共厕所",
        "type": 0,
        "location": {
            "lat": 23.69351,
            "lng": 112.577002
        },
        "ad_info": {
            "adcode": 441223,
            "province": "广东省",
            "city": "肇庆市",
            "district": "广宁县"
        }
    },
    {
        "id": "2733662565515480412",
        "title": "洗手间",
        "address": "广东省肇庆市怀集县齐齐食品商行西侧160米",
        "tel": "",
        "category": "基础设施:公共设施:公共厕所",
        "type": 0,
        "location": {
            "lat": 24.028574,
            "lng": 111.990755
        },
        "ad_info": {
            "adcode": 441224,
            "province": "广东省",
            "city": "肇庆市",
            "district": "怀集县"
        }
    },
    {
        "id": "2767561437976838860",
        "title": "木格镇白沙坑村委会下寨村公共厕所",
        "address": "广东省肇庆市广宁县Y451",
        "tel": "",
        "category": "基础设施:公共设施:公共厕所",
        "type": 0,
        "location": {
            "lat": 23.504714,
            "lng": 112.108696
        },
        "ad_info": {
            "adcode": 441223,
            "province": "广东省",
            "city": "肇庆市",
            "district": "广宁县"
        }
    },
    {
        "id": "2538950933249071726",
        "title": "赤坑镇花山村委会扶落口村公共厕所",
        "address": "广东省肇庆市广宁县X443与Y474交叉口东南方向120米左右",
        "tel": "",
        "category": "基础设施:公共设施:公共厕所",
        "type": 0,
        "location": {
            "lat": 23.854799,
            "lng": 112.530569
        },
        "ad_info": {
            "adcode": 441223,
            "province": "广东省",
            "city": "肇庆市",
            "district": "广宁县"
        }
    },
    {
        "id": "13399435616052989530",
        "title": "公共厕所",
        "address": "广东省肇庆市高要区中华路与广园路交叉口正北方向49米左右",
        "tel": "",
        "category": "基础设施:公共设施:公共厕所",
        "type": 0,
        "location": {
            "lat": 23.036744,
            "lng": 112.518377
        },
        "ad_info": {
            "adcode": 441204,
            "province": "广东省",
            "city": "肇庆市",
            "district": "高要区"
        }
    },
    {
        "id": "2598754638032635746",
        "title": "赤坑镇合成村委会坑口村公共厕所",
        "address": "广东省肇庆市广宁县X443与赤坑新街交叉口东南方向1964米左右",
        "tel": "",
        "category": "基础设施:公共设施:公共厕所",
        "type": 0,
        "location": {
            "lat": 23.857994,
            "lng": 112.499895
        },
        "ad_info": {
            "adcode": 441223,
            "province": "广东省",
            "city": "肇庆市",
            "district": "广宁县"
        }
    },
    {
        "id": "9376306890926318609",
        "title": "公共厕所",
        "address": "广东省肇庆市高要区430县道与G80广昆高速入口交叉口东100米",
        "tel": "",
        "category": "基础设施:公共设施:公共厕所",
        "type": 0,
        "location": {
            "lat": 22.949379,
            "lng": 112.327609
        },
        "ad_info": {
            "adcode": 441204,
            "province": "广东省",
            "city": "肇庆市",
            "district": "高要区"
        }
    },
    {
        "id": "6241075000174544635",
        "title": "公共厕所",
        "address": "广东省肇庆市端州区东禺中路与端州一路交叉口东南方向156米左右",
        "tel": "",
        "category": "基础设施:公共设施:公共厕所",
        "type": 0,
        "location": {
            "lat": 23.063867,
            "lng": 112.512768
        },
        "ad_info": {
            "adcode": 441202,
            "province": "广东省",
            "city": "肇庆市",
            "district": "端州区"
        }
    },
    {
        "id": "16192756390412955123",
        "title": "公共厕所",
        "address": "广东省肇庆市端州区天宁北路与天宁南路交叉口东北方向214米左右",
        "tel": "",
        "category": "基础设施:公共设施:公共厕所",
        "type": 0,
        "location": {
            "lat": 23.051908,
            "lng": 112.470636
        },
        "ad_info": {
            "adcode": 441202,
            "province": "广东省",
            "city": "肇庆市",
            "district": "端州区"
        }
    },
    {
        "id": "1930268422902992861",
        "title": "公共厕所",
        "address": "广东省肇庆市高要区世纪大道与紫云大道辅路交叉口正北方向140米左右",
        "tel": "",
        "category": "基础设施:公共设施:公共厕所",
        "type": 0,
        "location": {
            "lat": 23.049921,
            "lng": 112.5481
        },
        "ad_info": {
            "adcode": 441204,
            "province": "广东省",
            "city": "肇庆市",
            "district": "高要区"
        }
    },
    {
        "id": "12720551892894942751",
        "title": "公共厕所",
        "address": "广东省肇庆市高要区X436与X437交叉口正北方向411米左右",
        "tel": "",
        "category": "基础设施:公共设施:公共厕所",
        "type": 0,
        "location": {
            "lat": 22.957419,
            "lng": 112.509599
        },
        "ad_info": {
            "adcode": 441204,
            "province": "广东省",
            "city": "肇庆市",
            "district": "高要区"
        }
    },
    {
        "id": "4228737706515570126",
        "title": "公共厕所",
        "address": "广东省肇庆市端州区岗布西路与郡岗路交叉口西南方向147米左右",
        "tel": "",
        "category": "基础设施:公共设施:公共厕所",
        "type": 0,
        "location": {
            "lat": 23.062774,
            "lng": 112.43225
        },
        "ad_info": {
            "adcode": 441202,
            "province": "广东省",
            "city": "肇庆市",
            "district": "端州区"
        }
    },
    {
        "id": "9579454371560440680",
        "title": "镇南街公共厕所",
        "address": "广东省肇庆市端州区正东路与阅江路交叉口东北方向110米左右",
        "tel": "",
        "category": "基础设施:公共设施:公共厕所",
        "type": 0,
        "location": {
            "lat": 23.045837,
            "lng": 112.471613
        },
        "ad_info": {
            "adcode": 441202,
            "province": "广东省",
            "city": "肇庆市",
            "district": "端州区"
        }
    },
    {
        "id": "13866635138292412111",
        "title": "无障碍公共厕所",
        "address": "广东省肇庆市广宁县环城西路原气象局石壁下",
        "tel": "",
        "category": "基础设施:公共设施:公共厕所",
        "type": 0,
        "location": {
            "lat": 23.62869,
            "lng": 112.439906
        },
        "ad_info": {
            "adcode": 441223,
            "province": "广东省",
            "city": "肇庆市",
            "district": "广宁县"
        }
    },
    {
        "id": "2321670107724403270",
        "title": "林洞村委会塘头村公共厕所",
        "address": "广东省肇庆市广宁县南街镇林洞村委会塘头村入口左侧",
        "tel": "",
        "category": "基础设施:公共设施:公共厕所",
        "type": 0,
        "location": {
            "lat": 23.705582,
            "lng": 112.506724
        },
        "ad_info": {
            "adcode": 441223,
            "province": "广东省",
            "city": "肇庆市",
            "district": "广宁县"
        }
    },
    {
        "id": "14121378957249315040",
        "title": "公共厕所",
        "address": "广东省肇庆市高要区宋隆中路与河山路交叉口正南方向272米左右",
        "tel": "",
        "category": "基础设施:公共设施:公共厕所",
        "type": 0,
        "location": {
            "lat": 22.982095,
            "lng": 112.603817
        },
        "ad_info": {
            "adcode": 441204,
            "province": "广东省",
            "city": "肇庆市",
            "district": "高要区"
        }
    },
    {
        "id": "11524730406183247666",
        "title": "公共厕所",
        "address": "广东省肇庆市高要区南亭路与湖西二路交叉口东北方向68米左右",
        "tel": "",
        "category": "基础设施:公共设施:公共厕所",
        "type": 0,
        "location": {
            "lat": 23.023038,
            "lng": 112.456503
        },
        "ad_info": {
            "adcode": 441204,
            "province": "广东省",
            "city": "肇庆市",
            "district": "高要区"
        }
    },
    {
        "id": "2439380166945732884",
        "title": "公共厕所",
        "address": "广东省肇庆市高要区G324与X459交叉口西北方向99米左右",
        "tel": "",
        "category": "基础设施:公共设施:公共厕所",
        "type": 0,
        "location": {
            "lat": 23.000739,
            "lng": 112.428909
        },
        "ad_info": {
            "adcode": 441204,
            "province": "广东省",
            "city": "肇庆市",
            "district": "高要区"
        }
    },
    {
        "id": "4115324462027476719",
        "title": "公共厕所",
        "address": "广东省肇庆市广宁县S350与木格街交叉口西南方向141米左右",
        "tel": "",
        "category": "基础设施:公共设施:公共厕所",
        "type": 0,
        "location": {
            "lat": 23.521083,
            "lng": 112.169363
        },
        "ad_info": {
            "adcode": 441223,
            "province": "广东省",
            "city": "肇庆市",
            "district": "广宁县"
        }
    },
    {
        "id": "1377561868984506472",
        "title": "本策村委会新圩村公共厕所",
        "address": "广东省肇庆市广宁县宝锭山风景区西北",
        "tel": "",
        "category": "基础设施:公共设施:公共厕所",
        "type": 0,
        "location": {
            "lat": 23.606132,
            "lng": 112.398441
        },
        "ad_info": {
            "adcode": 441223,
            "province": "广东省",
            "city": "肇庆市",
            "district": "广宁县"
        }
    },
    {
        "id": "16981518903122819548",
        "title": "公共厕所",
        "address": "广东省肇庆市怀集县商业步行街与国泰路交叉口正东方向130米左右",
        "tel": "",
        "category": "基础设施:公共设施:公共厕所",
        "type": 0,
        "location": {
            "lat": 23.910613,
            "lng": 112.18301
        },
        "ad_info": {
            "adcode": 441224,
            "province": "广东省",
            "city": "肇庆市",
            "district": "怀集县"
        }
    },
    {
        "id": "9082892164769259382",
        "title": "公共厕所",
        "address": "广东省肇庆市封开县杏花中学东南侧160米",
        "tel": "",
        "category": "基础设施:公共设施:公共厕所",
        "type": 0,
        "location": {
            "lat": 23.399969,
            "lng": 111.716994
        },
        "ad_info": {
            "adcode": 441225,
            "province": "广东省",
            "city": "肇庆市",
            "district": "封开县"
        }
    },
    {
        "id": "11546811987391245835",
        "title": "公共厕所",
        "address": "广东省肇庆市高要区兴隆路与双桥二街交叉口正南方向26米左右",
        "tel": "",
        "category": "基础设施:公共设施:公共厕所",
        "type": 0,
        "location": {
            "lat": 22.896778,
            "lng": 112.603325
        },
        "ad_info": {
            "adcode": 441204,
            "province": "广东省",
            "city": "肇庆市",
            "district": "高要区"
        }
    },
    {
        "id": "4602347097033038985",
        "title": "公共厕所",
        "address": "广东省肇庆市端州区肇庆大道护龙祖庙(前村礼堂东北)",
        "tel": "",
        "category": "基础设施:公共设施:公共厕所",
        "type": 0,
        "location": {
            "lat": 23.106492,
            "lng": 112.509116
        },
        "ad_info": {
            "adcode": 441202,
            "province": "广东省",
            "city": "肇庆市",
            "district": "端州区"
        }
    },
    {
        "id": "4471917771926773204",
        "title": "公共厕所",
        "address": "广东省肇庆市高要区S272中国石油加油站",
        "tel": "",
        "category": "基础设施:公共设施:公共厕所",
        "type": 0,
        "location": {
            "lat": 22.945129,
            "lng": 112.633889
        },
        "ad_info": {
            "adcode": 441204,
            "province": "广东省",
            "city": "肇庆市",
            "district": "高要区"
        }
    },
    {
        "id": "15885054209450978909",
        "title": "公共厕所",
        "address": "广东省肇庆市广宁县螺岗镇东方红村委会廖前",
        "tel": "",
        "category": "基础设施:公共设施:公共厕所",
        "type": 0,
        "location": {
            "lat": 23.738707,
            "lng": 112.558122
        },
        "ad_info": {
            "adcode": 441223,
            "province": "广东省",
            "city": "肇庆市",
            "district": "广宁县"
        }
    },
    {
        "id": "17210681205287424488",
        "title": "公共厕所",
        "address": "广东省肇庆市广宁县南东二路旧车站桥路口",
        "tel": "",
        "category": "基础设施:公共设施:公共厕所",
        "type": 0,
        "location": {
            "lat": 23.62732,
            "lng": 112.431123
        },
        "ad_info": {
            "adcode": 441223,
            "province": "广东省",
            "city": "肇庆市",
            "district": "广宁县"
        }
    },
    {
        "id": "7208262592126361361",
        "title": "公共厕所",
        "address": "广东省肇庆市德庆县青云路与龙母大街交叉口西北方向226米左右",
        "tel": "",
        "category": "基础设施:公共设施:公共厕所",
        "type": 0,
        "location": {
            "lat": 23.148008,
            "lng": 111.778418
        },
        "ad_info": {
            "adcode": 441226,
            "province": "广东省",
            "city": "肇庆市",
            "district": "德庆县"
        }
    },
    {
        "id": "16487154716728087474",
        "title": "公共厕所",
        "address": "广东省肇庆市四会市育贤路四会华侨中学",
        "tel": "",
        "category": "基础设施:公共设施:公共厕所",
        "type": 0,
        "location": {
            "lat": 23.337239,
            "lng": 112.712207
        },
        "ad_info": {
            "adcode": 441284,
            "province": "广东省",
            "city": "肇庆市",
            "district": "四会市"
        }
    },
    {
        "id": "12512411685618653023",
        "title": "公共厕所",
        "address": "广东省肇庆市德庆县振兴路与高良东路交叉口东北方向184米左右",
        "tel": "",
        "category": "基础设施:公共设施:公共厕所",
        "type": 0,
        "location": {
            "lat": 23.277889,
            "lng": 111.946296
        },
        "ad_info": {
            "adcode": 441226,
            "province": "广东省",
            "city": "肇庆市",
            "district": "德庆县"
        }
    },
    {
        "id": "9049684909204405982",
        "title": "公共厕所",
        "address": "广东省肇庆市高要区Y018与榄塘社区四街交叉口正北方向37米左右",
        "tel": "",
        "category": "基础设施:公共设施:公共厕所",
        "type": 0,
        "location": {
            "lat": 23.02423,
            "lng": 112.547438
        },
        "ad_info": {
            "adcode": 441204,
            "province": "广东省",
            "city": "肇庆市",
            "district": "高要区"
        }
    },
    {
        "id": "5869844143272096764",
        "title": "公共厕所",
        "address": "广东省肇庆市高要区G324与Y252交叉口东南方向1021米左右",
        "tel": "",
        "category": "基础设施:公共设施:公共厕所",
        "type": 0,
        "location": {
            "lat": 23.042293,
            "lng": 112.570486
        },
        "ad_info": {
            "adcode": 441204,
            "province": "广东省",
            "city": "肇庆市",
            "district": "高要区"
        }
    },
    {
        "id": "18217195715285970882",
        "title": "公共厕所",
        "address": "广东省肇庆市封开县G321与Y882交叉口正南方向1443米左右",
        "tel": "",
        "category": "基础设施:公共设施:公共厕所",
        "type": 0,
        "location": {
            "lat": 23.366151,
            "lng": 111.515671
        },
        "ad_info": {
            "adcode": 441225,
            "province": "广东省",
            "city": "肇庆市",
            "district": "封开县"
        }
    },
    {
        "id": "9733577868778524903",
        "title": "五二路公共厕所",
        "address": "广东省肇庆市广宁县五二路五一豪庭楼下",
        "tel": "",
        "category": "基础设施:公共设施:公共厕所",
        "type": 0,
        "location": {
            "lat": 23.629563,
            "lng": 112.442495
        },
        "ad_info": {
            "adcode": 441223,
            "province": "广东省",
            "city": "肇庆市",
            "district": "广宁县"
        }
    },
    {
        "id": "18279226536070204013",
        "title": "公共厕所",
        "address": "广东省肇庆市高要区华通加油站(新桥镇站北)",
        "tel": "",
        "category": "基础设施:公共设施:公共厕所",
        "type": 0,
        "location": {
            "lat": 22.956211,
            "lng": 112.410808
        },
        "ad_info": {
            "adcode": 441204,
            "province": "广东省",
            "city": "肇庆市",
            "district": "高要区"
        }
    },
    {
        "id": "1584026357155523170",
        "title": "排沙镇大罗村委会莫坑村公共厕所",
        "address": "广东省肇庆市广宁县X418与Y532交叉口西北方向1383米左右",
        "tel": "",
        "category": "基础设施:公共设施:公共厕所",
        "type": 0,
        "location": {
            "lat": 23.58346,
            "lng": 112.527074
        },
        "ad_info": {
            "adcode": 441223,
            "province": "广东省",
            "city": "肇庆市",
            "district": "广宁县"
        }
    },
    {
        "id": "1212177160232910750",
        "title": "公共厕所",
        "address": "广东省肇庆市广宁县排沙镇大罗村委会马坑塘村",
        "tel": "",
        "category": "基础设施:公共设施:公共厕所",
        "type": 0,
        "location": {
            "lat": 23.596627,
            "lng": 112.538105
        },
        "ad_info": {
            "adcode": 441223,
            "province": "广东省",
            "city": "肇庆市",
            "district": "广宁县"
        }
    },
    {
        "id": "16713735406448014372",
        "title": "公共厕所",
        "address": "广东省肇庆市高要区兴华路与建新南路交叉口正东方向368米左右",
        "tel": "",
        "category": "基础设施:公共设施:公共厕所",
        "type": 0,
        "location": {
            "lat": 22.979178,
            "lng": 112.602924
        },
        "ad_info": {
            "adcode": 441204,
            "province": "广东省",
            "city": "肇庆市",
            "district": "高要区"
        }
    },
    {
        "id": "8225757003428673892",
        "title": "公共厕所",
        "address": "广东省肇庆市广宁县文化路与朝阳东路交叉口正南方向128米左右",
        "tel": "",
        "category": "基础设施:公共设施:公共厕所",
        "type": 0,
        "location": {
            "lat": 23.633078,
            "lng": 112.443503
        },
        "ad_info": {
            "adcode": 441223,
            "province": "广东省",
            "city": "肇庆市",
            "district": "广宁县"
        }
    },
    {
        "id": "13562913852185484055",
        "title": "公共厕所",
        "address": "广东省肇庆市高要区G321与Y014交叉口西北方向310米左右",
        "tel": "",
        "category": "基础设施:公共设施:公共厕所",
        "type": 0,
        "location": {
            "lat": 23.138801,
            "lng": 112.380629
        },
        "ad_info": {
            "adcode": 441204,
            "province": "广东省",
            "city": "肇庆市",
            "district": "高要区"
        }
    },
    {
        "id": "3245417457803182351",
        "title": "富溪村委会佛堂二队公共厕所",
        "address": "广东省肇庆市广宁县南街镇富溪村委会旁",
        "tel": "",
        "category": "基础设施:公共设施:公共厕所",
        "type": 0,
        "location": {
            "lat": 23.690716,
            "lng": 112.493318
        },
        "ad_info": {
            "adcode": 441223,
            "province": "广东省",
            "city": "肇庆市",
            "district": "广宁县"
        }
    },
    {
        "id": "1941524283478663772",
        "title": "公共厕所",
        "address": "广东省肇庆市四会市S354与X416交叉口东北方向55米左右",
        "tel": "",
        "category": "基础设施:公共设施:公共厕所",
        "type": 0,
        "location": {
            "lat": 23.572866,
            "lng": 112.765294
        },
        "ad_info": {
            "adcode": 441284,
            "province": "广东省",
            "city": "肇庆市",
            "district": "四会市"
        }
    },
    {
        "id": "9520433921945835119",
        "title": "公共厕所",
        "address": "广东省肇庆市高要区南兴五路与青湾南街交叉口正南方向180米左右",
        "tel": "",
        "category": "基础设施:公共设施:公共厕所",
        "type": 0,
        "location": {
            "lat": 23.005754,
            "lng": 112.432184
        },
        "ad_info": {
            "adcode": 441204,
            "province": "广东省",
            "city": "肇庆市",
            "district": "高要区"
        }
    },
    {
        "id": "2743290308167226155",
        "title": "公共厕所",
        "address": "广东省肇庆市封开县建设西路与河堤一路交叉口正南方向114米左右",
        "tel": "",
        "category": "基础设施:公共设施:公共厕所",
        "type": 0,
        "location": {
            "lat": 23.435707,
            "lng": 111.500019
        },
        "ad_info": {
            "adcode": 441225,
            "province": "广东省",
            "city": "肇庆市",
            "district": "封开县"
        }
    },
    {
        "id": "2773261965496116103",
        "title": "赤坑镇福排村委会丁坑村公共厕所",
        "address": "广东省肇庆市广宁县X443与Y474交叉口正北方向1782米左右",
        "tel": "",
        "category": "基础设施:公共设施:公共厕所",
        "type": 0,
        "location": {
            "lat": 23.871364,
            "lng": 112.53084
        },
        "ad_info": {
            "adcode": 441223,
            "province": "广东省",
            "city": "肇庆市",
            "district": "广宁县"
        }
    },
    {
        "id": "15885054209450978909",
        "title": "公共厕所",
        "address": "广东省肇庆市广宁县螺岗镇东方红村委会廖前",
        "tel": "",
        "category": "基础设施:公共设施:公共厕所",
        "type": 0,
        "location": {
            "lat": 23.738707,
            "lng": 112.558122
        },
        "ad_info": {
            "adcode": 441223,
            "province": "广东省",
            "city": "肇庆市",
            "district": "广宁县"
        }
    },
    {
        "id": "17210681205287424488",
        "title": "公共厕所",
        "address": "广东省肇庆市广宁县南东二路旧车站桥路口",
        "tel": "",
        "category": "基础设施:公共设施:公共厕所",
        "type": 0,
        "location": {
            "lat": 23.62732,
            "lng": 112.431123
        },
        "ad_info": {
            "adcode": 441223,
            "province": "广东省",
            "city": "肇庆市",
            "district": "广宁县"
        }
    },
    {
        "id": "7208262592126361361",
        "title": "公共厕所",
        "address": "广东省肇庆市德庆县青云路与龙母大街交叉口西北方向226米左右",
        "tel": "",
        "category": "基础设施:公共设施:公共厕所",
        "type": 0,
        "location": {
            "lat": 23.148008,
            "lng": 111.778418
        },
        "ad_info": {
            "adcode": 441226,
            "province": "广东省",
            "city": "肇庆市",
            "district": "德庆县"
        }
    },
    {
        "id": "16487154716728087474",
        "title": "公共厕所",
        "address": "广东省肇庆市四会市育贤路四会华侨中学",
        "tel": "",
        "category": "基础设施:公共设施:公共厕所",
        "type": 0,
        "location": {
            "lat": 23.337239,
            "lng": 112.712207
        },
        "ad_info": {
            "adcode": 441284,
            "province": "广东省",
            "city": "肇庆市",
            "district": "四会市"
        }
    },
    {
        "id": "12512411685618653023",
        "title": "公共厕所",
        "address": "广东省肇庆市德庆县振兴路与高良东路交叉口东北方向184米左右",
        "tel": "",
        "category": "基础设施:公共设施:公共厕所",
        "type": 0,
        "location": {
            "lat": 23.277889,
            "lng": 111.946296
        },
        "ad_info": {
            "adcode": 441226,
            "province": "广东省",
            "city": "肇庆市",
            "district": "德庆县"
        }
    },
    {
        "id": "9049684909204405982",
        "title": "公共厕所",
        "address": "广东省肇庆市高要区Y018与榄塘社区四街交叉口正北方向37米左右",
        "tel": "",
        "category": "基础设施:公共设施:公共厕所",
        "type": 0,
        "location": {
            "lat": 23.02423,
            "lng": 112.547438
        },
        "ad_info": {
            "adcode": 441204,
            "province": "广东省",
            "city": "肇庆市",
            "district": "高要区"
        }
    },
    {
        "id": "5869844143272096764",
        "title": "公共厕所",
        "address": "广东省肇庆市高要区G324与Y252交叉口东南方向1021米左右",
        "tel": "",
        "category": "基础设施:公共设施:公共厕所",
        "type": 0,
        "location": {
            "lat": 23.042293,
            "lng": 112.570486
        },
        "ad_info": {
            "adcode": 441204,
            "province": "广东省",
            "city": "肇庆市",
            "district": "高要区"
        }
    },
    {
        "id": "18217195715285970882",
        "title": "公共厕所",
        "address": "广东省肇庆市封开县G321与Y882交叉口正南方向1443米左右",
        "tel": "",
        "category": "基础设施:公共设施:公共厕所",
        "type": 0,
        "location": {
            "lat": 23.366151,
            "lng": 111.515671
        },
        "ad_info": {
            "adcode": 441225,
            "province": "广东省",
            "city": "肇庆市",
            "district": "封开县"
        }
    },
    {
        "id": "9733577868778524903",
        "title": "五二路公共厕所",
        "address": "广东省肇庆市广宁县五二路五一豪庭楼下",
        "tel": "",
        "category": "基础设施:公共设施:公共厕所",
        "type": 0,
        "location": {
            "lat": 23.629563,
            "lng": 112.442495
        },
        "ad_info": {
            "adcode": 441223,
            "province": "广东省",
            "city": "肇庆市",
            "district": "广宁县"
        }
    },
    {
        "id": "18279226536070204013",
        "title": "公共厕所",
        "address": "广东省肇庆市高要区华通加油站(新桥镇站北)",
        "tel": "",
        "category": "基础设施:公共设施:公共厕所",
        "type": 0,
        "location": {
            "lat": 22.956211,
            "lng": 112.410808
        },
        "ad_info": {
            "adcode": 441204,
            "province": "广东省",
            "city": "肇庆市",
            "district": "高要区"
        }
    },
    {
        "id": "1584026357155523170",
        "title": "排沙镇大罗村委会莫坑村公共厕所",
        "address": "广东省肇庆市广宁县X418与Y532交叉口西北方向1383米左右",
        "tel": "",
        "category": "基础设施:公共设施:公共厕所",
        "type": 0,
        "location": {
            "lat": 23.58346,
            "lng": 112.527074
        },
        "ad_info": {
            "adcode": 441223,
            "province": "广东省",
            "city": "肇庆市",
            "district": "广宁县"
        }
    },
    {
        "id": "1212177160232910750",
        "title": "公共厕所",
        "address": "广东省肇庆市广宁县排沙镇大罗村委会马坑塘村",
        "tel": "",
        "category": "基础设施:公共设施:公共厕所",
        "type": 0,
        "location": {
            "lat": 23.596627,
            "lng": 112.538105
        },
        "ad_info": {
            "adcode": 441223,
            "province": "广东省",
            "city": "肇庆市",
            "district": "广宁县"
        }
    },
    {
        "id": "16713735406448014372",
        "title": "公共厕所",
        "address": "广东省肇庆市高要区兴华路与建新南路交叉口正东方向368米左右",
        "tel": "",
        "category": "基础设施:公共设施:公共厕所",
        "type": 0,
        "location": {
            "lat": 22.979178,
            "lng": 112.602924
        },
        "ad_info": {
            "adcode": 441204,
            "province": "广东省",
            "city": "肇庆市",
            "district": "高要区"
        }
    },
    {
        "id": "8225757003428673892",
        "title": "公共厕所",
        "address": "广东省肇庆市广宁县文化路与朝阳东路交叉口正南方向128米左右",
        "tel": "",
        "category": "基础设施:公共设施:公共厕所",
        "type": 0,
        "location": {
            "lat": 23.633078,
            "lng": 112.443503
        },
        "ad_info": {
            "adcode": 441223,
            "province": "广东省",
            "city": "肇庆市",
            "district": "广宁县"
        }
    },
    {
        "id": "13562913852185484055",
        "title": "公共厕所",
        "address": "广东省肇庆市高要区G321与Y014交叉口西北方向310米左右",
        "tel": "",
        "category": "基础设施:公共设施:公共厕所",
        "type": 0,
        "location": {
            "lat": 23.138801,
            "lng": 112.380629
        },
        "ad_info": {
            "adcode": 441204,
            "province": "广东省",
            "city": "肇庆市",
            "district": "高要区"
        }
    },
    {
        "id": "3245417457803182351",
        "title": "富溪村委会佛堂二队公共厕所",
        "address": "广东省肇庆市广宁县南街镇富溪村委会旁",
        "tel": "",
        "category": "基础设施:公共设施:公共厕所",
        "type": 0,
        "location": {
            "lat": 23.690716,
            "lng": 112.493318
        },
        "ad_info": {
            "adcode": 441223,
            "province": "广东省",
            "city": "肇庆市",
            "district": "广宁县"
        }
    },
    {
        "id": "1941524283478663772",
        "title": "公共厕所",
        "address": "广东省肇庆市四会市S354与X416交叉口东北方向55米左右",
        "tel": "",
        "category": "基础设施:公共设施:公共厕所",
        "type": 0,
        "location": {
            "lat": 23.572866,
            "lng": 112.765294
        },
        "ad_info": {
            "adcode": 441284,
            "province": "广东省",
            "city": "肇庆市",
            "district": "四会市"
        }
    },
    {
        "id": "9520433921945835119",
        "title": "公共厕所",
        "address": "广东省肇庆市高要区南兴五路与青湾南街交叉口正南方向180米左右",
        "tel": "",
        "category": "基础设施:公共设施:公共厕所",
        "type": 0,
        "location": {
            "lat": 23.005754,
            "lng": 112.432184
        },
        "ad_info": {
            "adcode": 441204,
            "province": "广东省",
            "city": "肇庆市",
            "district": "高要区"
        }
    },
    {
        "id": "2743290308167226155",
        "title": "公共厕所",
        "address": "广东省肇庆市封开县建设西路与河堤一路交叉口正南方向114米左右",
        "tel": "",
        "category": "基础设施:公共设施:公共厕所",
        "type": 0,
        "location": {
            "lat": 23.435707,
            "lng": 111.500019
        },
        "ad_info": {
            "adcode": 441225,
            "province": "广东省",
            "city": "肇庆市",
            "district": "封开县"
        }
    },
    {
        "id": "2773261965496116103",
        "title": "赤坑镇福排村委会丁坑村公共厕所",
        "address": "广东省肇庆市广宁县X443与Y474交叉口正北方向1782米左右",
        "tel": "",
        "category": "基础设施:公共设施:公共厕所",
        "type": 0,
        "location": {
            "lat": 23.871364,
            "lng": 112.53084
        },
        "ad_info": {
            "adcode": 441223,
            "province": "广东省",
            "city": "肇庆市",
            "district": "广宁县"
        }
    },
    {
        "id": "15885054209450978909",
        "title": "公共厕所",
        "address": "广东省肇庆市广宁县螺岗镇东方红村委会廖前",
        "tel": "",
        "category": "基础设施:公共设施:公共厕所",
        "type": 0,
        "location": {
            "lat": 23.738707,
            "lng": 112.558122
        },
        "ad_info": {
            "adcode": 441223,
            "province": "广东省",
            "city": "肇庆市",
            "district": "广宁县"
        }
    },
    {
        "id": "17210681205287424488",
        "title": "公共厕所",
        "address": "广东省肇庆市广宁县南东二路旧车站桥路口",
        "tel": "",
        "category": "基础设施:公共设施:公共厕所",
        "type": 0,
        "location": {
            "lat": 23.62732,
            "lng": 112.431123
        },
        "ad_info": {
            "adcode": 441223,
            "province": "广东省",
            "city": "肇庆市",
            "district": "广宁县"
        }
    },
    {
        "id": "7208262592126361361",
        "title": "公共厕所",
        "address": "广东省肇庆市德庆县青云路与龙母大街交叉口西北方向226米左右",
        "tel": "",
        "category": "基础设施:公共设施:公共厕所",
        "type": 0,
        "location": {
            "lat": 23.148008,
            "lng": 111.778418
        },
        "ad_info": {
            "adcode": 441226,
            "province": "广东省",
            "city": "肇庆市",
            "district": "德庆县"
        }
    },
    {
        "id": "16487154716728087474",
        "title": "公共厕所",
        "address": "广东省肇庆市四会市育贤路四会华侨中学",
        "tel": "",
        "category": "基础设施:公共设施:公共厕所",
        "type": 0,
        "location": {
            "lat": 23.337239,
            "lng": 112.712207
        },
        "ad_info": {
            "adcode": 441284,
            "province": "广东省",
            "city": "肇庆市",
            "district": "四会市"
        }
    },
    {
        "id": "12512411685618653023",
        "title": "公共厕所",
        "address": "广东省肇庆市德庆县振兴路与高良东路交叉口东北方向184米左右",
        "tel": "",
        "category": "基础设施:公共设施:公共厕所",
        "type": 0,
        "location": {
            "lat": 23.277889,
            "lng": 111.946296
        },