[
    {
        "id": "15216935694453907460",
        "title": "公共厕所",
        "address": "新疆维吾尔自治区胡杨河市前高公路与天山南路交叉口东北方向63米左右",
        "tel": "",
        "category": "基础设施:公共设施:公共厕所",
        "type": 0,
        "location": {
            "lat": 45.020913,
            "lng": 84.600368
        },
        "ad_info": {
            "adcode": 659010,
            "province": "新疆维吾尔自治区",
            "city": "",
            "district": "胡杨河市"
        }
    },
    {
        "id": "8946675691049787964",
        "title": "公共厕所",
        "address": "新疆维吾尔自治区胡杨河市G217与青北公路交叉口正北方向93米左右",
        "tel": "",
        "category": "基础设施:公共设施:公共厕所",
        "type": 0,
        "location": {
            "lat": 44.911607,
            "lng": 84.767497
        },
        "ad_info": {
            "adcode": 659010,
            "province": "新疆维吾尔自治区",
            "city": "",
            "district": "胡杨河市"
        }
    },
    {
        "id": "2026722942039605419",
        "title": "五五新镇服务区公共厕所",
        "address": "新疆维吾尔自治区胡杨河市纬二路与西环路交叉口正西方向310米左右",
        "tel": "",
        "category": "基础设施:公共设施:公共厕所",
        "type": 0,
        "location": {
            "lat": 44.804215,
            "lng": 84.859491
        },
        "ad_info": {
            "adcode": 659010,
            "province": "新疆维吾尔自治区",
            "city": "",
            "district": "胡杨河市"
        }
    }
]