[
    {
        "id": "6173121375458992706",
        "title": "公共厕所",
        "address": "四川省自贡市自流井区丹桂大街华商购物中心F1",
        "tel": "",
        "category": "基础设施:公共设施:公共厕所",
        "type": 0,
        "location": {
            "lat": 29.319477,
            "lng": 104.771004
        },
        "ad_info": {
            "adcode": 510302,
            "province": "四川省",
            "city": "自贡市",
            "district": "自流井区"
        }
    },
    {
        "id": "1768014811247387321",
        "title": "公共厕所",
        "address": "四川省自贡市自流井区汇东路1031号",
        "tel": "",
        "category": "基础设施:公共设施:公共厕所",
        "type": 0,
        "location": {
            "lat": 29.335905,
            "lng": 104.762348
        },
        "ad_info": {
            "adcode": 510302,
            "province": "四川省",
            "city": "自贡市",
            "district": "自流井区"
        }
    },
    {
        "id": "13815769022832469386",
        "title": "公共厕所",
        "address": "四川省自贡市自流井区G348与陆港立交交叉口西南方向247米左右",
        "tel": "",
        "category": "基础设施:公共设施:公共厕所",
        "type": 0,
        "location": {
            "lat": 29.312653,
            "lng": 104.745966
        },
        "ad_info": {
            "adcode": 510302,
            "province": "四川省",
            "city": "自贡市",
            "district": "自流井区"
        }
    },
    {
        "id": "6539737995424036650",
        "title": "公共厕所",
        "address": "四川省自贡市自流井区光凤路与光大街交叉口正南方向141米左右",
        "tel": "",
        "category": "基础设施:公共设施:公共厕所",
        "type": 0,
        "location": {
            "lat": 29.344829,
            "lng": 104.755647
        },
        "ad_info": {
            "adcode": 510302,
            "province": "四川省",
            "city": "自贡市",
            "district": "自流井区"
        }
    },
    {
        "id": "8707253847100260278",
        "title": "公共厕所",
        "address": "四川省自贡市自流井区丹桂大街与汇兴路交叉口西南方向151米左右",
        "tel": "",
        "category": "基础设施:公共设施:公共厕所",
        "type": 0,
        "location": {
            "lat": 29.331554,
            "lng": 104.776235
        },
        "ad_info": {
            "adcode": 510302,
            "province": "四川省",
            "city": "自贡市",
            "district": "自流井区"
        }
    },
    {
        "id": "9077843980289481047",
        "title": "公共厕所",
        "address": "四川省自贡市荣县环城南路与环城西路交叉口东南方向75米左右",
        "tel": "",
        "category": "基础设施:公共设施:公共厕所",
        "type": 0,
        "location": {
            "lat": 29.455404,
            "lng": 104.416
        },
        "ad_info": {
            "adcode": 510321,
            "province": "四川省",
            "city": "自贡市",
            "district": "荣县"
        }
    },
    {
        "id": "13253563322589622002",
        "title": "公共厕所",
        "address": "四川省自贡市富顺县林达路与釜江大道东段交叉口正北方向149米左右",
        "tel": "",
        "category": "基础设施:公共设施:公共厕所",
        "type": 0,
        "location": {
            "lat": 29.181383,
            "lng": 104.993824
        },
        "ad_info": {
            "adcode": 510322,
            "province": "四川省",
            "city": "自贡市",
            "district": "富顺县"
        }
    },
    {
        "id": "17869436739022931830",
        "title": "公共厕所",
        "address": "四川省自贡市荣县旭水大道与旭水大道南三段交叉口西北方向237米左右",
        "tel": "",
        "category": "基础设施:公共设施:公共厕所",
        "type": 0,
        "location": {
            "lat": 29.446148,
            "lng": 104.405023
        },
        "ad_info": {
            "adcode": 510321,
            "province": "四川省",
            "city": "自贡市",
            "district": "荣县"
        }
    },
    {
        "id": "3701941463441619157",
        "title": "公共厕所",
        "address": "四川省自贡市沿滩区板仓路与锦城大道交叉口正东方向261米左右",
        "tel": "",
        "category": "基础设施:公共设施:公共厕所",
        "type": 0,
        "location": {
            "lat": 29.31686,
            "lng": 104.816612
        },
        "ad_info": {
            "adcode": 510311,
            "province": "四川省",
            "city": "自贡市",
            "district": "沿滩区"
        }
    },
    {
        "id": "1573733497201167840",
        "title": "公共厕所",
        "address": "四川省自贡市荣县大佛街与环城东路交叉口西南方向175米左右",
        "tel": "",
        "category": "基础设施:公共设施:公共厕所",
        "type": 0,
        "location": {
            "lat": 29.453591,
            "lng": 104.42761
        },
        "ad_info": {
            "adcode": 510321,
            "province": "四川省",
            "city": "自贡市",
            "district": "荣县"
        }
    },
    {
        "id": "12760397843394464591",
        "title": "公共厕所",
        "address": "四川省自贡市自流井区汇勤路与龙汇北街交叉口东南方向310米左右",
        "tel": "",
        "category": "基础设施:公共设施:公共厕所",
        "type": 0,
        "location": {
            "lat": 29.328424,
            "lng": 104.773416
        },
        "ad_info": {
            "adcode": 510302,
            "province": "四川省",
            "city": "自贡市",
            "district": "自流井区"
        }
    },
    {
        "id": "9826599239436345976",
        "title": "公共厕所",
        "address": "四川省自贡市自流井区五星街423号",
        "tel": "",
        "category": "基础设施:公共设施:公共厕所",
        "type": 0,
        "location": {
            "lat": 29.357403,
            "lng": 104.771348
        },
        "ad_info": {
            "adcode": 510302,
            "province": "四川省",
            "city": "自贡市",
            "district": "自流井区"
        }
    },
    {
        "id": "11656496587968064751",
        "title": "公共厕所",
        "address": "四川省自贡市自流井区同兴路与高山井路交叉口东南方向97米左右",
        "tel": "",
        "category": "基础设施:公共设施:公共厕所",
        "type": 0,
        "location": {
            "lat": 29.353032,
            "lng": 104.761203
        },
        "ad_info": {
            "adcode": 510302,
            "province": "四川省",
            "city": "自贡市",
            "district": "自流井区"
        }
    },
    {
        "id": "3511700474136252511",
        "title": "公共厕所",
        "address": "四川省自贡市自流井区三台寺路与新民街交叉口正南方向131米左右",
        "tel": "",
        "category": "基础设施:公共设施:公共厕所",
        "type": 0,
        "location": {
            "lat": 29.352239,
            "lng": 104.770593
        },
        "ad_info": {
            "adcode": 510302,
            "province": "四川省",
            "city": "自贡市",
            "district": "自流井区"
        }
    },
    {
        "id": "10517705080934756292",
        "title": "公共厕所",
        "address": "四川省自贡市自流井区五星街与新民街交叉口正南方向114米左右",
        "tel": "",
        "category": "基础设施:公共设施:公共厕所",
        "type": 0,
        "location": {
            "lat": 29.354518,
            "lng": 104.769247
        },
        "ad_info": {
            "adcode": 510302,
            "province": "四川省",
            "city": "自贡市",
            "district": "自流井区"
        }
    },
    {
        "id": "4826991489137822390",
        "title": "公共厕所",
        "address": "四川省自贡市荣县体育场路荣县体育中心",
        "tel": "",
        "category": "基础设施:公共设施:公共厕所",
        "type": 0,
        "location": {
            "lat": 29.449711,
            "lng": 104.415679
        },
        "ad_info": {
            "adcode": 510321,
            "province": "四川省",
            "city": "自贡市",
            "district": "荣县"
        }
    },
    {
        "id": "7526350544936499479",
        "title": "公共厕所",
        "address": "四川省自贡市自流井区东兴寺街49号",
        "tel": "",
        "category": "基础设施:公共设施:公共厕所",
        "type": 0,
        "location": {
            "lat": 29.345531,
            "lng": 104.783123
        },
        "ad_info": {
            "adcode": 510302,
            "province": "四川省",
            "city": "自贡市",
            "district": "自流井区"
        }
    },
    {
        "id": "11754699041798248496",
        "title": "公共厕所",
        "address": "四川省自贡市自流井区东兴寺街与汇兴路交叉口东北方向108米左右",
        "tel": "",
        "category": "基础设施:公共设施:公共厕所",
        "type": 0,
        "location": {
            "lat": 29.334484,
            "lng": 104.78852
        },
        "ad_info": {
            "adcode": 510302,
            "province": "四川省",
            "city": "自贡市",
            "district": "自流井区"
        }
    },
    {
        "id": "8057725456425042373",
        "title": "公共厕所",
        "address": "四川省自贡市荣县环城南路与西南街交叉口正西方向61米左右",
        "tel": "",
        "category": "基础设施:公共设施:公共厕所",
        "type": 0,
        "location": {
            "lat": 29.453529,
            "lng": 104.418099
        },
        "ad_info": {
            "adcode": 510321,
            "province": "四川省",
            "city": "自贡市",
            "district": "荣县"
        }
    },
    {
        "id": "13365459308175810660",
        "title": "公共厕所",
        "address": "四川省自贡市自流井区王贡路与自宜路交叉口正北方向561米左右",
        "tel": "",
        "category": "基础设施:公共设施:公共厕所",
        "type": 0,
        "location": {
            "lat": 29.301654,
            "lng": 104.733036
        },
        "ad_info": {
            "adcode": 510302,
            "province": "四川省",
            "city": "自贡市",
            "district": "自流井区"
        }
    },
    {
        "id": "9419017046945901240",
        "title": "公共厕所",
        "address": "四川省自贡市自流井区交通路与仁和路交叉口正东方向73米左右",
        "tel": "",
        "category": "基础设施:公共设施:公共厕所",
        "type": 0,
        "location": {
            "lat": 29.354969,
            "lng": 104.786231
        },
        "ad_info": {
            "adcode": 510302,
            "province": "四川省",
            "city": "自贡市",
            "district": "自流井区"
        }
    },
    {
        "id": "13094126306767766088",
        "title": "公共厕所",
        "address": "四川省自贡市大安区S207与汇川路交叉口东北方向296米左右",
        "tel": "",
        "category": "基础设施:公共设施:公共厕所",
        "type": 0,
        "location": {
            "lat": 29.332024,
            "lng": 104.736408
        },
        "ad_info": {
            "adcode": 510304,
            "province": "四川省",
            "city": "自贡市",
            "district": "大安区"
        }
    },
    {
        "id": "17757453767007134019",
        "title": "公共厕所",
        "address": "四川省自贡市自流井区丹桂大街与汇兴路交叉口正东方向214米左右",
        "tel": "",
        "category": "基础设施:公共设施:公共厕所",
        "type": 0,
        "location": {
            "lat": 29.332563,
            "lng": 104.779281
        },
        "ad_info": {
            "adcode": 510302,
            "province": "四川省",
            "city": "自贡市",
            "district": "自流井区"
        }
    },
    {
        "id": "8615314536144683010",
        "title": "公共厕所",
        "address": "四川省自贡市自流井区东兴寺街与兴川支路交叉口正西方向170米左右",
        "tel": "",
        "category": "基础设施:公共设施:公共厕所",
        "type": 0,
        "location": {
            "lat": 29.33103,
            "lng": 104.786505
        },
        "ad_info": {
            "adcode": 510302,
            "province": "四川省",
            "city": "自贡市",
            "district": "自流井区"
        }
    },
    {
        "id": "14704923832609034276",
        "title": "公共厕所",
        "address": "四川省自贡市自流井区汇东路666号",
        "tel": "",
        "category": "基础设施:公共设施:公共厕所",
        "type": 0,
        "location": {
            "lat": 29.340212,
            "lng": 104.762521
        },
        "ad_info": {
            "adcode": 510302,
            "province": "四川省",
            "city": "自贡市",
            "district": "自流井区"
        }
    },
    {
        "id": "1761859092944786947",
        "title": "公共厕所",
        "address": "四川省自贡市自流井区中华路与商业街交叉口正南方向18米左右",
        "tel": "",
        "category": "基础设施:公共设施:公共厕所",
        "type": 0,
        "location": {
            "lat": 29.349763,
            "lng": 104.769857
        },
        "ad_info": {
            "adcode": 510302,
            "province": "四川省",
            "city": "自贡市",
            "district": "自流井区"
        }
    },
    {
        "id": "11259972967020818571",
        "title": "公共厕所",
        "address": "四川省自贡市自流井区同兴路与高山井路交叉口正南方向210米左右",
        "tel": "",
        "category": "基础设施:公共设施:公共厕所",
        "type": 0,
        "location": {
            "lat": 29.351695,
            "lng": 104.759937
        },
        "ad_info": {
            "adcode": 510302,
            "province": "四川省",
            "city": "自贡市",
            "district": "自流井区"
        }
    },
    {
        "id": "11254080870624826926",
        "title": "公共厕所",
        "address": "四川省自贡市荣县013乡道与075县道交叉口东南180米",
        "tel": "",
        "category": "基础设施:公共设施:公共厕所",
        "type": 0,
        "location": {
            "lat": 29.375631,
            "lng": 104.344642
        },
        "ad_info": {
            "adcode": 510321,
            "province": "四川省",
            "city": "自贡市",
            "district": "荣县"
        }
    },
    {
        "id": "5776459273010296821",
        "title": "公共厕所",
        "address": "四川省自贡市自流井区五星街自贡博爱医院",
        "tel": "",
        "category": "基础设施:公共设施:公共厕所",
        "type": 0,
        "location": {
            "lat": 29.355866,
            "lng": 104.769193
        },
        "ad_info": {
            "adcode": 510302,
            "province": "四川省",
            "city": "自贡市",
            "district": "自流井区"
        }
    },
    {
        "id": "5882394745189739304",
        "title": "公共厕所",
        "address": "四川省自贡市自流井区汇东路1237号",
        "tel": "",
        "category": "基础设施:公共设施:公共厕所",
        "type": 0,
        "location": {
            "lat": 29.332868,
            "lng": 104.758428
        },
        "ad_info": {
            "adcode": 510302,
            "province": "四川省",
            "city": "自贡市",
            "district": "自流井区"
        }
    },
    {
        "id": "8442114953782793886",
        "title": "公共厕所",
        "address": "四川省自贡市沿滩区北一路与李白河西街交叉口东南方向530米左右",
        "tel": "",
        "category": "基础设施:公共设施:公共厕所",
        "type": 0,
        "location": {
            "lat": 29.366743,
            "lng": 104.848677
        },
        "ad_info": {
            "adcode": 510311,
            "province": "四川省",
            "city": "自贡市",
            "district": "沿滩区"
        }
    },
    {
        "id": "6012220382500676327",
        "title": "公共厕所",
        "address": "四川省自贡市荣县隆雅线中国石油恒益加油站",
        "tel": "",
        "category": "基础设施:公共设施:公共厕所",
        "type": 0,
        "location": {
            "lat": 29.435559,
            "lng": 104.430566
        },
        "ad_info": {
            "adcode": 510321,
            "province": "四川省",
            "city": "自贡市",
            "district": "荣县"
        }
    },
    {
        "id": "9276245184783394885",
        "title": "公共厕所",
        "address": "四川省自贡市沿滩区汇南路龙湖公园(东北角)",
        "tel": "",
        "category": "基础设施:公共设施:公共厕所",
        "type": 0,
        "location": {
            "lat": 29.313014,
            "lng": 104.804553
        },
        "ad_info": {
            "adcode": 510311,
            "province": "四川省",
            "city": "自贡市",
            "district": "沿滩区"
        }
    },
    {
        "id": "4665519746066234997",
        "title": "公共厕所",
        "address": "四川省自贡市沿滩区升平街与开元南路交叉口正西方向32米左右",
        "tel": "",
        "category": "基础设施:公共设施:公共厕所",
        "type": 0,
        "location": {
            "lat": 29.26871,
            "lng": 104.8796
        },
        "ad_info": {
            "adcode": 510311,
            "province": "四川省",
            "city": "自贡市",
            "district": "沿滩区"
        }
    },
    {
        "id": "4522690259409846134",
        "title": "公共厕所",
        "address": "四川省自贡市富顺县富州大道中段与杨柳湾巷交叉口东南方向89米左右",
        "tel": "",
        "category": "基础设施:公共设施:公共厕所",
        "type": 0,
        "location": {
            "lat": 29.184853,
            "lng": 104.961242
        },
        "ad_info": {
            "adcode": 510322,
            "province": "四川省",
            "city": "自贡市",
            "district": "富顺县"
        }
    },
    {
        "id": "11423179922722047236",
        "title": "公共厕所",
        "address": "四川省自贡市自流井区五星街与同兴路交叉口正北方向206米左右",
        "tel": "",
        "category": "基础设施:公共设施:公共厕所",
        "type": 0,
        "location": {
            "lat": 29.356258,
            "lng": 104.767182
        },
        "ad_info": {
            "adcode": 510302,
            "province": "四川省",
            "city": "自贡市",
            "district": "自流井区"
        }
    },
    {
        "id": "90461051817734772",
        "title": "公共厕所",
        "address": "四川省自贡市荣县G348与长罗路交叉口西北方向987米左右",
        "tel": "",
        "category": "基础设施:公共设施:公共厕所",
        "type": 0,
        "location": {
            "lat": 29.481511,
            "lng": 104.218083
        },
        "ad_info": {
            "adcode": 510321,
            "province": "四川省",
            "city": "自贡市",
            "district": "荣县"
        }
    },
    {
        "id": "16282252041461305450",
        "title": "公共厕所",
        "address": "四川省自贡市自流井区中华路鹰大吉祥园(龙凤山公园附近)",
        "tel": "",
        "category": "基础设施:公共设施:公共厕所",
        "type": 0,
        "location": {
            "lat": 29.350919,
            "lng": 104.77509
        },
        "ad_info": {
            "adcode": 510302,
            "province": "四川省",
            "city": "自贡市",
            "district": "自流井区"
        }
    },
    {
        "id": "9434015574032935106",
        "title": "公共厕所",
        "address": "四川省自贡市自流井区五星街与新民街交叉口东南方向82米左右",
        "tel": "",
        "category": "基础设施:公共设施:公共厕所",
        "type": 0,
        "location": {
            "lat": 29.355042,
            "lng": 104.769953
        },
        "ad_info": {
            "adcode": 510302,
            "province": "四川省",
            "city": "自贡市",
            "district": "自流井区"
        }
    },
    {
        "id": "3903163787825461282",
        "title": "公共厕所",
        "address": "四川省自贡市沿滩区广场路1号",
        "tel": "",
        "category": "基础设施:公共设施:公共厕所",
        "type": 0,
        "location": {
            "lat": 29.272309,
            "lng": 104.877719
        },
        "ad_info": {
            "adcode": 510311,
            "province": "四川省",
            "city": "自贡市",
            "district": "沿滩区"
        }
    },
    {
        "id": "12516909571950384544",
        "title": "公共厕所",
        "address": "四川省自贡市自流井区临江路与自由路交叉口东南方向33米左右",
        "tel": "",
        "category": "基础设施:公共设施:公共厕所",
        "type": 0,
        "location": {
            "lat": 29.346338,
            "lng": 104.76673
        },
        "ad_info": {
            "adcode": 510302,
            "province": "四川省",
            "city": "自贡市",
            "district": "自流井区"
        }
    },
    {
        "id": "3396084177821050499",
        "title": "公共厕所",
        "address": "四川省自贡市富顺县富州大道与银杏路交叉口正西方向220米左右",
        "tel": "",
        "category": "基础设施:公共设施:公共厕所",
        "type": 0,
        "location": {
            "lat": 29.186738,
            "lng": 104.965646
        },
        "ad_info": {
            "adcode": 510322,
            "province": "四川省",
            "city": "自贡市",
            "district": "富顺县"
        }
    },
    {
        "id": "4384584887613996977",
        "title": "公共厕所",
        "address": "四川省自贡市沿滩区东城北一路与李白河东街交叉口正东方向1362米左右",
        "tel": "",
        "category": "基础设施:公共设施:公共厕所",
        "type": 0,
        "location": {
            "lat": 29.372888,
            "lng": 104.870073
        },
        "ad_info": {
            "adcode": 510311,
            "province": "四川省",
            "city": "自贡市",
            "district": "沿滩区"
        }
    },
    {
        "id": "2157308660820608972",
        "title": "公共厕所",
        "address": "四川省自贡市自流井区卢德铭纪念馆东南侧180米",
        "tel": "",
        "category": "基础设施:公共设施:公共厕所",
        "type": 0,
        "location": {
            "lat": 29.260054,
            "lng": 104.667741
        },
        "ad_info": {
            "adcode": 510302,
            "province": "四川省",
            "city": "自贡市",
            "district": "自流井区"
        }
    },
    {
        "id": "17411272498586362992",
        "title": "公共厕所",
        "address": "四川省自贡市富顺县釜江大道东段柏杨小区",
        "tel": "",
        "category": "基础设施:公共设施:公共厕所",
        "type": 0,
        "location": {
            "lat": 29.180405,
            "lng": 104.982418
        },
        "ad_info": {
            "adcode": 510322,
            "province": "四川省",
            "city": "自贡市",
            "district": "富顺县"
        }
    },
    {
        "id": "9585668887794498300",
        "title": "公共厕所",
        "address": "四川省自贡市自流井区五星街与同兴路交叉口正南方向159米左右",
        "tel": "",
        "category": "基础设施:公共设施:公共厕所",
        "type": 0,
        "location": {
            "lat": 29.353048,
            "lng": 104.767242
        },
        "ad_info": {
            "adcode": 510302,
            "province": "四川省",
            "city": "自贡市",
            "district": "自流井区"
        }
    },
    {
        "id": "6908270112768560737",
        "title": "公共厕所",
        "address": "四川省自贡市大安区仁和支路与仁和路交叉口正北方向61米左右",
        "tel": "",
        "category": "基础设施:公共设施:公共厕所",
        "type": 0,
        "location": {
            "lat": 29.36213,
            "lng": 104.78109
        },
        "ad_info": {
            "adcode": 510304,
            "province": "四川省",
            "city": "自贡市",
            "district": "大安区"
        }
    },
    {
        "id": "17073539984343021680",
        "title": "公共厕所",
        "address": "四川省自贡市荣县G348与留乐路交叉口西北方向1222米左右",
        "tel": "",
        "category": "基础设施:公共设施:公共厕所",
        "type": 0,
        "location": {
            "lat": 29.444457,
            "lng": 104.230615
        },
        "ad_info": {
            "adcode": 510321,
            "province": "四川省",
            "city": "自贡市",
            "district": "荣县"
        }
    },
    {
        "id": "15198825886093308381",
        "title": "公共厕所",
        "address": "四川省自贡市沿滩区G348辅路与兴川南街交叉口东南方向170米左右",
        "tel": "",
        "category": "基础设施:公共设施:公共厕所",
        "type": 0,
        "location": {
            "lat": 29.308725,
            "lng": 104.785601
        },
        "ad_info": {
            "adcode": 510311,
            "province": "四川省",
            "city": "自贡市",
            "district": "沿滩区"
        }
    },
    {
        "id": "10368248082479440184",
        "title": "公共厕所",
        "address": "四川省自贡市荣县G247与振兴北路交叉口正东方向670米左右",
        "tel": "",
        "category": "基础设施:公共设施:公共厕所",
        "type": 0,
        "location": {
            "lat": 29.384086,
            "lng": 104.512617
        },
        "ad_info": {
            "adcode": 510321,
            "province": "四川省",
            "city": "自贡市",
            "district": "荣县"
        }
    },
    {
        "id": "3851976702470943218",
        "title": "公共厕所",
        "address": "四川省自贡市荣县广场路与荣州大道二段交叉口东北方向42米左右",
        "tel": "",
        "category": "基础设施:公共设施:公共厕所",
        "type": 0,
        "location": {
            "lat": 29.444408,
            "lng": 104.415227
        },
        "ad_info": {
            "adcode": 510321,
            "province": "四川省",
            "city": "自贡市",
            "district": "荣县"
        }
    },
    {
        "id": "17214865386565056115",
        "title": "公共厕所",
        "address": "四川省自贡市富顺县富州大道与银杏路交叉口西北方向140米左右",
        "tel": "",
        "category": "基础设施:公共设施:公共厕所",
        "type": 0,
        "location": {
            "lat": 29.187587,
            "lng": 104.967063
        },
        "ad_info": {
            "adcode": 510322,
            "province": "四川省",
            "city": "自贡市",
            "district": "富顺县"
        }
    },
    {
        "id": "12232914304324607717",
        "title": "公共厕所",
        "address": "四川省自贡市富顺县二环路与釜江大道西段交叉口正北方向153米左右",
        "tel": "",
        "category": "基础设施:公共设施:公共厕所",
        "type": 0,
        "location": {
            "lat": 29.180653,
            "lng": 104.958309
        },
        "ad_info": {
            "adcode": 510322,
            "province": "四川省",
            "city": "自贡市",
            "district": "富顺县"
        }
    },
    {
        "id": "2305158065295598803",
        "title": "公共厕所",
        "address": "四川省自贡市富顺县中兴街与复兴街交叉口东北方向160米左右",
        "tel": "",
        "category": "基础设施:公共设施:公共厕所",
        "type": 0,
        "location": {
            "lat": 29.18075,
            "lng": 105.202704
        },
        "ad_info": {
            "adcode": 510322,
            "province": "四川省",
            "city": "自贡市",
            "district": "富顺县"
        }
    },
    {
        "id": "16341931500099202953",
        "title": "公共厕所",
        "address": "四川省自贡市富顺县安和东路北段118号",
        "tel": "",
        "category": "基础设施:公共设施:公共厕所",
        "type": 0,
        "location": {
            "lat": 29.181991,
            "lng": 104.955353
        },
        "ad_info": {
            "adcode": 510322,
            "province": "四川省",
            "city": "自贡市",
            "district": "富顺县"
        }
    },
    {
        "id": "13009235272878188498",
        "title": "公共厕所",
        "address": "四川省自贡市荣县G348与自犍路交叉口东北方向82米左右",
        "tel": "",
        "category": "基础设施:公共设施:公共厕所",
        "type": 0,
        "location": {
            "lat": 29.406393,
            "lng": 104.328347
        },
        "ad_info": {
            "adcode": 510321,
            "province": "四川省",
            "city": "自贡市",
            "district": "荣县"
        }
    },
    {
        "id": "17940942674721708673",
        "title": "公共厕所",
        "address": "四川省自贡市自流井区三台寺路与新民街交叉口东北方向151米左右",
        "tel": "",
        "category": "基础设施:公共设施:公共厕所",
        "type": 0,
        "location": {
            "lat": 29.354494,
            "lng": 104.77173
        },
        "ad_info": {
            "adcode": 510302,
            "province": "四川省",
            "city": "自贡市",
            "district": "自流井区"
        }
    },
    {
        "id": "14436190775672220865",
        "title": "公共厕所",
        "address": "四川省自贡市富顺县西苑街245号",
        "tel": "",
        "category": "基础设施:公共设施:公共厕所",
        "type": 0,
        "location": {
            "lat": 29.187004,
            "lng": 104.962768
        },
        "ad_info": {
            "adcode": 510322,
            "province": "四川省",
            "city": "自贡市",
            "district": "富顺县"
        }
    },
    {
        "id": "17198104483707869865",
        "title": "公共厕所",
        "address": "四川省自贡市大安区大安街与大高路交叉口东北方向161米左右",
        "tel": "",
        "category": "基础设施:公共设施:公共厕所",
        "type": 0,
        "location": {
            "lat": 29.37242,
            "lng": 104.78679
        },
        "ad_info": {
            "adcode": 510304,
            "province": "四川省",
            "city": "自贡市",
            "district": "大安区"
        }
    },
    {
        "id": "6367366585961622643",
        "title": "公共厕所",
        "address": "四川省自贡市荣县二佛路与望景路交叉口东北方向89米左右",
        "tel": "",
        "category": "基础设施:公共设施:公共厕所",
        "type": 0,
        "location": {
            "lat": 29.454176,
            "lng": 104.414968
        },
        "ad_info": {
            "adcode": 510321,
            "province": "四川省",
            "city": "自贡市",
            "district": "荣县"
        }
    },
    {
        "id": "7144993278895212278",
        "title": "公共厕所",
        "address": "四川省自贡市大安区凉高山街与燊海井路交叉口西北方向99米左右",
        "tel": "",
        "category": "基础设施:公共设施:公共厕所",
        "type": 0,
        "location": {
            "lat": 29.384713,
            "lng": 104.808571
        },
        "ad_info": {
            "adcode": 510304,
            "province": "四川省",
            "city": "自贡市",
            "district": "大安区"
        }
    },
    {
        "id": "15544311070438462093",
        "title": "公共厕所",
        "address": "四川省自贡市大安区人民路与仁和路交叉口正北方向114米左右",
        "tel": "",
        "category": "基础设施:公共设施:公共厕所",
        "type": 0,
        "location": {
            "lat": 29.367847,
            "lng": 104.774479
        },
        "ad_info": {
            "adcode": 510304,
            "province": "四川省",
            "city": "自贡市",
            "district": "大安区"
        }
    },
    {
        "id": "9413542934176415418",
        "title": "公共厕所",
        "address": "四川省自贡市荣县体育场路与荣州大道二段交叉口西南方向146米左右",
        "tel": "",
        "category": "基础设施:公共设施:公共厕所",
        "type": 0,
        "location": {
            "lat": 29.44498,
            "lng": 104.41359
        },
        "ad_info": {
            "adcode": 510321,
            "province": "四川省",
            "city": "自贡市",
            "district": "荣县"
        }
    },
    {
        "id": "11840214666296850955",
        "title": "公共厕所",
        "address": "四川省自贡市富顺县富达路与钟秀街东段交叉口东北方向60米左右",
        "tel": "",
        "category": "基础设施:公共设施:公共厕所",
        "type": 0,
        "location": {
            "lat": 29.182553,
            "lng": 104.990163
        },
        "ad_info": {
            "adcode": 510322,
            "province": "四川省",
            "city": "自贡市",
            "district": "富顺县"
        }
    },
    {
        "id": "17072797341872750230",
        "title": "公共厕所",
        "address": "四川省自贡市富顺县印花庄巷与釜江大道中段交叉口正北方向79米左右",
        "tel": "",
        "category": "基础设施:公共设施:公共厕所",
        "type": 0,
        "location": {
            "lat": 29.180933,
            "lng": 104.973714
        },
        "ad_info": {
            "adcode": 510322,
            "province": "四川省",
            "city": "自贡市",
            "district": "富顺县"
        }
    },
    {
        "id": "12017367754888580841",
        "title": "公共厕所",
        "address": "四川省自贡市荣县美丽新城",
        "tel": "",
        "category": "基础设施:公共设施:公共厕所",
        "type": 0,
        "location": {
            "lat": 29.450821,
            "lng": 104.407738
        },
        "ad_info": {
            "adcode": 510321,
            "province": "四川省",
            "city": "自贡市",
            "district": "荣县"
        }
    },
    {
        "id": "6410635761989903483",
        "title": "公共厕所",
        "address": "四川省自贡市富顺县盐井街富顺西城公馆",
        "tel": "",
        "category": "基础设施:公共设施:公共厕所",
        "type": 0,
        "location": {
            "lat": 29.179795,
            "lng": 104.998631
        },
        "ad_info": {
            "adcode": 510322,
            "province": "四川省",
            "city": "自贡市",
            "district": "富顺县"
        }
    },
    {
        "id": "312718432196315831",
        "title": "公共厕所",
        "address": "四川省自贡市沿滩区恒大绿洲北侧160米",
        "tel": "",
        "category": "基础设施:公共设施:公共厕所",
        "type": 0,
        "location": {
            "lat": 29.317616,
            "lng": 104.797504
        },
        "ad_info": {
            "adcode": 510311,
            "province": "四川省",
            "city": "自贡市",
            "district": "沿滩区"
        }
    },
    {
        "id": "18264461245985944846",
        "title": "公共厕所",
        "address": "四川省自贡市大安区北环路与向梯路交叉口正西方向295米左右",
        "tel": "",
        "category": "基础设施:公共设施:公共厕所",
        "type": 0,
        "location": {
            "lat": 29.377174,
            "lng": 104.746286
        },
        "ad_info": {
            "adcode": 510304,
            "province": "四川省",
            "city": "自贡市",
            "district": "大安区"
        }
    },
    {
        "id": "5284303072224258905",
        "title": "公共厕所",
        "address": "四川省自贡市富顺县兜山路与马桑街交叉口正东方向58米左右",
        "tel": "",
        "category": "基础设施:公共设施:公共厕所",
        "type": 0,
        "location": {
            "lat": 29.062547,
            "lng": 104.958937
        },
        "ad_info": {
            "adcode": 510322,
            "province": "四川省",
            "city": "自贡市",
            "district": "富顺县"
        }
    },
    {
        "id": "6726245940814038802",
        "title": "公共厕所",
        "address": "四川省自贡市贡井区G247与南环路交叉口西北方向281米左右",
        "tel": "",
        "category": "基础设施:公共设施:公共厕所",
        "type": 0,
        "location": {
            "lat": 29.331367,
            "lng": 104.720424
        },
        "ad_info": {
            "adcode": 510303,
            "province": "四川省",
            "city": "自贡市",
            "district": "贡井区"
        }
    },
    {
        "id": "2201329314114134385",
        "title": "公共厕所",
        "address": "四川省自贡市富顺县富达路与珍珠山北路交叉口东南方向57米左右",
        "tel": "",
        "category": "基础设施:公共设施:公共厕所",
        "type": 0,
        "location": {
            "lat": 29.18363,
            "lng": 104.991742
        },
        "ad_info": {
            "adcode": 510322,
            "province": "四川省",
            "city": "自贡市",
            "district": "富顺县"
        }
    },
    {
        "id": "798072139796719014",
        "title": "公共厕所",
        "address": "四川省自贡市大安区大安街与燊海井路交叉口东南方向185米左右",
        "tel": "",
        "category": "基础设施:公共设施:公共厕所",
        "type": 0,
        "location": {
            "lat": 29.37275,
            "lng": 104.789144
        },
        "ad_info": {
            "adcode": 510304,
            "province": "四川省",
            "city": "自贡市",
            "district": "大安区"
        }
    },
    {
        "id": "760902053742829273",
        "title": "公共厕所",
        "address": "四川省自贡市富顺县桂花路与象龙路交叉口正西方向57米左右",
        "tel": "",
        "category": "基础设施:公共设施:公共厕所",
        "type": 0,
        "location": {
            "lat": 29.136697,
            "lng": 105.232543
        },
        "ad_info": {
            "adcode": 510322,
            "province": "四川省",
            "city": "自贡市",
            "district": "富顺县"
        }
    },
    {
        "id": "16651160589968482128",
        "title": "公共厕所",
        "address": "四川省自贡市富顺县富州大道中段213-26号",
        "tel": "",
        "category": "基础设施:公共设施:公共厕所",
        "type": 0,
        "location": {
            "lat": 29.18468,
            "lng": 104.975315
        },
        "ad_info": {
            "adcode": 510322,
            "province": "四川省",
            "city": "自贡市",
            "district": "富顺县"
        }
    },
    {
        "id": "11172950670485075018",
        "title": "公共厕所",
        "address": "四川省自贡市大安区凉燕路与凉高山街交叉口西南方向327米左右",
        "tel": "",
        "category": "基础设施:公共设施:公共厕所",
        "type": 0,
        "location": {
            "lat": 29.381742,
            "lng": 104.79608
        },
        "ad_info": {
            "adcode": 510304,
            "province": "四川省",
            "city": "自贡市",
            "district": "大安区"
        }
    },
    {
        "id": "15613320915070285123",
        "title": "公共厕所",
        "address": "四川省自贡市贡井区盐马路与贡雷路交叉口西北方向58米左右",
        "tel": "",
        "category": "基础设施:公共设施:公共厕所",
        "type": 0,
        "location": {
            "lat": 29.346969,
            "lng": 104.718913
        },
        "ad_info": {
            "adcode": 510303,
            "province": "四川省",
            "city": "自贡市",
            "district": "贡井区"
        }
    },
    {
        "id": "2685273264814642543",
        "title": "公共厕所",
        "address": "四川省自贡市大安区汇东路与汇川路交叉口东北方向151米左右",
        "tel": "",
        "category": "基础设施:公共设施:公共厕所",
        "type": 0,
        "location": {
            "lat": 29.33275,
            "lng": 104.74921
        },
        "ad_info": {
            "adcode": 510304,
            "province": "四川省",
            "city": "自贡市",
            "district": "大安区"
        }
    },
    {
        "id": "8916459546012093136",
        "title": "公共厕所",
        "address": "四川省自贡市大安区龙安路与龙艺街交叉口正西方向486米左右",
        "tel": "",
        "category": "基础设施:公共设施:公共厕所",
        "type": 0,
        "location": {
            "lat": 29.403513,
            "lng": 104.816044
        },
        "ad_info": {
            "adcode": 510304,
            "province": "四川省",
            "city": "自贡市",
            "district": "大安区"
        }
    },
    {
        "id": "7111106354727949235",
        "title": "公共厕所",
        "address": "四川省自贡市富顺县晨光路与邓隆路交叉口西南方向402米左右",
        "tel": "",
        "category": "基础设施:公共设施:公共厕所",
        "type": 0,
        "location": {
            "lat": 29.171219,
            "lng": 104.965097
        },
        "ad_info": {
            "adcode": 510322,
            "province": "四川省",
            "city": "自贡市",
            "district": "富顺县"
        }
    },
    {
        "id": "11317299193404139646",
        "title": "公共厕所",
        "address": "四川省自贡市贡井区长土街道派出所(自犍路南)",
        "tel": "",
        "category": "基础设施:公共设施:公共厕所",
        "type": 0,
        "location": {
            "lat": 29.335458,
            "lng": 104.69397
        },
        "ad_info": {
            "adcode": 510303,
            "province": "四川省",
            "city": "自贡市",
            "district": "贡井区"
        }
    },
    {
        "id": "4296696565260532184",
        "title": "公共厕所",
        "address": "四川省自贡市大安区凉燕路与燊海井路交叉口西南方向495米左右",
        "tel": "",
        "category": "基础设施:公共设施:公共厕所",
        "type": 0,
        "location": {
            "lat": 29.379463,
            "lng": 104.795559
        },
        "ad_info": {
            "adcode": 510304,
            "province": "四川省",
            "city": "自贡市",
            "district": "大安区"
        }
    },
    {
        "id": "9779140790888517520",
        "title": "公共厕所",
        "address": "四川省自贡市贡井区S207与贡兴路交叉口正北方向244米左右",
        "tel": "",
        "category": "基础设施:公共设施:公共厕所",
        "type": 0,
        "location": {
            "lat": 29.340181,
            "lng": 104.725181
        },
        "ad_info": {
            "adcode": 510303,
            "province": "四川省",
            "city": "自贡市",
            "district": "贡井区"
        }
    },
    {
        "id": "13687454096770631005",
        "title": "公共厕所",
        "address": "四川省自贡市大安区千子冈路与荆花湾路交叉口正东方向56米左右",
        "tel": "",
        "category": "基础设施:公共设施:公共厕所",
        "type": 0,
        "location": {
            "lat": 29.369529,
            "lng": 104.789678
        },
        "ad_info": {
            "adcode": 510304,
            "province": "四川省",
            "city": "自贡市",
            "district": "大安区"
        }
    },
    {
        "id": "17053600205860845866",
        "title": "公共厕所",
        "address": "四川省自贡市贡井区和平路与枣子园路交叉口正北方向101米左右",
        "tel": "",
        "category": "基础设施:公共设施:公共厕所",
        "type": 0,
        "location": {
            "lat": 29.348165,
            "lng": 104.712958
        },
        "ad_info": {
            "adcode": 510303,
            "province": "四川省",
            "city": "自贡市",
            "district": "贡井区"
        }
    },
    {
        "id": "18198886402807047792",
        "title": "公共厕所",
        "address": "四川省自贡市自流井区体育场路236号",
        "tel": "",
        "category": "基础设施:公共设施:公共厕所",
        "type": 0,
        "location": {
            "lat": 29.357647,
            "lng": 104.776331
        },
        "ad_info": {
            "adcode": 510302,
            "province": "四川省",
            "city": "自贡市",
            "district": "自流井区"
        }
    },
    {
        "id": "3652516705414477479",
        "title": "公共厕所",
        "address": "四川省自贡市贡井区沿河路与贡草路交叉口东南方向431米左右",
        "tel": "",
        "category": "基础设施:公共设施:公共厕所",
        "type": 0,
        "location": {
            "lat": 29.351864,
            "lng": 104.686662
        },
        "ad_info": {
            "adcode": 510303,
            "province": "四川省",
            "city": "自贡市",
            "district": "贡井区"
        }
    },
    {
        "id": "10101459863198077317",
        "title": "公共厕所",
        "address": "四川省自贡市大安区人民路与双塘路交叉口东南360米",
        "tel": "",
        "category": "基础设施:公共设施:公共厕所",
        "type": 0,
        "location": {
            "lat": 29.371843,
            "lng": 104.77508
        },
        "ad_info": {
            "adcode": 510304,
            "province": "四川省",
            "city": "自贡市",
            "district": "大安区"
        }
    },
    {
        "id": "3081049424741426089",
        "title": "公共厕所",
        "address": "四川省自贡市大安区大安街与红旗路交叉口正北方向554米左右",
        "tel": "",
        "category": "基础设施:公共设施:公共厕所",
        "type": 0,
        "location": {
            "lat": 29.375805,
            "lng": 104.779144
        },
        "ad_info": {
            "adcode": 510304,
            "province": "四川省",
            "city": "自贡市",
            "district": "大安区"
        }
    },
    {
        "id": "4043811521033534509",
        "title": "公共厕所",
        "address": "四川省自贡市大安区千子冈路与荆花湾路交叉口正南方向665米左右",
        "tel": "",
        "category": "基础设施:公共设施:公共厕所",
        "type": 0,
        "location": {
            "lat": 29.363401,
            "lng": 104.789753
        },
        "ad_info": {
            "adcode": 510304,
            "province": "四川省",
            "city": "自贡市",
            "district": "大安区"
        }
    },
    {
        "id": "10945804516268674510",
        "title": "公共厕所",
        "address": "四川省自贡市贡井区筱溪街与贡草路交叉口正南方向47米左右",
        "tel": "",
        "category": "基础设施:公共设施:公共厕所",
        "type": 0,
        "location": {
            "lat": 29.344002,
            "lng": 104.713152
        },
        "ad_info": {
            "adcode": 510303,
            "province": "四川省",
            "city": "自贡市",
            "district": "贡井区"
        }
    },
    {
        "id": "13113246095544659461",
        "title": "公共厕所",
        "address": "四川省自贡市贡井区盐马路与金鱼路交叉口正南方向112米左右",
        "tel": "",
        "category": "基础设施:公共设施:公共厕所",
        "type": 0,
        "location": {
            "lat": 29.34571,
            "lng": 104.722015
        },
        "ad_info": {
            "adcode": 510303,
            "province": "四川省",
            "city": "自贡市",
            "district": "贡井区"
        }
    },
    {
        "id": "6681082131192610032",
        "title": "公共厕所",
        "address": "四川省自贡市富顺县古城北路与古城西路交叉口正北方向28米左右",
        "tel": "",
        "category": "基础设施:公共设施:公共厕所",
        "type": 0,
        "location": {
            "lat": 29.185197,
            "lng": 104.999033
        },
        "ad_info": {
            "adcode": 510322,
            "province": "四川省",
            "city": "自贡市",
            "district": "富顺县"
        }
    },
    {
        "id": "6543545617954034043",
        "title": "公共厕所",
        "address": "四川省自贡市自流井区龙汇北街55号",
        "tel": "",
        "category": "基础设施:公共设施:公共厕所",
        "type": 0,
        "location": {
            "lat": 29.337799,
            "lng": 104.772941
        },
        "ad_info": {
            "adcode": 510302,
            "province": "四川省",
            "city": "自贡市",
            "district": "自流井区"
        }
    },
    {
        "id": "11631425644689497710",
        "title": "公共厕所",
        "address": "四川省自贡市贡井区和平路与新华街交叉口正西方向107米左右",
        "tel": "",
        "category": "基础设施:公共设施:公共厕所",
        "type": 0,
        "location": {
            "lat": 29.349731,
            "lng": 104.711324
        },
        "ad_info": {
            "adcode": 510303,
            "province": "四川省",
            "city": "自贡市",
            "district": "贡井区"
        }
    },
    {
        "id": "3109409778106152074",
        "title": "公共厕所",
        "address": "四川省自贡市贡井区和平路与枣子园路交叉口西北方向97米左右",
        "tel": "",
        "category": "基础设施:公共设施:公共厕所",
        "type": 0,
        "location": {
            "lat": 29.348006,
            "lng": 104.711971
        },
        "ad_info": {
            "adcode": 510303,
            "province": "四川省",
            "city": "自贡市",
            "district": "贡井区"
        }
    },
    {
        "id": "383619707085712686",
        "title": "公共厕所",
        "address": "四川省自贡市贡井区沿河路与贡草路交叉口东南方向655米左右",
        "tel": "",
        "category": "基础设施:公共设施:公共厕所",
        "type": 0,
        "location": {
            "lat": 29.349961,
            "lng": 104.68808
        },
        "ad_info": {
            "adcode": 510303,
            "province": "四川省",
            "city": "自贡市",
            "district": "贡井区"
        }
    },
    {
        "id": "17922839616687631668",
        "title": "公共厕所",
        "address": "四川省自贡市贡井区自犍路与长土街交叉口西北方向391米左右",
        "tel": "",
        "category": "基础设施:公共设施:公共厕所",
        "type": 0,
        "location": {
            "lat": 29.338995,
            "lng": 104.690984
        },
        "ad_info": {
            "adcode": 510303,
            "province": "四川省",
            "city": "自贡市",
            "district": "贡井区"
        }
    },
    {
        "id": "10039546458319013707",
        "title": "公共厕所",
        "address": "四川省自贡市自流井区王贡路与自宜路交叉口正北方向385米左右",
        "tel": "",
        "category": "基础设施:公共设施:公共厕所",
        "type": 0,
        "location": {
            "lat": 29.300196,
            "lng": 104.731998
        },
        "ad_info": {
            "adcode": 510302,
            "province": "四川省",
            "city": "自贡市",
            "district": "自流井区"
        }
    },
    {
        "id": "15613963897408066428",
        "title": "公共厕所",
        "address": "四川省自贡市富顺县吉安庄路与富州大道东段交叉口正西方向105米左右",
        "tel": "",
        "category": "基础设施:公共设施:公共厕所",
        "type": 0,
        "location": {
            "lat": 29.185782,
            "lng": 104.988991
        },
        "ad_info": {
            "adcode": 510322,
            "province": "四川省",
            "city": "自贡市",
            "district": "富顺县"
        }
    },
    {
        "id": "18204741818090800180",
        "title": "公共厕所",
        "address": "四川省自贡市富顺县文庙正街与西湖路交叉口正北方向222米左右",
        "tel": "",
        "category": "基础设施:公共设施:公共厕所",
        "type": 0,
        "location": {
            "lat": 29.18004,
            "lng": 105.00107
        },
        "ad_info": {
            "adcode": 510322,
            "province": "四川省",
            "city": "自贡市",
            "district": "富顺县"
        }
    },
    {
        "id": "1843209738602969482",
        "title": "公共厕所",
        "address": "四川省自贡市富顺县望云北路与富州大道辅路交叉口西南200米",
        "tel": "",
        "category": "基础设施:公共设施:公共厕所",
        "type": 0,
        "location": {
            "lat": 29.18477,
            "lng": 104.97174
        },
        "ad_info": {
            "adcode": 510322,
            "province": "四川省",
            "city": "自贡市",
            "district": "富顺县"
        }
    },
    {
        "id": "4501043190903055589",
        "title": "公共厕所",
        "address": "四川省自贡市荣县桂林街198号",
        "tel": "",
        "category": "基础设施:公共设施:公共厕所",
        "type": 0,
        "location": {
            "lat": 29.456261,
            "lng": 104.42446
        },
        "ad_info": {
            "adcode": 510321,
            "province": "四川省",
            "city": "自贡市",
            "district": "荣县"
        }
    },
    {
        "id": "2933869145773441197",
        "title": "女洗手间(百盛购物中心)",
        "address": "四川省自贡市自流井区汇兴路新美国际3期百盛购物中心F2层",
        "tel": "",
        "category": "基础设施:公共设施:公共厕所",
        "type": 0,
        "location": {
            "lat": 29.332892,
            "lng": 104.771222
        },
        "ad_info": {
            "adcode": 510302,
            "province": "四川省",
            "city": "自贡市",
            "district": "自流井区"
        }
    },
    {
        "id": "6010954604846160540",
        "title": "公共厕所",
        "address": "四川省自贡市大安区周家冲路与站台路交叉口正南方向109米左右",
        "tel": "",
        "category": "基础设施:公共设施:公共厕所",
        "type": 0,
        "location": {
            "lat": 29.366093,
            "lng": 104.782291
        },
        "ad_info": {
            "adcode": 510304,
            "province": "四川省",
            "city": "自贡市",
            "district": "大安区"
        }
    },
    {
        "id": "5684421131501817695",
        "title": "女洗手间(居家生活馆)",
        "address": "四川省自贡市自流井区丹桂街道华商国际城四号楼居家生活馆F3层",
        "tel": "",
        "category": "基础设施:公共设施:公共厕所",
        "type": 0,
        "location": {
            "lat": 29.318936,
            "lng": 104.771974
        },
        "ad_info": {
            "adcode": 510302,
            "province": "四川省",
            "city": "自贡市",
            "district": "自流井区"
        }
    },
    {
        "id": "8505888846346887774",
        "title": "自贡服务区公共厕所",
        "address": "四川省自贡市沿滩区G4215蓉遵高速与自贡服务区交叉口东380米",
        "tel": "",
        "category": "基础设施:公共设施:公共厕所",
        "type": 0,
        "location": {
            "lat": 29.34683,
            "lng": 104.899808
        },
        "ad_info": {
            "adcode": 510311,
            "province": "四川省",
            "city": "自贡市",
            "district": "沿滩区"
        }
    },
    {
        "id": "13216088024730971477",
        "title": "公共厕所",
        "address": "四川省自贡市大安区太大路与板牛路交叉口东北方向759米左右",
        "tel": "",
        "category": "基础设施:公共设施:公共厕所",
        "type": 0,
        "location": {
            "lat": 29.377241,
            "lng": 105.02257
        },
        "ad_info": {
            "adcode": 510304,
            "province": "四川省",
            "city": "自贡市",
            "district": "大安区"
        }
    },
    {
        "id": "14086837011094195468",
        "title": "公共厕所",
        "address": "四川省自贡市大安区仁和支路与仁和路交叉口正南方向306米左右",
        "tel": "",
        "category": "基础设施:公共设施:公共厕所",
        "type": 0,
        "location": {
            "lat": 29.358944,
            "lng": 104.7801
        },
        "ad_info": {
            "adcode": 510304,
            "province": "四川省",
            "city": "自贡市",
            "district": "大安区"
        }
    },
    {
        "id": "16119312224690283732",
        "title": "公共厕所",
        "address": "四川省自贡市荣县新生街与河街交叉口东北方向74米左右",
        "tel": "",
        "category": "基础设施:公共设施:公共厕所",
        "type": 0,
        "location": {
            "lat": 29.454281,
            "lng": 104.4214
        },
        "ad_info": {
            "adcode": 510321,
            "province": "四川省",
            "city": "自贡市",
            "district": "荣县"
        }
    },
    {
        "id": "5814731020484750872",
        "title": "无障碍公共厕所",
        "address": "四川省自贡市荣县古城街与北街交叉口西南60米",
        "tel": "",
        "category": "基础设施:公共设施:公共厕所",
        "type": 0,
        "location": {
            "lat": 29.458039,
            "lng": 104.416538
        },
        "ad_info": {
            "adcode": 510321,
            "province": "四川省",
            "city": "自贡市",
            "district": "荣县"
        }
    },
    {
        "id": "1429761634745889805",
        "title": "公共厕所",
        "address": "四川省自贡市贡井区交通路与新兴路交叉口正东方向189米左右",
        "tel": "",
        "category": "基础设施:公共设施:公共厕所",
        "type": 0,
        "location": {
            "lat": 29.391966,
            "lng": 104.613903
        },
        "ad_info": {
            "adcode": 510303,
            "province": "四川省",
            "city": "自贡市",
            "district": "贡井区"
        }
    },
    {
        "id": "13415728985037379300",
        "title": "自贡北服务区公共厕所",
        "address": "四川省自贡市沿滩区科创一路与荣川二支路交叉口西北方向469米左右",
        "tel": "",
        "category": "基础设施:公共设施:公共厕所",
        "type": 0,
        "location": {
            "lat": 29.333442,
            "lng": 104.800286
        },
        "ad_info": {
            "adcode": 510311,
            "province": "四川省",
            "city": "自贡市",
            "district": "沿滩区"
        }
    },
    {
        "id": "9890828873783859879",
        "title": "荣县服务区公共厕所",
        "address": "四川省自贡市荣县南枢纽与隆汉高速交叉口东南方向1605米左右",
        "tel": "",
        "category": "基础设施:公共设施:公共厕所",
        "type": 0,
        "location": {
            "lat": 29.394625,
            "lng": 104.440475
        },
        "ad_info": {
            "adcode": 510321,
            "province": "四川省",
            "city": "自贡市",
            "district": "荣县"
        }
    },
    {
        "id": "12633103303095250864",
        "title": "富顺服务区第二公共厕所",
        "address": "四川省自贡市富顺县G4215蓉遵高速与富顺服务区交叉口东300米",
        "tel": "",
        "category": "基础设施:公共设施:公共厕所",
        "type": 0,
        "location": {
            "lat": 29.189166,
            "lng": 105.08348
        },
        "ad_info": {
            "adcode": 510322,
            "province": "四川省",
            "city": "自贡市",
            "district": "富顺县"
        }
    },
    {
        "id": "16879566243673904707",
        "title": "自贡沿滩服务区公共厕所",
        "address": "四川省自贡市沿滩区兴顺路与汇祥路交叉口正东方向1955米左右",
        "tel": "",
        "category": "基础设施:公共设施:公共厕所",
        "type": 0,
        "location": {
            "lat": 29.237378,
            "lng": 104.912398
        },
        "ad_info": {
            "adcode": 510311,
            "province": "四川省",
            "city": "自贡市",
            "district": "沿滩区"
        }
    },
    {
        "id": "14611764523043477156",
        "title": "肯德基(汇东餐厅)-洗手间",
        "address": "四川省自贡市自流井区汇兴路与龙汇北街交叉口正南方向119米左右",
        "tel": "",
        "category": "基础设施:公共设施:公共厕所",
        "type": 0,
        "location": {
            "lat": 29.332465,
            "lng": 104.771597
        },
        "ad_info": {
            "adcode": 510302,
            "province": "四川省",
            "city": "自贡市",
            "district": "自流井区"
        }
    },
    {
        "id": "15851962737247014504",
        "title": "自贡北服务区公共厕所",
        "address": "四川省自贡市沿滩区科创一路与荣川二支路交叉口西北方向628米左右",
        "tel": "",
        "category": "基础设施:公共设施:公共厕所",
        "type": 0,
        "location": {
            "lat": 29.334724,
            "lng": 104.799486
        },
        "ad_info": {
            "adcode": 510311,
            "province": "四川省",
            "city": "自贡市",
            "district": "沿滩区"
        }
    },
    {
        "id": "12317492138967915045",
        "title": "荣县服务区公共厕所",
        "address": "四川省自贡市荣县南枢纽与隆汉高速交叉口东南方向1482米左右",
        "tel": "",
        "category": "基础设施:公共设施:公共厕所",
        "type": 0,
        "location": {
            "lat": 29.394128,
            "lng": 104.438654
        },
        "ad_info": {
            "adcode": 510321,
            "province": "四川省",
            "city": "自贡市",
            "district": "荣县"
        }
    },
    {
        "id": "12980818693965911117",
        "title": "公共厕所",
        "address": "四川省自贡市大安区大安街与红旗路交叉口正东方向143米左右",
        "tel": "",
        "category": "基础设施:公共设施:公共厕所",
        "type": 0,
        "location": {
            "lat": 29.371495,
            "lng": 104.782644
        },
        "ad_info": {
            "adcode": 510304,
            "province": "四川省",
            "city": "自贡市",
            "district": "大安区"
        }
    },
    {
        "id": "16418466859868404744",
        "title": "公共厕所",
        "address": "四川省自贡市贡井区自犍路与高黎路交叉口正东方向443米左右",
        "tel": "",
        "category": "基础设施:公共设施:公共厕所",
        "type": 0,
        "location": {
            "lat": 29.299123,
            "lng": 104.588058
        },
        "ad_info": {
            "adcode": 510303,
            "province": "四川省",
            "city": "自贡市",
            "district": "贡井区"
        }
    },
    {
        "id": "4767215659402929826",
        "title": "公共厕所",
        "address": "四川省自贡市大安区S206与大安街交叉口正南方向193米左右",
        "tel": "",
        "category": "基础设施:公共设施:公共厕所",
        "type": 0,
        "location": {
            "lat": 29.368947,
            "lng": 104.784678
        },
        "ad_info": {
            "adcode": 510304,
            "province": "四川省",
            "city": "自贡市",
            "district": "大安区"
        }
    },
    {
        "id": "2122887840989219570",
        "title": "公共厕所",
        "address": "四川省自贡市富顺县晨光路与釜江大道中段交叉口西北方向78米左右",
        "tel": "",
        "category": "基础设施:公共设施:公共厕所",
        "type": 0,
        "location": {
            "lat": 29.180668,
            "lng": 104.974358
        },
        "ad_info": {
            "adcode": 510322,
            "province": "四川省",
            "city": "自贡市",
            "district": "富顺县"
        }
    },
    {
        "id": "4201723942080242400",
        "title": "公共厕所",
        "address": "四川省自贡市自流井区五星街与珍珠寺路交叉口东南方向245米左右",
        "tel": "",
        "category": "基础设施:公共设施:公共厕所",
        "type": 0,
        "location": {
            "lat": 29.355991,
            "lng": 104.773151
        },
        "ad_info": {
            "adcode": 510302,
            "province": "四川省",
            "city": "自贡市",
            "district": "自流井区"
        }
    },
    {
        "id": "678256184469789768",
        "title": "公共厕所",
        "address": "四川省自贡市贡井区G247与贡草路交叉口西南方向69米左右",
        "tel": "",
        "category": "基础设施:公共设施:公共厕所",
        "type": 0,
        "location": {
            "lat": 29.364107,
            "lng": 104.664941
        },
        "ad_info": {
            "adcode": 510303,
            "province": "四川省",
            "city": "自贡市",
            "district": "贡井区"
        }
    },
    {
        "id": "9122576842768232534",
        "title": "公共厕所",
        "address": "四川省自贡市自流井区檀木林街",
        "tel": "",
        "category": "基础设施:公共设施:公共厕所",
        "type": 0,
        "location": {
            "lat": 29.353921,
            "lng": 104.774497
        },
        "ad_info": {
            "adcode": 510302,
            "province": "四川省",
            "city": "自贡市",
            "district": "自流井区"
        }
    },
    {
        "id": "7588249831295477628",
        "title": "公共厕所",
        "address": "四川省自贡市贡井区广场路与泰丰和平广场商业街交叉口正北方向148米左右",
        "tel": "",
        "category": "基础设施:公共设施:公共厕所",
        "type": 0,
        "location": {
            "lat": 29.34655,
            "lng": 104.710652
        },
        "ad_info": {
            "adcode": 510303,
            "province": "四川省",
            "city": "自贡市",
            "district": "贡井区"
        }
    },
    {
        "id": "1498372151032250270",
        "title": "公共厕所",
        "address": "四川省自贡市富顺县二七农贸市场内",
        "tel": "",
        "category": "基础设施:公共设施:公共厕所",
        "type": 0,
        "location": {
            "lat": 29.215413,
            "lng": 105.146026
        },
        "ad_info": {
            "adcode": 510322,
            "province": "四川省",
            "city": "自贡市",
            "district": "富顺县"
        }
    },
    {
        "id": "5268291273721525513",
        "title": "公共厕所",
        "address": "四川省自贡市贡井区天池山路与枣子园路交叉口正东方向21米左右",
        "tel": "",
        "category": "基础设施:公共设施:公共厕所",
        "type": 0,
        "location": {
            "lat": 29.348552,
            "lng": 104.709222
        },
        "ad_info": {
            "adcode": 510303,
            "province": "四川省",
            "city": "自贡市",
            "district": "贡井区"
        }
    },
    {
        "id": "8984067214556962356",
        "title": "公共厕所",
        "address": "四川省自贡市贡井区G247与南环路交叉口西南方向222米左右",
        "tel": "",
        "category": "基础设施:公共设施:公共厕所",
        "type": 0,
        "location": {
            "lat": 29.327845,
            "lng": 104.721064
        },
        "ad_info": {
            "adcode": 510303,
            "province": "四川省",
            "city": "自贡市",
            "district": "贡井区"
        }
    },
    {
        "id": "11202123645229328770",
        "title": "公共厕所",
        "address": "四川省自贡市贡井区S207与贡兴路交叉口东南方向432米左右",
        "tel": "",
        "category": "基础设施:公共设施:公共厕所",
        "type": 0,
        "location": {
            "lat": 29.335072,
            "lng": 104.728831
        },
        "ad_info": {
            "adcode": 510303,
            "province": "四川省",
            "city": "自贡市",
            "district": "贡井区"
        }
    },
    {
        "id": "12545868441177043770",
        "title": "公共厕所",
        "address": "四川省自贡市自流井区五星街与新民街交叉口正东方向137米左右",
        "tel": "",
        "category": "基础设施:公共设施:公共厕所",
        "type": 0,
        "location": {
            "lat": 29.355355,
            "lng": 104.770738
        },
        "ad_info": {
            "adcode": 510302,
            "province": "四川省",
            "city": "自贡市",
            "district": "自流井区"
        }
    },
    {
        "id": "18107135133647479466",
        "title": "公共厕所",
        "address": "四川省自贡市贡井区东风路与贡雷路交叉口东北方向22米左右",
        "tel": "",
        "category": "基础设施:公共设施:公共厕所",
        "type": 0,
        "location": {
            "lat": 29.349323,
            "lng": 104.719102
        },
        "ad_info": {
            "adcode": 510303,
            "province": "四川省",
            "city": "自贡市",
            "district": "贡井区"
        }
    },
    {
        "id": "12652123752167721510",
        "title": "公共厕所",
        "address": "四川省自贡市荣县Y017与观新路交叉口东南方向922米左右",
        "tel": "",
        "category": "基础设施:公共设施:公共厕所",
        "type": 0,
        "location": {
            "lat": 29.241098,
            "lng": 104.229902
        },
        "ad_info": {
            "adcode": 510321,
            "province": "四川省",
            "city": "自贡市",
            "district": "荣县"
        }
    },
    {
        "id": "14358367936332331524",
        "title": "公共厕所",
        "address": "四川省自贡市富顺县崇文街与银杏路交叉口西南方向246米左右",
        "tel": "",
        "category": "基础设施:公共设施:公共厕所",
        "type": 0,
        "location": {
            "lat": 29.188061,
            "lng": 104.965281
        },
        "ad_info": {
            "adcode": 510322,
            "province": "四川省",
            "city": "自贡市",
            "district": "富顺县"
        }
    },
    {
        "id": "15383320903879392558",
        "title": "公共厕所",
        "address": "四川省自贡市荣县星河金河湾",
        "tel": "",
        "category": "基础设施:公共设施:公共厕所",
        "type": 0,
        "location": {
            "lat": 29.439769,
            "lng": 104.410077
        },
        "ad_info": {
            "adcode": 510321,
            "province": "四川省",
            "city": "自贡市",
            "district": "荣县"
        }
    },
    {
        "id": "1520004132324565853",
        "title": "公共厕所",
        "address": "四川省自贡市沿滩区G348与开元北路交叉口正北方向599米左右",
        "tel": "",
        "category": "基础设施:公共设施:公共厕所",
        "type": 0,
        "location": {
            "lat": 29.283593,
            "lng": 104.866978
        },
        "ad_info": {
            "adcode": 510311,
            "province": "四川省",
            "city": "自贡市",
            "district": "沿滩区"
        }
    },
    {
        "id": "17718570807298630579",
        "title": "公共厕所",
        "address": "四川省自贡市沿滩区广场路24号",
        "tel": "",
        "category": "基础设施:公共设施:公共厕所",
        "type": 0,
        "location": {
            "lat": 29.275241,
            "lng": 104.87509
        },
        "ad_info": {
            "adcode": 510311,
            "province": "四川省",
            "city": "自贡市",
            "district": "沿滩区"
        }
    },
    {
        "id": "13744728221159078811",
        "title": "公共厕所",
        "address": "四川省自贡市贡井区石牛立交与荣兴路辅路交叉口正北方向592米左右",
        "tel": "",
        "category": "基础设施:公共设施:公共厕所",
        "type": 0,
        "location": {
            "lat": 29.327511,
            "lng": 104.713372
        },
        "ad_info": {
            "adcode": 510303,
            "province": "四川省",
            "city": "自贡市",
            "district": "贡井区"
        }
    },
    {
        "id": "10954274577664953230",
        "title": "公共厕所",
        "address": "四川省自贡市自流井区西环路方冲小区",
        "tel": "",
        "category": "基础设施:公共设施:公共厕所",
        "type": 0,
        "location": {
            "lat": 29.334044,
            "lng": 104.779079
        },
        "ad_info": {
            "adcode": 510302,
            "province": "四川省",
            "city": "自贡市",
            "district": "自流井区"
        }
    },
    {
        "id": "8097478108106424261",
        "title": "公共厕所",
        "address": "四川省自贡市自流井区华商南路与幸福东街交叉口西北方向160米左右",
        "tel": "",
        "category": "基础设施:公共设施:公共厕所",
        "type": 0,
        "location": {
            "lat": 29.319922,
            "lng": 104.77022
        },
        "ad_info": {
            "adcode": 510302,
            "province": "四川省",
            "city": "自贡市",
            "district": "自流井区"
        }
    },
    {
        "id": "10306825952394272607",
        "title": "食神厕所兔华商三期店",
        "address": "四川省自贡市自流井区华商国际城三期釜溪里25栋D-59号60号",
        "tel": "0813-8285156;13778557588",
        "category": "基础设施:公共设施:公共厕所",
        "type": 0,
        "location": {
            "lat": 29.320436,
            "lng": 104.76441
        },
        "ad_info": {
            "adcode": 510302,
            "province": "四川省",
            "city": "自贡市",
            "district": "自流井区"
        }
    },
    {
        "id": "2268387048655928789",
        "title": "煤炭坝盐帮菜厕所兔",
        "address": "四川省自贡市自流井区珍珠寺路与珍珠山路交叉口正北方向35米左右",
        "tel": "13980222364",
        "category": "基础设施:公共设施:公共厕所",
        "type": 0,
        "location": {
            "lat": 29.357871,
            "lng": 104.770719
        },
        "ad_info": {
            "adcode": 510302,
            "province": "四川省",
            "city": "自贡市",
            "district": "自流井区"
        }
    },
    {
        "id": "15496766892575095787",
        "title": "厕所兔(旗舰总店)",
        "address": "四川省自贡市大安区大安街与燊海井路交叉口正南方向220米左右",
        "tel": "15808136381",
        "category": "基础设施:公共设施:公共厕所",
        "type": 0,
        "location": {
            "lat": 29.372383,
            "lng": 104.787642
        },
        "ad_info": {
            "adcode": 510304,
            "province": "四川省",
            "city": "自贡市",
            "district": "大安区"
        }
    },
    {
        "id": "8590348691170410715",
        "title": "食神又名厕所兔老街店",
        "address": "四川省自贡市自流井区光大街老街顺河路152号附51号",
        "tel": "13778519262",
        "category": "基础设施:公共设施:公共厕所",
        "type": 0,
        "location": {
            "lat": 29.347799,
            "lng": 104.759201
        },
        "ad_info": {
            "adcode": 510302,
            "province": "四川省",
            "city": "自贡市",
            "district": "自流井区"
        }
    },
    {
        "id": "18058110616508826715",
        "title": "公共厕所",
        "address": "四川省自贡市沿滩区Y118与板牛路交叉口正北方向713米左右",
        "tel": "",
        "category": "基础设施:公共设施:公共厕所",
        "type": 0,
        "location": {
            "lat": 29.218656,
            "lng": 104.81651
        },
        "ad_info": {
            "adcode": 510311,
            "province": "四川省",
            "city": "自贡市",
            "district": "沿滩区"
        }
    },
    {
        "id": "17142251302362466712",
        "title": "公共厕所",
        "address": "四川省自贡市富顺县古城西路与少湖路交叉口西南方向47米左右",
        "tel": "",
        "category": "基础设施:公共设施:公共厕所",
        "type": 0,
        "location": {
            "lat": 29.18129,
            "lng": 104.998504
        },
        "ad_info": {
            "adcode": 510322,
            "province": "四川省",
            "city": "自贡市",
            "district": "富顺县"
        }
    },
    {
        "id": "9613423642439525371",
        "title": "公共厕所",
        "address": "四川省自贡市富顺县东湖路与东大街一段交叉口东北80米",
        "tel": "",
        "category": "基础设施:公共设施:公共厕所",
        "type": 0,
        "location": {
            "lat": 29.178401,
            "lng": 105.013208
        },
        "ad_info": {
            "adcode": 510322,
            "province": "四川省",
            "city": "自贡市",
            "district": "富顺县"
        }
    },
    {
        "id": "7724029035975422756",
        "title": "食神厕所兔(煤炭坝总店)",
        "address": "四川省自贡市自流井区珍珠寺珍珠山路26-28号",
        "tel": "15397799959",
        "category": "基础设施:公共设施:公共厕所",
        "type": 0,
        "location": {
            "lat": 29.358148,
            "lng": 104.770762
        },
        "ad_info": {
            "adcode": 510302,
            "province": "四川省",
            "city": "自贡市",
            "district": "自流井区"
        }
    },
    {
        "id": "400238830675994724",
        "title": "公共厕所",
        "address": "四川省自贡市富顺县吉祥路与祥云街东段交叉口正西方向44米左右",
        "tel": "",
        "category": "基础设施:公共设施:公共厕所",
        "type": 0,
        "location": {
            "lat": 29.18408,
            "lng": 104.985968
        },
        "ad_info": {
            "adcode": 510322,
            "province": "四川省",
            "city": "自贡市",
            "district": "富顺县"
        }
    },
    {
        "id": "3319333793952847889",
        "title": "公共厕所",
        "address": "四川省自贡市自流井区西南物流园水果三区",
        "tel": "",
        "category": "基础设施:公共设施:公共厕所",
        "type": 0,
        "location": {
            "lat": 29.28769,
            "lng": 104.747326
        },
        "ad_info": {
            "adcode": 510302,
            "province": "四川省",
            "city": "自贡市",
            "district": "自流井区"
        }
    },
    {
        "id": "11995550051467466277",
        "title": "厕所兔(汇东总店)",
        "address": "四川省自贡市自流井区东兴寺立交桥与汇东路交叉口正南方向19米左右",
        "tel": "18990019103",
        "category": "基础设施:公共设施:公共厕所",
        "type": 0,
        "location": {
            "lat": 29.346468,
            "lng": 104.780403
        },
        "ad_info": {
            "adcode": 510302,
            "province": "四川省",
            "city": "自贡市",
            "district": "自流井区"
        }
    },
    {
        "id": "14238203836418821227",
        "title": "公共厕所",
        "address": "四川省自贡市富顺县金谷路与钟秀街交叉口正北方向145米左右",
        "tel": "",
        "category": "基础设施:公共设施:公共厕所",
        "type": 0,
        "location": {
            "lat": 29.183724,
            "lng": 104.960311
        },
        "ad_info": {
            "adcode": 510322,
            "province": "四川省",
            "city": "自贡市",
            "district": "富顺县"
        }
    },
    {
        "id": "17570671460436736134",
        "title": "公共厕所",
        "address": "四川省自贡市富顺县釜江大道东段340号",
        "tel": "",
        "category": "基础设施:公共设施:公共厕所",
        "type": 0,
        "location": {
            "lat": 29.178162,
            "lng": 104.99013
        },
        "ad_info": {
            "adcode": 510322,
            "province": "四川省",
            "city": "自贡市",
            "district": "富顺县"
        }
    },
    {
        "id": "15509030042428118074",
        "title": "公共厕所",
        "address": "四川省自贡市荣县旭水大道与富西路交叉口东南180米",
        "tel": "",
        "category": "基础设施:公共设施:公共厕所",
        "type": 0,
        "location": {
            "lat": 29.44608,
            "lng": 104.403311
        },
        "ad_info": {
            "adcode": 510321,
            "province": "四川省",
            "city": "自贡市",
            "district": "荣县"
        }
    },
    {
        "id": "9901140866266688952",
        "title": "公共厕所",
        "address": "四川省自贡市大安区东环线互通立交桥与东环路交叉口正南方向32米左右",
        "tel": "",
        "category": "基础设施:公共设施:公共厕所",
        "type": 0,
        "location": {
            "lat": 29.361428,
            "lng": 104.836797
        },
        "ad_info": {
            "adcode": 510304,
            "province": "四川省",
            "city": "自贡市",
            "district": "大安区"
        }
    },
    {
        "id": "8224813490577232867",
        "title": "公共厕所",
        "address": "四川省自贡市沿滩区兴川南街与兴川街交叉口西南方向172米左右",
        "tel": "",
        "category": "基础设施:公共设施:公共厕所",
        "type": 0,
        "location": {
            "lat": 29.325187,
            "lng": 104.784657
        },
        "ad_info": {
            "adcode": 510311,
            "province": "四川省",
            "city": "自贡市",
            "district": "沿滩区"
        }
    },
    {
        "id": "2883698457220992854",
        "title": "公共厕所",
        "address": "四川省自贡市自流井区商业街与自由路交叉口东北方向268米左右",
        "tel": "",
        "category": "基础设施:公共设施:公共厕所",
        "type": 0,
        "location": {
            "lat": 29.35097,
            "lng": 104.766812
        },
        "ad_info": {
            "adcode": 510302,
            "province": "四川省",
            "city": "自贡市",
            "district": "自流井区"
        }
    },
    {
        "id": "15784807501521749244",
        "title": "公共厕所",
        "address": "四川省自贡市富顺县钟秀街与银杏北路交叉口东北方向221米左右",
        "tel": "",
        "category": "基础设施:公共设施:公共厕所",
        "type": 0,
        "location": {
            "lat": 29.184769,
            "lng": 104.969429
        },
        "ad_info": {
            "adcode": 510322,
            "province": "四川省",
            "city": "自贡市",
            "district": "富顺县"
        }
    },
    {
        "id": "8284221606907331737",
        "title": "公共厕所",
        "address": "四川省自贡市富顺县",
        "tel": "",
        "category": "基础设施:公共设施:公共厕所",
        "type": 0,
        "location": {
            "lat": 29.178594,
            "lng": 104.992175
        },
        "ad_info": {
            "adcode": 510322,
            "province": "四川省",
            "city": "自贡市",
            "district": "富顺县"
        }
    },
    {
        "id": "4878280011482710652",
        "title": "洗手间",
        "address": "四川省自贡市自流井区南湖立交与迎宾大道交叉口东北方向163米左右",
        "tel": "",
        "category": "基础设施:公共设施:公共厕所",
        "type": 0,
        "location": {
            "lat": 29.315367,
            "lng": 104.774395
        },
        "ad_info": {
            "adcode": 510302,
            "province": "四川省",
            "city": "自贡市",
            "district": "自流井区"
        }
    },
    {
        "id": "4343282482690240621",
        "title": "无障碍公共厕所",
        "address": "四川省自贡市富顺县金谷路与钟秀街交叉口正北方向145米左右",
        "tel": "",
        "category": "基础设施:公共设施:公共厕所",
        "type": 0,
        "location": {
            "lat": 29.18381,
            "lng": 104.96035
        },
        "ad_info": {
            "adcode": 510322,
            "province": "四川省",
            "city": "自贡市",
            "district": "富顺县"
        }
    },
    {
        "id": "5164512600022183777",
        "title": "长山停车区公共厕所",
        "address": "四川省自贡市荣县来牟镇乐自高速公路长山停车区",
        "tel": "",
        "category": "基础设施:公共设施:公共厕所",
        "type": 0,
        "location": {
            "lat": 29.486198,
            "lng": 104.182906
        },
        "ad_info": {
            "adcode": 510321,
            "province": "四川省",
            "city": "自贡市",
            "district": "荣县"
        }
    },
    {
        "id": "5794295704474216344",
        "title": "半山左厕所",
        "address": "四川省自贡市荣县大佛街与大佛路交叉口正东方向311米左右",
        "tel": "",
        "category": "基础设施:公共设施:公共厕所",
        "type": 0,
        "location": {
            "lat": 29.453009,
            "lng": 104.432591
        },
        "ad_info": {
            "adcode": 510321,
            "province": "四川省",
            "city": "自贡市",
            "district": "荣县"
        }
    },
    {
        "id": "15683975142119209958",
        "title": "公共厕所",
        "address": "四川省自贡市大安区Y029与隆富路交叉口西南方向373米左右",
        "tel": "",
        "category": "基础设施:公共设施:公共厕所",
        "type": 0,
        "location": {
            "lat": 29.432816,
            "lng": 105.060242
        },
        "ad_info": {
            "adcode": 510304,
            "province": "四川省",
            "city": "自贡市",
            "district": "大安区"
        }
    },
    {
        "id": "13422698664580387204",
        "title": "母婴室卫生间",
        "address": "四川省自贡市自流井区华商西街与迎春路交叉口西南方向236米左右",
        "tel": "",
        "category": "基础设施:公共设施:公共厕所",
        "type": 0,
        "location": {
            "lat": 29.319292,
            "lng": 104.765614
        },
        "ad_info": {
            "adcode": 510302,
            "province": "四川省",
            "city": "自贡市",
            "district": "自流井区"
        }
    },
    {
        "id": "8524264149444441663",
        "title": "公共厕所",
        "address": "四川省自贡市富顺县富顺第二中学校办学点西侧170米",
        "tel": "",
        "category": "基础设施:公共设施:公共厕所",
        "type": 0,
        "location": {
            "lat": 29.024305,
            "lng": 105.119208
        },
        "ad_info": {
            "adcode": 510322,
            "province": "四川省",
            "city": "自贡市",
            "district": "富顺县"
        }
    },
    {
        "id": "11917637265829746368",
        "title": "哑巴厕所兔",
        "address": "四川省自贡市自流井区五星街242号",
        "tel": "0813-8281688",
        "category": "基础设施:公共设施:公共厕所",
        "type": 0,
        "location": {
            "lat": 29.355675,
            "lng": 104.76857
        },
        "ad_info": {
            "adcode": 510302,
            "province": "四川省",
            "city": "自贡市",
            "district": "自流井区"
        }
    },
    {
        "id": "11934067262162115816",
        "title": "公共厕所",
        "address": "四川省自贡市荣县留乐路",
        "tel": "",
        "category": "基础设施:公共设施:公共厕所",
        "type": 0,
        "location": {
            "lat": 29.404257,
            "lng": 104.216035
        },
        "ad_info": {
            "adcode": 510321,
            "province": "四川省",
            "city": "自贡市",
            "district": "荣县"
        }
    },
    {
        "id": "16704403573331319456",
        "title": "公共厕所",
        "address": "四川省自贡市大安区东环路与恐龙大道交叉口西北方向447米左右",
        "tel": "",
        "category": "基础设施:公共设施:公共厕所",
        "type": 0,
        "location": {
            "lat": 29.406711,
            "lng": 104.804606
        },
        "ad_info": {
            "adcode": 510304,
            "province": "四川省",
            "city": "自贡市",
            "district": "大安区"
        }
    },
    {
        "id": "10076218636498295231",
        "title": "公共厕所",
        "address": "四川省自贡市大安区A线与B线交叉口东南方向159米左右",
        "tel": "",
        "category": "基础设施:公共设施:公共厕所",
        "type": 0,
        "location": {
            "lat": 29.394613,
            "lng": 104.819182
        },
        "ad_info": {
            "adcode": 510304,
            "province": "四川省",
            "city": "自贡市",
            "district": "大安区"
        }
    },
    {
        "id": "14564406513090569882",
        "title": "公共厕所",
        "address": "四川省自贡市荣县环城东路与东街交叉口东20米",
        "tel": "",
        "category": "基础设施:公共设施:公共厕所",
        "type": 0,
        "location": {
            "lat": 29.457426,
            "lng": 104.43166
        },
        "ad_info": {
            "adcode": 510321,
            "province": "四川省",
            "city": "自贡市",
            "district": "荣县"
        }
    },
    {
        "id": "4919059059574954975",
        "title": "荣县南服务区公共厕所",
        "address": "四川省自贡市荣县S4成宜昭高速与荣县南服务区交叉口北340米",
        "tel": "",
        "category": "基础设施:公共设施:公共厕所",
        "type": 0,
        "location": {
            "lat": 29.395584,
            "lng": 104.345716
        },
        "ad_info": {
            "adcode": 510321,
            "province": "四川省",
            "city": "自贡市",
            "district": "荣县"
        }
    },
    {
        "id": "16517232201755482289",
        "title": "公共厕所",
        "address": "四川省自贡市大安区仁和路与和大立交桥交叉口正南方向265米左右",
        "tel": "",
        "category": "基础设施:公共设施:公共厕所",
        "type": 0,
        "location": {
            "lat": 29.362897,
            "lng": 104.776955
        },
        "ad_info": {
            "adcode": 510304,
            "province": "四川省",
            "city": "自贡市",
            "district": "大安区"
        }
    },
    {
        "id": "3478637347326254080",
        "title": "公共厕所",
        "address": "四川省自贡市富顺县古城西路与罗浮路交叉口东北方向109米左右",
        "tel": "",
        "category": "基础设施:公共设施:公共厕所",
        "type": 0,
        "location": {
            "lat": 29.183748,
            "lng": 104.998063
        },
        "ad_info": {
            "adcode": 510322,
            "province": "四川省",
            "city": "自贡市",
            "district": "富顺县"
        }
    },
    {
        "id": "17901632379065620074",
        "title": "公共厕所",
        "address": "四川省自贡市自流井区后山坡路华隆东方云顶",
        "tel": "",
        "category": "基础设施:公共设施:公共厕所",
        "type": 0,
        "location": {
            "lat": 29.349125,
            "lng": 104.767189
        },
        "ad_info": {
            "adcode": 510302,
            "province": "四川省",
            "city": "自贡市",
            "district": "自流井区"
        }
    },
    {
        "id": "5851992123905480803",
        "title": "荣县石笋沟旅游公共厕所",
        "address": "四川省自贡市荣县石笋沟穿山洞内",
        "tel": "",
        "category": "基础设施:公共设施:公共厕所",
        "type": 0,
        "location": {
            "lat": 29.504064,
            "lng": 104.334085
        },
        "ad_info": {
            "adcode": 510321,
            "province": "四川省",
            "city": "自贡市",
            "district": "荣县"
        }
    },
    {
        "id": "15853925123425546527",
        "title": "公共厕所",
        "address": "四川省自贡市大安区长堰塘CNG加气站东北侧80米",
        "tel": "",
        "category": "基础设施:公共设施:公共厕所",
        "type": 0,
        "location": {
            "lat": 29.377332,
            "lng": 104.792727
        },
        "ad_info": {
            "adcode": 510304,
            "province": "四川省",
            "city": "自贡市",
            "district": "大安区"
        }
    },
    {
        "id": "5203086377534429409",
        "title": "公共厕所",
        "address": "四川省自贡市富顺县东湖街道复兴村富顺站",
        "tel": "",
        "category": "基础设施:公共设施:公共厕所",
        "type": 0,
        "location": {
            "lat": 29.208875,
            "lng": 105.03727
        },
        "ad_info": {
            "adcode": 510322,
            "province": "四川省",
            "city": "自贡市",
            "district": "富顺县"
        }
    },
    {
        "id": "3495480930611423582",
        "title": "食神网红厕所兔",
        "address": "四川省自贡市沿滩区北一路与李白河西街交叉口正南方向70米左右",
        "tel": "",
        "category": "基础设施:公共设施:公共厕所",
        "type": 0,
        "location": {
            "lat": 29.369137,
            "lng": 104.844648
        },
        "ad_info": {
            "adcode": 510311,
            "province": "四川省",
            "city": "自贡市",
            "district": "沿滩区"
        }
    },
    {
        "id": "2595378109517032394",
        "title": "富顺豆花厕所兔",
        "address": "四川省自贡市沿滩区自贡东部新城碧桂园项目一期46栋1F层1-8号商铺",
        "tel": "13990087460",
        "category": "基础设施:公共设施:公共厕所",
        "type": 0,
        "location": {
            "lat": 29.368813,
            "lng": 104.844972
        },
        "ad_info": {
            "adcode": 510311,
            "province": "四川省",
            "city": "自贡市",
            "district": "沿滩区"
        }
    },
    {
        "id": "12663767067871717309",
        "title": "公共厕所",
        "address": "四川省自贡市自流井区G348辅路与通达南街交叉口东南方向127米左右",
        "tel": "",
        "category": "基础设施:公共设施:公共厕所",
        "type": 0,
        "location": {
            "lat": 29.310718,
            "lng": 104.782076
        },
        "ad_info": {
            "adcode": 510302,
            "province": "四川省",
            "city": "自贡市",
            "district": "自流井区"
        }
    },
    {
        "id": "15538061709159854162",
        "title": "公共厕所",
        "address": "四川省自贡市大安区",
        "tel": "",
        "category": "基础设施:公共设施:公共厕所",
        "type": 0,
        "location": {
            "lat": 29.396661,
            "lng": 104.86203
        },
        "ad_info": {
            "adcode": 510304,
            "province": "四川省",
            "city": "自贡市",
            "district": "大安区"
        }
    },
    {
        "id": "9184965832766963090",
        "title": "无障碍公共厕所",
        "address": "四川省自贡市荣县小阳冲路与水井湾路交叉口西南方向152米左右",
        "tel": "",
        "category": "基础设施:公共设施:公共厕所",
        "type": 0,
        "location": {
            "lat": 29.433618,
            "lng": 104.406333
        },
        "ad_info": {
            "adcode": 510321,
            "province": "四川省",
            "city": "自贡市",
            "district": "荣县"
        }
    },
    {
        "id": "2502872177910880997",
        "title": "秦姐副食-厕所",
        "address": "四川省自贡市富顺县Y025与板邱路交叉口西南方向1128米左右",
        "tel": "15228614263",
        "category": "基础设施:公共设施:公共厕所",
        "type": 0,
        "location": {
            "lat": 29.043758,
            "lng": 104.736919
        },
        "ad_info": {
            "adcode": 510322,
            "province": "四川省",
            "city": "自贡市",
            "district": "富顺县"
        }
    },
    {
        "id": "2013998336488751047",
        "title": "公共厕所",
        "address": "四川省自贡市大安区汇东路与汇川路交叉口正北方向56米左右",
        "tel": "",
        "category": "基础设施:公共设施:公共厕所",
        "type": 0,
        "location": {
            "lat": 29.332295,
            "lng": 104.74826
        },
        "ad_info": {
            "adcode": 510304,
            "province": "四川省",
            "city": "自贡市",
            "district": "大安区"
        }
    },
    {
        "id": "4124358729343493846",
        "title": "公共厕所",
        "address": "四川省自贡市富顺县林达路与釜江大道东段交叉口正东方向125米左右",
        "tel": "",
        "category": "基础设施:公共设施:公共厕所",
        "type": 0,
        "location": {
            "lat": 29.17964,
            "lng": 104.995311
        },
        "ad_info": {
            "adcode": 510322,
            "province": "四川省",
            "city": "自贡市",
            "district": "富顺县"
        }
    },
    {
        "id": "11294375567452985409",
        "title": "公共厕所",
        "address": "四川省自贡市沿滩区G348与开元北路交叉口东北方向405米左右",
        "tel": "",
        "category": "基础设施:公共设施:公共厕所",
        "type": 0,
        "location": {
            "lat": 29.281764,
            "lng": 104.870676
        },
        "ad_info": {
            "adcode": 510311,
            "province": "四川省",
            "city": "自贡市",
            "district": "沿滩区"
        }
    },
    {
        "id": "11050858452500297906",
        "title": "公共厕所",
        "address": "四川省自贡市自流井区临江路与富台山路交叉口正东方向219米左右",
        "tel": "",
        "category": "基础设施:公共设施:公共厕所",
        "type": 0,
        "location": {
            "lat": 29.346382,
            "lng": 104.770916
        },
        "ad_info": {
            "adcode": 510302,
            "province": "四川省",
            "city": "自贡市",
            "district": "自流井区"
        }
    },
    {
        "id": "6651840283877110896",
        "title": "公共厕所",
        "address": "四川省自贡市大安区人民路与仁和路交叉口正西方向135米左右",
        "tel": "",
        "category": "基础设施:公共设施:公共厕所",
        "type": 0,
        "location": {
            "lat": 29.366771,
            "lng": 104.773234
        },
        "ad_info": {
            "adcode": 510304,
            "province": "四川省",
            "city": "自贡市",
            "district": "大安区"
        }
    },
    {
        "id": "659551368040914956",
        "title": "厕所兔自贡店",
        "address": "四川省自贡市大安区大安街与燊海井路交叉口正南方向34米左右",
        "tel": "",
        "category": "基础设施:公共设施:公共厕所",
        "type": 0,
        "location": {
            "lat": 29.373986,
            "lng": 104.788486
        },
        "ad_info": {
            "adcode": 510304,
            "province": "四川省",
            "city": "自贡市",
            "district": "大安区"
        }
    },
    {
        "id": "9726858822728895659",
        "title": "食神厕所兔(自贡总店)",
        "address": "四川省自贡市大安区五星街与体育场路交叉口正北方向316米左右",
        "tel": "",
        "category": "基础设施:公共设施:公共厕所",
        "type": 0,
        "location": {
            "lat": 29.362615,
            "lng": 104.772787
        },
        "ad_info": {
            "adcode": 510304,
            "province": "四川省",
            "city": "自贡市",
            "district": "大安区"
        }
    },
    {
        "id": "3182271180912889598",
        "title": "公共厕所",
        "address": "四川省自贡市大安区凉燕路与荆花湾路交叉口正南方向77米左右",
        "tel": "",
        "category": "基础设施:公共设施:公共厕所",
        "type": 0,
        "location": {
            "lat": 29.373231,
            "lng": 104.79785
        },
        "ad_info": {
            "adcode": 510304,
            "province": "四川省",
            "city": "自贡市",
            "district": "大安区"
        }
    },
    {
        "id": "7532365218734712757",
        "title": "自贡停车区公共厕所",
        "address": "四川省自贡市自流井区自贡停车区西50米",
        "tel": "",
        "category": "基础设施:公共设施:公共厕所",
        "type": 0,
        "location": {
            "lat": 29.298888,
            "lng": 104.669701
        },
        "ad_info": {
            "adcode": 510302,
            "province": "四川省",
            "city": "自贡市",
            "district": "自流井区"
        }
    },
    {
        "id": "17041111842956654292",
        "title": "自贡沿滩服务区公共厕所",
        "address": "四川省自贡市沿滩区S22汉隆高速附近",
        "tel": "",
        "category": "基础设施:公共设施:公共厕所",
        "type": 0,
        "location": {
            "lat": 29.238959,
            "lng": 104.914508
        },
        "ad_info": {
            "adcode": 510311,
            "province": "四川省",
            "city": "自贡市",
            "district": "沿滩区"
        }
    },
    {
        "id": "734330661048447796",
        "title": "公共厕所",
        "address": "四川省自贡市贡井区筱溪街与贡草路交叉口东南方向106米左右",
        "tel": "",
        "category": "基础设施:公共设施:公共厕所",
        "type": 0,
        "location": {
            "lat": 29.343722,
            "lng": 104.713817
        },
        "ad_info": {
            "adcode": 510303,
            "province": "四川省",
            "city": "自贡市",
            "district": "贡井区"
        }
    },
    {
        "id": "9205519751013483100",
        "title": "公共厕所",
        "address": "四川省自贡市大安区仁和路与龙井路交叉口正北方向76米左右",
        "tel": "",
        "category": "基础设施:公共设施:公共厕所",
        "type": 0,
        "location": {
            "lat": 29.357674,
            "lng": 104.783942
        },
        "ad_info": {
            "adcode": 510304,
            "province": "四川省",
            "city": "自贡市",
            "district": "大安区"
        }
    },
    {
        "id": "4544309253792645123",
        "title": "公共厕所",
        "address": "四川省自贡市富顺县赵化镇中心卫生院西侧100米",
        "tel": "",
        "category": "基础设施:公共设施:公共厕所",
        "type": 0,
        "location": {
            "lat": 29.026275,
            "lng": 105.125051
        },
        "ad_info": {
            "adcode": 510322,
            "province": "四川省",
            "city": "自贡市",
            "district": "富顺县"
        }
    },
    {
        "id": "1806114360652680872",
        "title": "食神厕所兔(自贡店)",
        "address": "四川省自贡市大安区大安街456号",
        "tel": "15181308725",
        "category": "基础设施:公共设施:公共厕所",
        "type": 0,
        "location": {
            "lat": 29.373907,
            "lng": 104.788404
        },
        "ad_info": {
            "adcode": 510304,
            "province": "四川省",
            "city": "自贡市",
            "district": "大安区"
        }
    },
    {
        "id": "11515127922670480458",
        "title": "公共厕所",
        "address": "四川省自贡市荣县望景路与荣州大道三段交叉口西南方向115米左右",
        "tel": "",
        "category": "基础设施:公共设施:公共厕所",
        "type": 0,
        "location": {
            "lat": 29.448446,
            "lng": 104.410377
        },
        "ad_info": {
            "adcode": 510321,
            "province": "四川省",
            "city": "自贡市",
            "district": "荣县"
        }
    },
    {
        "id": "2595378109517032394",
        "title": "富顺豆花厕所兔",
        "address": "四川省自贡市沿滩区自贡东部新城碧桂园项目一期46栋1F层1-8号商铺",
        "tel": "13990087460",
        "category": "基础设施:公共设施:公共厕所",
        "type": 0,
        "location": {
            "lat": 29.368813,
            "lng": 104.844972
        },
        "ad_info": {
            "adcode": 510311,
            "province": "四川省",
            "city": "自贡市",
            "district": "沿滩区"
        }
    },
    {
        "id": "12663767067871717309",
        "title": "公共厕所",
        "address": "四川省自贡市自流井区G348辅路与通达南街交叉口东南方向127米左右",
        "tel": "",
        "category": "基础设施:公共设施:公共厕所",
        "type": 0,
        "location": {
            "lat": 29.310718,
            "lng": 104.782076
        },
        "ad_info": {
            "adcode": 510302,
            "province": "四川省",
            "city": "自贡市",
            "district": "自流井区"
        }
    },
    {
        "id": "15538061709159854162",
        "title": "公共厕所",
        "address": "四川省自贡市大安区",
        "tel": "",
        "category": "基础设施:公共设施:公共厕所",
        "type": 0,
        "location": {
            "lat": 29.396661,
            "lng": 104.86203
        },
        "ad_info": {
            "adcode": 510304,
            "province": "四川省",
            "city": "自贡市",
            "district": "大安区"
        }
    },
    {
        "id": "9184965832766963090",
        "title": "无障碍公共厕所",
        "address": "四川省自贡市荣县小阳冲路与水井湾路交叉口西南方向152米左右",
        "tel": "",
        "category": "基础设施:公共设施:公共厕所",
        "type": 0,
        "location": {
            "lat": 29.433618,
            "lng": 104.406333
        },
        "ad_info": {
            "adcode": 510321,
            "province": "四川省",
            "city": "自贡市",
            "district": "荣县"
        }
    },
    {
        "id": "2502872177910880997",
        "title": "秦姐副食-厕所",
        "address": "四川省自贡市富顺县Y025与板邱路交叉口西南方向1128米左右",
        "tel": "15228614263",
        "category": "基础设施:公共设施:公共厕所",
        "type": 0,
        "location": {
            "lat": 29.043758,
            "lng": 104.736919
        },
        "ad_info": {
            "adcode": 510322,
            "province": "四川省",
            "city": "自贡市",
            "district": "富顺县"
        }
    },
    {
        "id": "2013998336488751047",
        "title": "公共厕所",
        "address": "四川省自贡市大安区汇东路与汇川路交叉口正北方向56米左右",
        "tel": "",
        "category": "基础设施:公共设施:公共厕所",
        "type": 0,
        "location": {
            "lat": 29.332295,
            "lng": 104.74826
        },
        "ad_info": {
            "adcode": 510304,
            "province": "四川省",
            "city": "自贡市",
            "district": "大安区"
        }
    },
    {
        "id": "4124358729343493846",
        "title": "公共厕所",
        "address": "四川省自贡市富顺县林达路与釜江大道东段交叉口正东方向125米左右",
        "tel": "",
        "category": "基础设施:公共设施:公共厕所",
        "type": 0,
        "location": {
            "lat": 29.17964,
            "lng": 104.995311
        },
        "ad_info": {
            "adcode": 510322,
            "province": "四川省",
            "city": "自贡市",
            "district": "富顺县"
        }
    },
    {
        "id": "11294375567452985409",
        "title": "公共厕所",
        "address": "四川省自贡市沿滩区G348与开元北路交叉口东北方向405米左右",
        "tel": "",
        "category": "基础设施:公共设施:公共厕所",
        "type": 0,
        "location": {
            "lat": 29.281764,
            "lng": 104.870676
        },
        "ad_info": {
            "adcode": 510311,
            "province": "四川省",
            "city": "自贡市",
            "district": "沿滩区"
        }
    },
    {
        "id": "11050858452500297906",
        "title": "公共厕所",
        "address": "四川省自贡市自流井区临江路与富台山路交叉口正东方向219米左右",
        "tel": "",
        "category": "基础设施:公共设施:公共厕所",
        "type": 0,
        "location": {
            "lat": 29.346382,
            "lng": 104.770916
        },
        "ad_info": {
            "adcode": 510302,
            "province": "四川省",
            "city": "自贡市",
            "district": "自流井区"
        }
    },
    {
        "id": "6651840283877110896",
        "title": "公共厕所",
        "address": "四川省自贡市大安区人民路与仁和路交叉口正西方向135米左右",
        "tel": "",
        "category": "基础设施:公共设施:公共厕所",
        "type": 0,
        "location": {
            "lat": 29.366771,
            "lng": 104.773234
        },
        "ad_info": {
            "adcode": 510304,
            "province": "四川省",
            "city": "自贡市",
            "district": "大安区"
        }
    },
    {
        "id": "659551368040914956",
        "title": "厕所兔自贡店",
        "address": "四川省自贡市大安区大安街与燊海井路交叉口正南方向34米左右",
        "tel": "",
        "category": "基础设施:公共设施:公共厕所",
        "type": 0,
        "location": {
            "lat": 29.373986,
            "lng": 104.788486
        },
        "ad_info": {
            "adcode": 510304,
            "province": "四川省",
            "city": "自贡市",
            "district": "大安区"
        }
    },
    {
        "id": "9726858822728895659",
        "title": "食神厕所兔(自贡总店)",
        "address": "四川省自贡市大安区五星街与体育场路交叉口正北方向316米左右",
        "tel": "",
        "category": "基础设施:公共设施:公共厕所",
        "type": 0,
        "location": {
            "lat": 29.362615,
            "lng": 104.772787
        },
        "ad_info": {
            "adcode": 510304,
            "province": "四川省",
            "city": "自贡市",
            "district": "大安区"
        }
    },
    {
        "id": "3182271180912889598",
        "title": "公共厕所",
        "address": "四川省自贡市大安区凉燕路与荆花湾路交叉口正南方向77米左右",
        "tel": "",
        "category": "基础设施:公共设施:公共厕所",
        "type": 0,
        "location": {
            "lat": 29.373231,
            "lng": 104.79785
        },
        "ad_info": {
            "adcode": 510304,
            "province": "四川省",
            "city": "自贡市",
            "district": "大安区"
        }
    },
    {
        "id": "7532365218734712757",
        "title": "自贡停车区公共厕所",
        "address": "四川省自贡市自流井区自贡停车区西50米",
        "tel": "",
        "category": "基础设施:公共设施:公共厕所",
        "type": 0,
        "location": {
            "lat": 29.298888,
            "lng": 104.669701
        },
        "ad_info": {
            "adcode": 510302,
            "province": "四川省",
            "city": "自贡市",
            "district": "自流井区"
        }
    },
    {
        "id": "17041111842956654292",
        "title": "自贡沿滩服务区公共厕所",
        "address": "四川省自贡市沿滩区S22汉隆高速附近",
        "tel": "",
        "category": "基础设施:公共设施:公共厕所",
        "type": 0,
        "location": {
            "lat": 29.238959,
            "lng": 104.914508
        },
        "ad_info": {
            "adcode": 510311,
            "province": "四川省",
            "city": "自贡市",
            "district": "沿滩区"
        }
    },
    {
        "id": "734330661048447796",
        "title": "公共厕所",
        "address": "四川省自贡市贡井区筱溪街与贡草路交叉口东南方向106米左右",
        "tel": "",
        "category": "基础设施:公共设施:公共厕所",
        "type": 0,
        "location": {
            "lat": 29.343722,
            "lng": 104.713817
        },
        "ad_info": {
            "adcode": 510303,
            "province": "四川省",
            "city": "自贡市",
            "district": "贡井区"
        }
    },
    {
        "id": "9205519751013483100",
        "title": "公共厕所",
        "address": "四川省自贡市大安区仁和路与龙井路交叉口正北方向76米左右",
        "tel": "",
        "category": "基础设施:公共设施:公共厕所",
        "type": 0,
        "location": {
            "lat": 29.357674,
            "lng": 104.783942
        },
        "ad_info": {
            "adcode": 510304,
            "province": "四川省",
            "city": "自贡市",
            "district": "大安区"
        }
    },
    {
        "id": "4544309253792645123",
        "title": "公共厕所",
        "address": "四川省自贡市富顺县赵化镇中心卫生院西侧100米",
        "tel": "",
        "category": "基础设施:公共设施:公共厕所",
        "type": 0,
        "location": {
            "lat": 29.026275,
            "lng": 105.125051
        },
        "ad_info": {
            "adcode": 510322,
            "province": "四川省",
            "city": "自贡市",
            "district": "富顺县"
        }
    },
    {
        "id": "1806114360652680872",
        "title": "食神厕所兔(自贡店)",
        "address": "四川省自贡市大安区大安街456号",
        "tel": "15181308725",
        "category": "基础设施:公共设施:公共厕所",
        "type": 0,
        "location": {
            "lat": 29.373907,
            "lng": 104.788404
        },
        "ad_info": {
            "adcode": 510304,
            "province": "四川省",
            "city": "自贡市",
            "district": "大安区"
        }
    },
    {
        "id": "11515127922670480458",
        "title": "公共厕所",
        "address": "四川省自贡市荣县望景路与荣州大道三段交叉口西南方向115米左右",
        "tel": "",
        "category": "基础设施:公共设施:公共厕所",
        "type": 0,
        "location": {
            "lat": 29.448446,
            "lng": 104.410377
        },
        "ad_info": {
            "adcode": 510321,
            "province": "四川省",
            "city": "自贡市",
            "district": "荣县"
        }
    },
    {
        "id": "2595378109517032394",
        "title": "富顺豆花厕所兔",
        "address": "四川省自贡市沿滩区自贡东部新城碧桂园项目一期46栋1F层1-8号商铺",
        "tel": "13990087460",
        "category": "基础设施:公共设施:公共厕所",
        "type": 0,
        "location": {
            "lat": 29.368813,
            "lng": 104.844972
        },
        "ad_info": {
            "adcode": 510311,
            "province": "四川省",
            "city": "自贡市",
            "district": "沿滩区"
        }
    },
    {
        "id": "12663767067871717309",
        "title": "公共厕所",
        "address": "四川省自贡市自流井区G348辅路与通达南街交叉口东南方向127米左右",
        "tel": "",
        "category": "基础设施:公共设施:公共厕所",
        "type": 0,
        "location": {
            "lat": 29.310718,
            "lng": 104.782076
        },
        "ad_info": {
            "adcode": 510302,
            "province": "四川省",
            "city": "自贡市",
            "district": "自流井区"
        }
    },
    {
        "id": "15538061709159854162",
        "title": "公共厕所",
        "address": "四川省自贡市大安区",
        "tel": "",
        "category": "基础设施:公共设施:公共厕所",
        "type": 0,
        "location": {
            "lat": 29.396661,
            "lng": 104.86203
        },
        "ad_info": {
            "adcode": 510304,
            "province": "四川省",
            "city": "自贡市",
            "district": "大安区"
        }
    },
    {
        "id": "9184965832766963090",
        "title": "无障碍公共厕所",
        "address": "四川省自贡市荣县小阳冲路与水井湾路交叉口西南方向152米左右",
        "tel": "",
        "category": "基础设施:公共设施:公共厕所",
        "type": 0,
        "location": {
            "lat": 29.433618,
            "lng": 104.406333
        },
        "ad_info": {
            "adcode": 510321,
            "province": "四川省",
            "city": "自贡市",
            "district": "荣县"
        }
    },
    {
        "id": "2502872177910880997",
        "title": "秦姐副食-厕所",
        "address": "四川省自贡市富顺县Y025与板邱路交叉口西南方向1128米左右",
        "tel": "15228614263",
        "category": "基础设施:公共设施:公共厕所",
        "type": 0,
        "location": {
            "lat": 29.043758,
            "lng": 104.736919
        },
        "ad_info": {
            "adcode": 510322,
            "province": "四川省",
            "city": "自贡市",
            "district": "富顺县"
        }
    },
    {
        "id": "2013998336488751047",
        "title": "公共厕所",
        "address": "四川省自贡市大安区汇东路与汇川路交叉口正北方向56米左右",
        "tel": "",
        "category": "基础设施:公共设施:公共厕所",
        "type": 0,
        "location": {
            "lat": 29.332295,
            "lng": 104.74826
        },
        "ad_info": {
            "adcode": 510304,
            "province": "四川省",
            "city": "自贡市",
            "district": "大安区"
        }
    },
    {
        "id": "4124358729343493846",
        "title": "公共厕所",
        "address": "四川省自贡市富顺县林达路与釜江大道东段交叉口正东方向125米左右",
        "tel": "",
        "category": "基础设施:公共设施:公共厕所",
        "type": 0,
        "location": {
            "lat": 29.17964,
            "lng": 104.995311
        },
        "ad_info": {
            "adcode": 510322,
            "province": "四川省",
            "city": "自贡市",
            "district": "富顺县"
        }
    },
    {
        "id": "11294375567452985409",
        "title": "公共厕所",
        "address": "四川省自贡市沿滩区G348与开元北路交叉口东北方向405米左右",
        "tel": "",
        "category": "基础设施:公共设施:公共厕所",
        "type": 0,
        "location": {
            "lat": 29.281764,
            "lng": 104.870676
        },
        "ad_info": {
            "adcode": 510311,
            "province": "四川省",
            "city": "自贡市",
            "district": "沿滩区"
        }
    },
    {
        "id": "11050858452500297906",
        "title": "公共厕所",
        "address": "四川省自贡市自流井区临江路与富台山路交叉口正东方向219米左右",
        "tel": "",
        "category": "基础设施:公共设施:公共厕所",
        "type": 0,
        "location": {
            "lat": 29.346382,
            "lng": 104.770916
        },
        "ad_info": {
            "adcode": 510302,
            "province": "四川省",
            "city": "自贡市",
            "district": "自流井区"
        }
    },
    {
        "id": "6651840283877110896",
        "title": "公共厕所",
        "address": "四川省自贡市大安区人民路与仁和路交叉口正西方向135米左右",
        "tel": "",
        "category": "基础设施:公共设施:公共厕所",
        "type": 0,
        "location": {
            "lat": 29.366771,
            "lng": 104.773234
        },
        "ad_info": {
            "adcode": 510304,
            "province": "四川省",
            "city": "自贡市",
            "district": "大安区"
        }
    },
    {
        "id": "659551368040914956",
        "title": "厕所兔自贡店",
        "address": "四川省自贡市大安区大安街与燊海井路交叉口正南方向34米左右",
        "tel": "",
        "category": "基础设施:公共设施:公共厕所",
        "type": 0,
        "location": {
            "lat": 29.373986,
            "lng": 104.788486
        },
        "ad_info": {
            "adcode": 510304,
            "province": "四川省",
            "city": "自贡市",
            "district": "大安区"
        }
    },
    {
        "id": "9726858822728895659",
        "title": "食神厕所兔(自贡总店)",
        "address": "四川省自贡市大安区五星街与体育场路交叉口正北方向316米左右",
        "tel": "",
        "category": "基础设施:公共设施:公共厕所",
        "type": 0,
        "location": {
            "lat": 29.362615,
            "lng": 104.772787
        },
        "ad_info": {
            "adcode": 510304,
            "province": "四川省",
            "city": "自贡市",
            "district": "大安区"
        }
    },
    {
        "id": "3182271180912889598",
        "title": "公共厕所",
        "address": "四川省自贡市大安区凉燕路与荆花湾路交叉口正南方向77米左右",
        "tel": "",
        "category": "基础设施:公共设施:公共厕所",
        "type": 0,
        "location": {
            "lat": 29.373231,
            "lng": 104.79785
        },
        "ad_info": {
            "adcode": 510304,
            "province": "四川省",
            "city": "自贡市",
            "district": "大安区"
        }
    },
    {
        "id": "7532365218734712757",
        "title": "自贡停车区公共厕所",
        "address": "四川省自贡市自流井区自贡停车区西50米",
        "tel": "",
        "category": "基础设施:公共设施:公共厕所",
        "type": 0,
        "location": {
            "lat": 29.298888,
            "lng": 104.669701
        },
        "ad_info": {
            "adcode": 510302,
            "province": "四川省",
            "city": "自贡市",
            "district": "自流井区"
        }
    },
    {
        "id": "17041111842956654292",
        "title": "自贡沿滩服务区公共厕所",
        "address": "四川省自贡市沿滩区S22汉隆高速附近",
        "tel": "",
        "category": "基础设施:公共设施:公共厕所",
        "type": 0,
        "location": {
            "lat": 29.238959,
            "lng": 104.914508
        },
        "ad_info": {
            "adcode": 510311,
            "province": "四川省",
            "city": "自贡市",
            "district": "沿滩区"
        }
    },
    {
        "id": "734330661048447796",
        "title": "公共厕所",
        "address": "四川省自贡市贡井区筱溪街与贡草路交叉口东南方向106米左右",
        "tel": "",
        "category": "基础设施:公共设施:公共厕所",
        "type": 0,
        "location": {
            "lat": 29.343722,
            "lng": 104.713817
        },
        "ad_info": {
            "adcode": 510303,
            "province": "四川省",
            "city": "自贡市",
            "district": "贡井区"
        }
    },
    {
        "id": "9205519751013483100",
        "title": "公共厕所",
        "address": "四川省自贡市大安区仁和路与龙井路交叉口正北方向76米左右",
        "tel": "",
        "category": "基础设施:公共设施:公共厕所",
        "type": 0,
        "location": {
            "lat": 29.357674,
            "lng": 104.783942
        },
        "ad_info": {
            "adcode": 510304,
            "province": "四川省",
            "city": "自贡市",
            "district": "大安区"
        }
    },
    {
        "id": "4544309253792645123",
        "title": "公共厕所",
        "address": "四川省自贡市富顺县赵化镇中心卫生院西侧100米",
        "tel": "",
        "category": "基础设施:公共设施:公共厕所",
        "type": 0,
        "location": {
            "lat": 29.026275,
            "lng": 105.125051
        },
        "ad_info": {
            "adcode": 510322,
            "province": "四川省",
            "city": "自贡市",
            "district": "富顺县"
        }
    },
    {
        "id": "1806114360652680872",
        "title": "食神厕所兔(自贡店)",
        "address": "四川省自贡市大安区大安街456号",
        "tel": "15181308725",
        "category": "基础设施:公共设施:公共厕所",
        "type": 0,
        "location": {
            "lat": 29.373907,
            "lng": 104.788404
        },
        "ad_info": {
            "adcode": 510304,
            "province": "四川省",
            "city": "自贡市",
            "district": "大安区"
        }
    },
    {
        "id": "11515127922670480458",
        "title": "公共厕所",
        "address": "四川省自贡市荣县望景路与荣州大道三段交叉口西南方向115米左右",
        "tel": "",
        "category": "基础设施:公共设施:公共厕所",
        "type": 0,
        "location": {
            "lat": 29.448446,
            "lng": 104.410377
        },
        "ad_info": {
            "adcode": 510321,
            "province": "四川省",
            "city": "自贡市",
            "district": "荣县"
        }
    },
    {
        "id": "2595378109517032394",
        "title": "富顺豆花厕所兔",
        "address": "四川省自贡市沿滩区自贡东部新城碧桂园项目一期46栋1F层1-8号商铺",
        "tel": "13990087460",
        "category": "基础设施:公共设施:公共厕所",
        "type": 0,
        "location": {
            "lat": 29.368813,
            "lng": 104.844972
        },
        "ad_info": {
            "adcode": 510311,
            "province": "四川省",
            "city": "自贡市",
            "district": "沿滩区"
        }
    },
    {
        "id": "12663767067871717309",
        "title": "公共厕所",
        "address": "四川省自贡市自流井区G348辅路与通达南街交叉口东南方向127米左右",
        "tel": "",
        "category": "基础设施:公共设施:公共厕所",
        "type": 0,
        "location": {
            "lat": 29.310718,
            "lng": 104.782076
        },
        "ad_info": {
            "adcode": 510302,
            "province": "四川省",
            "city": "自贡市",
            "district": "自流井区"
        }
    },
    {
        "id": "15538061709159854162",
        "title": "公共厕所",
        "address": "四川省自贡市大安区",
        "tel": "",
        "category": "基础设施:公共设施:公共厕所",
        "type": 0,
        "location": {
            "lat": 29.396661,
            "lng": 104.86203
        },
        "ad_info": {
            "adcode": 510304,
            "province": "四川省",
            "city": "自贡市",
            "district": "大安区"
        }
    },
    {
        "id": "9184965832766963090",
        "title": "无障碍公共厕所",
        "address": "四川省自贡市荣县小阳冲路与水井湾路交叉口西南方向152米左右",
        "tel": "",
        "category": "基础设施:公共设施:公共厕所",
        "type": 0,
        "location": {
            "lat": 29.433618,
            "lng": 104.406333
        },
        "ad_info": {
            "adcode": 510321,
            "province": "四川省",
            "city": "自贡市",
            "district": "荣县"
        }
    },
    {
        "id": "2502872177910880997",
        "title": "秦姐副食-厕所",
        "address": "四川省自贡市富顺县Y025与板邱路交叉口西南方向1128米左右",
        "tel": "15228614263",
        "category": "基础设施:公共设施:公共厕所",
        "type": 0,
        "location": {
            "lat": 29.043758,
            "lng": 104.736919
        },
        "ad_info": {
            "adcode": 510322,
            "province": "四川省",
            "city": "自贡市",
            "district": "富顺县"
        }
    },
    {
        "id": "2013998336488751047",
        "title": "公共厕所",
        "address": "四川省自贡市大安区汇东路与汇川路交叉口正北方向56米左右",
        "tel": "",
        "category": "基础设施:公共设施:公共厕所",
        "type": 0,
        "location": {
            "lat": 29.332295,
            "lng": 104.74826
        },
        "ad_info": {
            "adcode": 510304,
            "province": "四川省",
            "city": "自贡市",
            "district": "大安区"
        }
    },
    {
        "id": "4124358729343493846",
        "title": "公共厕所",
        "address": "四川省自贡市富顺县林达路与釜江大道东段交叉口正东方向125米左右",
        "tel": "",
        "category": "基础设施:公共设施:公共厕所",
        "type": 0,
        "location": {
            "lat": 29.17964,
            "lng": 104.995311
        },
        "ad_info": {
            "adcode": 510322,
            "province": "四川省",
            "city": "自贡市",
            "district": "富顺县"
        }
    },
    {
        "id": "11294375567452985409",
        "title": "公共厕所",
        "address": "四川省自贡市沿滩区G348与开元北路交叉口东北方向405米左右",
        "tel": "",
        "category": "基础设施:公共设施:公共厕所",
        "type": 0,
        "location": {
            "lat": 29.281764,
            "lng": 104.870676
        },
        "ad_info": {
            "adcode": 510311,
            "province": "四川省",
            "city": "自贡市",
            "district": "沿滩区"
        }
    },
    {
        "id": "11050858452500297906",
        "title": "公共厕所",
        "address": "四川省自贡市自流井区临江路与富台山路交叉口正东方向219米左右",
        "tel": "",
        "category": "基础设施:公共设施:公共厕所",
        "type": 0,
        "location": {
            "lat": 29.346382,
            "lng": 104.770916
        },
        "ad_info": {
            "adcode": 510302,
            "province": "四川省",
            "city": "自贡市",
            "district": "自流井区"
        }
    },
    {
        "id": "6651840283877110896",
        "title": "公共厕所",
        "address": "四川省自贡市大安区人民路与仁和路交叉口正西方向135米左右",
        "tel": "",
        "category": "基础设施:公共设施:公共厕所",
        "type": 0,
        "location": {
            "lat": 29.366771,
            "lng": 104.773234
        },
        "ad_info": {
            "adcode": 510304,
            "province": "四川省",
            "city": "自贡市",
            "district": "大安区"
        }
    },
    {
        "id": "659551368040914956",
        "title": "厕所兔自贡店",
        "address": "四川省自贡市大安区大安街与燊海井路交叉口正南方向34米左右",
        "tel": "",
        "category": "基础设施:公共设施:公共厕所",
        "type": 0,
        "location": {
            "lat": 29.373986,
            "lng": 104.788486
        },
        "ad_info": {
            "adcode": 510304,
            "province": "四川省",
            "city": "自贡市",
            "district": "大安区"
        }
    },
    {
        "id": "9726858822728895659",
        "title": "食神厕所兔(自贡总店)",
        "address": "四川省自贡市大安区五星街与体育场路交叉口正北方向316米左右",
        "tel": "",
        "category": "基础设施:公共设施:公共厕所",
        "type": 0,
        "location": {
            "lat": 29.362615,
            "lng": 104.772787
        },
        "ad_info": {
            "adcode": 510304,
            "province": "四川省",
            "city": "自贡市",
            "district": "大安区"
        }
    },
    {
        "id": "3182271180912889598",
        "title": "公共厕所",
        "address": "四川省自贡市大安区凉燕路与荆花湾路交叉口正南方向77米左右",
        "tel": "",
        "category": "基础设施:公共设施:公共厕所",
        "type": 0,
        "location": {
            "lat": 29.373231,
            "lng": 104.79785
        },
        "ad_info": {
            "adcode": 510304,
            "province": "四川省",
            "city": "自贡市",
            "district": "大安区"
        }
    },
    {
        "id": "7532365218734712757",
        "title": "自贡停车区公共厕所",
        "address": "四川省自贡市自流井区自贡停车区西50米",
        "tel": "",
        "category": "基础设施:公共设施:公共厕所",
        "type": 0,
        "location": {
            "lat": 29.298888,
            "lng": 104.669701
        },
        "ad_info": {
            "adcode": 510302,
            "province": "四川省",
            "city": "自贡市",
            "district": "自流井区"
        }
    },
    {
        "id": "17041111842956654292",
        "title": "自贡沿滩服务区公共厕所",
        "address": "四川省自贡市沿滩区S22汉隆高速附近",
        "tel": "",
        "category": "基础设施:公共设施:公共厕所",
        "type": 0,
        "location": {
            "lat": 29.238959,
            "lng": 104.914508
        },
        "ad_info": {
            "adcode": 510311,
            "province": "四川省",
            "city": "自贡市",
            "district": "沿滩区"
        }
    },
    {
        "id": "734330661048447796",
        "title": "公共厕所",
        "address": "四川省自贡市贡井区筱溪街与贡草路交叉口东南方向106米左右",
        "tel": "",
        "category": "基础设施:公共设施:公共厕所",
        "type": 0,
        "location": {
            "lat": 29.343722,
            "lng": 104.713817
        },
        "ad_info": {
            "adcode": 510303,
            "province": "四川省",
            "city": "自贡市",
            "district": "贡井区"
        }
    },
    {
        "id": "9205519751013483100",
        "title": "公共厕所",
        "address": "四川省自贡市大安区仁和路与龙井路交叉口正北方向76米左右",
        "tel": "",
        "category": "基础设施:公共设施:公共厕所",
        "type": 0,
        "location": {
            "lat": 29.357674,
            "lng": 104.783942
        },
        "ad_info": {
            "adcode": 510304,
            "province": "四川省",
            "city": "自贡市",
            "district": "大安区"
        }
    },
    {
        "id": "4544309253792645123",
        "title": "公共厕所",
        "address": "四川省自贡市富顺县赵化镇中心卫生院西侧100米",
        "tel": "",
        "category": "基础设施:公共设施:公共厕所",
        "type": 0,
        "location": {
            "lat": 29.026275,
            "lng": 105.125051
        },
        "ad_info": {
            "adcode": 510322,
            "province": "四川省",
            "city": "自贡市",
            "district": "富顺县"
        }
    },
    {
        "id": "1806114360652680872",
        "title": "食神厕所兔(自贡店)",
        "address": "四川省自贡市大安区大安街456号",
        "tel": "15181308725",
        "category": "基础设施:公共设施:公共厕所",
        "type": 0,
        "location": {
            "lat": 29.373907,
            "lng": 104.788404
        },
        "ad_info": {
            "adcode": 510304,
            "province": "四川省",
            "city": "自贡市",
            "district": "大安区"
        }
    },
    {
        "id": "11515127922670480458",
        "title": "公共厕所",
        "address": "四川省自贡市荣县望景路与荣州大道三段交叉口西南方向115米左右",
        "tel": "",
        "category": "基础设施:公共设施:公共厕所",
        "type": 0,
        "location": {
            "lat": 29.448446,
            "lng": 104.410377
        },
        "ad_info": {
            "adcode": 510321,
            "province": "四川省",
            "city": "自贡市",
            "district": "荣县"
        }
    },
    {
        "id": "2595378109517032394",
        "title": "富顺豆花厕所兔",
        "address": "四川省自贡市沿滩区自贡东部新城碧桂园项目一期46栋1F层1-8号商铺",
        "tel": "13990087460",
        "category": "基础设施:公共设施:公共厕所",
        "type": 0,
        "location": {
            "lat": 29.368813,
            "lng": 104.844972
        },
        "ad_info": {
            "adcode": 510311,
            "province": "四川省",
            "city": "自贡市",
            "district": "沿滩区"
        }
    },
    {
        "id": "12663767067871717309",
        "title": "公共厕所",
        "address": "四川省自贡市自流井区G348辅路与通达南街交叉口东南方向127米左右",
        "tel": "",
        "category": "基础设施:公共设施:公共厕所",
        "type": 0,
        "location": {
            "lat": 29.310718,
            "lng": 104.782076
        },
        "ad_info": {
            "adcode": 510302,
            "province": "四川省",
            "city": "自贡市",
            "district": "自流井区"
        }
    },
    {
        "id": "15538061709159854162",
        "title": "公共厕所",
        "address": "四川省自贡市大安区",
        "tel": "",
        "category": "基础设施:公共设施:公共厕所",
        "type": 0,
        "location": {
            "lat": 29.396661,
            "lng": 104.86203
        },
        "ad_info": {
            "adcode": 510304,
            "province": "四川省",
            "city": "自贡市",
            "district": "大安区"
        }
    },
    {
        "id": "9184965832766963090",
        "title": "无障碍公共厕所",
        "address": "四川省自贡市荣县小阳冲路与水井湾路交叉口西南方向152米左右",
        "tel": "",
        "category": "基础设施:公共设施:公共厕所",
        "type": 0,
        "location": {
            "lat": 29.433618,
            "lng": 104.406333
        },
        "ad_info": {
            "adcode": 510321,
            "province": "四川省",
            "city": "自贡市",
            "district": "荣县"
        }
    },
    {
        "id": "2502872177910880997",
        "title": "秦姐副食-厕所",
        "address": "四川省自贡市富顺县Y025与板邱路交叉口西南方向1128米左右",
        "tel": "15228614263",
        "category": "基础设施:公共设施:公共厕所",
        "type": 0,
        "location": {
            "lat": 29.043758,
            "lng": 104.736919
        },
        "ad_info": {
            "adcode": 510322,
            "province": "四川省",
            "city": "自贡市",
            "district": "富顺县"
        }
    },
    {
        "id": "2013998336488751047",
        "title": "公共厕所",
        "address": "四川省自贡市大安区汇东路与汇川路交叉口正北方向56米左右",
        "tel": "",
        "category": "基础设施:公共设施:公共厕所",
        "type": 0,
        "location": {
            "lat": 29.332295,
            "lng": 104.74826
        },
        "ad_info": {
            "adcode": 510304,
            "province": "四川省",
            "city": "自贡市",
            "district": "大安区"
        }
    },
    {
        "id": "4124358729343493846",
        "title": "公共厕所",
        "address": "四川省自贡市富顺县林达路与釜江大道东段交叉口正东方向125米左右",
        "tel": "",
        "category": "基础设施:公共设施:公共厕所",
        "type": 0,
        "location": {
            "lat": 29.17964,
            "lng": 104.995311
        },
        "ad_info": {
            "adcode": 510322,
            "province": "四川省",
            "city": "自贡市",
            "district": "富顺县"
        }
    },
    {
        "id": "11294375567452985409",
        "title": "公共厕所",
        "address": "四川省自贡市沿滩区G348与开元北路交叉口东北方向405米左右",
        "tel": "",
        "category": "基础设施:公共设施:公共厕所",
        "type": 0,
        "location": {
            "lat": 29.281764,
            "lng": 104.870676
        },
        "ad_info": {
            "adcode": 510311,
            "province": "四川省",
            "city": "自贡市",
            "district": "沿滩区"
        }
    },
    {
        "id": "11050858452500297906",
        "title": "公共厕所",
        "address": "四川省自贡市自流井区临江路与富台山路交叉口正东方向219米左右",
        "tel": "",
        "category": "基础设施:公共设施:公共厕所",
        "type": 0,
        "location": {
            "lat": 29.346382,
            "lng": 104.770916
        },
        "ad_info": {
            "adcode": 510302,
            "province": "四川省",
            "city": "自贡市",
            "district": "自流井区"
        }
    },
    {
        "id": "6651840283877110896",
        "title": "公共厕所",
        "address": "四川省自贡市大安区人民路与仁和路交叉口正西方向135米左右",
        "tel": "",
        "category": "基础设施:公共设施:公共厕所",
        "type": 0,
        "location": {
            "lat": 29.366771,
            "lng": 104.773234
        },
        "ad_info": {
            "adcode": 510304,
            "province": "四川省",
            "city": "自贡市",
            "district": "大安区"
        }
    },
    {
        "id": "659551368040914956",
        "title": "厕所兔自贡店",
        "address": "四川省自贡市大安区大安街与燊海井路交叉口正南方向34米左右",
        "tel": "",
        "category": "基础设施:公共设施:公共厕所",
        "type": 0,
        "location": {
            "lat": 29.373986,
            "lng": 104.788486
        },
        "ad_info": {
            "adcode": 510304,
            "province": "四川省",
            "city": "自贡市",
            "district": "大安区"
        }
    },
    {
        "id": "9726858822728895659",
        "title": "食神厕所兔(自贡总店)",
        "address": "四川省自贡市大安区五星街与体育场路交叉口正北方向316米左右",
        "tel": "",
        "category": "基础设施:公共设施:公共厕所",
        "type": 0,
        "location": {
            "lat": 29.362615,
            "lng": 104.772787
        },
        "ad_info": {
            "adcode": 510304,
            "province": "四川省",
            "city": "自贡市",
            "district": "大安区"
        }
    },
    {
        "id": "3182271180912889598",
        "title": "公共厕所",
        "address": "四川省自贡市大安区凉燕路与荆花湾路交叉口正南方向77米左右",
        "tel": "",
        "category": "基础设施:公共设施:公共厕所",
        "type": 0,
        "location": {
            "lat": 29.373231,
            "lng": 104.79785
        },
        "ad_info": {
            "adcode": 510304,
            "province": "四川省",
            "city": "自贡市",
            "district": "大安区"
        }
    },
    {
        "id": "7532365218734712757",
        "title": "自贡停车区公共厕所",
        "address": "四川省自贡市自流井区自贡停车区西50米",
        "tel": "",
        "category": "基础设施:公共设施:公共厕所",
        "type": 0,
        "location": {
            "lat": 29.298888,
            "lng": 104.669701
        },
        "ad_info": {
            "adcode": 510302,
            "province": "四川省",
            "city": "自贡市",
            "district": "自流井区"
        }
    },
    {
        "id": "17041111842956654292",
        "title": "自贡沿滩服务区公共厕所",
        "address": "四川省自贡市沿滩区S22汉隆高速附近",
        "tel": "",
        "category": "基础设施:公共设施:公共厕所",
        "type": 0,
        "location": {
            "lat": 29.238959,
            "lng": 104.914508
        },
        "ad_info": {
            "adcode": 510311,
            "province": "四川省",
            "city": "自贡市",
            "district": "沿滩区"
        }
    },
    {
        "id": "734330661048447796",
        "title": "公共厕所",
        "address": "四川省自贡市贡井区筱溪街与贡草路交叉口东南方向106米左右",
        "tel": "",
        "category": "基础设施:公共设施:公共厕所",
        "type": 0,
        "location": {
            "lat": 29.343722,
            "lng": 104.713817
        },
        "ad_info": {
            "adcode": 510303,
            "province": "四川省",
            "city": "自贡市",
            "district": "贡井区"
        }
    },
    {
        "id": "9205519751013483100",
        "title": "公共厕所",
        "address": "四川省自贡市大安区仁和路与龙井路交叉口正北方向76米左右",
        "tel": "",
        "category": "基础设施:公共设施:公共厕所",
        "type": 0,
        "location": {
            "lat": 29.357674,
            "lng": 104.783942
        },
        "ad_info": {
            "adcode": 510304,
            "province": "四川省",
            "city": "自贡市",
            "district": "大安区"
        }
    },
    {
        "id": "4544309253792645123",
        "title": "公共厕所",
        "address": "四川省自贡市富顺县赵化镇中心卫生院西侧100米",
        "tel": "",
        "category": "基础设施:公共设施:公共厕所",
        "type": 0,
        "location": {
            "lat": 29.026275,
            "lng": 105.125051
        },
        "ad_info": {
            "adcode": 510322,
            "province": "四川省",
            "city": "自贡市",
            "district": "富顺县"
        }
    },
    {
        "id": "1806114360652680872",
        "title": "食神厕所兔(自贡店)",
        "address": "四川省自贡市大安区大安街456号",
        "tel": "15181308725",
        "category": "基础设施:公共设施:公共厕所",
        "type": 0,
        "location": {
            "lat": 29.373907,
            "lng": 104.788404
        },
        "ad_info": {
            "adcode": 510304,
            "province": "四川省",
            "city": "自贡市",
            "district": "大安区"
        }
    },
    {
        "id": "11515127922670480458",
        "title": "公共厕所",
        "address": "四川省自贡市荣县望景路与荣州大道三段交叉口西南方向115米左右",
        "tel": "",
        "category": "基础设施:公共设施:公共厕所",
        "type": 0,
        "location": {
            "lat": 29.448446,
            "lng": 104.410377
        },
        "ad_info": {
            "adcode": 510321,
            "province": "四川省",
            "city": "自贡市",
            "district": "荣县"
        }
    }
]