[
    {
        "id": "2210187817387614899",
        "title": "公共厕所",
        "address": "浙江省舟山市定海区岑港互通与S6定岱高速交叉口东440米",
        "tel": "",
        "category": "基础设施:公共设施:公共厕所",
        "type": 0,
        "location": {
            "lat": 30.08826,
            "lng": 121.99414
        },
        "ad_info": {
            "adcode": 330902,
            "province": "浙江省",
            "city": "舟山市",
            "district": "定海区"
        }
    },
    {
        "id": "5603563926314129491",
        "title": "公共厕所",
        "address": "浙江省舟山市定海区环城西路57-1号",
        "tel": "",
        "category": "基础设施:公共设施:公共厕所",
        "type": 0,
        "location": {
            "lat": 30.016831,
            "lng": 122.102026
        },
        "ad_info": {
            "adcode": 330902,
            "province": "浙江省",
            "city": "舟山市",
            "district": "定海区"
        }
    },
    {
        "id": "15906869819482536400",
        "title": "公共厕所",
        "address": "浙江省舟山市定海区庆丰路与弘生大道交叉口正南方向198米左右",
        "tel": "",
        "category": "基础设施:公共设施:公共厕所",
        "type": 0,
        "location": {
            "lat": 29.997301,
            "lng": 122.120451
        },
        "ad_info": {
            "adcode": 330902,
            "province": "浙江省",
            "city": "舟山市",
            "district": "定海区"
        }
    },
    {
        "id": "9268975579109869826",
        "title": "公共厕所",
        "address": "浙江省舟山市定海区和平路与环城南路交叉口正西方向120米左右",
        "tel": "",
        "category": "基础设施:公共设施:公共厕所",
        "type": 0,
        "location": {
            "lat": 30.009495,
            "lng": 122.108999
        },
        "ad_info": {
            "adcode": 330902,
            "province": "浙江省",
            "city": "舟山市",
            "district": "定海区"
        }
    },
    {
        "id": "8461630071603079536",
        "title": "公共厕所",
        "address": "浙江省舟山市定海区定沈路与金岛路交叉口正东方向182米左右",
        "tel": "",
        "category": "基础设施:公共设施:公共厕所",
        "type": 0,
        "location": {
            "lat": 29.990819,
            "lng": 122.201515
        },
        "ad_info": {
            "adcode": 330902,
            "province": "浙江省",
            "city": "舟山市",
            "district": "定海区"
        }
    },
    {
        "id": "3700865703242592927",
        "title": "公共厕所",
        "address": "浙江省舟山市定海区东园路与解放东路交叉口正南方向30米左右",
        "tel": "",
        "category": "基础设施:公共设施:公共厕所",
        "type": 0,
        "location": {
            "lat": 30.015922,
            "lng": 122.116787
        },
        "ad_info": {
            "adcode": 330902,
            "province": "浙江省",
            "city": "舟山市",
            "district": "定海区"
        }
    },
    {
        "id": "15066571166233605691",
        "title": "公共厕所",
        "address": "浙江省舟山市定海区桃湾路与金岛路交叉口正北方向102米左右",
        "tel": "",
        "category": "基础设施:公共设施:公共厕所",
        "type": 0,
        "location": {
            "lat": 29.999339,
            "lng": 122.200569
        },
        "ad_info": {
            "adcode": 330902,
            "province": "浙江省",
            "city": "舟山市",
            "district": "定海区"
        }
    },
    {
        "id": "5842430733606302287",
        "title": "公共厕所",
        "address": "浙江省舟山市普陀区兴建路与西大街交叉口西南方向27米左右",
        "tel": "",
        "category": "基础设施:公共设施:公共厕所",
        "type": 0,
        "location": {
            "lat": 29.942564,
            "lng": 122.297004
        },
        "ad_info": {
            "adcode": 330903,
            "province": "浙江省",
            "city": "舟山市",
            "district": "普陀区"
        }
    },
    {
        "id": "2350005770610255441",
        "title": "公共厕所",
        "address": "浙江省舟山市岱山县长河路287号",
        "tel": "",
        "category": "基础设施:公共设施:公共厕所",
        "type": 0,
        "location": {
            "lat": 30.248958,
            "lng": 122.214058
        },
        "ad_info": {
            "adcode": 330921,
            "province": "浙江省",
            "city": "舟山市",
            "district": "岱山县"
        }
    },
    {
        "id": "18174297680710444976",
        "title": "公共厕所",
        "address": "浙江省舟山市定海区体育路与滨海大道交叉路口往东约200米(桥畔公园)",
        "tel": "",
        "category": "基础设施:公共设施:公共厕所",
        "type": 0,
        "location": {
            "lat": 29.976106,
            "lng": 122.211206
        },
        "ad_info": {
            "adcode": 330902,
            "province": "浙江省",
            "city": "舟山市",
            "district": "定海区"
        }
    },
    {
        "id": "9866048259347190086",
        "title": "公共厕所",
        "address": "浙江省舟山市定海区尾山路与滕坑湾路交叉口西南方向58米左右",
        "tel": "",
        "category": "基础设施:公共设施:公共厕所",
        "type": 0,
        "location": {
            "lat": 30.021203,
            "lng": 122.09928
        },
        "ad_info": {
            "adcode": 330902,
            "province": "浙江省",
            "city": "舟山市",
            "district": "定海区"
        }
    },
    {
        "id": "17892056556603524948",
        "title": "公共厕所",
        "address": "浙江省舟山市普陀区白山路中国石化(莲花北路店)",
        "tel": "",
        "category": "基础设施:公共设施:公共厕所",
        "type": 0,
        "location": {
            "lat": 29.92009,
            "lng": 122.387282
        },
        "ad_info": {
            "adcode": 330903,
            "province": "浙江省",
            "city": "舟山市",
            "district": "普陀区"
        }
    },
    {
        "id": "8487108471541437540",
        "title": "公共厕所",
        "address": "浙江省舟山市普陀区普济路283号",
        "tel": "",
        "category": "基础设施:公共设施:公共厕所",
        "type": 0,
        "location": {
            "lat": 29.983737,
            "lng": 122.389656
        },
        "ad_info": {
            "adcode": 330903,
            "province": "浙江省",
            "city": "舟山市",
            "district": "普陀区"
        }
    },
    {
        "id": "7244235419617675347",
        "title": "公共厕所",
        "address": "浙江省舟山市普陀区兴建路与聚富路交叉口西北方向113米左右",
        "tel": "",
        "category": "基础设施:公共设施:公共厕所",
        "type": 0,
        "location": {
            "lat": 29.942835,
            "lng": 122.285329
        },
        "ad_info": {
            "adcode": 330903,
            "province": "浙江省",
            "city": "舟山市",
            "district": "普陀区"
        }
    },
    {
        "id": "16452864846206169547",
        "title": "公共厕所",
        "address": "浙江省舟山市定海区东河中路与小碶南路交叉口西南方向78米左右",
        "tel": "",
        "category": "基础设施:公共设施:公共厕所",
        "type": 0,
        "location": {
            "lat": 30.013667,
            "lng": 122.118216
        },
        "ad_info": {
            "adcode": 330902,
            "province": "浙江省",
            "city": "舟山市",
            "district": "定海区"
        }
    },
    {
        "id": "6344952362064552125",
        "title": "公共厕所",
        "address": "浙江省舟山市定海区海宇道与港岛路交叉口东南方向156米左右",
        "tel": "",
        "category": "基础设施:公共设施:公共厕所",
        "type": 0,
        "location": {
            "lat": 29.986855,
            "lng": 122.217565
        },
        "ad_info": {
            "adcode": 330902,
            "province": "浙江省",
            "city": "舟山市",
            "district": "定海区"
        }
    },
    {
        "id": "1089284594808603260",
        "title": "公共厕所",
        "address": "浙江省舟山市定海区三大线与新桥路交叉口正南方向37米左右",
        "tel": "",
        "category": "基础设施:公共设施:公共厕所",
        "type": 0,
        "location": {
            "lat": 30.016967,
            "lng": 122.143594
        },
        "ad_info": {
            "adcode": 330902,
            "province": "浙江省",
            "city": "舟山市",
            "district": "定海区"
        }
    },
    {
        "id": "2057369286828267210",
        "title": "公共厕所",
        "address": "浙江省舟山市普陀区朱乌线与慈航路交叉口北380米",
        "tel": "",
        "category": "基础设施:公共设施:公共厕所",
        "type": 0,
        "location": {
            "lat": 29.950781,
            "lng": 122.369813
        },
        "ad_info": {
            "adcode": 330903,
            "province": "浙江省",
            "city": "舟山市",
            "district": "普陀区"
        }
    },
    {
        "id": "7217466699962263038",
        "title": "公共厕所",
        "address": "浙江省舟山市定海区伊顿华府-南区东南侧200米",
        "tel": "",
        "category": "基础设施:公共设施:公共厕所",
        "type": 0,
        "location": {
            "lat": 29.994437,
            "lng": 122.184456
        },
        "ad_info": {
            "adcode": 330902,
            "province": "浙江省",
            "city": "舟山市",
            "district": "定海区"
        }
    },
    {
        "id": "14182402890500851765",
        "title": "公共厕所",
        "address": "浙江省舟山市定海区解放东路19号",
        "tel": "",
        "category": "基础设施:公共设施:公共厕所",
        "type": 0,
        "location": {
            "lat": 30.015986,
            "lng": 122.10795
        },
        "ad_info": {
            "adcode": 330902,
            "province": "浙江省",
            "city": "舟山市",
            "district": "定海区"
        }
    },
    {
        "id": "7648578832080079521",
        "title": "公共厕所",
        "address": "浙江省舟山市普陀区东海西路与海博路交叉口正北方向58米左右",
        "tel": "",
        "category": "基础设施:公共设施:公共厕所",
        "type": 0,
        "location": {
            "lat": 29.961233,
            "lng": 122.255887
        },
        "ad_info": {
            "adcode": 330903,
            "province": "浙江省",
            "city": "舟山市",
            "district": "普陀区"
        }
    },
    {
        "id": "11887897279970385931",
        "title": "公共厕所",
        "address": "浙江省舟山市定海区和兴弄与环城南路交叉口西南方向49米左右",
        "tel": "",
        "category": "基础设施:公共设施:公共厕所",
        "type": 0,
        "location": {
            "lat": 30.009416,
            "lng": 122.110966
        },
        "ad_info": {
            "adcode": 330902,
            "province": "浙江省",
            "city": "舟山市",
            "district": "定海区"
        }
    },
    {
        "id": "15652756210215186364",
        "title": "公共厕所",
        "address": "浙江省舟山市普陀区沈家门中国舟山国际水产城西北",
        "tel": "",
        "category": "基础设施:公共设施:公共厕所",
        "type": 0,
        "location": {
            "lat": 29.941496,
            "lng": 122.282287
        },
        "ad_info": {
            "adcode": 330903,
            "province": "浙江省",
            "city": "舟山市",
            "district": "普陀区"
        }
    },
    {
        "id": "15526899515469451794",
        "title": "公共厕所",
        "address": "浙江省舟山市普陀区岭陀道舟山普陀长途客运中心",
        "tel": "",
        "category": "基础设施:公共设施:公共厕所",
        "type": 0,
        "location": {
            "lat": 29.964781,
            "lng": 122.287367
        },
        "ad_info": {
            "adcode": 330903,
            "province": "浙江省",
            "city": "舟山市",
            "district": "普陀区"
        }
    },
    {
        "id": "752147738229468149",
        "title": "公共厕所",
        "address": "浙江省舟山市普陀区普济路301号",
        "tel": "",
        "category": "基础设施:公共设施:公共厕所",
        "type": 0,
        "location": {
            "lat": 29.985618,
            "lng": 122.388265
        },
        "ad_info": {
            "adcode": 330903,
            "province": "浙江省",
            "city": "舟山市",
            "district": "普陀区"
        }
    },
    {
        "id": "17218901779930938411",
        "title": "公共厕所",
        "address": "浙江省舟山市普陀区中兴路与荷里路交叉口正北方向41米左右",
        "tel": "",
        "category": "基础设施:公共设施:公共厕所",
        "type": 0,
        "location": {
            "lat": 29.946411,
            "lng": 122.311241
        },
        "ad_info": {
            "adcode": 330903,
            "province": "浙江省",
            "city": "舟山市",
            "district": "普陀区"
        }
    },
    {
        "id": "8048130275371132431",
        "title": "公共厕所",
        "address": "浙江省舟山市普陀区同济路与菜市路交叉口正北方向65米左右",
        "tel": "",
        "category": "基础设施:公共设施:公共厕所",
        "type": 0,
        "location": {
            "lat": 29.945157,
            "lng": 122.299242
        },
        "ad_info": {
            "adcode": 330903,
            "province": "浙江省",
            "city": "舟山市",
            "district": "普陀区"
        }
    },
    {
        "id": "3710617878842818861",
        "title": "公共厕所",
        "address": "浙江省舟山市定海区定沈路与红茅山路交叉口正北方向65米左右",
        "tel": "",
        "category": "基础设施:公共设施:公共厕所",
        "type": 0,
        "location": {
            "lat": 29.99232,
            "lng": 122.2201
        },
        "ad_info": {
            "adcode": 330902,
            "province": "浙江省",
            "city": "舟山市",
            "district": "定海区"
        }
    },
    {
        "id": "2935000064456053149",
        "title": "公共厕所",
        "address": "浙江省舟山市嵊泗县云龙路与景海路交叉口东北方向126米左右",
        "tel": "",
        "category": "基础设施:公共设施:公共厕所",
        "type": 0,
        "location": {
            "lat": 30.727258,
            "lng": 122.458985
        },
        "ad_info": {
            "adcode": 330922,
            "province": "浙江省",
            "city": "舟山市",
            "district": "嵊泗县"
        }
    },
    {
        "id": "2527653231899295922",
        "title": "公共厕所",
        "address": "浙江省舟山市普陀区六横路与文昌路交叉口东北方向33米左右",
        "tel": "",
        "category": "基础设施:公共设施:公共厕所",
        "type": 0,
        "location": {
            "lat": 29.741383,
            "lng": 122.116717
        },
        "ad_info": {
            "adcode": 330903,
            "province": "浙江省",
            "city": "舟山市",
            "district": "普陀区"
        }
    },
    {
        "id": "14992174511022622010",
        "title": "公共厕所",
        "address": "浙江省舟山市普陀区海洲路与滨港路交叉口西北方向47米左右",
        "tel": "",
        "category": "基础设施:公共设施:公共厕所",
        "type": 0,
        "location": {
            "lat": 29.941974,
            "lng": 122.320855
        },
        "ad_info": {
            "adcode": 330903,
            "province": "浙江省",
            "city": "舟山市",
            "district": "普陀区"
        }
    },
    {
        "id": "17473284418194077547",
        "title": "公共厕所",
        "address": "浙江省舟山市定海区仁和路与将军路交叉口东北方向35米左右",
        "tel": "",
        "category": "基础设施:公共设施:公共厕所",
        "type": 0,
        "location": {
            "lat": 30.01161,
            "lng": 122.05342
        },
        "ad_info": {
            "adcode": 330902,
            "province": "浙江省",
            "city": "舟山市",
            "district": "定海区"
        }
    },
    {
        "id": "7555525382146984061",
        "title": "公共厕所",
        "address": "浙江省舟山市定海区东大街45号",
        "tel": "",
        "category": "基础设施:公共设施:公共厕所",
        "type": 0,
        "location": {
            "lat": 30.017848,
            "lng": 122.108585
        },
        "ad_info": {
            "adcode": 330902,
            "province": "浙江省",
            "city": "舟山市",
            "district": "定海区"
        }
    },
    {
        "id": "13395432807076708432",
        "title": "公共厕所",
        "address": "浙江省舟山市定海区昌东路与昌国路交叉口东北方向60米左右",
        "tel": "",
        "category": "基础设施:公共设施:公共厕所",
        "type": 0,
        "location": {
            "lat": 30.02166,
            "lng": 122.114924
        },
        "ad_info": {
            "adcode": 330902,
            "province": "浙江省",
            "city": "舟山市",
            "district": "定海区"
        }
    },
    {
        "id": "716281002930957651",
        "title": "公共厕所",
        "address": "浙江省舟山市定海区海院路96号",
        "tel": "",
        "category": "基础设施:公共设施:公共厕所",
        "type": 0,
        "location": {
            "lat": 30.03716,
            "lng": 122.110863
        },
        "ad_info": {
            "adcode": 330902,
            "province": "浙江省",
            "city": "舟山市",
            "district": "定海区"
        }
    },
    {
        "id": "6143320512589991897",
        "title": "公共厕所",
        "address": "浙江省舟山市普陀区海珠北路与麒麟街交叉口正南方向75米左右",
        "tel": "",
        "category": "基础设施:公共设施:公共厕所",
        "type": 0,
        "location": {
            "lat": 29.972423,
            "lng": 122.326301
        },
        "ad_info": {
            "adcode": 330903,
            "province": "浙江省",
            "city": "舟山市",
            "district": "普陀区"
        }
    },
    {
        "id": "12974433011096730761",
        "title": "公共厕所",
        "address": "浙江省舟山市普陀区望湖街与海珠北路交叉口正南方向81米左右",
        "tel": "",
        "category": "基础设施:公共设施:公共厕所",
        "type": 0,
        "location": {
            "lat": 29.977602,
            "lng": 122.328734
        },
        "ad_info": {
            "adcode": 330903,
            "province": "浙江省",
            "city": "舟山市",
            "district": "普陀区"
        }
    },
    {
        "id": "3564194557477382701",
        "title": "公共厕所",
        "address": "浙江省舟山市定海区海富街81号",
        "tel": "",
        "category": "基础设施:公共设施:公共厕所",
        "type": 0,
        "location": {
            "lat": 30.014705,
            "lng": 122.066095
        },
        "ad_info": {
            "adcode": 330902,
            "province": "浙江省",
            "city": "舟山市",
            "district": "定海区"
        }
    },
    {
        "id": "11067343769638544043",
        "title": "公共厕所",
        "address": "浙江省舟山市普陀区普陀山朱家尖岛南端朱家尖大青山国家公园里沙生态园内",
        "tel": "",
        "category": "基础设施:公共设施:公共厕所",
        "type": 0,
        "location": {
            "lat": 29.85979,
            "lng": 122.39297
        },
        "ad_info": {
            "adcode": 330903,
            "province": "浙江省",
            "city": "舟山市",
            "district": "普陀区"
        }
    },
    {
        "id": "2458581995965518280",
        "title": "公共厕所",
        "address": "浙江省舟山市定海区应野线与浬溪路交叉口正东方向60米左右",
        "tel": "",
        "category": "基础设施:公共设施:公共厕所",
        "type": 0,
        "location": {
            "lat": 30.046796,
            "lng": 122.019543
        },
        "ad_info": {
            "adcode": 330902,
            "province": "浙江省",
            "city": "舟山市",
            "district": "定海区"
        }
    },
    {
        "id": "13919916851170908216",
        "title": "公共厕所",
        "address": "浙江省舟山市岱山县沿港中路与沿港西路交叉口西北方向154米左右",
        "tel": "",
        "category": "基础设施:公共设施:公共厕所",
        "type": 0,
        "location": {
            "lat": 30.245681,
            "lng": 122.197301
        },
        "ad_info": {
            "adcode": 330921,
            "province": "浙江省",
            "city": "舟山市",
            "district": "岱山县"
        }
    },
    {
        "id": "18343673877111447903",
        "title": "公共厕所",
        "address": "浙江省舟山市普陀区中兴路与荷里路交叉口西南方向179米左右",
        "tel": "",
        "category": "基础设施:公共设施:公共厕所",
        "type": 0,
        "location": {
            "lat": 29.945402,
            "lng": 122.309663
        },
        "ad_info": {
            "adcode": 330903,
            "province": "浙江省",
            "city": "舟山市",
            "district": "普陀区"
        }
    },
    {
        "id": "16878238110709082374",
        "title": "公共厕所",
        "address": "浙江省舟山市普陀区 · 普陀山风景区 广佛线与梅岑路交叉口东南方向正南方向177米左右",
        "tel": "",
        "category": "基础设施:公共设施:公共厕所",
        "type": 0,
        "location": {
            "lat": 30.000311,
            "lng": 122.391378
        },
        "ad_info": {
            "adcode": 330903,
            "province": "浙江省",
            "city": "舟山市",
            "district": "普陀区"
        }
    },
    {
        "id": "6042563408437082918",
        "title": "公共厕所",
        "address": "浙江省舟山市普陀区 · 普陀山风景区 广佛线与梅岑路交叉口东南方向正南方向836米左右",
        "tel": "",
        "category": "基础设施:公共设施:公共厕所",
        "type": 0,
        "location": {
            "lat": 29.994349,
            "lng": 122.391104
        },
        "ad_info": {
            "adcode": 330903,
            "province": "浙江省",
            "city": "舟山市",
            "district": "普陀区"
        }
    },
    {
        "id": "6146120861446860432",
        "title": "公共厕所",
        "address": "浙江省舟山市岱山县东兴中路526号",
        "tel": "",
        "category": "基础设施:公共设施:公共厕所",
        "type": 0,
        "location": {
            "lat": 30.30384,
            "lng": 122.219405
        },
        "ad_info": {
            "adcode": 330921,
            "province": "浙江省",
            "city": "舟山市",
            "district": "岱山县"
        }
    },
    {
        "id": "9387937683002253987",
        "title": "公共厕所",
        "address": "浙江省舟山市定海区东关路与昌东路交叉口正东方向121米左右",
        "tel": "",
        "category": "基础设施:公共设施:公共厕所",
        "type": 0,
        "location": {
            "lat": 30.018711,
            "lng": 122.116336
        },
        "ad_info": {
            "adcode": 330902,
            "province": "浙江省",
            "city": "舟山市",
            "district": "定海区"
        }
    },
    {
        "id": "2952268429641013118",
        "title": "公共厕所",
        "address": "浙江省舟山市定海区桔园新村北区34幢西",
        "tel": "",
        "category": "基础设施:公共设施:公共厕所",
        "type": 0,
        "location": {
            "lat": 30.01088,
            "lng": 122.122279
        },
        "ad_info": {
            "adcode": 330902,
            "province": "浙江省",
            "city": "舟山市",
            "district": "定海区"
        }
    },
    {
        "id": "13629682710994430507",
        "title": "公共厕所",
        "address": "浙江省舟山市岱山县兰秀大道海德花园",
        "tel": "",
        "category": "基础设施:公共设施:公共厕所",
        "type": 0,
        "location": {
            "lat": 30.257111,
            "lng": 122.221648
        },
        "ad_info": {
            "adcode": 330921,
            "province": "浙江省",
            "city": "舟山市",
            "district": "岱山县"
        }
    },
    {
        "id": "4374027681373408009",
        "title": "公共厕所",
        "address": "浙江省舟山市普陀区东泗湾路与新街交叉口西北方向400米左右",
        "tel": "",
        "category": "基础设施:公共设施:公共厕所",
        "type": 0,
        "location": {
            "lat": 29.954321,
            "lng": 122.30194
        },
        "ad_info": {
            "adcode": 330903,
            "province": "浙江省",
            "city": "舟山市",
            "district": "普陀区"
        }
    },
    {
        "id": "5242198951383706323",
        "title": "公共厕所",
        "address": "浙江省舟山市普陀区中兴路与滨港路交叉口正西方向244米左右",
        "tel": "",
        "category": "基础设施:公共设施:公共厕所",
        "type": 0,
        "location": {
            "lat": 29.944332,
            "lng": 122.308701
        },
        "ad_info": {
            "adcode": 330903,
            "province": "浙江省",
            "city": "舟山市",
            "district": "普陀区"
        }
    },
    {
        "id": "12468995748189720016",
        "title": "公共厕所",
        "address": "浙江省舟山市定海区政府路与平倭路交叉口东160米",
        "tel": "",
        "category": "基础设施:公共设施:公共厕所",
        "type": 0,
        "location": {
            "lat": 30.060523,
            "lng": 121.858124
        },
        "ad_info": {
            "adcode": 330902,
            "province": "浙江省",
            "city": "舟山市",
            "district": "定海区"
        }
    },
    {
        "id": "17766519795013742834",
        "title": "公共厕所",
        "address": "浙江省舟山市定海区太平洋百货舟山社保大楼东南",
        "tel": "",
        "category": "基础设施:公共设施:公共厕所",
        "type": 0,
        "location": {
            "lat": 30.014734,
            "lng": 122.098614
        },
        "ad_info": {
            "adcode": 330902,
            "province": "浙江省",
            "city": "舟山市",
            "district": "定海区"
        }
    },
    {
        "id": "16549728069736186911",
        "title": "公共厕所",
        "address": "浙江省舟山市定海区海天大道与长升路交叉口西南方向103米左右",
        "tel": "",
        "category": "基础设施:公共设施:公共厕所",
        "type": 0,
        "location": {
            "lat": 29.987098,
            "lng": 122.191739
        },
        "ad_info": {
            "adcode": 330902,
            "province": "浙江省",
            "city": "舟山市",
            "district": "定海区"
        }
    },
    {
        "id": "1960736847456971327",
        "title": "公共厕所",
        "address": "浙江省舟山市定海区山潭东街与山潭北街交叉口正西方向77米左右",
        "tel": "",
        "category": "基础设施:公共设施:公共厕所",
        "type": 0,
        "location": {
            "lat": 30.042241,
            "lng": 121.880068
        },
        "ad_info": {
            "adcode": 330902,
            "province": "浙江省",
            "city": "舟山市",
            "district": "定海区"
        }
    },
    {
        "id": "1142295902899632576",
        "title": "公共厕所",
        "address": "浙江省舟山市定海区寿星桥路与沿港西路交叉口正北方向85米左右",
        "tel": "",
        "category": "基础设施:公共设施:公共厕所",
        "type": 0,
        "location": {
            "lat": 30.009422,
            "lng": 122.095528
        },
        "ad_info": {
            "adcode": 330902,
            "province": "浙江省",
            "city": "舟山市",
            "district": "定海区"
        }
    },
    {
        "id": "16334422073216893794",
        "title": "公共厕所",
        "address": "浙江省舟山市普陀区台涨线与鑫亚大道交叉口东南方向1017米左右",
        "tel": "",
        "category": "基础设施:公共设施:公共厕所",
        "type": 0,
        "location": {
            "lat": 29.763669,
            "lng": 122.108885
        },
        "ad_info": {
            "adcode": 330903,
            "province": "浙江省",
            "city": "舟山市",
            "district": "普陀区"
        }
    },
    {
        "id": "10413990494294049026",
        "title": "公共厕所",
        "address": "浙江省舟山市岱山县沿港西路10号",
        "tel": "",
        "category": "基础设施:公共设施:公共厕所",
        "type": 0,
        "location": {
            "lat": 30.244692,
            "lng": 122.197936
        },
        "ad_info": {
            "adcode": 330921,
            "province": "浙江省",
            "city": "舟山市",
            "district": "岱山县"
        }
    },
    {
        "id": "13882744273535782728",
        "title": "公共厕所",
        "address": "浙江省舟山市定海区新桥路与环城东路交叉口正西方向41米左右",
        "tel": "",
        "category": "基础设施:公共设施:公共厕所",
        "type": 0,
        "location": {
            "lat": 30.017598,
            "lng": 122.112544
        },
        "ad_info": {
            "adcode": 330902,
            "province": "浙江省",
            "city": "舟山市",
            "district": "定海区"
        }
    },
    {
        "id": "11258691845168084812",
        "title": "公共厕所",
        "address": "浙江省舟山市普陀区桃花岛射雕城京城广场",
        "tel": "",
        "category": "基础设施:公共设施:公共厕所",
        "type": 0,
        "location": {
            "lat": 29.83833,
            "lng": 122.243063
        },
        "ad_info": {
            "adcode": 330903,
            "province": "浙江省",
            "city": "舟山市",
            "district": "普陀区"
        }
    },
    {
        "id": "1939401384257945632",
        "title": "公共厕所",
        "address": "浙江省舟山市定海区兴舟大道与竹山峧路交叉口正西方向27米左右",
        "tel": "",
        "category": "基础设施:公共设施:公共厕所",
        "type": 0,
        "location": {
            "lat": 30.011077,
            "lng": 122.082558
        },
        "ad_info": {
            "adcode": 330902,
            "province": "浙江省",
            "city": "舟山市",
            "district": "定海区"
        }
    },
    {
        "id": "12491422153580328185",
        "title": "公共厕所",
        "address": "浙江省舟山市普陀区台涨线与大梅线交叉口东南方向634米左右",
        "tel": "",
        "category": "基础设施:公共设施:公共厕所",
        "type": 0,
        "location": {
            "lat": 29.719577,
            "lng": 122.170939
        },
        "ad_info": {
            "adcode": 330903,
            "province": "浙江省",
            "city": "舟山市",
            "district": "普陀区"
        }
    },
    {
        "id": "8034950177400334084",
        "title": "公共厕所",
        "address": "浙江省舟山市定海区东园路与东河中路交叉口正西方向81米左右",
        "tel": "",
        "category": "基础设施:公共设施:公共厕所",
        "type": 0,
        "location": {
            "lat": 30.012773,
            "lng": 122.117356
        },
        "ad_info": {
            "adcode": 330902,
            "province": "浙江省",
            "city": "舟山市",
            "district": "定海区"
        }
    },
    {
        "id": "5697182416921837263",
        "title": "公共厕所",
        "address": "浙江省舟山市岱山县岛万线与岛渔线交叉口正东方向458米左右",
        "tel": "",
        "category": "基础设施:公共设施:公共厕所",
        "type": 0,
        "location": {
            "lat": 30.43272,
            "lng": 122.419471
        },
        "ad_info": {
            "adcode": 330921,
            "province": "浙江省",
            "city": "舟山市",
            "district": "岱山县"
        }
    },
    {
        "id": "18316415537406163650",
        "title": "公共厕所",
        "address": "浙江省舟山市定海区寿星桥路与寿星路交叉口西北方向43米左右",
        "tel": "",
        "category": "基础设施:公共设施:公共厕所",
        "type": 0,
        "location": {
            "lat": 30.013467,
            "lng": 122.094468
        },
        "ad_info": {
            "adcode": 330902,
            "province": "浙江省",
            "city": "舟山市",
            "district": "定海区"
        }
    },
    {
        "id": "14605016289577434438",
        "title": "公共厕所",
        "address": "浙江省舟山市定海区舟山海晶海运公司海丰客运站售票处西北侧",
        "tel": "",
        "category": "基础设施:公共设施:公共厕所",
        "type": 0,
        "location": {
            "lat": 30.146005,
            "lng": 122.054792
        },
        "ad_info": {
            "adcode": 330902,
            "province": "浙江省",
            "city": "舟山市",
            "district": "定海区"
        }
    },
    {
        "id": "11254842282015501623",
        "title": "公共厕所",
        "address": "浙江省舟山市定海区平马线主入口大巴停车场",
        "tel": "",
        "category": "基础设施:公共设施:公共厕所",
        "type": 0,
        "location": {
            "lat": 30.108534,
            "lng": 122.104556
        },
        "ad_info": {
            "adcode": 330902,
            "province": "浙江省",
            "city": "舟山市",
            "district": "定海区"
        }
    },
    {
        "id": "12461108742889784711",
        "title": "公共厕所",
        "address": "浙江省舟山市普陀区东泗湾路与新街交叉口正北方向542米左右",
        "tel": "",
        "category": "基础设施:公共设施:公共厕所",
        "type": 0,
        "location": {
            "lat": 29.956074,
            "lng": 122.30288
        },
        "ad_info": {
            "adcode": 330903,
            "province": "浙江省",
            "city": "舟山市",
            "district": "普陀区"
        }
    },
    {
        "id": "6478895314349171641",
        "title": "公共厕所",
        "address": "浙江省舟山市定海区新港九道与新港八道交叉口正南方向183米左右",
        "tel": "",
        "category": "基础设施:公共设施:公共厕所",
        "type": 0,
        "location": {
            "lat": 30.090554,
            "lng": 122.213756
        },
        "ad_info": {
            "adcode": 330902,
            "province": "浙江省",
            "city": "舟山市",
            "district": "定海区"
        }
    },
    {
        "id": "1488218103285241518",
        "title": "公共厕所",
        "address": "浙江省舟山市岱山县小岙路与横街交叉口正东方向56米左右",
        "tel": "",
        "category": "基础设施:公共设施:公共厕所",
        "type": 0,
        "location": {
            "lat": 30.449448,
            "lng": 122.288742
        },
        "ad_info": {
            "adcode": 330921,
            "province": "浙江省",
            "city": "舟山市",
            "district": "岱山县"
        }
    },
    {
        "id": "11227026695055778540",
        "title": "公共厕所",
        "address": "浙江省舟山市岱山县沿港中路岱山港客运中心",
        "tel": "",
        "category": "基础设施:公共设施:公共厕所",
        "type": 0,
        "location": {
            "lat": 30.236167,
            "lng": 122.206398
        },
        "ad_info": {
            "adcode": 330921,
            "province": "浙江省",
            "city": "舟山市",
            "district": "岱山县"
        }
    },
    {
        "id": "14340276116091176443",
        "title": "公共厕所",
        "address": "浙江省舟山市定海区东大街与芙蓉洲路交叉口东北方向70米左右",
        "tel": "",
        "category": "基础设施:公共设施:公共厕所",
        "type": 0,
        "location": {
            "lat": 30.017921,
            "lng": 122.110235
        },
        "ad_info": {
            "adcode": 330902,
            "province": "浙江省",
            "city": "舟山市",
            "district": "定海区"
        }
    },
    {
        "id": "5335607120780963870",
        "title": "公共厕所",
        "address": "浙江省舟山市普陀区中大街101号附近东南方向110米",
        "tel": "",
        "category": "基础设施:公共设施:公共厕所",
        "type": 0,
        "location": {
            "lat": 29.945409,
            "lng": 122.301962
        },
        "ad_info": {
            "adcode": 330903,
            "province": "浙江省",
            "city": "舟山市",
            "district": "普陀区"
        }
    },
    {
        "id": "4847762157293868731",
        "title": "公共厕所",
        "address": "浙江省舟山市岱山县滨港路与银厦路交叉口正西方向62米左右",
        "tel": "",
        "category": "基础设施:公共设施:公共厕所",
        "type": 0,
        "location": {
            "lat": 30.242248,
            "lng": 122.197953
        },
        "ad_info": {
            "adcode": 330921,
            "province": "浙江省",
            "city": "舟山市",
            "district": "岱山县"
        }
    },
    {
        "id": "12873291304527315802",
        "title": "公共厕所",
        "address": "浙江省舟山市定海区官山路与怡岛路交叉口正南方向179米左右",
        "tel": "",
        "category": "基础设施:公共设施:公共厕所",
        "type": 0,
        "location": {
            "lat": 29.993944,
            "lng": 122.213997
        },
        "ad_info": {
            "adcode": 330902,
            "province": "浙江省",
            "city": "舟山市",
            "district": "定海区"
        }
    },
    {
        "id": "13662832315070362639",
        "title": "公共厕所",
        "address": "浙江省舟山市定海区定北线与白泉路交叉口东北方向25米左右",
        "tel": "",
        "category": "基础设施:公共设施:公共厕所",
        "type": 0,
        "location": {
            "lat": 30.066571,
            "lng": 122.156441
        },
        "ad_info": {
            "adcode": 330902,
            "province": "浙江省",
            "city": "舟山市",
            "district": "定海区"
        }
    },
    {
        "id": "14650285138834741725",
        "title": "卫生间",
        "address": "浙江省舟山市定海区临城新区海宇道99号银泰百货F2",
        "tel": "",
        "category": "基础设施:公共设施:公共厕所",
        "type": 0,
        "location": {
            "lat": 29.989151,
            "lng": 122.20954
        },
        "ad_info": {
            "adcode": 330902,
            "province": "浙江省",
            "city": "舟山市",
            "district": "定海区"
        }
    },
    {
        "id": "13175503360122193748",
        "title": "公共厕所",
        "address": "浙江省舟山市定海区天籁路与龙潭街交叉口正南方向128米左右",
        "tel": "",
        "category": "基础设施:公共设施:公共厕所",
        "type": 0,
        "location": {
            "lat": 30.099608,
            "lng": 122.135378
        },
        "ad_info": {
            "adcode": 330902,
            "province": "浙江省",
            "city": "舟山市",
            "district": "定海区"
        }
    },
    {
        "id": "7341441066034358949",
        "title": "公共厕所",
        "address": "浙江省舟山市定海区体育路120-122号",
        "tel": "",
        "category": "基础设施:公共设施:公共厕所",
        "type": 0,
        "location": {
            "lat": 29.989019,
            "lng": 122.211372
        },
        "ad_info": {
            "adcode": 330902,
            "province": "浙江省",
            "city": "舟山市",
            "district": "定海区"
        }
    },
    {
        "id": "13854739572070262569",
        "title": "公共厕所",
        "address": "浙江省舟山市定海区甬兴路与甬北路交叉口正北方向61米左右",
        "tel": "",
        "category": "基础设施:公共设施:公共厕所",
        "type": 0,
        "location": {
            "lat": 29.999421,
            "lng": 122.143331
        },
        "ad_info": {
            "adcode": 330902,
            "province": "浙江省",
            "city": "舟山市",
            "district": "定海区"
        }
    },
    {
        "id": "5699983947068071071",
        "title": "公共厕所",
        "address": "浙江省舟山市普陀区晨晖街与海珠路交叉口正西方向106米左右",
        "tel": "",
        "category": "基础设施:公共设施:公共厕所",
        "type": 0,
        "location": {
            "lat": 29.950427,
            "lng": 122.317161
        },
        "ad_info": {
            "adcode": 330903,
            "province": "浙江省",
            "city": "舟山市",
            "district": "普陀区"
        }
    },
    {
        "id": "17434609884673205430",
        "title": "公共厕所",
        "address": "浙江省舟山市普陀区兴港大道与海珠北路交叉口西南方向150米左右",
        "tel": "",
        "category": "基础设施:公共设施:公共厕所",
        "type": 0,
        "location": {
            "lat": 29.982557,
            "lng": 122.329552
        },
        "ad_info": {
            "adcode": 330903,
            "province": "浙江省",
            "city": "舟山市",
            "district": "普陀区"
        }
    },
    {
        "id": "6395478302815850902",
        "title": "普陀山风景名胜区-公共厕所",
        "address": "浙江省舟山市普陀区佛顶山路与梅岑路交叉口正南方向13米",
        "tel": "",
        "category": "基础设施:公共设施:公共厕所",
        "type": 0,
        "location": {
            "lat": 29.983904,
            "lng": 122.385075
        },
        "ad_info": {
            "adcode": 330903,
            "province": "浙江省",
            "city": "舟山市",
            "district": "普陀区"
        }
    },
    {
        "id": "1986935149608527168",
        "title": "公共厕所",
        "address": "浙江省舟山市定海区人民南路文化广场(解放东路)",
        "tel": "",
        "category": "基础设施:公共设施:公共厕所",
        "type": 0,
        "location": {
            "lat": 30.014762,
            "lng": 122.108244
        },
        "ad_info": {
            "adcode": 330902,
            "province": "浙江省",
            "city": "舟山市",
            "district": "定海区"
        }
    },
    {
        "id": "10702544980850045228",
        "title": "公共厕所",
        "address": "浙江省舟山市定海区双拥路与新桥路交叉口正西方向150米左右",
        "tel": "",
        "category": "基础设施:公共设施:公共厕所",
        "type": 0,
        "location": {
            "lat": 30.017172,
            "lng": 122.134525
        },
        "ad_info": {
            "adcode": 330902,
            "province": "浙江省",
            "city": "舟山市",
            "district": "定海区"
        }
    },
    {
        "id": "11635572363045350019",
        "title": "公共厕所",
        "address": "浙江省舟山市定海区万金湖路与文化路交叉口正东方向16米左右",
        "tel": "",
        "category": "基础设施:公共设施:公共厕所",
        "type": 0,
        "location": {
            "lat": 30.068329,
            "lng": 122.156924
        },
        "ad_info": {
            "adcode": 330902,
            "province": "浙江省",
            "city": "舟山市",
            "district": "定海区"
        }
    },
    {
        "id": "15370183626579246575",
        "title": "普陀山风景名胜区-公共厕所",
        "address": "浙江省舟山市普陀区梅岑路1号附近",
        "tel": "",
        "category": "基础设施:公共设施:公共厕所",
        "type": 0,
        "location": {
            "lat": 29.974611,
            "lng": 122.381292
        },
        "ad_info": {
            "adcode": 330903,
            "province": "浙江省",
            "city": "舟山市",
            "district": "普陀区"
        }
    },
    {
        "id": "12104429058704724496",
        "title": "公共厕所",
        "address": "浙江省舟山市定海区文化路与永安路交叉口正南方向117米左右",
        "tel": "",
        "category": "基础设施:公共设施:公共厕所",
        "type": 0,
        "location": {
            "lat": 30.033623,
            "lng": 122.107742
        },
        "ad_info": {
            "adcode": 330902,
            "province": "浙江省",
            "city": "舟山市",
            "district": "定海区"
        }
    },
    {
        "id": "8943468043192871517",
        "title": "公共厕所",
        "address": "浙江省舟山市普陀区海天大道中国石化(浦西加油站)",
        "tel": "",
        "category": "基础设施:公共设施:公共厕所",
        "type": 0,
        "location": {
            "lat": 29.971789,
            "lng": 122.24016
        },
        "ad_info": {
            "adcode": 330903,
            "province": "浙江省",
            "city": "舟山市",
            "district": "普陀区"
        }
    },
    {
        "id": "14239794886098318888",
        "title": "公共厕所",
        "address": "浙江省舟山市定海区金港路28号",
        "tel": "",
        "category": "基础设施:公共设施:公共厕所",
        "type": 0,
        "location": {
            "lat": 30.113314,
            "lng": 122.141165
        },
        "ad_info": {
            "adcode": 330902,
            "province": "浙江省",
            "city": "舟山市",
            "district": "定海区"
        }
    },
    {
        "id": "16301565645993329266",
        "title": "公共厕所",
        "address": "浙江省舟山市普陀区东海西路与明珠路交叉口正东方向160米左右",
        "tel": "",
        "category": "基础设施:公共设施:公共厕所",
        "type": 0,
        "location": {
            "lat": 29.969379,
            "lng": 122.248422
        },
        "ad_info": {
            "adcode": 330903,
            "province": "浙江省",
            "city": "舟山市",
            "district": "普陀区"
        }
    },
    {
        "id": "12211457714147814949",
        "title": "公共厕所",
        "address": "浙江省舟山市普陀区鲁川路与鲁洲路交叉口正南方向49米左右",
        "tel": "",
        "category": "基础设施:公共设施:公共厕所",
        "type": 0,
        "location": {
            "lat": 29.932902,
            "lng": 122.293611
        },
        "ad_info": {
            "adcode": 330903,
            "province": "浙江省",
            "city": "舟山市",
            "district": "普陀区"
        }
    },
    {
        "id": "5881193102745853460",
        "title": "公共厕所",
        "address": "浙江省舟山市普陀区中弄路与兴海路交叉口正北方向39米左右",
        "tel": "",
        "category": "基础设施:公共设施:公共厕所",
        "type": 0,
        "location": {
            "lat": 29.967741,
            "lng": 122.240751
        },
        "ad_info": {
            "adcode": 330903,
            "province": "浙江省",
            "city": "舟山市",
            "district": "普陀区"
        }
    },
    {
        "id": "1481439923298195318",
        "title": "公共厕所",
        "address": "浙江省舟山市定海区千岛路与翁山路交叉口正西方向56米左右",
        "tel": "",
        "category": "基础设施:公共设施:公共厕所",
        "type": 0,
        "location": {
            "lat": 29.99619,
            "lng": 122.203467
        },
        "ad_info": {
            "adcode": 330902,
            "province": "浙江省",
            "city": "舟山市",
            "district": "定海区"
        }
    },
    {
        "id": "4330753022140490187",
        "title": "公共厕所",
        "address": "浙江省舟山市普陀区海华路与金城街交叉口东南方向38米左右",
        "tel": "",
        "category": "基础设施:公共设施:公共厕所",
        "type": 0,
        "location": {
            "lat": 29.961827,
            "lng": 122.3165
        },
        "ad_info": {
            "adcode": 330903,
            "province": "浙江省",
            "city": "舟山市",
            "district": "普陀区"
        }
    },
    {
        "id": "10348582702458626468",
        "title": "公共厕所",
        "address": "浙江省舟山市定海区欣港路与镇府路交叉口东南方向138米左右",
        "tel": "",
        "category": "基础设施:公共设施:公共厕所",
        "type": 0,
        "location": {
            "lat": 30.060388,
            "lng": 121.856559
        },
        "ad_info": {
            "adcode": 330902,
            "province": "浙江省",
            "city": "舟山市",
            "district": "定海区"
        }
    },
    {
        "id": "11716659585797315355",
        "title": "公共厕所",
        "address": "浙江省舟山市定海区徐家桥路26号",
        "tel": "",
        "category": "基础设施:公共设施:公共厕所",
        "type": 0,
        "location": {
            "lat": 30.013506,
            "lng": 122.111945
        },
        "ad_info": {
            "adcode": 330902,
            "province": "浙江省",
            "city": "舟山市",
            "district": "定海区"
        }
    },
    {
        "id": "17625613672807655908",
        "title": "公共厕所",
        "address": "浙江省舟山市普陀区海华517号",
        "tel": "",
        "category": "基础设施:公共设施:公共厕所",
        "type": 0,
        "location": {
            "lat": 29.96404,
            "lng": 122.31683
        },
        "ad_info": {
            "adcode": 330903,
            "province": "浙江省",
            "city": "舟山市",
            "district": "普陀区"
        }
    },
    {
        "id": "2710627516160988450",
        "title": "公共厕所",
        "address": "浙江省舟山市普陀区洪家路29号",
        "tel": "",
        "category": "基础设施:公共设施:公共厕所",
        "type": 0,
        "location": {
            "lat": 29.965974,
            "lng": 122.25575
        },
        "ad_info": {
            "adcode": 330903,
            "province": "浙江省",
            "city": "舟山市",
            "district": "普陀区"
        }
    },
    {
        "id": "352885570957838599",
        "title": "公共厕所",
        "address": "浙江省舟山市定海区卫海路与环城西路交叉口东北方向71米左右",
        "tel": "",
        "category": "基础设施:公共设施:公共厕所",
        "type": 0,
        "location": {
            "lat": 30.008508,
            "lng": 122.104356
        },
        "ad_info": {
            "adcode": 330902,
            "province": "浙江省",
            "city": "舟山市",
            "district": "定海区"
        }
    },
    {
        "id": "3940403315873157894",
        "title": "普陀山风景名胜区普陀山祥生大酒店公共厕所",
        "address": "浙江省舟山市普陀区普陀山祥生大酒店内",
        "tel": "",
        "category": "基础设施:公共设施:公共厕所",
        "type": 0,
        "location": {
            "lat": 30.020173,
            "lng": 122.399369
        },
        "ad_info": {
            "adcode": 330903,
            "province": "浙江省",
            "city": "舟山市",
            "district": "普陀区"
        }
    },
    {
        "id": "6391518202693306913",
        "title": "公共厕所",
        "address": "浙江省舟山市定海区定马线与白马街交叉口正南方向180米左右",
        "tel": "",
        "category": "基础设施:公共设施:公共厕所",
        "type": 0,
        "location": {
            "lat": 30.114559,
            "lng": 122.100151
        },
        "ad_info": {
            "adcode": 330902,
            "province": "浙江省",
            "city": "舟山市",
            "district": "定海区"
        }
    },
    {
        "id": "7573470720769909306",
        "title": "公共厕所",
        "address": "浙江省舟山市普陀区东海东路与东海中路交叉口正西方向82米左右",
        "tel": "",
        "category": "基础设施:公共设施:公共厕所",
        "type": 0,
        "location": {
            "lat": 29.947123,
            "lng": 122.298101
        },
        "ad_info": {
            "adcode": 330903,
            "province": "浙江省",
            "city": "舟山市",
            "district": "普陀区"
        }
    },
    {
        "id": "5254247369418703383",
        "title": "女洗手间(第一百货)",
        "address": "浙江省舟山市定海区人民中路29号第一百货F2层",
        "tel": "",
        "category": "基础设施:公共设施:公共厕所",
        "type": 0,
        "location": {
            "lat": 30.017158,
            "lng": 122.1073
        },
        "ad_info": {
            "adcode": 330902,
            "province": "浙江省",
            "city": "舟山市",
            "district": "定海区"
        }
    },
    {
        "id": "10659707266565065446",
        "title": "公共厕所",
        "address": "浙江省舟山市定海区万和路与楼门街交叉口东南方向275米左右",
        "tel": "",
        "category": "基础设施:公共设施:公共厕所",
        "type": 0,
        "location": {
            "lat": 30.112961,
            "lng": 122.099007
        },
        "ad_info": {
            "adcode": 330902,
            "province": "浙江省",
            "city": "舟山市",
            "district": "定海区"
        }
    },
    {
        "id": "2322874989375980980",
        "title": "无障碍公共厕所",
        "address": "浙江省舟山市普陀区东泗湾路与新街交叉口东南方向127米左右",
        "tel": "",
        "category": "基础设施:公共设施:公共厕所",
        "type": 0,
        "location": {
            "lat": 29.950521,
            "lng": 122.3052
        },
        "ad_info": {
            "adcode": 330903,
            "province": "浙江省",
            "city": "舟山市",
            "district": "普陀区"
        }
    },
    {
        "id": "8097788513265043978",
        "title": "盐仓街道法治广场公共厕所",
        "address": "浙江省舟山市定海区海龙路盐仓街道法治广场(西北角)",
        "tel": "",
        "category": "基础设施:公共设施:公共厕所",
        "type": 0,
        "location": {
            "lat": 30.014706,
            "lng": 122.072836
        },
        "ad_info": {
            "adcode": 330902,
            "province": "浙江省",
            "city": "舟山市",
            "district": "定海区"
        }
    },
    {
        "id": "17554916797032298877",
        "title": "舟山服务区第一公共厕所",
        "address": "浙江省舟山市定海区S201与甬舟高速交叉口正北方向370米左右",
        "tel": "",
        "category": "基础设施:公共设施:公共厕所",
        "type": 0,
        "location": {
            "lat": 30.053574,
            "lng": 121.904114
        },
        "ad_info": {
            "adcode": 330902,
            "province": "浙江省",
            "city": "舟山市",
            "district": "定海区"
        }
    },
    {
        "id": "11951774357781235826",
        "title": "朱家尖-公共厕所",
        "address": "浙江省舟山市普陀区庆丰路与莲花路交叉口西南方向131米左右",
        "tel": "",
        "category": "基础设施:公共设施:公共厕所",
        "type": 0,
        "location": {
            "lat": 29.914344,
            "lng": 122.388348
        },
        "ad_info": {
            "adcode": 330903,
            "province": "浙江省",
            "city": "舟山市",
            "district": "普陀区"
        }
    },
    {
        "id": "9773717503064133348",
        "title": "普陀山风景名胜区磐龙饭店洗手间",
        "address": "浙江省舟山市普陀区普陀山梅岑路100号",
        "tel": "",
        "category": "基础设施:公共设施:公共厕所",
        "type": 0,
        "location": {
            "lat": 29.981988,
            "lng": 122.38157
        },
        "ad_info": {
            "adcode": 330903,
            "province": "浙江省",
            "city": "舟山市",
            "district": "普陀区"
        }
    },
    {
        "id": "3136082157846566061",
        "title": "盐仓街道法治广场公共厕所",
        "address": "浙江省舟山市定海区恒宏家园西南侧100米",
        "tel": "",
        "category": "基础设施:公共设施:公共厕所",
        "type": 0,
        "location": {
            "lat": 30.01466,
            "lng": 122.073452
        },
        "ad_info": {
            "adcode": 330902,
            "province": "浙江省",
            "city": "舟山市",
            "district": "定海区"
        }
    },
    {
        "id": "1910443350392830742",
        "title": "男洗手间(第一百货)",
        "address": "浙江省舟山市定海区人民中路29号第一百货商店F4",
        "tel": "",
        "category": "基础设施:公共设施:公共厕所",
        "type": 0,
        "location": {
            "lat": 30.017272,
            "lng": 122.107272
        },
        "ad_info": {
            "adcode": 330902,
            "province": "浙江省",
            "city": "舟山市",
            "district": "定海区"
        }
    },
    {
        "id": "274225456676233333",
        "title": "普陀山风景名胜区公共厕所",
        "address": "浙江省舟山市普陀区普济路普陀山风景名胜区(南侧)",
        "tel": "",
        "category": "基础设施:公共设施:公共厕所",
        "type": 0,
        "location": {
            "lat": 29.985938,
            "lng": 122.389916
        },
        "ad_info": {
            "adcode": 330903,
            "province": "浙江省",
            "city": "舟山市",
            "district": "普陀区"
        }
    },
    {
        "id": "8406224924823072707",
        "title": "普陀山洪筏山庄洗手间",
        "address": "浙江省舟山市普陀区香华街103号(近百步沙)",
        "tel": "",
        "category": "基础设施:公共设施:公共厕所",
        "type": 0,
        "location": {
            "lat": 29.986764,
            "lng": 122.38868
        },
        "ad_info": {
            "adcode": 330903,
            "province": "浙江省",
            "city": "舟山市",
            "district": "普陀区"
        }
    },
    {
        "id": "8615824103327097859",
        "title": "无障碍公共厕所",
        "address": "浙江省舟山市普陀区度假村路与朱乌线交叉口西南方向299米左右",
        "tel": "",
        "category": "基础设施:公共设施:公共厕所",
        "type": 0,
        "location": {
            "lat": 29.884059,
            "lng": 122.414749
        },
        "ad_info": {
            "adcode": 330903,
            "province": "浙江省",
            "city": "舟山市",
            "district": "普陀区"
        }
    },
    {
        "id": "13337531882040049693",
        "title": "双拥广场-公共厕所",
        "address": "浙江省舟山市定海区解放东路与都神殿东弄交叉口正东方向48米左右",
        "tel": "",
        "category": "基础设施:公共设施:公共厕所",
        "type": 0,
        "location": {
            "lat": 30.016016,
            "lng": 122.11258
        },
        "ad_info": {
            "adcode": 330902,
            "province": "浙江省",
            "city": "舟山市",
            "district": "定海区"
        }
    },
    {
        "id": "11345823785174692231",
        "title": "女卫生间",
        "address": "浙江省舟山市普陀区兴普大道288号凯虹广场F2",
        "tel": "",
        "category": "基础设施:公共设施:女洗手间",
        "type": 0,
        "location": {
            "lat": 29.966567,
            "lng": 122.318849
        },
        "ad_info": {
            "adcode": 330903,
            "province": "浙江省",
            "city": "舟山市",
            "district": "普陀区"
        }
    },
    {
        "id": "10064081874722090486",
        "title": "女卫生间",
        "address": "浙江省舟山市普陀区兴普大道288号凯虹广场F5",
        "tel": "",
        "category": "基础设施:公共设施:女洗手间",
        "type": 0,
        "location": {
            "lat": 29.966569,
            "lng": 122.318822
        },
        "ad_info": {
            "adcode": 330903,
            "province": "浙江省",
            "city": "舟山市",
            "district": "普陀区"
        }
    },
    {
        "id": "13661220889078562200",
        "title": "男卫生间",
        "address": "浙江省舟山市定海区人民中路29号第一百货商店F2",
        "tel": "",
        "category": "基础设施:公共设施:男洗手间",
        "type": 0,
        "location": {
            "lat": 30.017236,
            "lng": 122.107287
        },
        "ad_info": {
            "adcode": 330902,
            "province": "浙江省",
            "city": "舟山市",
            "district": "定海区"
        }
    },
    {
        "id": "14687543641902751523",
        "title": "公共厕所",
        "address": "浙江省舟山市定海区五星东路与伍佰岙路交叉口东北方向33米",
        "tel": "",
        "category": "基础设施:公共设施:公共厕所",
        "type": 0,
        "location": {
            "lat": 30.135354,
            "lng": 122.076123
        },
        "ad_info": {
            "adcode": 330902,
            "province": "浙江省",
            "city": "舟山市",
            "district": "定海区"
        }
    },
    {
        "id": "15683354492217715371",
        "title": "公共厕所",
        "address": "浙江省舟山市岱山县安澜路与邮电路交叉口正南方向44米左右",
        "tel": "",
        "category": "基础设施:公共设施:公共厕所",
        "type": 0,
        "location": {
            "lat": 30.24214,
            "lng": 122.202098
        },
        "ad_info": {
            "adcode": 330921,
            "province": "浙江省",
            "city": "舟山市",
            "district": "岱山县"
        }
    },
    {
        "id": "6262174062625839008",
        "title": "公共厕所",
        "address": "浙江省舟山市普陀区东海中路与外河口路交叉口西北方向255米左右",
        "tel": "",
        "category": "基础设施:公共设施:公共厕所",
        "type": 0,
        "location": {
            "lat": 29.946332,
            "lng": 122.289079
        },
        "ad_info": {
            "adcode": 330903,
            "province": "浙江省",
            "city": "舟山市",
            "district": "普陀区"
        }
    },
    {
        "id": "15250264907872790976",
        "title": "公共厕所",
        "address": "浙江省舟山市普陀区三大线与新益路交叉口正南方向35米左右",
        "tel": "",
        "category": "基础设施:公共设施:公共厕所",
        "type": 0,
        "location": {
            "lat": 29.975677,
            "lng": 122.24568
        },
        "ad_info": {
            "adcode": 330903,
            "province": "浙江省",
            "city": "舟山市",
            "district": "普陀区"
        }
    },
    {
        "id": "8409028730986104375",
        "title": "公共厕所",
        "address": "浙江省舟山市岱山县高双线与登山路交叉口西南100米",
        "tel": "",
        "category": "基础设施:公共设施:公共厕所",
        "type": 0,
        "location": {
            "lat": 30.301664,
            "lng": 122.163866
        },
        "ad_info": {
            "adcode": 330921,
            "province": "浙江省",
            "city": "舟山市",
            "district": "岱山县"
        }
    },
    {
        "id": "16436517466384941007",
        "title": "公共厕所",
        "address": "浙江省舟山市岱山县兰秀大道与追鱼路交叉口东北方向137米左右",
        "tel": "",
        "category": "基础设施:公共设施:公共厕所",
        "type": 0,
        "location": {
            "lat": 30.267594,
            "lng": 122.227708
        },
        "ad_info": {
            "adcode": 330921,
            "province": "浙江省",
            "city": "舟山市",
            "district": "岱山县"
        }
    },
    {
        "id": "5296911356566861252",
        "title": "公共厕所",
        "address": "浙江省舟山市普陀区庙筲线",
        "tel": "",
        "category": "基础设施:公共设施:公共厕所",
        "type": 0,
        "location": {
            "lat": 29.851717,
            "lng": 122.384023
        },
        "ad_info": {
            "adcode": 330903,
            "province": "浙江省",
            "city": "舟山市",
            "district": "普陀区"
        }
    },
    {
        "id": "9400115874972878939",
        "title": "公共厕所",
        "address": "浙江省舟山市定海区海天大道与鸭东线交叉口正北方向157米左右",
        "tel": "",
        "category": "基础设施:公共设施:公共厕所",
        "type": 0,
        "location": {
            "lat": 30.045103,
            "lng": 122.007118
        },
        "ad_info": {
            "adcode": 330902,
            "province": "浙江省",
            "city": "舟山市",
            "district": "定海区"
        }
    },
    {
        "id": "20087816197641714",
        "title": "公共厕所",
        "address": "浙江省舟山市普陀区海华路与灵秀街交叉口西南方向125米左右",
        "tel": "",
        "category": "基础设施:公共设施:公共厕所",
        "type": 0,
        "location": {
            "lat": 29.957659,
            "lng": 122.314901
        },
        "ad_info": {
            "adcode": 330903,
            "province": "浙江省",
            "city": "舟山市",
            "district": "普陀区"
        }
    },
    {
        "id": "12723929458012049766",
        "title": "公共厕所",
        "address": "浙江省舟山市定海区环城东路与石柱弄交叉口正西方向76米左右",
        "tel": "",
        "category": "基础设施:公共设施:公共厕所",
        "type": 0,
        "location": {
            "lat": 30.024821,
            "lng": 122.106436
        },
        "ad_info": {
            "adcode": 330902,
            "province": "浙江省",
            "city": "舟山市",
            "district": "定海区"
        }
    },
    {
        "id": "16049792452688410528",
        "title": "公共厕所",
        "address": "浙江省舟山市普陀区东泗湾路与新街交叉口西南方向18米左右",
        "tel": "",
        "category": "基础设施:公共设施:公共厕所",
        "type": 0,
        "location": {
            "lat": 29.951239,
            "lng": 122.304091
        },
        "ad_info": {
            "adcode": 330903,
            "province": "浙江省",
            "city": "舟山市",
            "district": "普陀区"
        }
    },
    {
        "id": "10756490411736131420",
        "title": "公共厕所",
        "address": "浙江省舟山市普陀区 · 普陀山风景区 广佛线与梅岑路交叉口东南方向正北方向1999米左右",
        "tel": "",
        "category": "基础设施:公共设施:公共厕所",
        "type": 0,
        "location": {
            "lat": 30.019479,
            "lng": 122.395691
        },
        "ad_info": {
            "adcode": 330903,
            "province": "浙江省",
            "city": "舟山市",
            "district": "普陀区"
        }
    },
    {
        "id": "13679988581872606089",
        "title": "公共厕所",
        "address": "浙江省舟山市定海区东河北路与青云桥路交叉口正西方向112米左右",
        "tel": "",
        "category": "基础设施:公共设施:公共厕所",
        "type": 0,
        "location": {
            "lat": 30.019772,
            "lng": 122.117745
        },
        "ad_info": {
            "adcode": 330902,
            "province": "浙江省",
            "city": "舟山市",
            "district": "定海区"
        }
    },
    {
        "id": "15514658833453251313",
        "title": "公共厕所",
        "address": "浙江省舟山市定海区岑港街道司前村海滨公园",
        "tel": "",
        "category": "基础设施:公共设施:公共厕所",
        "type": 0,
        "location": {
            "lat": 30.068768,
            "lng": 121.990549
        },
        "ad_info": {
            "adcode": 330902,
            "province": "浙江省",
            "city": "舟山市",
            "district": "定海区"
        }
    },
    {
        "id": "14830702880771545502",
        "title": "公共厕所",
        "address": "浙江省舟山市定海区金星路与金金线交叉口正西方向1830米左右",
        "tel": "",
        "category": "基础设施:公共设施:公共厕所",
        "type": 0,
        "location": {
            "lat": 30.072495,
            "lng": 122.123411
        },
        "ad_info": {
            "adcode": 330902,
            "province": "浙江省",
            "city": "舟山市",
            "district": "定海区"
        }
    },
    {
        "id": "5914267022596338390",
        "title": "公共厕所",
        "address": "浙江省舟山市普陀区南沙路与龙眼线交叉口正南方向34米左右",
        "tel": "",
        "category": "基础设施:公共设施:公共厕所",
        "type": 0,
        "location": {
            "lat": 29.879794,
            "lng": 122.406276
        },
        "ad_info": {
            "adcode": 330903,
            "province": "浙江省",
            "city": "舟山市",
            "district": "普陀区"
        }
    },
    {
        "id": "6341740647364213268",
        "title": "公共厕所",
        "address": "浙江省舟山市定海区东契路与大沈线交叉口正东方向154米左右",
        "tel": "",
        "category": "基础设施:公共设施:公共厕所",
        "type": 0,
        "location": {
            "lat": 30.12656,
            "lng": 122.02022
        },
        "ad_info": {
            "adcode": 330902,
            "province": "浙江省",
            "city": "舟山市",
            "district": "定海区"
        }
    },
    {
        "id": "11165951720647415344",
        "title": "公共厕所",
        "address": "浙江省舟山市定海区海天大道与鸭东线交叉口西北方向175米左右",
        "tel": "",
        "category": "基础设施:公共设施:公共厕所",
        "type": 0,
        "location": {
            "lat": 30.044556,
            "lng": 122.005847
        },
        "ad_info": {
            "adcode": 330902,
            "province": "浙江省",
            "city": "舟山市",
            "district": "定海区"
        }
    },
    {
        "id": "16667755694573679332",
        "title": "公共厕所",
        "address": "浙江省舟山市定海区西关路与解放西路交叉口东南方向73米左右",
        "tel": "",
        "category": "基础设施:公共设施:公共厕所",
        "type": 0,
        "location": {
            "lat": 30.014492,
            "lng": 122.10009
        },
        "ad_info": {
            "adcode": 330902,
            "province": "浙江省",
            "city": "舟山市",
            "district": "定海区"
        }
    },
    {
        "id": "7603674193059717688",
        "title": "公共厕所",
        "address": "浙江省舟山市定海区解放东路232号怡东凯丽大酒店9楼",
        "tel": "",
        "category": "基础设施:公共设施:公共厕所",
        "type": 0,
        "location": {
            "lat": 30.015622,
            "lng": 122.118365
        },
        "ad_info": {
            "adcode": 330902,
            "province": "浙江省",
            "city": "舟山市",
            "district": "定海区"
        }
    },
    {
        "id": "1475134792118524815",
        "title": "公共厕所",
        "address": "浙江省舟山市普陀区亿擎·浅水湾城市花园东区西",
        "tel": "",
        "category": "基础设施:公共设施:公共厕所",
        "type": 0,
        "location": {
            "lat": 29.974133,
            "lng": 122.251497
        },
        "ad_info": {
            "adcode": 330903,
            "province": "浙江省",
            "city": "舟山市",
            "district": "普陀区"
        }
    },
    {
        "id": "7702944861588346542",
        "title": "公共厕所",
        "address": "浙江省舟山市定海区桃源路与育华路交叉口正南方向1066米左右",
        "tel": "",
        "category": "基础设施:公共设施:公共厕所",
        "type": 0,
        "location": {
            "lat": 29.964154,
            "lng": 122.161299
        },
        "ad_info": {
            "adcode": 330902,
            "province": "浙江省",
            "city": "舟山市",
            "district": "定海区"
        }
    },
    {
        "id": "2081363529870002960",
        "title": "公共厕所",
        "address": "浙江省舟山市定海区人民南路与卫海路交叉口东南方向39米左右",
        "tel": "",
        "category": "基础设施:公共设施:公共厕所",
        "type": 0,
        "location": {
            "lat": 30.007664,
            "lng": 122.106795
        },
        "ad_info": {
            "adcode": 330902,
            "province": "浙江省",
            "city": "舟山市",
            "district": "定海区"
        }
    },
    {
        "id": "12122760929823875639",
        "title": "公共厕所",
        "address": "浙江省舟山市定海区东海东路与芙蓉南路交叉口西南方向67米左右",
        "tel": "",
        "category": "基础设施:公共设施:公共厕所",
        "type": 0,
        "location": {
            "lat": 30.013888,
            "lng": 122.110378
        },
        "ad_info": {
            "adcode": 330902,
            "province": "浙江省",
            "city": "舟山市",
            "district": "定海区"
        }
    },
    {
        "id": "12782767861427250577",
        "title": "公共厕所",
        "address": "浙江省舟山市岱山县山外路与蓬莱路交叉口正西方向202米左右",
        "tel": "",
        "category": "基础设施:公共设施:公共厕所",
        "type": 0,
        "location": {
            "lat": 30.237484,
            "lng": 122.205342
        },
        "ad_info": {
            "adcode": 330921,
            "province": "浙江省",
            "city": "舟山市",
            "district": "岱山县"
        }
    },
    {
        "id": "10018234981043860768",
        "title": "公共厕所",
        "address": "浙江省舟山市岱山县兰秀大道与衢山大道交叉口东北方向47米左右",
        "tel": "",
        "category": "基础设施:公共设施:公共厕所",
        "type": 0,
        "location": {
            "lat": 30.250021,
            "lng": 122.219382
        },
        "ad_info": {
            "adcode": 330921,
            "province": "浙江省",
            "city": "舟山市",
            "district": "岱山县"
        }
    },
    {
        "id": "2625796594454610235",
        "title": "公共厕所",
        "address": "浙江省舟山市普陀区船厂路41-1号",
        "tel": "",
        "category": "基础设施:公共设施:公共厕所",
        "type": 0,
        "location": {
            "lat": 29.942164,
            "lng": 122.29202
        },
        "ad_info": {
            "adcode": 330903,
            "province": "浙江省",
            "city": "舟山市",
            "district": "普陀区"
        }
    },
    {
        "id": "12840464835664756744",
        "title": "公共厕所",
        "address": "浙江省舟山市普陀区海莲路与普陀海天大道绿道交叉口北80米",
        "tel": "",
        "category": "基础设施:公共设施:公共厕所",
        "type": 0,
        "location": {
            "lat": 29.967834,
            "lng": 122.314188
        },
        "ad_info": {
            "adcode": 330903,
            "province": "浙江省",
            "city": "舟山市",
            "district": "普陀区"
        }
    },
    {
        "id": "2433342144785851749",
        "title": "普陀山风景名胜区雷迪森庄园洗手间",
        "address": "浙江省舟山市普陀区 · 普陀山风景区 广佛线与梅岑路交叉口东南方向正东方向594米左右",
        "tel": "",
        "category": "基础设施:公共设施:公共厕所",
        "type": 0,
        "location": {
            "lat": 30.001486,
            "lng": 122.397248
        },
        "ad_info": {
            "adcode": 330903,
            "province": "浙江省",
            "city": "舟山市",
            "district": "普陀区"
        }
    },
    {
        "id": "17048854720590408474",
        "title": "男卫生间",
        "address": "浙江省舟山市普陀区兴普大道288号凯虹广场F3",
        "tel": "",
        "category": "基础设施:公共设施:男洗手间",
        "type": 0,
        "location": {
            "lat": 29.966597,
            "lng": 122.318771
        },
        "ad_info": {
            "adcode": 330903,
            "province": "浙江省",
            "city": "舟山市",
            "district": "普陀区"
        }
    },
    {
        "id": "15053308898486048011",
        "title": "公共厕所(ZJ-ZS-0419)",
        "address": "浙江省舟山市普陀区慈航路与朱乌线交叉口东北方向145米左右",
        "tel": "",
        "category": "基础设施:公共设施:公共厕所",
        "type": 0,
        "location": {
            "lat": 29.948041,
            "lng": 122.370793
        },
        "ad_info": {
            "adcode": 330903,
            "province": "浙江省",
            "city": "舟山市",
            "district": "普陀区"
        }
    },
    {
        "id": "4149309904841067276",
        "title": "公共厕所",
        "address": "浙江省舟山市普陀区平渔路161号",
        "tel": "",
        "category": "基础设施:公共设施:公共厕所",
        "type": 0,
        "location": {
            "lat": 29.964384,
            "lng": 122.248103
        },
        "ad_info": {
            "adcode": 330903,
            "province": "浙江省",
            "city": "舟山市",
            "district": "普陀区"
        }
    },
    {
        "id": "5119206314619688467",
        "title": "公共厕所",
        "address": "浙江省舟山市定海区北蝉乡星马社区卫生服务站",
        "tel": "",
        "category": "基础设施:公共设施:公共厕所",
        "type": 0,
        "location": {
            "lat": 30.087023,
            "lng": 122.211287
        },
        "ad_info": {
            "adcode": 330902,
            "province": "浙江省",
            "city": "舟山市",
            "district": "定海区"
        }
    },
    {
        "id": "16019128545995470786",
        "title": "公共厕所",
        "address": "浙江省舟山市定海区新道东路与沥小线交叉口正东方向167米左右",
        "tel": "",
        "category": "基础设施:公共设施:公共厕所",
        "type": 0,
        "location": {
            "lat": 30.004099,
            "lng": 121.871074
        },
        "ad_info": {
            "adcode": 330902,
            "province": "浙江省",
            "city": "舟山市",
            "district": "定海区"
        }
    },
    {
        "id": "14960699661292692535",
        "title": "公共厕所",
        "address": "浙江省舟山市定海区昌国路祖印寺(翁山社区总府路公寓北)",
        "tel": "",
        "category": "基础设施:公共设施:公共厕所",
        "type": 0,
        "location": {
            "lat": 30.018752,
            "lng": 122.105042
        },
        "ad_info": {
            "adcode": 330902,
            "province": "浙江省",
            "city": "舟山市",
            "district": "定海区"
        }
    },
    {
        "id": "17323241016952656965",
        "title": "公共厕所",
        "address": "浙江省舟山市普陀区展螺线舵岙花苑",
        "tel": "",
        "category": "基础设施:公共设施:公共厕所",
        "type": 0,
        "location": {
            "lat": 29.971171,
            "lng": 122.290138
        },
        "ad_info": {
            "adcode": 330903,
            "province": "浙江省",
            "city": "舟山市",
            "district": "普陀区"
        }
    },
    {
        "id": "12093733517807716254",
        "title": "公共厕所",
        "address": "浙江省舟山市定海区长途客运中心",
        "tel": "",
        "category": "基础设施:公共设施:公共厕所",
        "type": 0,
        "location": {
            "lat": 30.020623,
            "lng": 122.062356
        },
        "ad_info": {
            "adcode": 330902,
            "province": "浙江省",
            "city": "舟山市",
            "district": "定海区"
        }
    },
    {
        "id": "16934191958234141523",
        "title": "公共厕所",
        "address": "浙江省舟山市岱山县长剑大道201号",
        "tel": "",
        "category": "基础设施:公共设施:公共厕所",
        "type": 0,
        "location": {
            "lat": 30.250574,
            "lng": 122.2269
        },
        "ad_info": {
            "adcode": 330921,
            "province": "浙江省",
            "city": "舟山市",
            "district": "岱山县"
        }
    },
    {
        "id": "16569986659715741944",
        "title": "公共厕所",
        "address": "浙江省舟山市普陀区中兴路与滨港路交叉口东北方向124米左右",
        "tel": "",
        "category": "基础设施:公共设施:公共厕所",
        "type": 0,
        "location": {
            "lat": 29.94481,
            "lng": 122.31232
        },
        "ad_info": {
            "adcode": 330903,
            "province": "浙江省",
            "city": "舟山市",
            "district": "普陀区"
        }
    },
    {
        "id": "7838731423282185204",
        "title": "公共厕所",
        "address": "浙江省舟山市定海区港岛路领城故事",
        "tel": "",
        "category": "基础设施:公共设施:公共厕所",
        "type": 0,
        "location": {
            "lat": 29.990152,
            "lng": 122.216549
        },
        "ad_info": {
            "adcode": 330902,
            "province": "浙江省",
            "city": "舟山市",
            "district": "定海区"
        }
    },
    {
        "id": "8839645326197946582",
        "title": "无障碍公共厕所",
        "address": "浙江省舟山市定海区海润学校东侧80米",
        "tel": "",
        "category": "基础设施:公共设施:公共厕所",
        "type": 0,
        "location": {
            "lat": 30.045258,
            "lng": 122.047852
        },
        "ad_info": {
            "adcode": 330902,
            "province": "浙江省",
            "city": "舟山市",
            "district": "定海区"
        }
    },
    {
        "id": "16171238379976790714",
        "title": "公共厕所",
        "address": "浙江省舟山市普陀区乌塘路与朱樟线交叉口东南方向316米左右",
        "tel": "",
        "category": "基础设施:公共设施:公共厕所",
        "type": 0,
        "location": {
            "lat": 29.920924,
            "lng": 122.40387
        },
        "ad_info": {
            "adcode": 330903,
            "province": "浙江省",
            "city": "舟山市",
            "district": "普陀区"
        }
    },
    {
        "id": "1614919856956762397",
        "title": "公共厕所",
        "address": "浙江省舟山市定海区开源路与白马街交叉口正东方向26米左右",
        "tel": "",
        "category": "基础设施:公共设施:公共厕所",
        "type": 0,
        "location": {
            "lat": 30.115567,
            "lng": 122.096258
        },
        "ad_info": {
            "adcode": 330902,
            "province": "浙江省",
            "city": "舟山市",
            "district": "定海区"
        }
    },
    {
        "id": "1291458407155838241",
        "title": "公共厕所",
        "address": "浙江省舟山市普陀区同济路与长兴弄交叉口正东方向81米左右",
        "tel": "",
        "category": "基础设施:公共设施:公共厕所",
        "type": 0,
        "location": {
            "lat": 29.943759,
            "lng": 122.298689
        },
        "ad_info": {
            "adcode": 330903,
            "province": "浙江省",
            "city": "舟山市",
            "district": "普陀区"
        }
    },
    {
        "id": "10073729649525524480",
        "title": "公共厕所",
        "address": "浙江省舟山市岱山县长河路金帆公寓",
        "tel": "",
        "category": "基础设施:公共设施:公共厕所",
        "type": 0,
        "location": {
            "lat": 30.24433,
            "lng": 122.200325
        },
        "ad_info": {
            "adcode": 330921,
            "province": "浙江省",
            "city": "舟山市",
            "district": "岱山县"
        }
    },
    {
        "id": "12842439625506755809",
        "title": "公共厕所",
        "address": "浙江省舟山市普陀区台涨线与孙干线交叉口正南方向362米左右",
        "tel": "",
        "category": "基础设施:公共设施:公共厕所",
        "type": 0,
        "location": {
            "lat": 29.72344,
            "lng": 122.151131
        },
        "ad_info": {
            "adcode": 330903,
            "province": "浙江省",
            "city": "舟山市",
            "district": "普陀区"
        }
    },
    {
        "id": "5249067031576458582",
        "title": "公共厕所",
        "address": "浙江省舟山市普陀区梅岑路1号普陀山风景名胜区内(西南角)",
        "tel": "",
        "category": "基础设施:公共设施:公共厕所",
        "type": 0,
        "location": {
            "lat": 29.981804,
            "lng": 122.378693
        },
        "ad_info": {
            "adcode": 330903,
            "province": "浙江省",
            "city": "舟山市",
            "district": "普陀区"
        }
    },
    {
        "id": "13590253542755095059",
        "title": "公共厕所",
        "address": "浙江省舟山市定海区桔园新村(南区)",
        "tel": "",
        "category": "基础设施:公共设施:公共厕所",
        "type": 0,
        "location": {
            "lat": 30.007864,
            "lng": 122.119996
        },
        "ad_info": {
            "adcode": 330902,
            "province": "浙江省",
            "city": "舟山市",
            "district": "定海区"
        }
    },
    {
        "id": "8471871190075143383",
        "title": "公共厕所",
        "address": "浙江省舟山市定海区气象台路城市新境",
        "tel": "",
        "category": "基础设施:公共设施:公共厕所",
        "type": 0,
        "location": {
            "lat": 30.031427,
            "lng": 122.110655
        },
        "ad_info": {
            "adcode": 330902,
            "province": "浙江省",
            "city": "舟山市",
            "district": "定海区"
        }
    },
    {
        "id": "10398028839273592595",
        "title": "公共厕所",
        "address": "浙江省舟山市岱山县仙洲桥与山外路交叉口东南方向121米左右",
        "tel": "",
        "category": "基础设施:公共设施:公共厕所",
        "type": 0,
        "location": {
            "lat": 30.237242,
            "lng": 122.204159
        },
        "ad_info": {
            "adcode": 330921,
            "province": "浙江省",
            "city": "舟山市",
            "district": "岱山县"
        }
    },
    {
        "id": "10213494124902793787",
        "title": "公共厕所",
        "address": "浙江省舟山市定海区解放西路239号",
        "tel": "",
        "category": "基础设施:公共设施:公共厕所",
        "type": 0,
        "location": {
            "lat": 30.014129,
            "lng": 122.096539
        },
        "ad_info": {
            "adcode": 330902,
            "province": "浙江省",
            "city": "舟山市",
            "district": "定海区"
        }
    },
    {
        "id": "12403097542879958923",
        "title": "公共厕所",
        "address": "浙江省舟山市定海区振兴中路与航标路交叉口正东方向132米左右",
        "tel": "",
        "category": "基础设施:公共设施:公共厕所",
        "type": 0,
        "location": {
            "lat": 30.010287,
            "lng": 122.080315
        },
        "ad_info": {
            "adcode": 330902,
            "province": "浙江省",
            "city": "舟山市",
            "district": "定海区"
        }
    },
    {
        "id": "17335157528064029199",
        "title": "公共厕所",
        "address": "浙江省舟山市普陀区海星轮船有限公司北侧270米",
        "tel": "",
        "category": "基础设施:公共设施:公共厕所",
        "type": 0,
        "location": {
            "lat": 29.953106,
            "lng": 122.37135
        },
        "ad_info": {
            "adcode": 330903,
            "province": "浙江省",
            "city": "舟山市",
            "district": "普陀区"
        }
    },
    {
        "id": "17126277516130559431",
        "title": "公共厕所",
        "address": "浙江省舟山市普陀区莲花南路57号",
        "tel": "",
        "category": "基础设施:公共设施:公共厕所",
        "type": 0,
        "location": {
            "lat": 29.914355,
            "lng": 122.389818
        },
        "ad_info": {
            "adcode": 330903,
            "province": "浙江省",
            "city": "舟山市",
            "district": "普陀区"
        }
    },
    {
        "id": "10944400504210314858",
        "title": "公共厕所",
        "address": "浙江省舟山市普陀区东海中路与长地爿路交叉口东北方向324米左右",
        "tel": "",
        "category": "基础设施:公共设施:公共厕所",
        "type": 0,
        "location": {
            "lat": 29.947222,
            "lng": 122.287033
        },
        "ad_info": {
            "adcode": 330903,
            "province": "浙江省",
            "city": "舟山市",
            "district": "普陀区"
        }
    },
    {
        "id": "17980254257015017900",
        "title": "公共厕所",
        "address": "浙江省舟山市岱山县人民路与沿港中路交叉口正南方向16米左右",
        "tel": "",
        "category": "基础设施:公共设施:公共厕所",
        "type": 0,
        "location": {
            "lat": 30.240274,
            "lng": 122.202152
        },
        "ad_info": {
            "adcode": 330921,
            "province": "浙江省",
            "city": "舟山市",
            "district": "岱山县"
        }
    },
    {
        "id": "6165953404626332200",
        "title": "公共厕所",
        "address": "浙江省舟山市普陀区台涨线与大梅线交叉口东北方向610米左右",
        "tel": "",
        "category": "基础设施:公共设施:公共厕所",
        "type": 0,
        "location": {
            "lat": 29.756551,
            "lng": 122.12264
        },
        "ad_info": {
            "adcode": 330903,
            "province": "浙江省",
            "city": "舟山市",
            "district": "普陀区"
        }
    },
    {
        "id": "5380445427327983657",
        "title": "公共厕所",
        "address": "浙江省舟山市普陀区慈航路与朱乌线交叉口正东方向437米左右",
        "tel": "",
        "category": "基础设施:公共设施:公共厕所",
        "type": 0,
        "location": {
            "lat": 29.948154,
            "lng": 122.373968
        },
        "ad_info": {
            "adcode": 330903,
            "province": "浙江省",
            "city": "舟山市",
            "district": "普陀区"
        }
    },
    {
        "id": "488077879451095568",
        "title": "公共厕所",
        "address": "浙江省舟山市普陀区宫下路与菜市路交叉口正北方向71米左右",
        "tel": "",
        "category": "基础设施:公共设施:公共厕所",
        "type": 0,
        "location": {
            "lat": 29.946809,
            "lng": 122.299523
        },
        "ad_info": {
            "adcode": 330903,
            "province": "浙江省",
            "city": "舟山市",
            "district": "普陀区"
        }
    },
    {
        "id": "4413490825531082798",
        "title": "公共厕所",
        "address": "浙江省舟山市定海区群岛美术馆西南侧250米",
        "tel": "",
        "category": "基础设施:公共设施:公共厕所",
        "type": 0,
        "location": {
            "lat": 30.087444,
            "lng": 122.136979
        },
        "ad_info": {
            "adcode": 330902,
            "province": "浙江省",
            "city": "舟山市",
            "district": "定海区"
        }
    },
    {
        "id": "9540961868224412712",
        "title": "公共厕所",
        "address": "浙江省舟山市普陀区金沙路356号",
        "tel": "",
        "category": "基础设施:公共设施:公共厕所",
        "type": 0,
        "location": {
            "lat": 29.882299,
            "lng": 122.40649
        },
        "ad_info": {
            "adcode": 330903,
            "province": "浙江省",
            "city": "舟山市",
            "district": "普陀区"
        }
    },
    {
        "id": "8460523193181077258",
        "title": "公共厕所",
        "address": "浙江省舟山市普陀区东海东路与新街交叉口东北方向36米左右",
        "tel": "",
        "category": "基础设施:公共设施:公共厕所",
        "type": 0,
        "location": {
            "lat": 29.94776,
            "lng": 122.303086
        },
        "ad_info": {
            "adcode": 330903,
            "province": "浙江省",
            "city": "舟山市",
            "district": "普陀区"
        }
    },
    {
        "id": "16799653782334657233",
        "title": "公共厕所",
        "address": "浙江省舟山市普陀区海洲路与金城街交叉口正南方向105米左右",
        "tel": "",
        "category": "基础设施:公共设施:公共厕所",
        "type": 0,
        "location": {
            "lat": 29.95956,
            "lng": 122.323021
        },
        "ad_info": {
            "adcode": 330903,
            "province": "浙江省",
            "city": "舟山市",
            "district": "普陀区"
        }
    },
    {
        "id": "14394621972659156569",
        "title": "公共厕所",
        "address": "浙江省舟山市普陀区中大街70弄16号",
        "tel": "",
        "category": "基础设施:公共设施:公共厕所",
        "type": 0,
        "location": {
            "lat": 29.944364,
            "lng": 122.300074
        },
        "ad_info": {
            "adcode": 330903,
            "province": "浙江省",
            "city": "舟山市",
            "district": "普陀区"
        }
    },
    {
        "id": "5796742094952910836",
        "title": "公共厕所",
        "address": "浙江省舟山市定海区伴云路与昌国路交叉口西南方向110米左右",
        "tel": "",
        "category": "基础设施:公共设施:公共厕所",
        "type": 0,
        "location": {
            "lat": 30.021898,
            "lng": 122.118837
        },
        "ad_info": {
            "adcode": 330902,
            "province": "浙江省",
            "city": "舟山市",
            "district": "定海区"
        }
    },
    {
        "id": "8449717374045710876",
        "title": "公共厕所",
        "address": "浙江省舟山市定海区怡岛路荷塘月色小区",
        "tel": "",
        "category": "基础设施:公共设施:公共厕所",
        "type": 0,
        "location": {
            "lat": 29.986127,
            "lng": 122.213748
        },
        "ad_info": {
            "adcode": 330902,
            "province": "浙江省",
            "city": "舟山市",
            "district": "定海区"
        }
    },
    {
        "id": "17378928277869648407",
        "title": "公共厕所",
        "address": "浙江省舟山市岱山县东海路与长河路交叉口正北方向68米左右",
        "tel": "",
        "category": "基础设施:公共设施:公共厕所",
        "type": 0,
        "location": {
            "lat": 30.250607,
            "lng": 122.216633
        },
        "ad_info": {
            "adcode": 330921,
            "province": "浙江省",
            "city": "舟山市",
            "district": "岱山县"
        }
    },
    {
        "id": "17958134393421890833",
        "title": "公共厕所",
        "address": "浙江省舟山市岱山县沙涂弄与蓬莱路交叉口正西方向23米左右",
        "tel": "",
        "category": "基础设施:公共设施:公共厕所",
        "type": 0,
        "location": {
            "lat": 30.238782,
            "lng": 122.206925
        },
        "ad_info": {
            "adcode": 330921,
            "province": "浙江省",
            "city": "舟山市",
            "district": "岱山县"
        }
    },
    {
        "id": "1728588990546945655",
        "title": "公共厕所",
        "address": "浙江省舟山市定海区双阳路与荷花浦路交叉口西北方向55米左右",
        "tel": "",
        "category": "基础设施:公共设施:公共厕所",
        "type": 0,
        "location": {
            "lat": 29.970408,
            "lng": 122.23302
        },
        "ad_info": {
            "adcode": 330902,
            "province": "浙江省",
            "city": "舟山市",
            "district": "定海区"
        }
    },
    {
        "id": "3608274516312440211",
        "title": "公共厕所",
        "address": "浙江省舟山市普陀区北安路与戚家湾路交叉口西北方向155米左右",
        "tel": "",
        "category": "基础设施:公共设施:公共厕所",
        "type": 0,
        "location": {
            "lat": 29.950042,
            "lng": 122.301172
        },
        "ad_info": {
            "adcode": 330903,
            "province": "浙江省",
            "city": "舟山市",
            "district": "普陀区"
        }
    },
    {
        "id": "2352240509139263873",
        "title": "普陀山风景名胜区公共厕所",
        "address": "浙江省舟山市普陀区普陀山梅芩路115号普陀山内",
        "tel": "",
        "category": "基础设施:公共设施:公共厕所",
        "type": 0,
        "location": {
            "lat": 30.019082,
            "lng": 122.397642
        },
        "ad_info": {
            "adcode": 330903,
            "province": "浙江省",
            "city": "舟山市",
            "district": "普陀区"
        }
    },
    {
        "id": "11236426612132918919",
        "title": "公共厕所",
        "address": "浙江省舟山市普陀区东泗湾路与新街交叉口正北方向43米左右",
        "tel": "",
        "category": "基础设施:公共设施:公共厕所",
        "type": 0,
        "location": {
            "lat": 29.951717,
            "lng": 122.30432
        },
        "ad_info": {
            "adcode": 330903,
            "province": "浙江省",
            "city": "舟山市",
            "district": "普陀区"
        }
    },
    {
        "id": "16141664353210804845",
        "title": "公共厕所",
        "address": "浙江省舟山市定海区新城大道辅路与海天大道辅路交叉口正南方向125米左右",
        "tel": "",
        "category": "基础设施:公共设施:公共厕所",
        "type": 0,
        "location": {
            "lat": 29.998251,
            "lng": 122.155434
        },
        "ad_info": {
            "adcode": 330902,
            "province": "浙江省",
            "city": "舟山市",
            "district": "定海区"
        }
    },
    {
        "id": "6701831455499975800",
        "title": "公共厕所",
        "address": "浙江省舟山市定海区册北路与册南路交叉口正西方向42米左右",
        "tel": "",
        "category": "基础设施:公共设施:公共厕所",
        "type": 0,
        "location": {
            "lat": 30.081166,
            "lng": 121.941479
        },
        "ad_info": {
            "adcode": 330902,
            "province": "浙江省",
            "city": "舟山市",
            "district": "定海区"
        }
    },
    {
        "id": "5850021963464829420",
        "title": "公共厕所",
        "address": "浙江省舟山市普陀区宁兴街与麒麟街交叉口正南方向96米左右",
        "tel": "",
        "category": "基础设施:公共设施:公共厕所",
        "type": 0,
        "location": {
            "lat": 29.973612,
            "lng": 122.321583
        },
        "ad_info": {
            "adcode": 330903,
            "province": "浙江省",
            "city": "舟山市",
            "district": "普陀区"
        }
    },
    {
        "id": "3512031723726079151",
        "title": "公共厕所",
        "address": "浙江省舟山市普陀区中大街175号",
        "tel": "",
        "category": "基础设施:公共设施:公共厕所",
        "type": 0,
        "location": {
            "lat": 29.946913,
            "lng": 122.301676
        },
        "ad_info": {
            "adcode": 330903,
            "province": "浙江省",
            "city": "舟山市",
            "district": "普陀区"
        }
    },
    {
        "id": "6555877888746822543",
        "title": "公共厕所",
        "address": "浙江省舟山市岱山县衢山镇枕头山校园路仙乐大酒店",
        "tel": "",
        "category": "基础设施:公共设施:公共厕所",
        "type": 0,
        "location": {
            "lat": 30.450982,
            "lng": 122.298674
        },
        "ad_info": {
            "adcode": 330921,
            "province": "浙江省",
            "city": "舟山市",
            "district": "岱山县"
        }
    },
    {
        "id": "17967515751146229499",
        "title": "公共厕所",
        "address": "浙江省舟山市定海区东海西路与东海路交叉口正北方向73米左右",
        "tel": "",
        "category": "基础设施:公共设施:公共厕所",
        "type": 0,
        "location": {
            "lat": 30.014389,
            "lng": 122.107021
        },
        "ad_info": {
            "adcode": 330902,
            "province": "浙江省",
            "city": "舟山市",
            "district": "定海区"
        }
    },
    {
        "id": "7493796253546302250",
        "title": "公共厕所",
        "address": "浙江省舟山市普陀区三大线与浦西街交叉口正南方向31米左右",
        "tel": "",
        "category": "基础设施:公共设施:公共厕所",
        "type": 0,
        "location": {
            "lat": 29.973138,
            "lng": 122.250306
        },
        "ad_info": {
            "adcode": 330903,
            "province": "浙江省",
            "city": "舟山市",
            "district": "普陀区"
        }
    },
    {
        "id": "10730473479554216780",
        "title": "公共厕所",
        "address": "浙江省舟山市定海区中大街与横塘弄交叉口正东方向38米左右",
        "tel": "",
        "category": "基础设施:公共设施:公共厕所",
        "type": 0,
        "location": {
            "lat": 30.018723,
            "lng": 122.107277
        },
        "ad_info": {
            "adcode": 330902,
            "province": "浙江省",
            "city": "舟山市",
            "district": "定海区"
        }
    },
    {
        "id": "14598213475077461695",
        "title": "公共厕所",
        "address": "浙江省舟山市普陀区中兴路与晨晖街交叉口西北方向162米左右",
        "tel": "",
        "category": "基础设施:公共设施:公共厕所",
        "type": 0,
        "location": {
            "lat": 29.951419,
            "lng": 122.31347
        },
        "ad_info": {
            "adcode": 330903,
            "province": "浙江省",
            "city": "舟山市",
            "district": "普陀区"
        }
    },
    {
        "id": "8512684507419623626",
        "title": "公共厕所",
        "address": "浙江省舟山市定海区海天大道辅路与蟠洋山路交叉口东北方向54米左右",
        "tel": "",
        "category": "基础设施:公共设施:公共厕所",
        "type": 0,
        "location": {
            "lat": 30.026341,
            "lng": 122.114478
        },
        "ad_info": {
            "adcode": 330902,
            "province": "浙江省",
            "city": "舟山市",
            "district": "定海区"
        }
    },
    {
        "id": "16799653782334657233",
        "title": "公共厕所",
        "address": "浙江省舟山市普陀区海洲路与金城街交叉口正南方向105米左右",
        "tel": "",
        "category": "基础设施:公共设施:公共厕所",
        "type": 0,
        "location": {
            "lat": 29.95956,
            "lng": 122.323021
        },
        "ad_info": {
            "adcode": 330903,
            "province": "浙江省",
            "city": "舟山市",
            "district": "普陀区"
        }
    },
    {
        "id": "14394621972659156569",
        "title": "公共厕所",
        "address": "浙江省舟山市普陀区中大街70弄16号",
        "tel": "",
        "category": "基础设施:公共设施:公共厕所",
        "type": 0,
        "location": {
            "lat": 29.944364,
            "lng": 122.300074
        },
        "ad_info": {
            "adcode": 330903,
            "province": "浙江省",
            "city": "舟山市",
            "district": "普陀区"
        }
    },
    {
        "id": "5796742094952910836",
        "title": "公共厕所",
        "address": "浙江省舟山市定海区伴云路与昌国路交叉口西南方向110米左右",
        "tel": "",
        "category": "基础设施:公共设施:公共厕所",
        "type": 0,
        "location": {
            "lat": 30.021898,
            "lng": 122.118837
        },
        "ad_info": {
            "adcode": 330902,
            "province": "浙江省",
            "city": "舟山市",
            "district": "定海区"
        }
    },
    {
        "id": "8449717374045710876",
        "title": "公共厕所",
        "address": "浙江省舟山市定海区怡岛路荷塘月色小区",
        "tel": "",
        "category": "基础设施:公共设施:公共厕所",
        "type": 0,
        "location": {
            "lat": 29.986127,
            "lng": 122.213748
        },
        "ad_info": {
            "adcode": 330902,
            "province": "浙江省",
            "city": "舟山市",
            "district": "定海区"
        }
    },
    {
        "id": "17378928277869648407",
        "title": "公共厕所",
        "address": "浙江省舟山市岱山县东海路与长河路交叉口正北方向68米左右",
        "tel": "",
        "category": "基础设施:公共设施:公共厕所",
        "type": 0,
        "location": {
            "lat": 30.250607,
            "lng": 122.216633
        },
        "ad_info": {
            "adcode": 330921,
            "province": "浙江省",
            "city": "舟山市",
            "district": "岱山县"
        }
    },
    {
        "id": "17958134393421890833",
        "title": "公共厕所",
        "address": "浙江省舟山市岱山县沙涂弄与蓬莱路交叉口正西方向23米左右",
        "tel": "",
        "category": "基础设施:公共设施:公共厕所",
        "type": 0,
        "location": {
            "lat": 30.238782,
            "lng": 122.206925
        },
        "ad_info": {
            "adcode": 330921,
            "province": "浙江省",
            "city": "舟山市",
            "district": "岱山县"
        }
    },
    {
        "id": "1728588990546945655",
        "title": "公共厕所",
        "address": "浙江省舟山市定海区双阳路与荷花浦路交叉口西北方向55米左右",
        "tel": "",
        "category": "基础设施:公共设施:公共厕所",
        "type": 0,
        "location": {
            "lat": 29.970408,
            "lng": 122.23302
        },
        "ad_info": {
            "adcode": 330902,
            "province": "浙江省",
            "city": "舟山市",
            "district": "定海区"
        }
    },
    {
        "id": "3608274516312440211",
        "title": "公共厕所",
        "address": "浙江省舟山市普陀区北安路与戚家湾路交叉口西北方向155米左右",
        "tel": "",
        "category": "基础设施:公共设施:公共厕所",
        "type": 0,
        "location": {
            "lat": 29.950042,
            "lng": 122.301172
        },
        "ad_info": {
            "adcode": 330903,
            "province": "浙江省",
            "city": "舟山市",
            "district": "普陀区"
        }
    },
    {
        "id": "2352240509139263873",
        "title": "普陀山风景名胜区公共厕所",
        "address": "浙江省舟山市普陀区普陀山梅芩路115号普陀山内",
        "tel": "",
        "category": "基础设施:公共设施:公共厕所",
        "type": 0,
        "location": {
            "lat": 30.019082,
            "lng": 122.397642
        },
        "ad_info": {
            "adcode": 330903,
            "province": "浙江省",
            "city": "舟山市",
            "district": "普陀区"
        }
    },
    {
        "id": "11236426612132918919",
        "title": "公共厕所",
        "address": "浙江省舟山市普陀区东泗湾路与新街交叉口正北方向43米左右",
        "tel": "",
        "category": "基础设施:公共设施:公共厕所",
        "type": 0,
        "location": {
            "lat": 29.951717,
            "lng": 122.30432
        },
        "ad_info": {
            "adcode": 330903,
            "province": "浙江省",
            "city": "舟山市",
            "district": "普陀区"
        }
    },
    {
        "id": "16141664353210804845",
        "title": "公共厕所",
        "address": "浙江省舟山市定海区新城大道辅路与海天大道辅路交叉口正南方向125米左右",
        "tel": "",
        "category": "基础设施:公共设施:公共厕所",
        "type": 0,
        "location": {
            "lat": 29.998251,
            "lng": 122.155434
        },
        "ad_info": {
            "adcode": 330902,
            "province": "浙江省",
            "city": "舟山市",
            "district": "定海区"
        }
    },
    {
        "id": "6701831455499975800",
        "title": "公共厕所",
        "address": "浙江省舟山市定海区册北路与册南路交叉口正西方向42米左右",
        "tel": "",
        "category": "基础设施:公共设施:公共厕所",
        "type": 0,
        "location": {
            "lat": 30.081166,
            "lng": 121.941479
        },
        "ad_info": {
            "adcode": 330902,
            "province": "浙江省",
            "city": "舟山市",
            "district": "定海区"
        }
    },
    {
        "id": "5850021963464829420",
        "title": "公共厕所",
        "address": "浙江省舟山市普陀区宁兴街与麒麟街交叉口正南方向96米左右",
        "tel": "",
        "category": "基础设施:公共设施:公共厕所",
        "type": 0,
        "location": {
            "lat": 29.973612,
            "lng": 122.321583
        },
        "ad_info": {
            "adcode": 330903,
            "province": "浙江省",
            "city": "舟山市",
            "district": "普陀区"
        }
    },
    {
        "id": "3512031723726079151",
        "title": "公共厕所",
        "address": "浙江省舟山市普陀区中大街175号",
        "tel": "",
        "category": "基础设施:公共设施:公共厕所",
        "type": 0,
        "location": {
            "lat": 29.946913,
            "lng": 122.301676
        },
        "ad_info": {
            "adcode": 330903,
            "province": "浙江省",
            "city": "舟山市",
            "district": "普陀区"
        }
    },
    {
        "id": "6555877888746822543",
        "title": "公共厕所",
        "address": "浙江省舟山市岱山县衢山镇枕头山校园路仙乐大酒店",
        "tel": "",
        "category": "基础设施:公共设施:公共厕所",
        "type": 0,
        "location": {
            "lat": 30.450982,
            "lng": 122.298674
        },
        "ad_info": {
            "adcode": 330921,
            "province": "浙江省",
            "city": "舟山市",
            "district": "岱山县"
        }
    },
    {
        "id": "17967515751146229499",
        "title": "公共厕所",
        "address": "浙江省舟山市定海区东海西路与东海路交叉口正北方向73米左右",
        "tel": "",
        "category": "基础设施:公共设施:公共厕所",
        "type": 0,
        "location": {
            "lat": 30.014389,
            "lng": 122.107021
        },
        "ad_info": {
            "adcode": 330902,
            "province": "浙江省",
            "city": "舟山市",
            "district": "定海区"
        }
    },
    {
        "id": "7493796253546302250",
        "title": "公共厕所",
        "address": "浙江省舟山市普陀区三大线与浦西街交叉口正南方向31米左右",
        "tel": "",
        "category": "基础设施:公共设施:公共厕所",
        "type": 0,
        "location": {
            "lat": 29.973138,
            "lng": 122.250306
        },
        "ad_info": {
            "adcode": 330903,
            "province": "浙江省",
            "city": "舟山市",
            "district": "普陀区"
        }
    },
    {
        "id": "10730473479554216780",
        "title": "公共厕所",
        "address": "浙江省舟山市定海区中大街与横塘弄交叉口正东方向38米左右",
        "tel": "",
        "category": "基础设施:公共设施:公共厕所",
        "type": 0,
        "location": {
            "lat": 30.018723,
            "lng": 122.107277
        },
        "ad_info": {
            "adcode": 330902,
            "province": "浙江省",
            "city": "舟山市",
            "district": "定海区"
        }
    },
    {
        "id": "14598213475077461695",
        "title": "公共厕所",
        "address": "浙江省舟山市普陀区中兴路与晨晖街交叉口西北方向162米左右",
        "tel": "",
        "category": "基础设施:公共设施:公共厕所",
        "type": 0,
        "location": {
            "lat": 29.951419,
            "lng": 122.31347
        },
        "ad_info": {
            "adcode": 330903,
            "province": "浙江省",
            "city": "舟山市",
            "district": "普陀区"
        }
    },
    {
        "id": "8512684507419623626",
        "title": "公共厕所",
        "address": "浙江省舟山市定海区海天大道辅路与蟠洋山路交叉口东北方向54米左右",
        "tel": "",
        "category": "基础设施:公共设施:公共厕所",
        "type": 0,
        "location": {
            "lat": 30.026341,
            "lng": 122.114478
        },
        "ad_info": {
            "adcode": 330902,
            "province": "浙江省",
            "city": "舟山市",
            "district": "定海区"
        }
    },
    {
        "id": "16799653782334657233",
        "title": "公共厕所",
        "address": "浙江省舟山市普陀区海洲路与金城街交叉口正南方向105米左右",
        "tel": "",
        "category": "基础设施:公共设施:公共厕所",
        "type": 0,
        "location": {
            "lat": 29.95956,
            "lng": 122.323021
        },
        "ad_info": {
            "adcode": 330903,
            "province": "浙江省",
            "city": "舟山市",
            "district": "普陀区"
        }
    },
    {
        "id": "14394621972659156569",
        "title": "公共厕所",
        "address": "浙江省舟山市普陀区中大街70弄16号",
        "tel": "",
        "category": "基础设施:公共设施:公共厕所",
        "type": 0,
        "location": {
            "lat": 29.944364,
            "lng": 122.300074
        },
        "ad_info": {
            "adcode": 330903,
            "province": "浙江省",
            "city": "舟山市",
            "district": "普陀区"
        }
    },
    {
        "id": "5796742094952910836",
        "title": "公共厕所",
        "address": "浙江省舟山市定海区伴云路与昌国路交叉口西南方向110米左右",
        "tel": "",
        "category": "基础设施:公共设施:公共厕所",
        "type": 0,
        "location": {
            "lat": 30.021898,
            "lng": 122.118837
        },
        "ad_info": {
            "adcode": 330902,
            "province": "浙江省",
            "city": "舟山市",
            "district": "定海区"
        }
    },
    {
        "id": "8449717374045710876",
        "title": "公共厕所",
        "address": "浙江省舟山市定海区怡岛路荷塘月色小区",
        "tel": "",
        "category": "基础设施:公共设施:公共厕所",
        "type": 0,
        "location": {
            "lat": 29.986127,
            "lng": 122.213748
        },
        "ad_info": {
            "adcode": 330902,
            "province": "浙江省",
            "city": "舟山市",
            "district": "定海区"
        }
    },
    {
        "id": "17378928277869648407",
        "title": "公共厕所",
        "address": "浙江省舟山市岱山县东海路与长河路交叉口正北方向68米左右",
        "tel": "",
        "category": "基础设施:公共设施:公共厕所",
        "type": 0,
        "location": {
            "lat": 30.250607,
            "lng": 122.216633
        },
        "ad_info": {
            "adcode": 330921,
            "province": "浙江省",
            "city": "舟山市",
            "district": "岱山县"
        }
    },
    {
        "id": "17958134393421890833",
        "title": "公共厕所",
        "address": "浙江省舟山市岱山县沙涂弄与蓬莱路交叉口正西方向23米左右",
        "tel": "",
        "category": "基础设施:公共设施:公共厕所",
        "type": 0,
        "location": {
            "lat": 30.238782,
            "lng": 122.206925
        },
        "ad_info": {
            "adcode": 330921,
            "province": "浙江省",
            "city": "舟山市",
            "district": "岱山县"
        }
    },
    {
        "id": "1728588990546945655",
        "title": "公共厕所",
        "address": "浙江省舟山市定海区双阳路与荷花浦路交叉口西北方向55米左右",
        "tel": "",
        "category": "基础设施:公共设施:公共厕所",
        "type": 0,
        "location": {
            "lat": 29.970408,
            "lng": 122.23302
        },
        "ad_info": {
            "adcode": 330902,
            "province": "浙江省",
            "city": "舟山市",
            "district": "定海区"
        }
    },
    {
        "id": "3608274516312440211",
        "title": "公共厕所",
        "address": "浙江省舟山市普陀区北安路与戚家湾路交叉口西北方向155米左右",
        "tel": "",
        "category": "基础设施:公共设施:公共厕所",
        "type": 0,
        "location": {
            "lat": 29.950042,
            "lng": 122.301172
        },
        "ad_info": {
            "adcode": 330903,
            "province": "浙江省",
            "city": "舟山市",
            "district": "普陀区"
        }
    },
    {
        "id": "2352240509139263873",
        "title": "普陀山风景名胜区公共厕所",
        "address": "浙江省舟山市普陀区普陀山梅芩路115号普陀山内",
        "tel": "",
        "category": "基础设施:公共设施:公共厕所",
        "type": 0,
        "location": {
            "lat": 30.019082,
            "lng": 122.397642
        },
        "ad_info": {
            "adcode": 330903,
            "province": "浙江省",
            "city": "舟山市",
            "district": "普陀区"
        }
    },
    {
        "id": "11236426612132918919",
        "title": "公共厕所",
        "address": "浙江省舟山市普陀区东泗湾路与新街交叉口正北方向43米左右",
        "tel": "",
        "category": "基础设施:公共设施:公共厕所",
        "type": 0,
        "location": {
            "lat": 29.951717,
            "lng": 122.30432
        },
        "ad_info": {
            "adcode": 330903,
            "province": "浙江省",
            "city": "舟山市",
            "district": "普陀区"
        }
    },
    {
        "id": "16141664353210804845",
        "title": "公共厕所",
        "address": "浙江省舟山市定海区新城大道辅路与海天大道辅路交叉口正南方向125米左右",
        "tel": "",
        "category": "基础设施:公共设施:公共厕所",
        "type": 0,
        "location": {
            "lat": 29.998251,
            "lng": 122.155434
        },
        "ad_info": {
            "adcode": 330902,
            "province": "浙江省",
            "city": "舟山市",
            "district": "定海区"
        }
    },
    {
        "id": "6701831455499975800",
        "title": "公共厕所",
        "address": "浙江省舟山市定海区册北路与册南路交叉口正西方向42米左右",
        "tel": "",
        "category": "基础设施:公共设施:公共厕所",
        "type": 0,
        "location": {
            "lat": 30.081166,
            "lng": 121.941479
        },
        "ad_info": {
            "adcode": 330902,
            "province": "浙江省",
            "city": "舟山市",
            "district": "定海区"
        }
    },
    {
        "id": "5850021963464829420",
        "title": "公共厕所",
        "address": "浙江省舟山市普陀区宁兴街与麒麟街交叉口正南方向96米左右",
        "tel": "",
        "category": "基础设施:公共设施:公共厕所",
        "type": 0,
        "location": {
            "lat": 29.973612,
            "lng": 122.321583
        },
        "ad_info": {
            "adcode": 330903,
            "province": "浙江省",
            "city": "舟山市",
            "district": "普陀区"
        }
    },
    {
        "id": "3512031723726079151",
        "title": "公共厕所",
        "address": "浙江省舟山市普陀区中大街175号",
        "tel": "",
        "category": "基础设施:公共设施:公共厕所",
        "type": 0,
        "location": {
            "lat": 29.946913,
            "lng": 122.301676
        },
        "ad_info": {
            "adcode": 330903,
            "province": "浙江省",
            "city": "舟山市",
            "district": "普陀区"
        }
    },
    {
        "id": "6555877888746822543",
        "title": "公共厕所",
        "address": "浙江省舟山市岱山县衢山镇枕头山校园路仙乐大酒店",
        "tel": "",
        "category": "基础设施:公共设施:公共厕所",
        "type": 0,
        "location": {
            "lat": 30.450982,
            "lng": 122.298674
        },
        "ad_info": {
            "adcode": 330921,
            "province": "浙江省",
            "city": "舟山市",
            "district": "岱山县"
        }
    },
    {
        "id": "17967515751146229499",
        "title": "公共厕所",
        "address": "浙江省舟山市定海区东海西路与东海路交叉口正北方向73米左右",
        "tel": "",
        "category": "基础设施:公共设施:公共厕所",
        "type": 0,
        "location": {
            "lat": 30.014389,
            "lng": 122.107021
        },
        "ad_info": {
            "adcode": 330902,
            "province": "浙江省",
            "city": "舟山市",
            "district": "定海区"
        }
    },
    {
        "id": "7493796253546302250",
        "title": "公共厕所",
        "address": "浙江省舟山市普陀区三大线与浦西街交叉口正南方向31米左右",
        "tel": "",
        "category": "基础设施:公共设施:公共厕所",
        "type": 0,
        "location": {
            "lat": 29.973138,
            "lng": 122.250306
        },
        "ad_info": {
            "adcode": 330903,
            "province": "浙江省",
            "city": "舟山市",
            "district": "普陀区"
        }
    },
    {
        "id": "10730473479554216780",
        "title": "公共厕所",
        "address": "浙江省舟山市定海区中大街与横塘弄交叉口正东方向38米左右",
        "tel": "",
        "category": "基础设施:公共设施:公共厕所",
        "type": 0,
        "location": {
            "lat": 30.018723,
            "lng": 122.107277
        },
        "ad_info": {
            "adcode": 330902,
            "province": "浙江省",
            "city": "舟山市",
            "district": "定海区"
        }
    },
    {
        "id": "14598213475077461695",
        "title": "公共厕所",
        "address": "浙江省舟山市普陀区中兴路与晨晖街交叉口西北方向162米左右",
        "tel": "",
        "category": "基础设施:公共设施:公共厕所",
        "type": 0,
        "location": {
            "lat": 29.951419,
            "lng": 122.31347
        },
        "ad_info": {
            "adcode": 330903,
            "province": "浙江省",
            "city": "舟山市",
            "district": "普陀区"
        }
    },
    {
        "id": "8512684507419623626",
        "title": "公共厕所",
        "address": "浙江省舟山市定海区海天大道辅路与蟠洋山路交叉口东北方向54米左右",
        "tel": "",
        "category": "基础设施:公共设施:公共厕所",
        "type": 0,
        "location": {
            "lat": 30.026341,
            "lng": 122.114478
        },
        "ad_info": {
            "adcode": 330902,
            "province": "浙江省",
            "city": "舟山市",
            "district": "定海区"
        }
    },
    {
        "id": "16799653782334657233",
        "title": "公共厕所",
        "address": "浙江省舟山市普陀区海洲路与金城街交叉口正南方向105米左右",
        "tel": "",
        "category": "基础设施:公共设施:公共厕所",
        "type": 0,
        "location": {
            "lat": 29.95956,
            "lng": 122.323021
        },
        "ad_info": {
            "adcode": 330903,
            "province": "浙江省",
            "city": "舟山市",
            "district": "普陀区"
        }
    },
    {
        "id": "14394621972659156569",
        "title": "公共厕所",
        "address": "浙江省舟山市普陀区中大街70弄16号",
        "tel": "",
        "category": "基础设施:公共设施:公共厕所",
        "type": 0,
        "location": {
            "lat": 29.944364,
            "lng": 122.300074
        },
        "ad_info": {
            "adcode": 330903,
            "province": "浙江省",
            "city": "舟山市",
            "district": "普陀区"
        }
    },
    {
        "id": "5796742094952910836",
        "title": "公共厕所",
        "address": "浙江省舟山市定海区伴云路与昌国路交叉口西南方向110米左右",
        "tel": "",
        "category": "基础设施:公共设施:公共厕所",
        "type": 0,
        "location": {
            "lat": 30.021898,
            "lng": 122.118837
        },
        "ad_info": {
            "adcode": 330902,
            "province": "浙江省",
            "city": "舟山市",
            "district": "定海区"
        }
    },
    {
        "id": "8449717374045710876",
        "title": "公共厕所",
        "address": "浙江省舟山市定海区怡岛路荷塘月色小区",
        "tel": "",
        "category": "基础设施:公共设施:公共厕所",
        "type": 0,
        "location": {
            "lat": 29.986127,
            "lng": 122.213748
        },
        "ad_info": {
            "adcode": 330902,
            "province": "浙江省",
            "city": "舟山市",
            "district": "定海区"
        }
    },
    {
        "id": "17378928277869648407",
        "title": "公共厕所",
        "address": "浙江省舟山市岱山县东海路与长河路交叉口正北方向68米左右",
        "tel": "",
        "category": "基础设施:公共设施:公共厕所",
        "type": 0,
        "location": {
            "lat": 30.250607,
            "lng": 122.216633
        },
        "ad_info": {
            "adcode": 330921,
            "province": "浙江省",
            "city": "舟山市",
            "district": "岱山县"
        }
    },
    {
        "id": "17958134393421890833",
        "title": "公共厕所",
        "address": "浙江省舟山市岱山县沙涂弄与蓬莱路交叉口正西方向23米左右",
        "tel": "",
        "category": "基础设施:公共设施:公共厕所",
        "type": 0,
        "location": {
            "lat": 30.238782,
            "lng": 122.206925
        },
        "ad_info": {
            "adcode": 330921,
            "province": "浙江省",
            "city": "舟山市",
            "district": "岱山县"
        }
    },
    {
        "id": "1728588990546945655",
        "title": "公共厕所",
        "address": "浙江省舟山市定海区双阳路与荷花浦路交叉口西北方向55米左右",
        "tel": "",
        "category": "基础设施:公共设施:公共厕所",
        "type": 0,
        "location": {
            "lat": 29.970408,
            "lng": 122.23302
        },
        "ad_info": {
            "adcode": 330902,
            "province": "浙江省",
            "city": "舟山市",
            "district": "定海区"
        }
    },
    {
        "id": "3608274516312440211",
        "title": "公共厕所",
        "address": "浙江省舟山市普陀区北安路与戚家湾路交叉口西北方向155米左右",
        "tel": "",
        "category": "基础设施:公共设施:公共厕所",
        "type": 0,
        "location": {
            "lat": 29.950042,
            "lng": 122.301172
        },
        "ad_info": {
            "adcode": 330903,
            "province": "浙江省",
            "city": "舟山市",
            "district": "普陀区"
        }
    },
    {
        "id": "2352240509139263873",
        "title": "普陀山风景名胜区公共厕所",
        "address": "浙江省舟山市普陀区普陀山梅芩路115号普陀山内",
        "tel": "",
        "category": "基础设施:公共设施:公共厕所",
        "type": 0,
        "location": {
            "lat": 30.019082,
            "lng": 122.397642
        },
        "ad_info": {
            "adcode": 330903,
            "province": "浙江省",
            "city": "舟山市",
            "district": "普陀区"
        }
    },
    {
        "id": "11236426612132918919",
        "title": "公共厕所",
        "address": "浙江省舟山市普陀区东泗湾路与新街交叉口正北方向43米左右",
        "tel": "",
        "category": "基础设施:公共设施:公共厕所",
        "type": 0,
        "location": {
            "lat": 29.951717,
            "lng": 122.30432
        },
        "ad_info": {
            "adcode": 330903,
            "province": "浙江省",
            "city": "舟山市",
            "district": "普陀区"
        }
    },
    {
        "id": "16141664353210804845",
        "title": "公共厕所",
        "address": "浙江省舟山市定海区新城大道辅路与海天大道辅路交叉口正南方向125米左右",
        "tel": "",
        "category": "基础设施:公共设施:公共厕所",
        "type": 0,
        "location": {
            "lat": 29.998251,
            "lng": 122.155434
        },
        "ad_info": {
            "adcode": 330902,
            "province": "浙江省",
            "city": "舟山市",
            "district": "定海区"
        }
    },
    {
        "id": "6701831455499975800",
        "title": "公共厕所",
        "address": "浙江省舟山市定海区册北路与册南路交叉口正西方向42米左右",
        "tel": "",
        "category": "基础设施:公共设施:公共厕所",
        "type": 0,
        "location": {
            "lat": 30.081166,
            "lng": 121.941479
        },
        "ad_info": {
            "adcode": 330902,
            "province": "浙江省",
            "city": "舟山市",
            "district": "定海区"
        }
    },
    {
        "id": "5850021963464829420",
        "title": "公共厕所",
        "address": "浙江省舟山市普陀区宁兴街与麒麟街交叉口正南方向96米左右",
        "tel": "",
        "category": "基础设施:公共设施:公共厕所",
        "type": 0,
        "location": {
            "lat": 29.973612,
            "lng": 122.321583
        },
        "ad_info": {
            "adcode": 330903,
            "province": "浙江省",
            "city": "舟山市",
            "district": "普陀区"
        }
    },
    {
        "id": "3512031723726079151",
        "title": "公共厕所",
        "address": "浙江省舟山市普陀区中大街175号",
        "tel": "",
        "category": "基础设施:公共设施:公共厕所",
        "type": 0,
        "location": {
            "lat": 29.946913,
            "lng": 122.301676
        },
        "ad_info": {
            "adcode": 330903,
            "province": "浙江省",
            "city": "舟山市",
            "district": "普陀区"
        }
    },
    {
        "id": "6555877888746822543",
        "title": "公共厕所",
        "address": "浙江省舟山市岱山县衢山镇枕头山校园路仙乐大酒店",
        "tel": "",
        "category": "基础设施:公共设施:公共厕所",
        "type": 0,
        "location": {
            "lat": 30.450982,
            "lng": 122.298674
        },
        "ad_info": {
            "adcode": 330921,
            "province": "浙江省",
            "city": "舟山市",
            "district": "岱山县"
        }
    },
    {
        "id": "17967515751146229499",
        "title": "公共厕所",
        "address": "浙江省舟山市定海区东海西路与东海路交叉口正北方向73米左右",
        "tel": "",
        "category": "基础设施:公共设施:公共厕所",
        "type": 0,
        "location": {
            "lat": 30.014389,
            "lng": 122.107021
        },
        "ad_info": {
            "adcode": 330902,
            "province": "浙江省",
            "city": "舟山市",
            "district": "定海区"
        }
    },
    {
        "id": "7493796253546302250",
        "title": "公共厕所",
        "address": "浙江省舟山市普陀区三大线与浦西街交叉口正南方向31米左右",
        "tel": "",
        "category": "基础设施:公共设施:公共厕所",
        "type": 0,
        "location": {
            "lat": 29.973138,
            "lng": 122.250306
        },
        "ad_info": {
            "adcode": 330903,
            "province": "浙江省",
            "city": "舟山市",
            "district": "普陀区"
        }
    },
    {
        "id": "10730473479554216780",
        "title": "公共厕所",
        "address": "浙江省舟山市定海区中大街与横塘弄交叉口正东方向38米左右",
        "tel": "",
        "category": "基础设施:公共设施:公共厕所",
        "type": 0,
        "location": {
            "lat": 30.018723,
            "lng": 122.107277
        },
        "ad_info": {
            "adcode": 330902,
            "province": "浙江省",
            "city": "舟山市",
            "district": "定海区"
        }
    },
    {
        "id": "14598213475077461695",
        "title": "公共厕所",
        "address": "浙江省舟山市普陀区中兴路与晨晖街交叉口西北方向162米左右",
        "tel": "",
        "category": "基础设施:公共设施:公共厕所",
        "type": 0,
        "location": {
            "lat": 29.951419,
            "lng": 122.31347
        },
        "ad_info": {
            "adcode": 330903,
            "province": "浙江省",
            "city": "舟山市",
            "district": "普陀区"
        }
    },
    {
        "id": "8512684507419623626",
        "title": "公共厕所",
        "address": "浙江省舟山市定海区海天大道辅路与蟠洋山路交叉口东北方向54米左右",
        "tel": "",
        "category": "基础设施:公共设施:公共厕所",
        "type": 0,
        "location": {
            "lat": 30.026341,
            "lng": 122.114478
        },
        "ad_info": {
            "adcode": 330902,
            "province": "浙江省",
            "city": "舟山市",
            "district": "定海区"
        }
    },
    {
        "id": "16799653782334657233",
        "title": "公共厕所",
        "address": "浙江省舟山市普陀区海洲路与金城街交叉口正南方向105米左右",
        "tel": "",
        "category": "基础设施:公共设施:公共厕所",
        "type": 0,
        "location": {
            "lat": 29.95956,
            "lng": 122.323021
        },
        "ad_info": {
            "adcode": 330903,
            "province": "浙江省",
            "city": "舟山市",
            "district": "普陀区"
        }
    },
    {
        "id": "14394621972659156569",
        "title": "公共厕所",
        "address": "浙江省舟山市普陀区中大街70弄16号",
        "tel": "",
        "category": "基础设施:公共设施:公共厕所",
        "type": 0,
        "location": {
            "lat": 29.944364,
            "lng": 122.300074
        },
        "ad_info": {
            "adcode": 330903,
            "province": "浙江省",
            "city": "舟山市",
            "district": "普陀区"
        }
    },
    {
        "id": "5796742094952910836",
        "title": "公共厕所",
        "address": "浙江省舟山市定海区伴云路与昌国路交叉口西南方向110米左右",
        "tel": "",
        "category": "基础设施:公共设施:公共厕所",
        "type": 0,
        "location": {
            "lat": 30.021898,
            "lng": 122.118837
        },
        "ad_info": {
            "adcode": 330902,
            "province": "浙江省",
            "city": "舟山市",
            "district": "定海区"
        }
    },
    {
        "id": "8449717374045710876",
        "title": "公共厕所",
        "address": "浙江省舟山市定海区怡岛路荷塘月色小区",
        "tel": "",
        "category": "基础设施:公共设施:公共厕所",
        "type": 0,
        "location": {
            "lat": 29.986127,
            "lng": 122.213748
        },
        "ad_info": {
            "adcode": 330902,
            "province": "浙江省",
            "city": "舟山市",
            "district": "定海区"
        }
    },
    {
        "id": "17378928277869648407",
        "title": "公共厕所",
        "address": "浙江省舟山市岱山县东海路与长河路交叉口正北方向68米左右",
        "tel": "",
        "category": "基础设施:公共设施:公共厕所",
        "type": 0,
        "location": {
            "lat": 30.250607,
            "lng": 122.216633
        },
        "ad_info": {
            "adcode": 330921,
            "province": "浙江省",
            "city": "舟山市",
            "district": "岱山县"
        }
    },
    {
        "id": "17958134393421890833",
        "title": "公共厕所",
        "address": "浙江省舟山市岱山县沙涂弄与蓬莱路交叉口正西方向23米左右",
        "tel": "",
        "category": "基础设施:公共设施:公共厕所",
        "type": 0,
        "location": {
            "lat": 30.238782,
            "lng": 122.206925
        },
        "ad_info": {
            "adcode": 330921,
            "province": "浙江省",
            "city": "舟山市",
            "district": "岱山县"
        }
    },
    {
        "id": "1728588990546945655",
        "title": "公共厕所",
        "address": "浙江省舟山市定海区双阳路与荷花浦路交叉口西北方向55米左右",
        "tel": "",
        "category": "基础设施:公共设施:公共厕所",
        "type": 0,
        "location": {
            "lat": 29.970408,
            "lng": 122.23302
        },
        "ad_info": {
            "adcode": 330902,
            "province": "浙江省",
            "city": "舟山市",
            "district": "定海区"
        }
    },
    {
        "id": "3608274516312440211",
        "title": "公共厕所",
        "address": "浙江省舟山市普陀区北安路与戚家湾路交叉口西北方向155米左右",
        "tel": "",
        "category": "基础设施:公共设施:公共厕所",
        "type": 0,
        "location": {
            "lat": 29.950042,
            "lng": 122.301172
        },
        "ad_info": {
            "adcode": 330903,
            "province": "浙江省",
            "city": "舟山市",
            "district": "普陀区"
        }
    },
    {
        "id": "2352240509139263873",
        "title": "普陀山风景名胜区公共厕所",
        "address": "浙江省舟山市普陀区普陀山梅芩路115号普陀山内",
        "tel": "",
        "category": "基础设施:公共设施:公共厕所",
        "type": 0,
        "location": {
            "lat": 30.019082,
            "lng": 122.397642
        },
        "ad_info": {
            "adcode": 330903,
            "province": "浙江省",
            "city": "舟山市",
            "district": "普陀区"
        }
    },
    {
        "id": "11236426612132918919",
        "title": "公共厕所",
        "address": "浙江省舟山市普陀区东泗湾路与新街交叉口正北方向43米左右",
        "tel": "",
        "category": "基础设施:公共设施:公共厕所",
        "type": 0,
        "location": {
            "lat": 29.951717,
            "lng": 122.30432
        },
        "ad_info": {
            "adcode": 330903,
            "province": "浙江省",
            "city": "舟山市",
            "district": "普陀区"
        }
    },
    {
        "id": "16141664353210804845",
        "title": "公共厕所",
        "address": "浙江省舟山市定海区新城大道辅路与海天大道辅路交叉口正南方向125米左右",
        "tel": "",
        "category": "基础设施:公共设施:公共厕所",
        "type": 0,
        "location": {
            "lat": 29.998251,
            "lng": 122.155434
        },
        "ad_info": {
            "adcode": 330902,
            "province": "浙江省",
            "city": "舟山市",
            "district": "定海区"
        }
    },
    {
        "id": "6701831455499975800",
        "title": "公共厕所",
        "address": "浙江省舟山市定海区册北路与册南路交叉口正西方向42米左右",
        "tel": "",
        "category": "基础设施:公共设施:公共厕所",
        "type": 0,
        "location": {
            "lat": 30.081166,
            "lng": 121.941479
        },
        "ad_info": {
            "adcode": 330902,
            "province": "浙江省",
            "city": "舟山市",
            "district": "定海区"
        }
    },
    {
        "id": "5850021963464829420",
        "title": "公共厕所",
        "address": "浙江省舟山市普陀区宁兴街与麒麟街交叉口正南方向96米左右",
        "tel": "",
        "category": "基础设施:公共设施:公共厕所",
        "type": 0,
        "location": {
            "lat": 29.973612,
            "lng": 122.321583
        },
        "ad_info": {
            "adcode": 330903,
            "province": "浙江省",
            "city": "舟山市",
            "district": "普陀区"
        }
    },
    {
        "id": "3512031723726079151",
        "title": "公共厕所",
        "address": "浙江省舟山市普陀区中大街175号",
        "tel": "",
        "category": "基础设施:公共设施:公共厕所",
        "type": 0,
        "location": {
            "lat": 29.946913,
            "lng": 122.301676
        },
        "ad_info": {
            "adcode": 330903,
            "province": "浙江省",
            "city": "舟山市",
            "district": "普陀区"
        }
    },
    {
        "id": "6555877888746822543",
        "title": "公共厕所",
        "address": "浙江省舟山市岱山县衢山镇枕头山校园路仙乐大酒店",
        "tel": "",
        "category": "基础设施:公共设施:公共厕所",
        "type": 0,
        "location": {
            "lat": 30.450982,
            "lng": 122.298674
        },
        "ad_info": {
            "adcode": 330921,
            "province": "浙江省",
            "city": "舟山市",
            "district": "岱山县"
        }
    },
    {
        "id": "17967515751146229499",
        "title": "公共厕所",
        "address": "浙江省舟山市定海区东海西路与东海路交叉口正北方向73米左右",
        "tel": "",
        "category": "基础设施:公共设施:公共厕所",
        "type": 0,
        "location": {
            "lat": 30.014389,
            "lng": 122.107021
        },
        "ad_info": {
            "adcode": 330902,
            "province": "浙江省",
            "city": "舟山市",
            "district": "定海区"
        }
    },
    {
        "id": "7493796253546302250",
        "title": "公共厕所",
        "address": "浙江省舟山市普陀区三大线与浦西街交叉口正南方向31米左右",
        "tel": "",
        "category": "基础设施:公共设施:公共厕所",
        "type": 0,
        "location": {
            "lat": 29.973138,
            "lng": 122.250306
        },
        "ad_info": {
            "adcode": 330903,
            "province": "浙江省",
            "city": "舟山市",
            "district": "普陀区"
        }
    },
    {
        "id": "10730473479554216780",
        "title": "公共厕所",
        "address": "浙江省舟山市定海区中大街与横塘弄交叉口正东方向38米左右",
        "tel": "",
        "category": "基础设施:公共设施:公共厕所",
        "type": 0,
        "location": {
            "lat": 30.018723,
            "lng": 122.107277
        },
        "ad_info": {
            "adcode": 330902,
            "province": "浙江省",
            "city": "舟山市",
            "district": "定海区"
        }
    },
    {
        "id": "14598213475077461695",
        "title": "公共厕所",
        "address": "浙江省舟山市普陀区中兴路与晨晖街交叉口西北方向162米左右",
        "tel": "",
        "category": "基础设施:公共设施:公共厕所",
        "type": 0,
        "location": {
            "lat": 29.951419,
            "lng": 122.31347
        },
        "ad_info": {
            "adcode": 330903,
            "province": "浙江省",
            "city": "舟山市",
            "district": "普陀区"
        }
    },
    {
        "id": "8512684507419623626",
        "title": "公共厕所",
        "address": "浙江省舟山市定海区海天大道辅路与蟠洋山路交叉口东北方向54米左右",
        "tel": "",
        "category": "基础设施:公共设施:公共厕所",
        "type": 0,
        "location": {
            "lat": 30.026341,
            "lng": 122.114478
        },
        "ad_info": {
            "adcode": 330902,
            "province": "浙江省",
            "city": "舟山市",
            "district": "定海区"
        }
    },
    {
        "id": "16799653782334657233",
        "title": "公共厕所",
        "address": "浙江省舟山市普陀区海洲路与金城街交叉口正南方向105米左右",
        "tel": "",
        "category": "基础设施:公共设施:公共厕所",
        "type": 0,
        "location": {
            "lat": 29.95956,
            "lng": 122.323021
        },
        "ad_info": {
            "adcode": 330903,
            "province": "浙江省",
            "city": "舟山市",
            "district": "普陀区"
        }
    },
    {
        "id": "14394621972659156569",
        "title": "公共厕所",
        "address": "浙江省舟山市普陀区中大街70弄16号",
        "tel": "",
        "category": "基础设施:公共设施:公共厕所",
        "type": 0,
        "location": {
            "lat": 29.944364,
            "lng": 122.300074
        },
        "ad_info": {
            "adcode": 330903,
            "province": "浙江省",
            "city": "舟山市",
            "district": "普陀区"
        }
    },
    {
        "id": "5796742094952910836",
        "title": "公共厕所",
        "address": "浙江省舟山市定海区伴云路与昌国路交叉口西南方向110米左右",
        "tel": "",
        "category": "基础设施:公共设施:公共厕所",
        "type": 0,
        "location": {
            "lat": 30.021898,
            "lng": 122.118837
        },
        "ad_info": {
            "adcode": 330902,
            "province": "浙江省",
            "city": "舟山市",
            "district": "定海区"
        }
    },
    {
        "id": "8449717374045710876",
        "title": "公共厕所",
        "address": "浙江省舟山市定海区怡岛路荷塘月色小区",
        "tel": "",
        "category": "基础设施:公共设施:公共厕所",
        "type": 0,
        "location": {
            "lat": 29.986127,
            "lng": 122.213748
        },
        "ad_info": {
            "adcode": 330902,
            "province": "浙江省",
            "city": "舟山市",
            "district": "定海区"
        }
    },
    {
        "id": "17378928277869648407",
        "title": "公共厕所",
        "address": "浙江省舟山市岱山县东海路与长河路交叉口正北方向68米左右",
        "tel": "",
        "category": "基础设施:公共设施:公共厕所",
        "type": 0,
        "location": {
            "lat": 30.250607,
            "lng": 122.216633
        },
        "ad_info": {
            "adcode": 330921,
            "province": "浙江省",
            "city": "舟山市",
            "district": "岱山县"
        }
    },
    {
        "id": "17958134393421890833",
        "title": "公共厕所",
        "address": "浙江省舟山市岱山县沙涂弄与蓬莱路交叉口正西方向23米左右",
        "tel": "",
        "category": "基础设施:公共设施:公共厕所",
        "type": 0,
        "location": {
            "lat": 30.238782,
            "lng": 122.206925
        },
        "ad_info": {
            "adcode": 330921,
            "province": "浙江省",
            "city": "舟山市",
            "district": "岱山县"
        }
    },
    {
        "id": "1728588990546945655",
        "title": "公共厕所",
        "address": "浙江省舟山市定海区双阳路与荷花浦路交叉口西北方向55米左右",
        "tel": "",
        "category": "基础设施:公共设施:公共厕所",
        "type": 0,
        "location": {
            "lat": 29.970408,
            "lng": 122.23302
        },
        "ad_info": {
            "adcode": 330902,
            "province": "浙江省",
            "city": "舟山市",
            "district": "定海区"
        }
    },
    {
        "id": "3608274516312440211",
        "title": "公共厕所",
        "address": "浙江省舟山市普陀区北安路与戚家湾路交叉口西北方向155米左右",
        "tel": "",
        "category": "基础设施:公共设施:公共厕所",
        "type": 0,
        "location": {
            "lat": 29.950042,
            "lng": 122.301172
        },
        "ad_info": {
            "adcode": 330903,
            "province": "浙江省",
            "city": "舟山市",
            "district": "普陀区"
        }
    },
    {
        "id": "2352240509139263873",
        "title": "普陀山风景名胜区公共厕所",
        "address": "浙江省舟山市普陀区普陀山梅芩路115号普陀山内",
        "tel": "",
        "category": "基础设施:公共设施:公共厕所",
        "type": 0,
        "location": {
            "lat": 30.019082,
            "lng": 122.397642
        },
        "ad_info": {
            "adcode": 330903,
            "province": "浙江省",
            "city": "舟山市",
            "district": "普陀区"
        }
    },
    {
        "id": "11236426612132918919",
        "title": "公共厕所",
        "address": "浙江省舟山市普陀区东泗湾路与新街交叉口正北方向43米左右",
        "tel": "",
        "category": "基础设施:公共设施:公共厕所",
        "type": 0,
        "location": {
            "lat": 29.951717,
            "lng": 122.30432
        },
        "ad_info": {
            "adcode": 330903,
            "province": "浙江省",
            "city": "舟山市",
            "district": "普陀区"
        }
    },
    {
        "id": "16141664353210804845",
        "title": "公共厕所",
        "address": "浙江省舟山市定海区新城大道辅路与海天大道辅路交叉口正南方向125米左右",
        "tel": "",
        "category": "基础设施:公共设施:公共厕所",
        "type": 0,
        "location": {
            "lat": 29.998251,
            "lng": 122.155434
        },
        "ad_info": {
            "adcode": 330902,
            "province": "浙江省",
            "city": "舟山市",
            "district": "定海区"
        }
    },
    {
        "id": "6701831455499975800",
        "title": "公共厕所",
        "address": "浙江省舟山市定海区册北路与册南路交叉口正西方向42米左右",
        "tel": "",
        "category": "基础设施:公共设施:公共厕所",
        "type": 0,
        "location": {
            "lat": 30.081166,
            "lng": 121.941479
        },
        "ad_info": {
            "adcode": 330902,
            "province": "浙江省",
            "city": "舟山市",
            "district": "定海区"
        }
    },
    {
        "id": "5850021963464829420",
        "title": "公共厕所",
        "address": "浙江省舟山市普陀区宁兴街与麒麟街交叉口正南方向96米左右",
        "tel": "",
        "category": "基础设施:公共设施:公共厕所",
        "type": 0,
        "location": {
            "lat": 29.973612,
            "lng": 122.321583
        },
        "ad_info": {
            "adcode": 330903,
            "province": "浙江省",
            "city": "舟山市",
            "district": "普陀区"
        }
    },
    {
        "id": "3512031723726079151",
        "title": "公共厕所",
        "address": "浙江省舟山市普陀区中大街175号",
        "tel": "",
        "category": "基础设施:公共设施:公共厕所",
        "type": 0,
        "location": {
            "lat": 29.946913,
            "lng": 122.301676
        },
        "ad_info": {
            "adcode": 330903,
            "province": "浙江省",
            "city": "舟山市",
            "district": "普陀区"
        }
    },
    {
        "id": "6555877888746822543",
        "title": "公共厕所",
        "address": "浙江省舟山市岱山县衢山镇枕头山校园路仙乐大酒店",
        "tel": "",
        "category": "基础设施:公共设施:公共厕所",
        "type": 0,
        "location": {
            "lat": 30.450982,
            "lng": 122.298674
        },
        "ad_info": {
            "adcode": 330921,
            "province": "浙江省",
            "city": "舟山市",
            "district": "岱山县"
        }
    },
    {
        "id": "17967515751146229499",
        "title": "公共厕所",
        "address": "浙江省舟山市定海区东海西路与东海路交叉口正北方向73米左右",
        "tel": "",
        "category": "基础设施:公共设施:公共厕所",
        "type": 0,
        "location": {
            "lat": 30.014389,
            "lng": 122.107021
        },
        "ad_info": {
            "adcode": 330902,
            "province": "浙江省",
            "city": "舟山市",
            "district": "定海区"
        }
    },
    {
        "id": "7493796253546302250",
        "title": "公共厕所",
        "address": "浙江省舟山市普陀区三大线与浦西街交叉口正南方向31米左右",
        "tel": "",
        "category": "基础设施:公共设施:公共厕所",
        "type": 0,
        "location": {
            "lat": 29.973138,
            "lng": 122.250306
        },
        "ad_info": {
            "adcode": 330903,
            "province": "浙江省",
            "city": "舟山市",
            "district": "普陀区"
        }
    },
    {
        "id": "10730473479554216780",
        "title": "公共厕所",
        "address": "浙江省舟山市定海区中大街与横塘弄交叉口正东方向38米左右",
        "tel": "",
        "category": "基础设施:公共设施:公共厕所",
        "type": 0,
        "location": {
            "lat": 30.018723,
            "lng": 122.107277
        },
        "ad_info": {
            "adcode": 330902,
            "province": "浙江省",
            "city": "舟山市",
            "district": "定海区"
        }
    },
    {
        "id": "14598213475077461695",
        "title": "公共厕所",
        "address": "浙江省舟山市普陀区中兴路与晨晖街交叉口西北方向162米左右",
        "tel": "",
        "category": "基础设施:公共设施:公共厕所",
        "type": 0,
        "location": {
            "lat": 29.951419,
            "lng": 122.31347
        },
        "ad_info": {
            "adcode": 330903,
            "province": "浙江省",
            "city": "舟山市",
            "district": "普陀区"
        }
    },
    {
        "id": "8512684507419623626",
        "title": "公共厕所",
        "address": "浙江省舟山市定海区海天大道辅路与蟠洋山路交叉口东北方向54米左右",
        "tel": "",
        "category": "基础设施:公共设施:公共厕所",
        "type": 0,
        "location": {
            "lat": 30.026341,
            "lng": 122.114478
        },
        "ad_info": {
            "adcode": 330902,
            "province": "浙江省",
            "city": "舟山市",
            "district": "定海区"
        }
    },
    {
        "id": "16799653782334657233",
        "title": "公共厕所",
        "address": "浙江省舟山市普陀区海洲路与金城街交叉口正南方向105米左右",
        "tel": "",
        "category": "基础设施:公共设施:公共厕所",
        "type": 0,
        "location": {
            "lat": 29.95956,
            "lng": 122.323021
        },
        "ad_info": {
            "adcode": 330903,
            "province": "浙江省",
            "city": "舟山市",
            "district": "普陀区"
        }
    },
    {
        "id": "14394621972659156569",
        "title": "公共厕所",
        "address": "浙江省舟山市普陀区中大街70弄16号",
        "tel": "",
        "category": "基础设施:公共设施:公共厕所",
        "type": 0,
        "location": {
            "lat": 29.944364,
            "lng": 122.300074
        },
        "ad_info": {
            "adcode": 330903,
            "province": "浙江省",
            "city": "舟山市",
            "district": "普陀区"
        }
    },
    {
        "id": "5796742094952910836",
        "title": "公共厕所",
        "address": "浙江省舟山市定海区伴云路与昌国路交叉口西南方向110米左右",
        "tel": "",
        "category": "基础设施:公共设施:公共厕所",
        "type": 0,
        "location": {
            "lat": 30.021898,
            "lng": 122.118837
        },
        "ad_info": {
            "adcode": 330902,
            "province": "浙江省",
            "city": "舟山市",
            "district": "定海区"
        }
    },
    {
        "id": "8449717374045710876",
        "title": "公共厕所",
        "address": "浙江省舟山市定海区怡岛路荷塘月色小区",
        "tel": "",
        "category": "基础设施:公共设施:公共厕所",
        "type": 0,
        "location": {
            "lat": 29.986127,
            "lng": 122.213748
        },
        "ad_info": {
            "adcode": 330902,
            "province": "浙江省",
            "city": "舟山市",
            "district": "定海区"
        }
    },
    {
        "id": "17378928277869648407",
        "title": "公共厕所",
        "address": "浙江省舟山市岱山县东海路与长河路交叉口正北方向68米左右",
        "tel": "",
        "category": "基础设施:公共设施:公共厕所",
        "type": 0,
        "location": {
            "lat": 30.250607,
            "lng": 122.216633
        },
        "ad_info": {
            "adcode": 330921,
            "province": "浙江省",
            "city": "舟山市",
            "district": "岱山县"
        }
    },
    {
        "id": "17958134393421890833",
        "title": "公共厕所",
        "address": "浙江省舟山市岱山县沙涂弄与蓬莱路交叉口正西方向23米左右",
        "tel": "",
        "category": "基础设施:公共设施:公共厕所",
        "type": 0,
        "location": {
            "lat": 30.238782,
            "lng": 122.206925
        },
        "ad_info": {
            "adcode": 330921,
            "province": "浙江省",
            "city": "舟山市",
            "district": "岱山县"
        }
    },
    {
        "id": "1728588990546945655",
        "title": "公共厕所",
        "address": "浙江省舟山市定海区双阳路与荷花浦路交叉口西北方向55米左右",
        "tel": "",
        "category": "基础设施:公共设施:公共厕所",
        "type": 0,
        "location": {
            "lat": 29.970408,
            "lng": 122.23302
        },
        "ad_info": {
            "adcode": 330902,
            "province": "浙江省",
            "city": "舟山市",
            "district": "定海区"
        }
    },
    {
        "id": "3608274516312440211",
        "title": "公共厕所",
        "address": "浙江省舟山市普陀区北安路与戚家湾路交叉口西北方向155米左右",
        "tel": "",
        "category": "基础设施:公共设施:公共厕所",
        "type": 0,
        "location": {
            "lat": 29.950042,
            "lng": 122.301172
        },
        "ad_info": {
            "adcode": 330903,
            "province": "浙江省",
            "city": "舟山市",
            "district": "普陀区"
        }
    },
    {
        "id": "2352240509139263873",
        "title": "普陀山风景名胜区公共厕所",
        "address": "浙江省舟山市普陀区普陀山梅芩路115号普陀山内",
        "tel": "",
        "category": "基础设施:公共设施:公共厕所",
        "type": 0,
        "location": {
            "lat": 30.019082,
            "lng": 122.397642
        },
        "ad_info": {
            "adcode": 330903,
            "province": "浙江省",
            "city": "舟山市",
            "district": "普陀区"
        }
    },
    {
        "id": "11236426612132918919",
        "title": "公共厕所",
        "address": "浙江省舟山市普陀区东泗湾路与新街交叉口正北方向43米左右",
        "tel": "",
        "category": "基础设施:公共设施:公共厕所",
        "type": 0,
        "location": {
            "lat": 29.951717,
            "lng": 122.30432
        },
        "ad_info": {
            "adcode": 330903,
            "province": "浙江省",
            "city": "舟山市",
            "district": "普陀区"
        }
    },
    {
        "id": "16141664353210804845",
        "title": "公共厕所",
        "address": "浙江省舟山市定海区新城大道辅路与海天大道辅路交叉口正南方向125米左右",
        "tel": "",
        "category": "基础设施:公共设施:公共厕所",
        "type": 0,
        "location": {
            "lat": 29.998251,
            "lng": 122.155434
        },
        "ad_info": {
            "adcode": 330902,
            "province": "浙江省",
            "city": "舟山市",
            "district": "定海区"
        }
    },
    {
        "id": "6701831455499975800",
        "title": "公共厕所",
        "address": "浙江省舟山市定海区册北路与册南路交叉口正西方向42米左右",
        "tel": "",
        "category": "基础设施:公共设施:公共厕所",
        "type": 0,
        "location": {
            "lat": 30.081166,
            "lng": 121.941479
        },
        "ad_info": {
            "adcode": 330902,
            "province": "浙江省",
            "city": "舟山市",
            "district": "定海区"
        }
    },
    {
        "id": "5850021963464829420",
        "title": "公共厕所",
        "address": "浙江省舟山市普陀区宁兴街与麒麟街交叉口正南方向96米左右",
        "tel": "",
        "category": "基础设施:公共设施:公共厕所",
        "type": 0,
        "location": {
            "lat": 29.973612,
            "lng": 122.321583
        },
        "ad_info": {
            "adcode": 330903,
            "province": "浙江省",
            "city": "舟山市",
            "district": "普陀区"
        }
    },
    {
        "id": "3512031723726079151",
        "title": "公共厕所",
        "address": "浙江省舟山市普陀区中大街175号",
        "tel": "",
        "category": "基础设施:公共设施:公共厕所",
        "type": 0,
        "location": {
            "lat": 29.946913,
            "lng": 122.301676
        },
        "ad_info": {
            "adcode": 330903,
            "province": "浙江省",
            "city": "舟山市",
            "district": "普陀区"
        }
    },
    {
        "id": "6555877888746822543",
        "title": "公共厕所",
        "address": "浙江省舟山市岱山县衢山镇枕头山校园路仙乐大酒店",
        "tel": "",
        "category": "基础设施:公共设施:公共厕所",
        "type": 0,
        "location": {
            "lat": 30.450982,
            "lng": 122.298674
        },
        "ad_info": {
            "adcode": 330921,
            "province": "浙江省",
            "city": "舟山市",
            "district": "岱山县"
        }
    },
    {
        "id": "17967515751146229499",
        "title": "公共厕所",
        "address": "浙江省舟山市定海区东海西路与东海路交叉口正北方向73米左右",
        "tel": "",
        "category": "基础设施:公共设施:公共厕所",
        "type": 0,
        "location": {
            "lat": 30.014389,
            "lng": 122.107021
        },
        "ad_info": {
            "adcode": 330902,
            "province": "浙江省",
            "city": "舟山市",
            "district": "定海区"
        }
    },
    {
        "id": "7493796253546302250",
        "title": "公共厕所",
        "address": "浙江省舟山市普陀区三大线与浦西街交叉口正南方向31米左右",
        "tel": "",
        "category": "基础设施:公共设施:公共厕所",
        "type": 0,
        "location": {
            "lat": 29.973138,
            "lng": 122.250306
        },
        "ad_info": {
            "adcode": 330903,
            "province": "浙江省",
            "city": "舟山市",
            "district": "普陀区"
        }
    },
    {
        "id": "10730473479554216780",
        "title": "公共厕所",
        "address": "浙江省舟山市定海区中大街与横塘弄交叉口正东方向38米左右",
        "tel": "",
        "category": "基础设施:公共设施:公共厕所",
        "type": 0,
        "location": {
            "lat": 30.018723,
            "lng": 122.107277
        },
        "ad_info": {
            "adcode": 330902,
            "province": "浙江省",
            "city": "舟山市",
            "district": "定海区"
        }
    },
    {
        "id": "14598213475077461695",
        "title": "公共厕所",
        "address": "浙江省舟山市普陀区中兴路与晨晖街交叉口西北方向162米左右",
        "tel": "",
        "category": "基础设施:公共设施:公共厕所",
        "type": 0,
        "location": {
            "lat": 29.951419,
            "lng": 122.31347
        },
        "ad_info": {
            "adcode": 330903,
            "province": "浙江省",
            "city": "舟山市",
            "district": "普陀区"
        }
    },
    {
        "id": "8512684507419623626",
        "title": "公共厕所",
        "address": "浙江省舟山市定海区海天大道辅路与蟠洋山路交叉口东北方向54米左右",
        "tel": "",
        "category": "基础设施:公共设施:公共厕所",
        "type": 0,
        "location": {
            "lat": 30.026341,
            "lng": 122.114478
        },
        "ad_info": {
            "adcode": 330902,
            "province": "浙江省",
            "city": "舟山市",
            "district": "定海区"
        }
    },
    {
        "id": "16799653782334657233",
        "title": "公共厕所",
        "address": "浙江省舟山市普陀区海洲路与金城街交叉口正南方向105米左右",
        "tel": "",
        "category": "基础设施:公共设施:公共厕所",
        "type": 0,
        "location": {
            "lat": 29.95956,
            "lng": 122.323021
        },
        "ad_info": {
            "adcode": 330903,
            "province": "浙江省",
            "city": "舟山市",
            "district": "普陀区"
        }
    },
    {
        "id": "14394621972659156569",
        "title": "公共厕所",
        "address": "浙江省舟山市普陀区中大街70弄16号",
        "tel": "",
        "category": "基础设施:公共设施:公共厕所",
        "type": 0,
        "location": {
            "lat": 29.944364,
            "lng": 122.300074
        },
        "ad_info": {
            "adcode": 330903,
            "province": "浙江省",
            "city": "舟山市",
            "district": "普陀区"
        }
    },
    {
        "id": "5796742094952910836",
        "title": "公共厕所",
        "address": "浙江省舟山市定海区伴云路与昌国路交叉口西南方向110米左右",
        "tel": "",
        "category": "基础设施:公共设施:公共厕所",
        "type": 0,
        "location": {
            "lat": 30.021898,
            "lng": 122.118837
        },
        "ad_info": {
            "adcode": 330902,
            "province": "浙江省",
            "city": "舟山市",
            "district": "定海区"
        }
    },
    {
        "id": "8449717374045710876",
        "title": "公共厕所",
        "address": "浙江省舟山市定海区怡岛路荷塘月色小区",
        "tel": "",
        "category": "基础设施:公共设施:公共厕所",
        "type": 0,
        "location": {
            "lat": 29.986127,
            "lng": 122.213748
        },
        "ad_info": {
            "adcode": 330902,
            "province": "浙江省",
            "city": "舟山市",
            "district": "定海区"
        }
    },
    {
        "id": "17378928277869648407",
        "title": "公共厕所",
        "address": "浙江省舟山市岱山县东海路与长河路交叉口正北方向68米左右",
        "tel": "",
        "category": "基础设施:公共设施:公共厕所",
        "type": 0,
        "location": {
            "lat": 30.250607,
            "lng": 122.216633
        },
        "ad_info": {
            "adcode": 330921,
            "province": "浙江省",
            "city": "舟山市",
            "district": "岱山县"
        }
    },
    {
        "id": "17958134393421890833",
        "title": "公共厕所",
        "address": "浙江省舟山市岱山县沙涂弄与蓬莱路交叉口正西方向23米左右",
        "tel": "",
        "category": "基础设施:公共设施:公共厕所",
        "type": 0,
        "location": {
            "lat": 30.238782,
            "lng": 122.206925
        },
        "ad_info": {
            "adcode": 330921,
            "province": "浙江省",
            "city": "舟山市",
            "district": "岱山县"
        }
    },
    {
        "id": "1728588990546945655",
        "title": "公共厕所",
        "address": "浙江省舟山市定海区双阳路与荷花浦路交叉口西北方向55米左右",
        "tel": "",
        "category": "基础设施:公共设施:公共厕所",
        "type": 0,
        "location": {
            "lat": 29.970408,
            "lng": 122.23302
        },
        "ad_info": {
            "adcode": 330902,
            "province": "浙江省",
            "city": "舟山市",
            "district": "定海区"
        }
    },
    {
        "id": "3608274516312440211",
        "title": "公共厕所",
        "address": "浙江省舟山市普陀区北安路与戚家湾路交叉口西北方向155米左右",
        "tel": "",
        "category": "基础设施:公共设施:公共厕所",
        "type": 0,
        "location": {
            "lat": 29.950042,
            "lng": 122.301172
        },
        "ad_info": {
            "adcode": 330903,
            "province": "浙江省",
            "city": "舟山市",
            "district": "普陀区"
        }
    },
    {
        "id": "2352240509139263873",
        "title": "普陀山风景名胜区公共厕所",
        "address": "浙江省舟山市普陀区普陀山梅芩路115号普陀山内",
        "tel": "",
        "category": "基础设施:公共设施:公共厕所",
        "type": 0,
        "location": {
            "lat": 30.019082,
            "lng": 122.397642
        },
        "ad_info": {
            "adcode": 330903,
            "province": "浙江省",
            "city": "舟山市",
            "district": "普陀区"
        }
    },
    {
        "id": "11236426612132918919",
        "title": "公共厕所",
        "address": "浙江省舟山市普陀区东泗湾路与新街交叉口正北方向43米左右",
        "tel": "",
        "category": "基础设施:公共设施:公共厕所",
        "type": 0,
        "location": {
            "lat": 29.951717,
            "lng": 122.30432
        },
        "ad_info": {
            "adcode": 330903,
            "province": "浙江省",
            "city": "舟山市",
            "district": "普陀区"
        }
    },
    {
        "id": "16141664353210804845",
        "title": "公共厕所",
        "address": "浙江省舟山市定海区新城大道辅路与海天大道辅路交叉口正南方向125米左右",
        "tel": "",
        "category": "基础设施:公共设施:公共厕所",
        "type": 0,
        "location": {
            "lat": 29.998251,
            "lng": 122.155434
        },
        "ad_info": {
            "adcode": 330902,
            "province": "浙江省",
            "city": "舟山市",
            "district": "定海区"
        }
    },
    {
        "id": "6701831455499975800",
        "title": "公共厕所",
        "address": "浙江省舟山市定海区册北路与册南路交叉口正西方向42米左右",
        "tel": "",
        "category": "基础设施:公共设施:公共厕所",
        "type": 0,
        "location": {
            "lat": 30.081166,
            "lng": 121.941479
        },
        "ad_info": {
            "adcode": 330902,
            "province": "浙江省",
            "city": "舟山市",
            "district": "定海区"
        }
    },
    {
        "id": "5850021963464829420",
        "title": "公共厕所",
        "address": "浙江省舟山市普陀区宁兴街与麒麟街交叉口正南方向96米左右",
        "tel": "",
        "category": "基础设施:公共设施:公共厕所",
        "type": 0,
        "location": {
            "lat": 29.973612,
            "lng": 122.321583
        },
        "ad_info": {
            "adcode": 330903,
            "province": "浙江省",
            "city": "舟山市",
            "district": "普陀区"
        }
    },
    {
        "id": "3512031723726079151",
        "title": "公共厕所",
        "address": "浙江省舟山市普陀区中大街175号",
        "tel": "",
        "category": "基础设施:公共设施:公共厕所",
        "type": 0,
        "location": {
            "lat": 29.946913,
            "lng": 122.301676
        },
        "ad_info": {
            "adcode": 330903,
            "province": "浙江省",
            "city": "舟山市",
            "district": "普陀区"
        }
    },
    {
        "id": "6555877888746822543",
        "title": "公共厕所",
        "address": "浙江省舟山市岱山县衢山镇枕头山校园路仙乐大酒店",
        "tel": "",
        "category": "基础设施:公共设施:公共厕所",
        "type": 0,
        "location": {
            "lat": 30.450982,
            "lng": 122.298674
        },
        "ad_info": {
            "adcode": 330921,
            "province": "浙江省",
            "city": "舟山市",
            "district": "岱山县"
        }
    },
    {
        "id": "17967515751146229499",
        "title": "公共厕所",
        "address": "浙江省舟山市定海区东海西路与东海路交叉口正北方向73米左右",
        "tel": "",
        "category": "基础设施:公共设施:公共厕所",
        "type": 0,
        "location": {
            "lat": 30.014389,
            "lng": 122.107021
        },
        "ad_info": {
            "adcode": 330902,
            "province": "浙江省",
            "city": "舟山市",
            "district": "定海区"
        }
    },
    {
        "id": "7493796253546302250",
        "title": "公共厕所",
        "address": "浙江省舟山市普陀区三大线与浦西街交叉口正南方向31米左右",
        "tel": "",
        "category": "基础设施:公共设施:公共厕所",
        "type": 0,
        "location": {
            "lat": 29.973138,
            "lng": 122.250306
        },
        "ad_info": {
            "adcode": 330903,
            "province": "浙江省",
            "city": "舟山市",
            "district": "普陀区"
        }
    },
    {
        "id": "10730473479554216780",
        "title": "公共厕所",
        "address": "浙江省舟山市定海区中大街与横塘弄交叉口正东方向38米左右",
        "tel": "",
        "category": "基础设施:公共设施:公共厕所",
        "type": 0,
        "location": {
            "lat": 30.018723,
            "lng": 122.107277
        },
        "ad_info": {
            "adcode": 330902,
            "province": "浙江省",
            "city": "舟山市",
            "district": "定海区"
        }
    },
    {
        "id": "14598213475077461695",
        "title": "公共厕所",
        "address": "浙江省舟山市普陀区中兴路与晨晖街交叉口西北方向162米左右",
        "tel": "",
        "category": "基础设施:公共设施:公共厕所",
        "type": 0,
        "location": {
            "lat": 29.951419,
            "lng": 122.31347
        },
        "ad_info": {
            "adcode": 330903,
            "province": "浙江省",
            "city": "舟山市",
            "district": "普陀区"
        }
    },
    {
        "id": "8512684507419623626",
        "title": "公共厕所",
        "address": "浙江省舟山市定海区海天大道辅路与蟠洋山路交叉口东北方向54米左右",
        "tel": "",
        "category": "基础设施:公共设施:公共厕所",
        "type": 0,
        "location": {
            "lat": 30.026341,
            "lng": 122.114478
        },
        "ad_info": {
            "adcode": 330902,
            "province": "浙江省",
            "city": "舟山市",
            "district": "定海区"
        }
    },
    {
        "id": "16799653782334657233",
        "title": "公共厕所",
        "address": "浙江省舟山市普陀区海洲路与金城街交叉口正南方向105米左右",
        "tel": "",
        "category": "基础设施:公共设施:公共厕所",
        "type": 0,
        "location": {
            "lat": 29.95956,
            "lng": 122.323021
        },
        "ad_info": {
            "adcode": 330903,
            "province": "浙江省",
            "city": "舟山市",
            "district": "普陀区"
        }
    },
    {
        "id": "14394621972659156569",
        "title": "公共厕所",
        "address": "浙江省舟山市普陀区中大街70弄16号",
        "tel": "",
        "category": "基础设施:公共设施:公共厕所",
        "type": 0,
        "location": {
            "lat": 29.944364,
            "lng": 122.300074
        },
        "ad_info": {
            "adcode": 330903,
            "province": "浙江省",
            "city": "舟山市",
            "district": "普陀区"
        }
    },
    {
        "id": "5796742094952910836",
        "title": "公共厕所",
        "address": "浙江省舟山市定海区伴云路与昌国路交叉口西南方向110米左右",
        "tel": "",
        "category": "基础设施:公共设施:公共厕所",
        "type": 0,
        "location": {
            "lat": 30.021898,
            "lng": 122.118837
        },
        "ad_info": {
            "adcode": 330902,
            "province": "浙江省",
            "city": "舟山市",
            "district": "定海区"
        }
    },
    {
        "id": "8449717374045710876",
        "title": "公共厕所",
        "address": "浙江省舟山市定海区怡岛路荷塘月色小区",
        "tel": "",
        "category": "基础设施:公共设施:公共厕所",
        "type": 0,
        "location": {
            "lat": 29.986127,
            "lng": 122.213748
        },
        "ad_info": {
            "adcode": 330902,
            "province": "浙江省",
            "city": "舟山市",
            "district": "定海区"
        }
    },
    {
        "id": "17378928277869648407",
        "title": "公共厕所",
        "address": "浙江省舟山市岱山县东海路与长河路交叉口正北方向68米左右",
        "tel": "",
        "category": "基础设施:公共设施:公共厕所",
        "type": 0,
        "location": {
            "lat": 30.250607,
            "lng": 122.216633
        },
        "ad_info": {
            "adcode": 330921,
            "province": "浙江省",
            "city": "舟山市",
            "district": "岱山县"
        }
    },
    {
        "id": "17958134393421890833",
        "title": "公共厕所",
        "address": "浙江省舟山市岱山县沙涂弄与蓬莱路交叉口正西方向23米左右",
        "tel": "",
        "category": "基础设施:公共设施:公共厕所",
        "type": 0,
        "location": {
            "lat": 30.238782,
            "lng": 122.206925
        },
        "ad_info": {
            "adcode": 330921,
            "province": "浙江省",
            "city": "舟山市",
            "district": "岱山县"
        }
    },
    {
        "id": "1728588990546945655",
        "title": "公共厕所",
        "address": "浙江省舟山市定海区双阳路与荷花浦路交叉口西北方向55米左右",
        "tel": "",
        "category": "基础设施:公共设施:公共厕所",
        "type": 0,
        "location": {
            "lat": 29.970408,
            "lng": 122.23302
        },
        "ad_info": {
            "adcode": 330902,
            "province": "浙江省",
            "city": "舟山市",
            "district": "定海区"
        }
    },
    {
        "id": "3608274516312440211",
        "title": "公共厕所",
        "address": "浙江省舟山市普陀区北安路与戚家湾路交叉口西北方向155米左右",
        "tel": "",
        "category": "基础设施:公共设施:公共厕所",
        "type": 0,
        "location": {
            "lat": 29.950042,
            "lng": 122.301172
        },
        "ad_info": {
            "adcode": 330903,
            "province": "浙江省",
            "city": "舟山市",
            "district": "普陀区"
        }
    },
    {
        "id": "2352240509139263873",
        "title": "普陀山风景名胜区公共厕所",
        "address": "浙江省舟山市普陀区普陀山梅芩路115号普陀山内",
        "tel": "",
        "category": "基础设施:公共设施:公共厕所",
        "type": 0,
        "location": {
            "lat": 30.019082,
            "lng": 122.397642
        },
        "ad_info": {
            "adcode": 330903,
            "province": "浙江省",
            "city": "舟山市",
            "district": "普陀区"
        }
    },
    {
        "id": "11236426612132918919",
        "title": "公共厕所",
        "address": "浙江省舟山市普陀区东泗湾路与新街交叉口正北方向43米左右",
        "tel": "",
        "category": "基础设施:公共设施:公共厕所",
        "type": 0,
        "location": {
            "lat": 29.951717,
            "lng": 122.30432
        },
        "ad_info": {
            "adcode": 330903,
            "province": "浙江省",
            "city": "舟山市",
            "district": "普陀区"
        }
    },
    {
        "id": "16141664353210804845",
        "title": "公共厕所",
        "address": "浙江省舟山市定海区新城大道辅路与海天大道辅路交叉口正南方向125米左右",
        "tel": "",
        "category": "基础设施:公共设施:公共厕所",
        "type": 0,
        "location": {
            "lat": 29.998251,
            "lng": 122.155434
        },
        "ad_info": {
            "adcode": 330902,
            "province": "浙江省",
            "city": "舟山市",
            "district": "定海区"
        }
    },
    {
        "id": "6701831455499975800",
        "title": "公共厕所",
        "address": "浙江省舟山市定海区册北路与册南路交叉口正西方向42米左右",
        "tel": "",
        "category": "基础设施:公共设施:公共厕所",
        "type": 0,
        "location": {
            "lat": 30.081166,
            "lng": 121.941479
        },
        "ad_info": {
            "adcode": 330902,
            "province": "浙江省",
            "city": "舟山市",
            "district": "定海区"
        }
    },
    {
        "id": "5850021963464829420",
        "title": "公共厕所",
        "address": "浙江省舟山市普陀区宁兴街与麒麟街交叉口正南方向96米左右",
        "tel": "",
        "category": "基础设施:公共设施:公共厕所",
        "type": 0,
        "location": {
            "lat": 29.973612,
            "lng": 122.321583
        },
        "ad_info": {
            "adcode": 330903,
            "province": "浙江省",
            "city": "舟山市",
            "district": "普陀区"
        }
    },
    {
        "id": "3512031723726079151",
        "title": "公共厕所",
        "address": "浙江省舟山市普陀区中大街175号",
        "tel": "",
        "category": "基础设施:公共设施:公共厕所",
        "type": 0,
        "location": {
            "lat": 29.946913,
            "lng": 122.301676
        },
        "ad_info": {
            "adcode": 330903,
            "province": "浙江省",
            "city": "舟山市",
            "district": "普陀区"
        }
    },
    {
        "id": "6555877888746822543",
        "title": "公共厕所",
        "address": "浙江省舟山市岱山县衢山镇枕头山校园路仙乐大酒店",
        "tel": "",
        "category": "基础设施:公共设施:公共厕所",
        "type": 0,
        "location": {
            "lat": 30.450982,
            "lng": 122.298674
        },
        "ad_info": {
            "adcode": 330921,
            "province": "浙江省",
            "city": "舟山市",
            "district": "岱山县"
        }
    },
    {
        "id": "17967515751146229499",
        "title": "公共厕所",
        "address": "浙江省舟山市定海区东海西路与东海路交叉口正北方向73米左右",
        "tel": "",
        "category": "基础设施:公共设施:公共厕所",
        "type": 0,
        "location": {
            "lat": 30.014389,
            "lng": 122.107021
        },
        "ad_info": {
            "adcode": 330902,
            "province": "浙江省",
            "city": "舟山市",
            "district": "定海区"
        }
    },
    {
        "id": "7493796253546302250",
        "title": "公共厕所",
        "address": "浙江省舟山市普陀区三大线与浦西街交叉口正南方向31米左右",
        "tel": "",
        "category": "基础设施:公共设施:公共厕所",
        "type": 0,
        "location": {
            "lat": 29.973138,
            "lng": 122.250306
        },
        "ad_info": {
            "adcode": 330903,
            "province": "浙江省",
            "city": "舟山市",
            "district": "普陀区"
        }
    },
    {
        "id": "10730473479554216780",
        "title": "公共厕所",
        "address": "浙江省舟山市定海区中大街与横塘弄交叉口正东方向38米左右",
        "tel": "",
        "category": "基础设施:公共设施:公共厕所",
        "type": 0,
        "location": {
            "lat": 30.018723,
            "lng": 122.107277
        },
        "ad_info": {
            "adcode": 330902,
            "province": "浙江省",
            "city": "舟山市",
            "district": "定海区"
        }
    },
    {
        "id": "14598213475077461695",
        "title": "公共厕所",
        "address": "浙江省舟山市普陀区中兴路与晨晖街交叉口西北方向162米左右",
        "tel": "",
        "category": "基础设施:公共设施:公共厕所",
        "type": 0,
        "location": {
            "lat": 29.951419,
            "lng": 122.31347
        },
        "ad_info": {
            "adcode": 330903,
            "province": "浙江省",
            "city": "舟山市",
            "district": "普陀区"
        }
    },
    {
        "id": "8512684507419623626",
        "title": "公共厕所",
        "address": "浙江省舟山市定海区海天大道辅路与蟠洋山路交叉口东北方向54米左右",
        "tel": "",
        "category": "基础设施:公共设施:公共厕所",
        "type": 0,
        "location": {
            "lat": 30.026341,
            "lng": 122.114478
        },
        "ad_info": {
            "adcode": 330902,
            "province": "浙江省",
            "city": "舟山市",
            "district": "定海区"
        }
    },
    {
        "id": "16799653782334657233",
        "title": "公共厕所",
        "address": "浙江省舟山市普陀区海洲路与金城街交叉口正南方向105米左右",
        "tel": "",
        "category": "基础设施:公共设施:公共厕所",
        "type": 0,
        "location": {
            "lat": 29.95956,
            "lng": 122.323021
        },
        "ad_info": {
            "adcode": 330903,
            "province": "浙江省",
            "city": "舟山市",
            "district": "普陀区"
        }
    },
    {
        "id": "14394621972659156569",
        "title": "公共厕所",
        "address": "浙江省舟山市普陀区中大街70弄16号",
        "tel": "",
        "category": "基础设施:公共设施:公共厕所",
        "type": 0,
        "location": {
            "lat": 29.944364,
            "lng": 122.300074
        },
        "ad_info": {
            "adcode": 330903,
            "province": "浙江省",
            "city": "舟山市",
            "district": "普陀区"
        }
    },
    {
        "id": "5796742094952910836",
        "title": "公共厕所",
        "address": "浙江省舟山市定海区伴云路与昌国路交叉口西南方向110米左右",
        "tel": "",
        "category": "基础设施:公共设施:公共厕所",
        "type": 0,
        "location": {
            "lat": 30.021898,
            "lng": 122.118837
        },
        "ad_info": {
            "adcode": 330902,
            "province": "浙江省",
            "city": "舟山市",
            "district": "定海区"
        }
    },
    {
        "id": "8449717374045710876",
        "title": "公共厕所",
        "address": "浙江省舟山市定海区怡岛路荷塘月色小区",
        "tel": "",
        "category": "基础设施:公共设施:公共厕所",
        "type": 0,
        "location": {
            "lat": 29.986127,
            "lng": 122.213748
        },
        "ad_info": {
            "adcode": 330902,
            "province": "浙江省",
            "city": "舟山市",
            "district": "定海区"
        }
    },
    {
        "id": "17378928277869648407",
        "title": "公共厕所",
        "address": "浙江省舟山市岱山县东海路与长河路交叉口正北方向68米左右",
        "tel": "",
        "category": "基础设施:公共设施:公共厕所",
        "type": 0,
        "location": {
            "lat": 30.250607,
            "lng": 122.216633
        },
        "ad_info": {
            "adcode": 330921,
            "province": "浙江省",
            "city": "舟山市",
            "district": "岱山县"
        }
    },
    {
        "id": "17958134393421890833",
        "title": "公共厕所",
        "address": "浙江省舟山市岱山县沙涂弄与蓬莱路交叉口正西方向23米左右",
        "tel": "",
        "category": "基础设施:公共设施:公共厕所",
        "type": 0,
        "location": {
            "lat": 30.238782,
            "lng": 122.206925
        },
        "ad_info": {
            "adcode": 330921,
            "province": "浙江省",
            "city": "舟山市",
            "district": "岱山县"
        }
    },
    {
        "id": "1728588990546945655",
        "title": "公共厕所",
        "address": "浙江省舟山市定海区双阳路与荷花浦路交叉口西北方向55米左右",
        "tel": "",
        "category": "基础设施:公共设施:公共厕所",
        "type": 0,
        "location": {
            "lat": 29.970408,
            "lng": 122.23302
        },
        "ad_info": {
            "adcode": 330902,
            "province": "浙江省",
            "city": "舟山市",
            "district": "定海区"
        }
    },
    {
        "id": "3608274516312440211",
        "title": "公共厕所",
        "address": "浙江省舟山市普陀区北安路与戚家湾路交叉口西北方向155米左右",
        "tel": "",
        "category": "基础设施:公共设施:公共厕所",
        "type": 0,
        "location": {
            "lat": 29.950042,
            "lng": 122.301172
        },
        "ad_info": {
            "adcode": 330903,
            "province": "浙江省",
            "city": "舟山市",
            "district": "普陀区"
        }
    },
    {
        "id": "2352240509139263873",
        "title": "普陀山风景名胜区公共厕所",
        "address": "浙江省舟山市普陀区普陀山梅芩路115号普陀山内",
        "tel": "",
        "category": "基础设施:公共设施:公共厕所",
        "type": 0,
        "location": {
            "lat": 30.019082,
            "lng": 122.397642
        },
        "ad_info": {
            "adcode": 330903,
            "province": "浙江省",
            "city": "舟山市",
            "district": "普陀区"
        }
    },
    {
        "id": "11236426612132918919",
        "title": "公共厕所",
        "address": "浙江省舟山市普陀区东泗湾路与新街交叉口正北方向43米左右",
        "tel": "",
        "category": "基础设施:公共设施:公共厕所",
        "type": 0,
        "location": {
            "lat": 29.951717,
            "lng": 122.30432
        },
        "ad_info": {
            "adcode": 330903,
            "province": "浙江省",
            "city": "舟山市",
            "district": "普陀区"
        }
    },
    {
        "id": "16141664353210804845",
        "title": "公共厕所",
        "address": "浙江省舟山市定海区新城大道辅路与海天大道辅路交叉口正南方向125米左右",
        "tel": "",
        "category": "基础设施:公共设施:公共厕所",
        "type": 0,
        "location": {
            "lat": 29.998251,
            "lng": 122.155434
        },
        "ad_info": {
            "adcode": 330902,
            "province": "浙江省",
            "city": "舟山市",
            "district": "定海区"
        }
    },
    {
        "id": "6701831455499975800",
        "title": "公共厕所",
        "address": "浙江省舟山市定海区册北路与册南路交叉口正西方向42米左右",
        "tel": "",
        "category": "基础设施:公共设施:公共厕所",
        "type": 0,
        "location": {
            "lat": 30.081166,
            "lng": 121.941479
        },
        "ad_info": {
            "adcode": 330902,
            "province": "浙江省",
            "city": "舟山市",
            "district": "定海区"
        }
    },
    {
        "id": "5850021963464829420",
        "title": "公共厕所",
        "address": "浙江省舟山市普陀区宁兴街与麒麟街交叉口正南方向96米左右",
        "tel": "",
        "category": "基础设施:公共设施:公共厕所",
        "type": 0,
        "location": {
            "lat": 29.973612,
            "lng": 122.321583
        },
        "ad_info": {
            "adcode": 330903,
            "province": "浙江省",
            "city": "舟山市",
            "district": "普陀区"
        }
    },
    {
        "id": "3512031723726079151",
        "title": "公共厕所",
        "address": "浙江省舟山市普陀区中大街175号",
        "tel": "",
        "category": "基础设施:公共设施:公共厕所",
        "type": 0,
        "location": {
            "lat": 29.946913,
            "lng": 122.301676
        },
        "ad_info": {
            "adcode": 330903,
            "province": "浙江省",
            "city": "舟山市",
            "district": "普陀区"
        }
    },
    {
        "id": "6555877888746822543",
        "title": "公共厕所",
        "address": "浙江省舟山市岱山县衢山镇枕头山校园路仙乐大酒店",
        "tel": "",
        "category": "基础设施:公共设施:公共厕所",
        "type": 0,
        "location": {
            "lat": 30.450982,
            "lng": 122.298674
        },
        "ad_info": {
            "adcode": 330921,
            "province": "浙江省",
            "city": "舟山市",
            "district": "岱山县"
        }
    },
    {
        "id": "17967515751146229499",
        "title": "公共厕所",
        "address": "浙江省舟山市定海区东海西路与东海路交叉口正北方向73米左右",
        "tel": "",
        "category": "基础设施:公共设施:公共厕所",
        "type": 0,
        "location": {
            "lat": 30.014389,
            "lng": 122.107021
        },
        "ad_info": {
            "adcode": 330902,
            "province": "浙江省",
            "city": "舟山市",
            "district": "定海区"
        }
    },
    {
        "id": "7493796253546302250",
        "title": "公共厕所",
        "address": "浙江省舟山市普陀区三大线与浦西街交叉口正南方向31米左右",
        "tel": "",
        "category": "基础设施:公共设施:公共厕所",
        "type": 0,
        "location": {
            "lat": 29.973138,
            "lng": 122.250306
        },
        "ad_info": {
            "adcode": 330903,
            "province": "浙江省",
            "city": "舟山市",
            "district": "普陀区"
        }
    },
    {
        "id": "10730473479554216780",
        "title": "公共厕所",
        "address": "浙江省舟山市定海区中大街与横塘弄交叉口正东方向38米左右",
        "tel": "",
        "category": "基础设施:公共设施:公共厕所",
        "type": 0,
        "location": {
            "lat": 30.018723,
            "lng": 122.107277
        },
        "ad_info": {
            "adcode": 330902,
            "province": "浙江省",
            "city": "舟山市",
            "district": "定海区"
        }
    },
    {
        "id": "14598213475077461695",
        "title": "公共厕所",
        "address": "浙江省舟山市普陀区中兴路与晨晖街交叉口西北方向162米左右",
        "tel": "",
        "category": "基础设施:公共设施:公共厕所",
        "type": 0,
        "location": {
            "lat": 29.951419,
            "lng": 122.31347
        },
        "ad_info": {
            "adcode": 330903,
            "province": "浙江省",
            "city": "舟山市",
            "district": "普陀区"
        }
    },
    {
        "id": "8512684507419623626",
        "title": "公共厕所",
        "address": "浙江省舟山市定海区海天大道辅路与蟠洋山路交叉口东北方向54米左右",
        "tel": "",
        "category": "基础设施:公共设施:公共厕所",
        "type": 0,
        "location": {
            "lat": 30.026341,
            "lng": 122.114478
        },
        "ad_info": {
            "adcode": 330902,
            "province": "浙江省",
            "city": "舟山市",
            "district": "定海区"
        }
    },
    {
        "id": "16799653782334657233",
        "title": "公共厕所",
        "address": "浙江省舟山市普陀区海洲路与金城街交叉口正南方向105米左右",
        "tel": "",
        "category": "基础设施:公共设施:公共厕所",
        "type": 0,
        "location": {
            "lat": 29.95956,
            "lng": 122.323021
        },
        "ad_info": {
            "adcode": 330903,
            "province": "浙江省",
            "city": "舟山市",
            "district": "普陀区"
        }
    },
    {
        "id": "14394621972659156569",
        "title": "公共厕所",
        "address": "浙江省舟山市普陀区中大街70弄16号",
        "tel": "",
        "category": "基础设施:公共设施:公共厕所",
        "type": 0,
        "location": {
            "lat": 29.944364,
            "lng": 122.300074
        },
        "ad_info": {
            "adcode": 330903,
            "province": "浙江省",
            "city": "舟山市",
            "district": "普陀区"
        }
    },
    {
        "id": "5796742094952910836",
        "title": "公共厕所",
        "address": "浙江省舟山市定海区伴云路与昌国路交叉口西南方向110米左右",
        "tel": "",
        "category": "基础设施:公共设施:公共厕所",
        "type": 0,
        "location": {
            "lat": 30.021898,
            "lng": 122.118837
        },
        "ad_info": {
            "adcode": 330902,
            "province": "浙江省",
            "city": "舟山市",
            "district": "定海区"
        }
    },
    {
        "id": "8449717374045710876",
        "title": "公共厕所",
        "address": "浙江省舟山市定海区怡岛路荷塘月色小区",
        "tel": "",
        "category": "基础设施:公共设施:公共厕所",
        "type": 0,
        "location": {
            "lat": 29.986127,
            "lng": 122.213748
        },
        "ad_info": {
            "adcode": 330902,
            "province": "浙江省",
            "city": "舟山市",
            "district": "定海区"
        }
    },
    {
        "id": "17378928277869648407",
        "title": "公共厕所",
        "address": "浙江省舟山市岱山县东海路与长河路交叉口正北方向68米左右",
        "tel": "",
        "category": "基础设施:公共设施:公共厕所",
        "type": 0,
        "location": {
            "lat": 30.250607,
            "lng": 122.216633
        },
        "ad_info": {
            "adcode": 330921,
            "province": "浙江省",
            "city": "舟山市",
            "district": "岱山县"
        }
    },
    {
        "id": "17958134393421890833",
        "title": "公共厕所",
        "address": "浙江省舟山市岱山县沙涂弄与蓬莱路交叉口正西方向23米左右",
        "tel": "",
        "category": "基础设施:公共设施:公共厕所",
        "type": 0,
        "location": {
            "lat": 30.238782,
            "lng": 122.206925
        },
        "ad_info": {
            "adcode": 330921,
            "province": "浙江省",
            "city": "舟山市",
            "district": "岱山县"
        }
    },
    {
        "id": "1728588990546945655",
        "title": "公共厕所",
        "address": "浙江省舟山市定海区双阳路与荷花浦路交叉口西北方向55米左右",
        "tel": "",
        "category": "基础设施:公共设施:公共厕所",
        "type": 0,
        "location": {
            "lat": 29.970408,
            "lng": 122.23302
        },
        "ad_info": {
            "adcode": 330902,
            "province": "浙江省",
            "city": "舟山市",
            "district": "定海区"
        }
    },
    {
        "id": "3608274516312440211",
        "title": "公共厕所",
        "address": "浙江省舟山市普陀区北安路与戚家湾路交叉口西北方向155米左右",
        "tel": "",
        "category": "基础设施:公共设施:公共厕所",
        "type": 0,
        "location": {
            "lat": 29.950042,
            "lng": 122.301172
        },
        "ad_info": {
            "adcode": 330903,
            "province": "浙江省",
            "city": "舟山市",
            "district": "普陀区"
        }
    },
    {
        "id": "2352240509139263873",
        "title": "普陀山风景名胜区公共厕所",
        "address": "浙江省舟山市普陀区普陀山梅芩路115号普陀山内",
        "tel": "",
        "category": "基础设施:公共设施:公共厕所",
        "type": 0,
        "location": {
            "lat": 30.019082,
            "lng": 122.397642
        },
        "ad_info": {
            "adcode": 330903,
            "province": "浙江省",
            "city": "舟山市",
            "district": "普陀区"
        }
    },
    {
        "id": "11236426612132918919",
        "title": "公共厕所",
        "address": "浙江省舟山市普陀区东泗湾路与新街交叉口正北方向43米左右",
        "tel": "",
        "category": "基础设施:公共设施:公共厕所",
        "type": 0,
        "location": {
            "lat": 29.951717,
            "lng": 122.30432
        },
        "ad_info": {
            "adcode": 330903,
            "province": "浙江省",
            "city": "舟山市",
            "district": "普陀区"
        }
    },
    {
        "id": "16141664353210804845",
        "title": "公共厕所",
        "address": "浙江省舟山市定海区新城大道辅路与海天大道辅路交叉口正南方向125米左右",
        "tel": "",
        "category": "基础设施:公共设施:公共厕所",
        "type": 0,
        "location": {
            "lat": 29.998251,
            "lng": 122.155434
        },
        "ad_info": {
            "adcode": 330902,
            "province": "浙江省",
            "city": "舟山市",
            "district": "定海区"
        }
    },
    {
        "id": "6701831455499975800",
        "title": "公共厕所",
        "address": "浙江省舟山市定海区册北路与册南路交叉口正西方向42米左右",
        "tel": "",
        "category": "基础设施:公共设施:公共厕所",
        "type": 0,
        "location": {
            "lat": 30.081166,
            "lng": 121.941479
        },
        "ad_info": {
            "adcode": 330902,
            "province": "浙江省",
            "city": "舟山市",
            "district": "定海区"
        }
    },
    {
        "id": "5850021963464829420",
        "title": "公共厕所",
        "address": "浙江省舟山市普陀区宁兴街与麒麟街交叉口正南方向96米左右",
        "tel": "",
        "category": "基础设施:公共设施:公共厕所",
        "type": 0,
        "location": {
            "lat": 29.973612,
            "lng": 122.321583
        },
        "ad_info": {
            "adcode": 330903,
            "province": "浙江省",
            "city": "舟山市",
            "district": "普陀区"
        }
    },
    {
        "id": "3512031723726079151",
        "title": "公共厕所",
        "address": "浙江省舟山市普陀区中大街175号",
        "tel": "",
        "category": "基础设施:公共设施:公共厕所",
        "type": 0,
        "location": {
            "lat": 29.946913,
            "lng": 122.301676
        },
        "ad_info": {
            "adcode": 330903,
            "province": "浙江省",
            "city": "舟山市",
            "district": "普陀区"
        }
    },
    {
        "id": "6555877888746822543",
        "title": "公共厕所",
        "address": "浙江省舟山市岱山县衢山镇枕头山校园路仙乐大酒店",
        "tel": "",
        "category": "基础设施:公共设施:公共厕所",
        "type": 0,
        "location": {
            "lat": 30.450982,
            "lng": 122.298674
        },
        "ad_info": {
            "adcode": 330921,
            "province": "浙江省",
            "city": "舟山市",
            "district": "岱山县"
        }
    },
    {
        "id": "17967515751146229499",
        "title": "公共厕所",
        "address": "浙江省舟山市定海区东海西路与东海路交叉口正北方向73米左右",
        "tel": "",
        "category": "基础设施:公共设施:公共厕所",
        "type": 0,
        "location": {
            "lat": 30.014389,
            "lng": 122.107021
        },
        "ad_info": {
            "adcode": 330902,
            "province": "浙江省",
            "city": "舟山市",
            "district": "定海区"
        }
    },
    {
        "id": "7493796253546302250",
        "title": "公共厕所",
        "address": "浙江省舟山市普陀区三大线与浦西街交叉口正南方向31米左右",
        "tel": "",
        "category": "基础设施:公共设施:公共厕所",
        "type": 0,
        "location": {
            "lat": 29.973138,
            "lng": 122.250306
        },
        "ad_info": {
            "adcode": 330903,
            "province": "浙江省",
            "city": "舟山市",
            "district": "普陀区"
        }
    },
    {
        "id": "10730473479554216780",
        "title": "公共厕所",
        "address": "浙江省舟山市定海区中大街与横塘弄交叉口正东方向38米左右",
        "tel": "",
        "category": "基础设施:公共设施:公共厕所",
        "type": 0,
        "location": {
            "lat": 30.018723,
            "lng": 122.107277
        },
        "ad_info": {
            "adcode": 330902,
            "province": "浙江省",
            "city": "舟山市",
            "district": "定海区"
        }
    },
    {
        "id": "14598213475077461695",
        "title": "公共厕所",
        "address": "浙江省舟山市普陀区中兴路与晨晖街交叉口西北方向162米左右",
        "tel": "",
        "category": "基础设施:公共设施:公共厕所",
        "type": 0,
        "location": {
            "lat": 29.951419,
            "lng": 122.31347
        },
        "ad_info": {
            "adcode": 330903,
            "province": "浙江省",
            "city": "舟山市",
            "district": "普陀区"
        }
    },
    {
        "id": "8512684507419623626",
        "title": "公共厕所",
        "address": "浙江省舟山市定海区海天大道辅路与蟠洋山路交叉口东北方向54米左右",
        "tel": "",
        "category": "基础设施:公共设施:公共厕所",
        "type": 0,
        "location": {
            "lat": 30.026341,
            "lng": 122.114478
        },
        "ad_info": {
            "adcode": 330902,
            "province": "浙江省",
            "city": "舟山市",
            "district": "定海区"
        }
    },
    {
        "id": "16799653782334657233",
        "title": "公共厕所",
        "address": "浙江省舟山市普陀区海洲路与金城街交叉口正南方向105米左右",
        "tel": "",
        "category": "基础设施:公共设施:公共厕所",
        "type": 0,
        "location": {
            "lat": 29.95956,
            "lng": 122.323021
        },
        "ad_info": {
            "adcode": 330903,
            "province": "浙江省",
            "city": "舟山市",
            "district": "普陀区"
        }
    },
    {
        "id": "14394621972659156569",
        "title": "公共厕所",
        "address": "浙江省舟山市普陀区中大街70弄16号",
        "tel": "",
        "category": "基础设施:公共设施:公共厕所",
        "type": 0,
        "location": {
            "lat": 29.944364,
            "lng": 122.300074
        },
        "ad_info": {
            "adcode": 330903,
            "province": "浙江省",
            "city": "舟山市",
            "district": "普陀区"
        }
    },
    {
        "id": "5796742094952910836",
        "title": "公共厕所",
        "address": "浙江省舟山市定海区伴云路与昌国路交叉口西南方向110米左右",
        "tel": "",
        "category": "基础设施:公共设施:公共厕所",
        "type": 0,
        "location": {
            "lat": 30.021898,
            "lng": 122.118837
        },
        "ad_info": {
            "adcode": 330902,
            "province": "浙江省",
            "city": "舟山市",
            "district": "定海区"
        }
    },
    {
        "id": "8449717374045710876",
        "title": "公共厕所",
        "address": "浙江省舟山市定海区怡岛路荷塘月色小区",
        "tel": "",
        "category": "基础设施:公共设施:公共厕所",
        "type": 0,
        "location": {
            "lat": 29.986127,
            "lng": 122.213748
        },
        "ad_info": {
            "adcode": 330902,
            "province": "浙江省",
            "city": "舟山市",
            "district": "定海区"
        }
    },
    {
        "id": "17378928277869648407",
        "title": "公共厕所",
        "address": "浙江省舟山市岱山县东海路与长河路交叉口正北方向68米左右",
        "tel": "",
        "category": "基础设施:公共设施:公共厕所",
        "type": 0,
        "location": {
            "lat": 30.250607,
            "lng": 122.216633
        },
        "ad_info": {
            "adcode": 330921,
            "province": "浙江省",
            "city": "舟山市",
            "district": "岱山县"
        }
    },
    {
        "id": "17958134393421890833",
        "title": "公共厕所",
        "address": "浙江省舟山市岱山县沙涂弄与蓬莱路交叉口正西方向23米左右",
        "tel": "",
        "category": "基础设施:公共设施:公共厕所",
        "type": 0,
        "location": {
            "lat": 30.238782,
            "lng": 122.206925
        },
        "ad_info": {
            "adcode": 330921,
            "province": "浙江省",
            "city": "舟山市",
            "district": "岱山县"
        }
    },
    {
        "id": "1728588990546945655",
        "title": "公共厕所",
        "address": "浙江省舟山市定海区双阳路与荷花浦路交叉口西北方向55米左右",
        "tel": "",
        "category": "基础设施:公共设施:公共厕所",
        "type": 0,
        "location": {
            "lat": 29.970408,
            "lng": 122.23302
        },
        "ad_info": {
            "adcode": 330902,
            "province": "浙江省",
            "city": "舟山市",
            "district": "定海区"
        }
    },
    {
        "id": "3608274516312440211",
        "title": "公共厕所",
        "address": "浙江省舟山市普陀区北安路与戚家湾路交叉口西北方向155米左右",
        "tel": "",
        "category": "基础设施:公共设施:公共厕所",
        "type": 0,
        "location": {
            "lat": 29.950042,
            "lng": 122.301172
        },
        "ad_info": {
            "adcode": 330903,
            "province": "浙江省",
            "city": "舟山市",
            "district": "普陀区"
        }
    },
    {
        "id": "2352240509139263873",
        "title": "普陀山风景名胜区公共厕所",
        "address": "浙江省舟山市普陀区普陀山梅芩路115号普陀山内",
        "tel": "",
        "category": "基础设施:公共设施:公共厕所",
        "type": 0,
        "location": {
            "lat": 30.019082,
            "lng": 122.397642
        },
        "ad_info": {
            "adcode": 330903,
            "province": "浙江省",
            "city": "舟山市",
            "district": "普陀区"
        }
    },
    {
        "id": "11236426612132918919",
        "title": "公共厕所",
        "address": "浙江省舟山市普陀区东泗湾路与新街交叉口正北方向43米左右",
        "tel": "",
        "category": "基础设施:公共设施:公共厕所",
        "type": 0,
        "location": {
            "lat": 29.951717,
            "lng": 122.30432
        },
        "ad_info": {
            "adcode": 330903,
            "province": "浙江省",
            "city": "舟山市",
            "district": "普陀区"
        }
    },
    {
        "id": "16141664353210804845",
        "title": "公共厕所",
        "address": "浙江省舟山市定海区新城大道辅路与海天大道辅路交叉口正南方向125米左右",
        "tel": "",
        "category": "基础设施:公共设施:公共厕所",
        "type": 0,
        "location": {
            "lat": 29.998251,
            "lng": 122.155434
        },
        "ad_info": {
            "adcode": 330902,
            "province": "浙江省",
            "city": "舟山市",
            "district": "定海区"
        }
    },
    {
        "id": "6701831455499975800",
        "title": "公共厕所",
        "address": "浙江省舟山市定海区册北路与册南路交叉口正西方向42米左右",
        "tel": "",
        "category": "基础设施:公共设施:公共厕所",
        "type": 0,
        "location": {
            "lat": 30.081166,
            "lng": 121.941479
        },
        "ad_info": {
            "adcode": 330902,
            "province": "浙江省",
            "city": "舟山市",
            "district": "定海区"
        }
    },
    {
        "id": "5850021963464829420",
        "title": "公共厕所",
        "address": "浙江省舟山市普陀区宁兴街与麒麟街交叉口正南方向96米左右",
        "tel": "",
        "category": "基础设施:公共设施:公共厕所",
        "type": 0,
        "location": {
            "lat": 29.973612,
            "lng": 122.321583
        },
        "ad_info": {
            "adcode": 330903,
            "province": "浙江省",
            "city": "舟山市",
            "district": "普陀区"
        }
    },
    {
        "id": "3512031723726079151",
        "title": "公共厕所",
        "address": "浙江省舟山市普陀区中大街175号",
        "tel": "",
        "category": "基础设施:公共设施:公共厕所",
        "type": 0,
        "location": {
            "lat": 29.946913,
            "lng": 122.301676
        },
        "ad_info": {
            "adcode": 330903,
            "province": "浙江省",
            "city": "舟山市",
            "district": "普陀区"
        }
    },
    {
        "id": "6555877888746822543",
        "title": "公共厕所",
        "address": "浙江省舟山市岱山县衢山镇枕头山校园路仙乐大酒店",
        "tel": "",
        "category": "基础设施:公共设施:公共厕所",
        "type": 0,
        "location": {
            "lat": 30.450982,
            "lng": 122.298674
        },
        "ad_info": {
            "adcode": 330921,
            "province": "浙江省",
            "city": "舟山市",
            "district": "岱山县"
        }
    },
    {
        "id": "17967515751146229499",
        "title": "公共厕所",
        "address": "浙江省舟山市定海区东海西路与东海路交叉口正北方向73米左右",
        "tel": "",
        "category": "基础设施:公共设施:公共厕所",
        "type": 0,
        "location": {
            "lat": 30.014389,
            "lng": 122.107021
        },
        "ad_info": {
            "adcode": 330902,
            "province": "浙江省",
            "city": "舟山市",
            "district": "定海区"
        }
    },
    {
        "id": "7493796253546302250",
        "title": "公共厕所",
        "address": "浙江省舟山市普陀区三大线与浦西街交叉口正南方向31米左右",
        "tel": "",
        "category": "基础设施:公共设施:公共厕所",
        "type": 0,
        "location": {
            "lat": 29.973138,
            "lng": 122.250306
        },
        "ad_info": {
            "adcode": 330903,
            "province": "浙江省",
            "city": "舟山市",
            "district": "普陀区"
        }
    },
    {
        "id": "10730473479554216780",
        "title": "公共厕所",
        "address": "浙江省舟山市定海区中大街与横塘弄交叉口正东方向38米左右",
        "tel": "",
        "category": "基础设施:公共设施:公共厕所",
        "type": 0,
        "location": {
            "lat": 30.018723,
            "lng": 122.107277
        },
        "ad_info": {
            "adcode": 330902,
            "province": "浙江省",
            "city": "舟山市",
            "district": "定海区"
        }
    },
    {
        "id": "14598213475077461695",
        "title": "公共厕所",
        "address": "浙江省舟山市普陀区中兴路与晨晖街交叉口西北方向162米左右",
        "tel": "",
        "category": "基础设施:公共设施:公共厕所",
        "type": 0,
        "location": {
            "lat": 29.951419,
            "lng": 122.31347
        },
        "ad_info": {
            "adcode": 330903,
            "province": "浙江省",
            "city": "舟山市",
            "district": "普陀区"
        }
    },
    {
        "id": "8512684507419623626",
        "title": "公共厕所",
        "address": "浙江省舟山市定海区海天大道辅路与蟠洋山路交叉口东北方向54米左右",
        "tel": "",
        "category": "基础设施:公共设施:公共厕所",
        "type": 0,
        "location": {
            "lat": 30.026341,
            "lng": 122.114478
        },
        "ad_info": {
            "adcode": 330902,
            "province": "浙江省",
            "city": "舟山市",
            "district": "定海区"
        }
    },
    {
        "id": "16799653782334657233",
        "title": "公共厕所",
        "address": "浙江省舟山市普陀区海洲路与金城街交叉口正南方向105米左右",
        "tel": "",
        "category": "基础设施:公共设施:公共厕所",
        "type": 0,
        "location": {
            "lat": 29.95956,
            "lng": 122.323021
        },
        "ad_info": {
            "adcode": 330903,
            "province": "浙江省",
            "city": "舟山市",
            "district": "普陀区"
        }
    },
    {
        "id": "14394621972659156569",
        "title": "公共厕所",
        "address": "浙江省舟山市普陀区中大街70弄16号",
        "tel": "",
        "category": "基础设施:公共设施:公共厕所",
        "type": 0,
        "location": {
            "lat": 29.944364,
            "lng": 122.300074
        },
        "ad_info": {
            "adcode": 330903,
            "province": "浙江省",
            "city": "舟山市",
            "district": "普陀区"
        }
    },
    {
        "id": "5796742094952910836",
        "title": "公共厕所",
        "address": "浙江省舟山市定海区伴云路与昌国路交叉口西南方向110米左右",
        "tel": "",
        "category": "基础设施:公共设施:公共厕所",
        "type": 0,
        "location": {
            "lat": 30.021898,
            "lng": 122.118837
        },
        "ad_info": {
            "adcode": 330902,
            "province": "浙江省",
            "city": "舟山市",
            "district": "定海区"
        }
    },
    {
        "id": "8449717374045710876",
        "title": "公共厕所",
        "address": "浙江省舟山市定海区怡岛路荷塘月色小区",
        "tel": "",
        "category": "基础设施:公共设施:公共厕所",
        "type": 0,
        "location": {
            "lat": 29.986127,
            "lng": 122.213748
        },
        "ad_info": {
            "adcode": 330902,
            "province": "浙江省",
            "city": "舟山市",
            "district": "定海区"
        }
    },
    {
        "id": "17378928277869648407",
        "title": "公共厕所",
        "address": "浙江省舟山市岱山县东海路与长河路交叉口正北方向68米左右",
        "tel": "",
        "category": "基础设施:公共设施:公共厕所",
        "type": 0,
        "location": {
            "lat": 30.250607,
            "lng": 122.216633
        },
        "ad_info": {
            "adcode": 330921,
            "province": "浙江省",
            "city": "舟山市",
            "district": "岱山县"
        }
    },
    {
        "id": "17958134393421890833",
        "title": "公共厕所",
        "address": "浙江省舟山市岱山县沙涂弄与蓬莱路交叉口正西方向23米左右",
        "tel": "",
        "category": "基础设施:公共设施:公共厕所",
        "type": 0,
        "location": {
            "lat": 30.238782,
            "lng": 122.206925
        },
        "ad_info": {
            "adcode": 330921,
            "province": "浙江省",
            "city": "舟山市",
            "district": "岱山县"
        }
    },
    {
        "id": "1728588990546945655",
        "title": "公共厕所",
        "address": "浙江省舟山市定海区双阳路与荷花浦路交叉口西北方向55米左右",
        "tel": "",
        "category": "基础设施:公共设施:公共厕所",
        "type": 0,
        "location": {
            "lat": 29.970408,
            "lng": 122.23302
        },
        "ad_info": {
            "adcode": 330902,
            "province": "浙江省",
            "city": "舟山市",
            "district": "定海区"
        }
    },
    {
        "id": "3608274516312440211",
        "title": "公共厕所",
        "address": "浙江省舟山市普陀区北安路与戚家湾路交叉口西北方向155米左右",
        "tel": "",
        "category": "基础设施:公共设施:公共厕所",
        "type": 0,
        "location": {
            "lat": 29.950042,
            "lng": 122.301172
        },
        "ad_info": {
            "adcode": 330903,
            "province": "浙江省",
            "city": "舟山市",
            "district": "普陀区"
        }
    },
    {
        "id": "2352240509139263873",
        "title": "普陀山风景名胜区公共厕所",
        "address": "浙江省舟山市普陀区普陀山梅芩路115号普陀山内",
        "tel": "",
        "category": "基础设施:公共设施:公共厕所",
        "type": 0,
        "location": {
            "lat": 30.019082,
            "lng": 122.397642
        },
        "ad_info": {
            "adcode": 330903,
            "province": "浙江省",
            "city": "舟山市",
            "district": "普陀区"
        }
    },
    {
        "id": "11236426612132918919",
        "title": "公共厕所",
        "address": "浙江省舟山市普陀区东泗湾路与新街交叉口正北方向43米左右",
        "tel": "",
        "category": "基础设施:公共设施:公共厕所",
        "type": 0,
        "location": {
            "lat": 29.951717,
            "lng": 122.30432
        },
        "ad_info": {
            "adcode": 330903,
            "province": "浙江省",
            "city": "舟山市",
            "district": "普陀区"
        }
    },
    {
        "id": "16141664353210804845",
        "title": "公共厕所",
        "address": "浙江省舟山市定海区新城大道辅路与海天大道辅路交叉口正南方向125米左右",
        "tel": "",
        "category": "基础设施:公共设施:公共厕所",
        "type": 0,
        "location": {
            "lat": 29.998251,
            "lng": 122.155434
        },
        "ad_info": {
            "adcode": 330902,
            "province": "浙江省",
            "city": "舟山市",
            "district": "定海区"
        }
    },
    {
        "id": "6701831455499975800",
        "title": "公共厕所",
        "address": "浙江省舟山市定海区册北路与册南路交叉口正西方向42米左右",
        "tel": "",
        "category": "基础设施:公共设施:公共厕所",
        "type": 0,
        "location": {
            "lat": 30.081166,
            "lng": 121.941479
        },
        "ad_info": {
            "adcode": 330902,
            "province": "浙江省",
            "city": "舟山市",
            "district": "定海区"
        }
    },
    {
        "id": "5850021963464829420",
        "title": "公共厕所",
        "address": "浙江省舟山市普陀区宁兴街与麒麟街交叉口正南方向96米左右",
        "tel": "",
        "category": "基础设施:公共设施:公共厕所",
        "type": 0,
        "location": {
            "lat": 29.973612,
            "lng": 122.321583
        },
        "ad_info": {
            "adcode": 330903,
            "province": "浙江省",
            "city": "舟山市",
            "district": "普陀区"
        }
    },
    {
        "id": "3512031723726079151",
        "title": "公共厕所",
        "address": "浙江省舟山市普陀区中大街175号",
        "tel": "",
        "category": "基础设施:公共设施:公共厕所",
        "type": 0,
        "location": {
            "lat": 29.946913,
            "lng": 122.301676
        },
        "ad_info": {
            "adcode": 330903,
            "province": "浙江省",
            "city": "舟山市",
            "district": "普陀区"
        }
    },
    {
        "id": "6555877888746822543",
        "title": "公共厕所",
        "address": "浙江省舟山市岱山县衢山镇枕头山校园路仙乐大酒店",
        "tel": "",
        "category": "基础设施:公共设施:公共厕所",
        "type": 0,
        "location": {
            "lat": 30.450982,
            "lng": 122.298674
        },
        "ad_info": {
            "adcode": 330921,
            "province": "浙江省",
            "city": "舟山市",
            "district": "岱山县"
        }
    },
    {
        "id": "17967515751146229499",
        "title": "公共厕所",
        "address": "浙江省舟山市定海区东海西路与东海路交叉口正北方向73米左右",
        "tel": "",
        "category": "基础设施:公共设施:公共厕所",
        "type": 0,
        "location": {
            "lat": 30.014389,
            "lng": 122.107021
        },
        "ad_info": {
            "adcode": 330902,
            "province": "浙江省",
            "city": "舟山市",
            "district": "定海区"
        }
    },
    {
        "id": "7493796253546302250",
        "title": "公共厕所",
        "address": "浙江省舟山市普陀区三大线与浦西街交叉口正南方向31米左右",
        "tel": "",
        "category": "基础设施:公共设施:公共厕所",
        "type": 0,
        "location": {
            "lat": 29.973138,
            "lng": 122.250306
        },
        "ad_info": {
            "adcode": 330903,
            "province": "浙江省",
            "city": "舟山市",
            "district": "普陀区"
        }
    },
    {
        "id": "10730473479554216780",
        "title": "公共厕所",
        "address": "浙江省舟山市定海区中大街与横塘弄交叉口正东方向38米左右",
        "tel": "",
        "category": "基础设施:公共设施:公共厕所",
        "type": 0,
        "location": {
            "lat": 30.018723,
            "lng": 122.107277
        },
        "ad_info": {
            "adcode": 330902,
            "province": "浙江省",
            "city": "舟山市",
            "district": "定海区"
        }
    },
    {
        "id": "14598213475077461695",
        "title": "公共厕所",
        "address": "浙江省舟山市普陀区中兴路与晨晖街交叉口西北方向162米左右",
        "tel": "",
        "category": "基础设施:公共设施:公共厕所",
        "type": 0,
        "location": {
            "lat": 29.951419,
            "lng": 122.31347
        },
        "ad_info": {
            "adcode": 330903,
            "province": "浙江省",
            "city": "舟山市",
            "district": "普陀区"
        }
    },
    {
        "id": "8512684507419623626",
        "title": "公共厕所",
        "address": "浙江省舟山市定海区海天大道辅路与蟠洋山路交叉口东北方向54米左右",
        "tel": "",
        "category": "基础设施:公共设施:公共厕所",
        "type": 0,
        "location": {
            "lat": 30.026341,
            "lng": 122.114478
        },
        "ad_info": {
            "adcode": 330902,
            "province": "浙江省",
            "city": "舟山市",
            "district": "定海区"
        }
    }
]