[
    {
        "id": "9449145598819176007",
        "title": "公共厕所",
        "address": "湖北省荆门市钟祥市王府大道与皇城门西街交叉口西北方向67米左右",
        "tel": "",
        "category": "基础设施:公共设施:公共厕所",
        "type": 0,
        "location": {
            "lat": 31.178552,
            "lng": 112.58731
        },
        "ad_info": {
            "adcode": 420881,
            "province": "湖北省",
            "city": "荆门市",
            "district": "钟祥市"
        }
    },
    {
        "id": "2130421952373779201",
        "title": "公共厕所",
        "address": "湖北省荆门市掇刀区象山大道与运动公园路交叉口西南方向187米左右",
        "tel": "",
        "category": "基础设施:公共设施:公共厕所",
        "type": 0,
        "location": {
            "lat": 30.980038,
            "lng": 112.187355
        },
        "ad_info": {
            "adcode": 420804,
            "province": "湖北省",
            "city": "荆门市",
            "district": "掇刀区"
        }
    },
    {
        "id": "17076819324843840622",
        "title": "公共厕所",
        "address": "湖北省荆门市掇刀区九渊路9号",
        "tel": "",
        "category": "基础设施:公共设施:公共厕所",
        "type": 0,
        "location": {
            "lat": 31.040412,
            "lng": 112.21505
        },
        "ad_info": {
            "adcode": 420804,
            "province": "湖北省",
            "city": "荆门市",
            "district": "掇刀区"
        }
    },
    {
        "id": "16010360580915570569",
        "title": "公共厕所",
        "address": "湖北省荆门市钟祥市沿河路与码头街交叉口正北方向18米左右",
        "tel": "",
        "category": "基础设施:公共设施:公共厕所",
        "type": 0,
        "location": {
            "lat": 31.160699,
            "lng": 112.585856
        },
        "ad_info": {
            "adcode": 420881,
            "province": "湖北省",
            "city": "荆门市",
            "district": "钟祥市"
        }
    },
    {
        "id": "7130601648783854001",
        "title": "公共厕所",
        "address": "湖北省荆门市沙洋县胜利二街与荷花大道交叉口正西方向24米左右",
        "tel": "",
        "category": "基础设施:公共设施:公共厕所",
        "type": 0,
        "location": {
            "lat": 30.694235,
            "lng": 112.582481
        },
        "ad_info": {
            "adcode": 420822,
            "province": "湖北省",
            "city": "荆门市",
            "district": "沙洋县"
        }
    },
    {
        "id": "4902161656081495931",
        "title": "公共厕所",
        "address": "湖北省荆门市沙洋县汉津大道与荆河路交叉口正东方向212米左右",
        "tel": "",
        "category": "基础设施:公共设施:公共厕所",
        "type": 0,
        "location": {
            "lat": 30.696378,
            "lng": 112.576998
        },
        "ad_info": {
            "adcode": 420822,
            "province": "湖北省",
            "city": "荆门市",
            "district": "沙洋县"
        }
    },
    {
        "id": "6132081036214599508",
        "title": "公共厕所",
        "address": "湖北省荆门市钟祥市郢中街道长寿路2号",
        "tel": "",
        "category": "基础设施:公共设施:公共厕所",
        "type": 0,
        "location": {
            "lat": 31.169126,
            "lng": 112.582374
        },
        "ad_info": {
            "adcode": 420881,
            "province": "湖北省",
            "city": "荆门市",
            "district": "钟祥市"
        }
    },
    {
        "id": "2620023490883898521",
        "title": "公共厕所",
        "address": "湖北省荆门市掇刀区南京路兴财广场",
        "tel": "",
        "category": "基础设施:公共设施:公共厕所",
        "type": 0,
        "location": {
            "lat": 30.985366,
            "lng": 112.192045
        },
        "ad_info": {
            "adcode": 420804,
            "province": "湖北省",
            "city": "荆门市",
            "district": "掇刀区"
        }
    },
    {
        "id": "478764897700853291",
        "title": "公共厕所",
        "address": "湖北省荆门市掇刀区白云大道与飞机场路交叉口正南方向77米左右",
        "tel": "",
        "category": "基础设施:公共设施:公共厕所",
        "type": 0,
        "location": {
            "lat": 30.965041,
            "lng": 112.195147
        },
        "ad_info": {
            "adcode": 420804,
            "province": "湖北省",
            "city": "荆门市",
            "district": "掇刀区"
        }
    },
    {
        "id": "5178518669540365053",
        "title": "公共厕所",
        "address": "湖北省荆门市掇刀区创业一路与白云大道交叉口正南方向181米左右",
        "tel": "",
        "category": "基础设施:公共设施:公共厕所",
        "type": 0,
        "location": {
            "lat": 30.936809,
            "lng": 112.192116
        },
        "ad_info": {
            "adcode": 420804,
            "province": "湖北省",
            "city": "荆门市",
            "district": "掇刀区"
        }
    },
    {
        "id": "16278504927270164018",
        "title": "公共厕所",
        "address": "湖北省荆门市钟祥市承天大道东路与镜月湖二路交叉口正北方向587米左右",
        "tel": "",
        "category": "基础设施:公共设施:公共厕所",
        "type": 0,
        "location": {
            "lat": 31.179417,
            "lng": 112.616167
        },
        "ad_info": {
            "adcode": 420881,
            "province": "湖北省",
            "city": "荆门市",
            "district": "钟祥市"
        }
    },
    {
        "id": "11720315884213348268",
        "title": "公共厕所",
        "address": "湖北省荆门市钟祥市襄沙大道与农民街交叉口北100米",
        "tel": "",
        "category": "基础设施:公共设施:公共厕所",
        "type": 0,
        "location": {
            "lat": 31.436571,
            "lng": 112.320785
        },
        "ad_info": {
            "adcode": 420881,
            "province": "湖北省",
            "city": "荆门市",
            "district": "钟祥市"
        }
    },
    {
        "id": "14437265099784630550",
        "title": "公共厕所",
        "address": "湖北省荆门市钟祥市莫愁大道与镜月湖大道交叉口东北方向149米左右",
        "tel": "",
        "category": "基础设施:公共设施:公共厕所",
        "type": 0,
        "location": {
            "lat": 31.163312,
            "lng": 112.591856
        },
        "ad_info": {
            "adcode": 420881,
            "province": "湖北省",
            "city": "荆门市",
            "district": "钟祥市"
        }
    },
    {
        "id": "6294410305556530100",
        "title": "公共厕所",
        "address": "湖北省荆门市钟祥市狮子井街与矶头巷交叉口正北方向80米左右",
        "tel": "",
        "category": "基础设施:公共设施:公共厕所",
        "type": 0,
        "location": {
            "lat": 31.169816,
            "lng": 112.58382
        },
        "ad_info": {
            "adcode": 420881,
            "province": "湖北省",
            "city": "荆门市",
            "district": "钟祥市"
        }
    },
    {
        "id": "11992667760624773918",
        "title": "公共厕所",
        "address": "湖北省荆门市掇刀区白云大道鸿盛家园",
        "tel": "",
        "category": "基础设施:公共设施:公共厕所",
        "type": 0,
        "location": {
            "lat": 30.976723,
            "lng": 112.198046
        },
        "ad_info": {
            "adcode": 420804,
            "province": "湖北省",
            "city": "荆门市",
            "district": "掇刀区"
        }
    },
    {
        "id": "10863833999482635993",
        "title": "公共厕所",
        "address": "湖北省荆门市掇刀区文体巷与白云大道交叉口正西方向76米左右",
        "tel": "",
        "category": "基础设施:公共设施:公共厕所",
        "type": 0,
        "location": {
            "lat": 30.996108,
            "lng": 112.206697
        },
        "ad_info": {
            "adcode": 420804,
            "province": "湖北省",
            "city": "荆门市",
            "district": "掇刀区"
        }
    },
    {
        "id": "7743933646696192587",
        "title": "公共厕所",
        "address": "湖北省荆门市掇刀区偃月巷与关帝路交叉口东北方向179米左右",
        "tel": "",
        "category": "基础设施:公共设施:公共厕所",
        "type": 0,
        "location": {
            "lat": 31.00111,
            "lng": 112.204061
        },
        "ad_info": {
            "adcode": 420804,
            "province": "湖北省",
            "city": "荆门市",
            "district": "掇刀区"
        }
    },
    {
        "id": "6105088394232845894",
        "title": "公共厕所",
        "address": "湖北省荆门市掇刀区福耀二路与龙井大道交叉口东南方向274米左右",
        "tel": "",
        "category": "基础设施:公共设施:公共厕所",
        "type": 0,
        "location": {
            "lat": 30.93884,
            "lng": 112.219249
        },
        "ad_info": {
            "adcode": 420804,
            "province": "湖北省",
            "city": "荆门市",
            "district": "掇刀区"
        }
    },
    {
        "id": "6254142086165390494",
        "title": "公共厕所",
        "address": "湖北省荆门市钟祥市寺沙路272号",
        "tel": "",
        "category": "基础设施:公共设施:公共厕所",
        "type": 0,
        "location": {
            "lat": 30.868826,
            "lng": 112.676067
        },
        "ad_info": {
            "adcode": 420881,
            "province": "湖北省",
            "city": "荆门市",
            "district": "钟祥市"
        }
    },
    {
        "id": "16841928094857123956",
        "title": "公共厕所",
        "address": "湖北省荆门市掇刀区龙井大道(中)与深圳大道交叉口西南100米",
        "tel": "",
        "category": "基础设施:公共设施:公共厕所",
        "type": 0,
        "location": {
            "lat": 30.979139,
            "lng": 112.206912
        },
        "ad_info": {
            "adcode": 420804,
            "province": "湖北省",
            "city": "荆门市",
            "district": "掇刀区"
        }
    },
    {
        "id": "4317220617004650657",
        "title": "公共厕所",
        "address": "湖北省荆门市钟祥市王府大道与龙山一路交叉口西北方向51米左右",
        "tel": "",
        "category": "基础设施:公共设施:公共厕所",
        "type": 0,
        "location": {
            "lat": 31.195826,
            "lng": 112.586203
        },
        "ad_info": {
            "adcode": 420881,
            "province": "湖北省",
            "city": "荆门市",
            "district": "钟祥市"
        }
    },
    {
        "id": "10970120219715933310",
        "title": "公共厕所",
        "address": "湖北省荆门市掇刀区交通路与科荟路交叉口东北方向196米左右",
        "tel": "",
        "category": "基础设施:公共设施:公共厕所",
        "type": 0,
        "location": {
            "lat": 30.923511,
            "lng": 112.199543
        },
        "ad_info": {
            "adcode": 420804,
            "province": "湖北省",
            "city": "荆门市",
            "district": "掇刀区"
        }
    },
    {
        "id": "6754805858466574706",
        "title": "公共厕所",
        "address": "湖北省荆门市东宝区中天街与象山大道交叉口西北方向34米左右",
        "tel": "",
        "category": "基础设施:公共设施:公共厕所",
        "type": 0,
        "location": {
            "lat": 31.029797,
            "lng": 112.19939
        },
        "ad_info": {
            "adcode": 420802,
            "province": "湖北省",
            "city": "荆门市",
            "district": "东宝区"
        }
    },
    {
        "id": "8689424756178576964",
        "title": "公共厕所",
        "address": "湖北省荆门市掇刀区漳河大道与荆山大道交叉口西北方向72米左右",
        "tel": "",
        "category": "基础设施:公共设施:公共厕所",
        "type": 0,
        "location": {
            "lat": 31.00448,
            "lng": 112.17213
        },
        "ad_info": {
            "adcode": 420804,
            "province": "湖北省",
            "city": "荆门市",
            "district": "掇刀区"
        }
    },
    {
        "id": "14443657222082216287",
        "title": "公共厕所",
        "address": "湖北省荆门市钟祥市陈庙村十三组155号",
        "tel": "",
        "category": "基础设施:公共设施:公共厕所",
        "type": 0,
        "location": {
            "lat": 31.229878,
            "lng": 112.59814
        },
        "ad_info": {
            "adcode": 420881,
            "province": "湖北省",
            "city": "荆门市",
            "district": "钟祥市"
        }
    },
    {
        "id": "4326039688046798712",
        "title": "公共厕所",
        "address": "湖北省荆门市京山市新阳东路与汤堰大道交叉口东南方向118米左右",
        "tel": "",
        "category": "基础设施:公共设施:公共厕所",
        "type": 0,
        "location": {
            "lat": 31.002133,
            "lng": 113.179021
        },
        "ad_info": {
            "adcode": 420882,
            "province": "湖北省",
            "city": "荆门市",
            "district": "京山市"
        }
    },
    {
        "id": "17214678520368053697",
        "title": "公共厕所",
        "address": "湖北省荆门市钟祥市祥瑞大道中路与长寿四路交叉口西北460米",
        "tel": "",
        "category": "基础设施:公共设施:公共厕所",
        "type": 0,
        "location": {
            "lat": 31.13256,
            "lng": 112.606232
        },
        "ad_info": {
            "adcode": 420881,
            "province": "湖北省",
            "city": "荆门市",
            "district": "钟祥市"
        }
    },
    {
        "id": "6868908689907440529",
        "title": "公共厕所",
        "address": "湖北省荆门市钟祥市子胥台街与石城大道东路交叉口西北方向34米左右",
        "tel": "",
        "category": "基础设施:公共设施:公共厕所",
        "type": 0,
        "location": {
            "lat": 31.168316,
            "lng": 112.59866
        },
        "ad_info": {
            "adcode": 420881,
            "province": "湖北省",
            "city": "荆门市",
            "district": "钟祥市"
        }
    },
    {
        "id": "5184330075742392093",
        "title": "公共厕所",
        "address": "湖北省荆门市京山市S243与Y030交叉口西南方向355米左右",
        "tel": "",
        "category": "基础设施:公共设施:公共厕所",
        "type": 0,
        "location": {
            "lat": 31.256424,
            "lng": 113.408641
        },
        "ad_info": {
            "adcode": 420882,
            "province": "湖北省",
            "city": "荆门市",
            "district": "京山市"
        }
    },
    {
        "id": "9355426707497241017",
        "title": "公共厕所",
        "address": "湖北省荆门市京山市327省道与G0421许广高速出口交叉口西100米",
        "tel": "",
        "category": "基础设施:公共设施:公共厕所",
        "type": 0,
        "location": {
            "lat": 31.325974,
            "lng": 113.242118
        },
        "ad_info": {
            "adcode": 420882,
            "province": "湖北省",
            "city": "荆门市",
            "district": "京山市"
        }
    },
    {
        "id": "3839399988184512934",
        "title": "公共厕所",
        "address": "湖北省荆门市京山市004县道与京绿线交叉口西260米",
        "tel": "",
        "category": "基础设施:公共设施:公共厕所",
        "type": 0,
        "location": {
            "lat": 31.145858,
            "lng": 113.085852
        },
        "ad_info": {
            "adcode": 420882,
            "province": "湖北省",
            "city": "荆门市",
            "district": "京山市"
        }
    },
    {
        "id": "16123340987269023812",
        "title": "公共厕所",
        "address": "湖北省荆门市京山市G240与京山大道交叉口正北方向1049米左右",
        "tel": "",
        "category": "基础设施:公共设施:公共厕所",
        "type": 0,
        "location": {
            "lat": 30.965351,
            "lng": 113.112486
        },
        "ad_info": {
            "adcode": 420882,
            "province": "湖北省",
            "city": "荆门市",
            "district": "京山市"
        }
    },
    {
        "id": "6804549748642245878",
        "title": "公共厕所",
        "address": "湖北省荆门市掇刀区关公大道(东)与神泉巷交叉口东南80米",
        "tel": "",
        "category": "基础设施:公共设施:公共厕所",
        "type": 0,
        "location": {
            "lat": 30.970936,
            "lng": 112.199722
        },
        "ad_info": {
            "adcode": 420804,
            "province": "湖北省",
            "city": "荆门市",
            "district": "掇刀区"
        }
    },
    {
        "id": "317524238593941036",
        "title": "公共厕所",
        "address": "湖北省荆门市掇刀区果园三路枫雅丽舍",
        "tel": "",
        "category": "基础设施:公共设施:公共厕所",
        "type": 0,
        "location": {
            "lat": 31.050284,
            "lng": 112.219379
        },
        "ad_info": {
            "adcode": 420804,
            "province": "湖北省",
            "city": "荆门市",
            "district": "掇刀区"
        }
    },
    {
        "id": "17278276636057345383",
        "title": "公共厕所",
        "address": "湖北省荆门市钟祥市G207与S331交叉口正南方向154米左右",
        "tel": "",
        "category": "基础设施:公共设施:公共厕所",
        "type": 0,
        "location": {
            "lat": 31.287611,
            "lng": 112.263829
        },
        "ad_info": {
            "adcode": 420881,
            "province": "湖北省",
            "city": "荆门市",
            "district": "钟祥市"
        }
    },
    {
        "id": "12976993125333776482",
        "title": "公共厕所",
        "address": "湖北省荆门市钟祥市S247与Y019交叉口正南方向505米左右",
        "tel": "",
        "category": "基础设施:公共设施:公共厕所",
        "type": 0,
        "location": {
            "lat": 31.107198,
            "lng": 112.796574
        },
        "ad_info": {
            "adcode": 420881,
            "province": "湖北省",
            "city": "荆门市",
            "district": "钟祥市"
        }
    },
    {
        "id": "9403219738559443468",
        "title": "公共厕所",
        "address": "湖北省荆门市京山市五三大道与金龙路交叉口东南方向67米左右",
        "tel": "",
        "category": "基础设施:公共设施:公共厕所",
        "type": 0,
        "location": {
            "lat": 30.821701,
            "lng": 112.883768
        },
        "ad_info": {
            "adcode": 420882,
            "province": "湖北省",
            "city": "荆门市",
            "district": "京山市"
        }
    },
    {
        "id": "8122349728096048777",
        "title": "公共厕所",
        "address": "湖北省荆门市京山市人民大道与新阳一路交叉口东南方向97米左右",
        "tel": "",
        "category": "基础设施:公共设施:公共厕所",
        "type": 0,
        "location": {
            "lat": 31.019669,
            "lng": 113.143349
        },
        "ad_info": {
            "adcode": 420882,
            "province": "湖北省",
            "city": "荆门市",
            "district": "京山市"
        }
    },
    {
        "id": "7142251888148066198",
        "title": "公共厕所",
        "address": "湖北省荆门市京山市S107",
        "tel": "",
        "category": "基础设施:公共设施:公共厕所",
        "type": 0,
        "location": {
            "lat": 30.841384,
            "lng": 113.007554
        },
        "ad_info": {
            "adcode": 420882,
            "province": "湖北省",
            "city": "荆门市",
            "district": "京山市"
        }
    },
    {
        "id": "6551203489720205047",
        "title": "公共厕所",
        "address": "湖北省荆门市京山市中国·京山网球特色小镇南侧160米",
        "tel": "",
        "category": "基础设施:公共设施:公共厕所",
        "type": 0,
        "location": {
            "lat": 30.992052,
            "lng": 113.141154
        },
        "ad_info": {
            "adcode": 420882,
            "province": "湖北省",
            "city": "荆门市",
            "district": "京山市"
        }
    },
    {
        "id": "1584032533660340350",
        "title": "公共厕所",
        "address": "湖北省荆门市沙洋县建设街80号",
        "tel": "",
        "category": "基础设施:公共设施:公共厕所",
        "type": 0,
        "location": {
            "lat": 30.70026,
            "lng": 112.594924
        },
        "ad_info": {
            "adcode": 420822,
            "province": "湖北省",
            "city": "荆门市",
            "district": "沙洋县"
        }
    },
    {
        "id": "12951936337633751968",
        "title": "公共厕所",
        "address": "湖北省荆门市钟祥市王府大道与石城大道中路交叉口正东方向90米左右",
        "tel": "",
        "category": "基础设施:公共设施:公共厕所",
        "type": 0,
        "location": {
            "lat": 31.168874,
            "lng": 112.59049
        },
        "ad_info": {
            "adcode": 420881,
            "province": "湖北省",
            "city": "荆门市",
            "district": "钟祥市"
        }
    },
    {
        "id": "16853321103894351679",
        "title": "公共厕所",
        "address": "湖北省荆门市钟祥市文峰路与长寿一路交叉口正北方向256米左右",
        "tel": "",
        "category": "基础设施:公共设施:公共厕所",
        "type": 0,
        "location": {
            "lat": 31.153173,
            "lng": 112.578293
        },
        "ad_info": {
            "adcode": 420881,
            "province": "湖北省",
            "city": "荆门市",
            "district": "钟祥市"
        }
    },
    {
        "id": "8597149581630999877",
        "title": "公共厕所",
        "address": "湖北省荆门市掇刀区月亮湖路与顺通路交叉口东南方向167米左右",
        "tel": "",
        "category": "基础设施:公共设施:公共厕所",
        "type": 0,
        "location": {
            "lat": 31.04431,
            "lng": 112.239462
        },
        "ad_info": {
            "adcode": 420804,
            "province": "湖北省",
            "city": "荆门市",
            "district": "掇刀区"
        }
    },
    {
        "id": "11961073130754802632",
        "title": "公共厕所",
        "address": "湖北省荆门市京山市京绿线与富水路交叉口东南方向176米左右",
        "tel": "",
        "category": "基础设施:公共设施:公共厕所",
        "type": 0,
        "location": {
            "lat": 31.310671,
            "lng": 113.086411
        },
        "ad_info": {
            "adcode": 420882,
            "province": "湖北省",
            "city": "荆门市",
            "district": "京山市"
        }
    },
    {
        "id": "8571268288560751163",
        "title": "公共厕所",
        "address": "湖北省荆门市钟祥市乌海线中国石油乐南加油站",
        "tel": "",
        "category": "基础设施:公共设施:公共厕所",
        "type": 0,
        "location": {
            "lat": 31.296649,
            "lng": 112.27054
        },
        "ad_info": {
            "adcode": 420881,
            "province": "湖北省",
            "city": "荆门市",
            "district": "钟祥市"
        }
    },
    {
        "id": "11904999294679817798",
        "title": "公共厕所",
        "address": "湖北省荆门市钟祥市中国石油胡集加油站南侧250米",
        "tel": "",
        "category": "基础设施:公共设施:公共厕所",
        "type": 0,
        "location": {
            "lat": 31.421088,
            "lng": 112.319238
        },
        "ad_info": {
            "adcode": 420881,
            "province": "湖北省",
            "city": "荆门市",
            "district": "钟祥市"
        }
    },
    {
        "id": "11318968418940617328",
        "title": "公共厕所",
        "address": "湖北省荆门市钟祥市承天大道东路与莫愁湖路交叉口正北方向248米左右",
        "tel": "",
        "category": "基础设施:公共设施:公共厕所",
        "type": 0,
        "location": {
            "lat": 31.176965,
            "lng": 112.60513
        },
        "ad_info": {
            "adcode": 420881,
            "province": "湖北省",
            "city": "荆门市",
            "district": "钟祥市"
        }
    },
    {
        "id": "16070514840313314629",
        "title": "公共厕所",
        "address": "湖北省荆门市掇刀区环城快速路辅路与207国道交叉口西南200米",
        "tel": "",
        "category": "基础设施:公共设施:公共厕所",
        "type": 0,
        "location": {
            "lat": 30.856513,
            "lng": 112.181224
        },
        "ad_info": {
            "adcode": 420804,
            "province": "湖北省",
            "city": "荆门市",
            "district": "掇刀区"
        }
    },
    {
        "id": "13049290734033151333",
        "title": "公共厕所",
        "address": "湖北省荆门市京山市红鹅沟路与青年路交叉口西北方向69米左右",
        "tel": "",
        "category": "基础设施:公共设施:公共厕所",
        "type": 0,
        "location": {
            "lat": 31.01944,
            "lng": 113.127294
        },
        "ad_info": {
            "adcode": 420882,
            "province": "湖北省",
            "city": "荆门市",
            "district": "京山市"
        }
    },
    {
        "id": "4664809436709710927",
        "title": "公共厕所",
        "address": "湖北省荆门市掇刀区关帝路与象山大道交叉口正西方向89米左右",
        "tel": "",
        "category": "基础设施:公共设施:公共厕所",
        "type": 0,
        "location": {
            "lat": 31.002805,
            "lng": 112.197823
        },
        "ad_info": {
            "adcode": 420804,
            "province": "湖北省",
            "city": "荆门市",
            "district": "掇刀区"
        }
    },
    {
        "id": "10995449533832355818",
        "title": "公共厕所",
        "address": "湖北省荆门市掇刀区忠勇路与白云大道交叉口东北方向60米左右",
        "tel": "",
        "category": "基础设施:公共设施:公共厕所",
        "type": 0,
        "location": {
            "lat": 30.998506,
            "lng": 112.207149
        },
        "ad_info": {
            "adcode": 420804,
            "province": "湖北省",
            "city": "荆门市",
            "district": "掇刀区"
        }
    },
    {
        "id": "12187433785269212471",
        "title": "公共厕所",
        "address": "湖北省荆门市掇刀区白庙街道炼厂路石化游泳池",
        "tel": "",
        "category": "基础设施:公共设施:公共厕所",
        "type": 0,
        "location": {
            "lat": 31.027475,
            "lng": 112.226358
        },
        "ad_info": {
            "adcode": 420804,
            "province": "湖北省",
            "city": "荆门市",
            "district": "掇刀区"
        }
    },
    {
        "id": "5138522745288661019",
        "title": "公共厕所",
        "address": "湖北省荆门市京山市京源大道与新市大道交叉口正南方向65米左右",
        "tel": "",
        "category": "基础设施:公共设施:公共厕所",
        "type": 0,
        "location": {
            "lat": 31.017238,
            "lng": 113.125206
        },
        "ad_info": {
            "adcode": 420882,
            "province": "湖北省",
            "city": "荆门市",
            "district": "京山市"
        }
    },
    {
        "id": "3140719356706663919",
        "title": "公共厕所",
        "address": "湖北省荆门市钟祥市G234与S311交叉口西南方向215米左右",
        "tel": "",
        "category": "基础设施:公共设施:公共厕所",
        "type": 0,
        "location": {
            "lat": 30.74819,
            "lng": 112.679769
        },
        "ad_info": {
            "adcode": 420881,
            "province": "湖北省",
            "city": "荆门市",
            "district": "钟祥市"
        }
    },
    {
        "id": "13264743151731334805",
        "title": "公共厕所",
        "address": "湖北省荆门市沙洋县荷花大道与长林路交叉口东南方向91米左右",
        "tel": "",
        "category": "基础设施:公共设施:公共厕所",
        "type": 0,
        "location": {
            "lat": 30.706056,
            "lng": 112.57738
        },
        "ad_info": {
            "adcode": 420822,
            "province": "湖北省",
            "city": "荆门市",
            "district": "沙洋县"
        }
    },
    {
        "id": "7088810313811310881",
        "title": "公共厕所",
        "address": "湖北省荆门市京山市Y009与Y015交叉口西南方向744米左右",
        "tel": "",
        "category": "基础设施:公共设施:公共厕所",
        "type": 0,
        "location": {
            "lat": 31.309551,
            "lng": 113.07664
        },
        "ad_info": {
            "adcode": 420882,
            "province": "湖北省",
            "city": "荆门市",
            "district": "京山市"
        }
    },
    {
        "id": "13025376757377114765",
        "title": "公共厕所",
        "address": "湖北省荆门市钟祥市齐心村一组46号",
        "tel": "",
        "category": "基础设施:公共设施:公共厕所",
        "type": 0,
        "location": {
            "lat": 31.188684,
            "lng": 112.549791
        },
        "ad_info": {
            "adcode": 420881,
            "province": "湖北省",
            "city": "荆门市",
            "district": "钟祥市"
        }
    },
    {
        "id": "17010245197319799890",
        "title": "公共厕所",
        "address": "湖北省荆门市掇刀区南三环与花博园南路交叉口西北方向307米左右",
        "tel": "",
        "category": "基础设施:公共设施:公共厕所",
        "type": 0,
        "location": {
            "lat": 30.873757,
            "lng": 112.150736
        },
        "ad_info": {
            "adcode": 420804,
            "province": "湖北省",
            "city": "荆门市",
            "district": "掇刀区"
        }
    },
    {
        "id": "878642119193184805",
        "title": "公共厕所",
        "address": "湖北省荆门市钟祥市枣石高速与沪蓉高速交叉口正东方向1595米左右",
        "tel": "",
        "category": "基础设施:公共设施:公共厕所",
        "type": 0,
        "location": {
            "lat": 31.017904,
            "lng": 112.696204
        },
        "ad_info": {
            "adcode": 420881,
            "province": "湖北省",
            "city": "荆门市",
            "district": "钟祥市"
        }
    },
    {
        "id": "17607586079460461942",
        "title": "公共厕所",
        "address": "湖北省荆门市京山市S107与Y006交叉口西南方向452米左右",
        "tel": "",
        "category": "基础设施:公共设施:公共厕所",
        "type": 0,
        "location": {
            "lat": 30.832901,
            "lng": 112.974175
        },
        "ad_info": {
            "adcode": 420882,
            "province": "湖北省",
            "city": "荆门市",
            "district": "京山市"
        }
    },
    {
        "id": "217233831907426166",
        "title": "公共厕所",
        "address": "湖北省荆门市钟祥市建设大道与汉江大道交叉口正东方向116米左右",
        "tel": "",
        "category": "基础设施:公共设施:公共厕所",
        "type": 0,
        "location": {
            "lat": 31.435301,
            "lng": 112.335276
        },
        "ad_info": {
            "adcode": 420881,
            "province": "湖北省",
            "city": "荆门市",
            "district": "钟祥市"
        }
    },
    {
        "id": "18273515070996054964",
        "title": "公共厕所",
        "address": "湖北省荆门市掇刀区大林巷与明仁巷交叉口东北140米",
        "tel": "",
        "category": "基础设施:公共设施:公共厕所",
        "type": 0,
        "location": {
            "lat": 31.000008,
            "lng": 112.205279
        },
        "ad_info": {
            "adcode": 420804,
            "province": "湖北省",
            "city": "荆门市",
            "district": "掇刀区"
        }
    },
    {
        "id": "673718340944766987",
        "title": "公共厕所",
        "address": "湖北省荆门市掇刀区G348与长兴路交叉口西北方向203米左右",
        "tel": "",
        "category": "基础设施:公共设施:公共厕所",
        "type": 0,
        "location": {
            "lat": 30.910892,
            "lng": 112.287653
        },
        "ad_info": {
            "adcode": 420804,
            "province": "湖北省",
            "city": "荆门市",
            "district": "掇刀区"
        }
    },
    {
        "id": "16752589616517006178",
        "title": "公共厕所",
        "address": "湖北省荆门市东宝区泉口路与长宁大道交叉口正北方向139米左右",
        "tel": "",
        "category": "基础设施:公共设施:公共厕所",
        "type": 0,
        "location": {
            "lat": 31.050716,
            "lng": 112.210675
        },
        "ad_info": {
            "adcode": 420802,
            "province": "湖北省",
            "city": "荆门市",
            "district": "东宝区"
        }
    },
    {
        "id": "14763769754806202740",
        "title": "公共厕所",
        "address": "湖北省荆门市掇刀区江山二路与江山路交叉口正北方向123米左右",
        "tel": "",
        "category": "基础设施:公共设施:公共厕所",
        "type": 0,
        "location": {
            "lat": 31.040614,
            "lng": 112.242997
        },
        "ad_info": {
            "adcode": 420804,
            "province": "湖北省",
            "city": "荆门市",
            "district": "掇刀区"
        }
    },
    {
        "id": "8740861763412258394",
        "title": "公共厕所",
        "address": "湖北省荆门市东宝区圣境山路与泉口一路交叉口正西方向57米左右",
        "tel": "",
        "category": "基础设施:公共设施:公共厕所",
        "type": 0,
        "location": {
            "lat": 31.053314,
            "lng": 112.199137
        },
        "ad_info": {
            "adcode": 420802,
            "province": "湖北省",
            "city": "荆门市",
            "district": "东宝区"
        }
    },
    {
        "id": "1729547267338759492",
        "title": "公共厕所",
        "address": "湖北省荆门市东宝区金宁路与金虾路交叉口正南方向100米左右",
        "tel": "",
        "category": "基础设施:公共设施:公共厕所",
        "type": 0,
        "location": {
            "lat": 31.03337,
            "lng": 112.20271
        },
        "ad_info": {
            "adcode": 420802,
            "province": "湖北省",
            "city": "荆门市",
            "district": "东宝区"
        }
    },
    {
        "id": "2207155023405175229",
        "title": "公共厕所",
        "address": "湖北省荆门市东宝区广场东路与金宇巷交叉口正南方向60米左右",
        "tel": "",
        "category": "基础设施:公共设施:公共厕所",
        "type": 0,
        "location": {
            "lat": 31.016917,
            "lng": 112.200601
        },
        "ad_info": {
            "adcode": 420802,
            "province": "湖北省",
            "city": "荆门市",
            "district": "东宝区"
        }
    },
    {
        "id": "16849504003677895704",
        "title": "公共厕所",
        "address": "湖北省荆门市掇刀区千佛寺路千佛禅寺",
        "tel": "",
        "category": "基础设施:公共设施:公共厕所",
        "type": 0,
        "location": {
            "lat": 30.995694,
            "lng": 112.215921
        },
        "ad_info": {
            "adcode": 420804,
            "province": "湖北省",
            "city": "荆门市",
            "district": "掇刀区"
        }
    },
    {
        "id": "12837222584089640877",
        "title": "公共厕所",
        "address": "湖北省荆门市钟祥市王府大道与皇庄街交叉口正北方向125米左右",
        "tel": "",
        "category": "基础设施:公共设施:公共厕所",
        "type": 0,
        "location": {
            "lat": 31.203025,
            "lng": 112.586487
        },
        "ad_info": {
            "adcode": 420881,
            "province": "湖北省",
            "city": "荆门市",
            "district": "钟祥市"
        }
    },
    {
        "id": "3144318473605802366",
        "title": "公共厕所",
        "address": "湖北省荆门市钟祥市G347与钟祥汉江二桥交叉口西北方向1619米左右",
        "tel": "",
        "category": "基础设施:公共设施:公共厕所",
        "type": 0,
        "location": {
            "lat": 31.117429,
            "lng": 112.546578
        },
        "ad_info": {
            "adcode": 420881,
            "province": "湖北省",
            "city": "荆门市",
            "district": "钟祥市"
        }
    },
    {
        "id": "10954299295888679155",
        "title": "公共厕所",
        "address": "湖北省荆门市京山市新市大道267号",
        "tel": "",
        "category": "基础设施:公共设施:公共厕所",
        "type": 0,
        "location": {
            "lat": 31.014683,
            "lng": 113.121878
        },
        "ad_info": {
            "adcode": 420882,
            "province": "湖北省",
            "city": "荆门市",
            "district": "京山市"
        }
    },
    {
        "id": "11494484209521776614",
        "title": "公共厕所",
        "address": "湖北省荆门市京山市轻机大道中国石化加油站(京丰站)",
        "tel": "",
        "category": "基础设施:公共设施:公共厕所",
        "type": 0,
        "location": {
            "lat": 31.021809,
            "lng": 113.12985
        },
        "ad_info": {
            "adcode": 420882,
            "province": "湖北省",
            "city": "荆门市",
            "district": "京山市"
        }
    },
    {
        "id": "14009879081493106887",
        "title": "公共厕所",
        "address": "湖北省荆门市京山市云集街95号",
        "tel": "",
        "category": "基础设施:公共设施:公共厕所",
        "type": 0,
        "location": {
            "lat": 31.11494,
            "lng": 113.396394
        },
        "ad_info": {
            "adcode": 420882,
            "province": "湖北省",
            "city": "荆门市",
            "district": "京山市"
        }
    },
    {
        "id": "4346861331654169413",
        "title": "公共厕所",
        "address": "湖北省荆门市东宝区天鹅路与象山大道交叉口正西方向83米左右",
        "tel": "",
        "category": "基础设施:公共设施:公共厕所",
        "type": 0,
        "location": {
            "lat": 31.019477,
            "lng": 112.197474
        },
        "ad_info": {
            "adcode": 420802,
            "province": "湖北省",
            "city": "荆门市",
            "district": "东宝区"
        }
    },
    {
        "id": "6564623265878959487",
        "title": "公共厕所",
        "address": "湖北省荆门市京山市G240与绿林路交叉口正北方向80米左右",
        "tel": "",
        "category": "基础设施:公共设施:公共厕所",
        "type": 0,
        "location": {
            "lat": 31.308534,
            "lng": 113.193917
        },
        "ad_info": {
            "adcode": 420882,
            "province": "湖北省",
            "city": "荆门市",
            "district": "京山市"
        }
    },
    {
        "id": "15643680574217571795",
        "title": "公共厕所",
        "address": "湖北省荆门市沙洋县S266与X011交叉口正东方向859米左右",
        "tel": "",
        "category": "基础设施:公共设施:公共厕所",
        "type": 0,
        "location": {
            "lat": 30.881203,
            "lng": 112.557845
        },
        "ad_info": {
            "adcode": 420822,
            "province": "湖北省",
            "city": "荆门市",
            "district": "沙洋县"
        }
    },
    {
        "id": "18372053262102973703",
        "title": "公共厕所",
        "address": "湖北省荆门市沙洋县松坪加油站南侧170米",
        "tel": "",
        "category": "基础设施:公共设施:公共厕所",
        "type": 0,
        "location": {
            "lat": 30.6642,
            "lng": 112.193253
        },
        "ad_info": {
            "adcode": 420822,
            "province": "湖北省",
            "city": "荆门市",
            "district": "沙洋县"
        }
    },
    {
        "id": "18194124300527609301",
        "title": "公共厕所",
        "address": "湖北省荆门市东宝区象山一路与象山大道交叉口东南方向39米左右",
        "tel": "",
        "category": "基础设施:公共设施:公共厕所",
        "type": 0,
        "location": {
            "lat": 31.038862,
            "lng": 112.199899
        },
        "ad_info": {
            "adcode": 420802,
            "province": "湖北省",
            "city": "荆门市",
            "district": "东宝区"
        }
    },
    {
        "id": "3119600124354697952",
        "title": "公共厕所",
        "address": "湖北省荆门市东宝区王林港路与长兴大道交叉口西南方向69米左右",
        "tel": "",
        "category": "基础设施:公共设施:公共厕所",
        "type": 0,
        "location": {
            "lat": 31.071999,
            "lng": 112.226398
        },
        "ad_info": {
            "adcode": 420802,
            "province": "湖北省",
            "city": "荆门市",
            "district": "东宝区"
        }
    },
    {
        "id": "7422985568469925636",
        "title": "公共厕所",
        "address": "湖北省荆门市东宝区长北巷与长宁大道交叉口正南方向85米左右",
        "tel": "",
        "category": "基础设施:公共设施:公共厕所",
        "type": 0,
        "location": {
            "lat": 31.032972,
            "lng": 112.206807
        },
        "ad_info": {
            "adcode": 420802,
            "province": "湖北省",
            "city": "荆门市",
            "district": "东宝区"
        }
    },
    {
        "id": "3404246522576017059",
        "title": "公共厕所",
        "address": "湖北省荆门市东宝区月亮湖路与G55二广高速入口交叉口西480米",
        "tel": "",
        "category": "基础设施:公共设施:公共厕所",
        "type": 0,
        "location": {
            "lat": 31.04059,
            "lng": 112.264382
        },
        "ad_info": {
            "adcode": 420802,
            "province": "湖北省",
            "city": "荆门市",
            "district": "东宝区"
        }
    },
    {
        "id": "11044185261900779360",
        "title": "公共厕所",
        "address": "湖北省荆门市东宝区韵达快运东北侧210米",
        "tel": "",
        "category": "基础设施:公共设施:公共厕所",
        "type": 0,
        "location": {
            "lat": 31.028125,
            "lng": 112.273145
        },
        "ad_info": {
            "adcode": 420802,
            "province": "湖北省",
            "city": "荆门市",
            "district": "东宝区"
        }
    },
    {
        "id": "2301674734322743261",
        "title": "公共厕所",
        "address": "湖北省荆门市沙洋县S107与S351交叉口正东方向57米左右",
        "tel": "",
        "category": "基础设施:公共设施:公共厕所",
        "type": 0,
        "location": {
            "lat": 30.575121,
            "lng": 112.460717
        },
        "ad_info": {
            "adcode": 420822,
            "province": "湖北省",
            "city": "荆门市",
            "district": "沙洋县"
        }
    },
    {
        "id": "15706855120367561543",
        "title": "公共厕所",
        "address": "湖北省荆门市东宝区建设街与白云大道交叉口正西方向102米左右",
        "tel": "",
        "category": "基础设施:公共设施:公共厕所",
        "type": 0,
        "location": {
            "lat": 31.027865,
            "lng": 112.206412
        },
        "ad_info": {
            "adcode": 420802,
            "province": "湖北省",
            "city": "荆门市",
            "district": "东宝区"
        }
    },
    {
        "id": "6098097015961409289",
        "title": "公共厕所",
        "address": "湖北省荆门市东宝区象山大道与雨霖路交叉口西北方向53米左右",
        "tel": "",
        "category": "基础设施:公共设施:公共厕所",
        "type": 0,
        "location": {
            "lat": 31.016627,
            "lng": 112.197595
        },
        "ad_info": {
            "adcode": 420802,
            "province": "湖北省",
            "city": "荆门市",
            "district": "东宝区"
        }
    },
    {
        "id": "1985763327337213011",
        "title": "公共厕所",
        "address": "湖北省荆门市沙洋县农村电子商务服务站(李河村)东南侧70米",
        "tel": "",
        "category": "基础设施:公共设施:公共厕所",
        "type": 0,
        "location": {
            "lat": 30.673136,
            "lng": 112.144775
        },
        "ad_info": {
            "adcode": 420822,
            "province": "湖北省",
            "city": "荆门市",
            "district": "沙洋县"
        }
    },
    {
        "id": "11339537821748283529",
        "title": "公共厕所",
        "address": "湖北省荆门市沙洋县S342",
        "tel": "",
        "category": "基础设施:公共设施:公共厕所",
        "type": 0,
        "location": {
            "lat": 30.71802,
            "lng": 112.306526
        },
        "ad_info": {
            "adcode": 420822,
            "province": "湖北省",
            "city": "荆门市",
            "district": "沙洋县"
        }
    },
    {
        "id": "4079185211478552250",
        "title": "公共厕所",
        "address": "湖北省荆门市东宝区G348与烽火台路交叉口正东方向44米左右",
        "tel": "",
        "category": "基础设施:公共设施:公共厕所",
        "type": 0,
        "location": {
            "lat": 30.943274,
            "lng": 112.079995
        },
        "ad_info": {
            "adcode": 420802,
            "province": "湖北省",
            "city": "荆门市",
            "district": "东宝区"
        }
    },
    {
        "id": "8392125042398538411",
        "title": "公共厕所",
        "address": "湖北省荆门市东宝区G207与万华路交叉口正南方向406米左右",
        "tel": "",
        "category": "基础设施:公共设施:公共厕所",
        "type": 0,
        "location": {
            "lat": 31.103104,
            "lng": 112.225641
        },
        "ad_info": {
            "adcode": 420802,
            "province": "湖北省",
            "city": "荆门市",
            "district": "东宝区"
        }
    },
    {
        "id": "5275395951446031433",
        "title": "公共厕所",
        "address": "湖北省荆门市沙洋县G234与金牛路交叉口正北方向176米左右",
        "tel": "",
        "category": "基础设施:公共设施:公共厕所",
        "type": 0,
        "location": {
            "lat": 30.597144,
            "lng": 112.582008
        },
        "ad_info": {
            "adcode": 420822,
            "province": "湖北省",
            "city": "荆门市",
            "district": "沙洋县"
        }
    },
    {
        "id": "2297471695526201521",
        "title": "公共厕所",
        "address": "湖北省荆门市东宝区荆楚理工大学",
        "tel": "",
        "category": "基础设施:公共设施:公共厕所",
        "type": 0,
        "location": {
            "lat": 31.046473,
            "lng": 112.195553
        },
        "ad_info": {
            "adcode": 420802,
            "province": "湖北省",
            "city": "荆门市",
            "district": "东宝区"
        }
    },
    {
        "id": "9715696969157590179",
        "title": "公共厕所",
        "address": "湖北省荆门市东宝区月亮湖路与白云大道交叉口东南方向114米左右",
        "tel": "",
        "category": "基础设施:公共设施:公共厕所",
        "type": 0,
        "location": {
            "lat": 31.036817,
            "lng": 112.211124
        },
        "ad_info": {
            "adcode": 420802,
            "province": "湖北省",
            "city": "荆门市",
            "district": "东宝区"
        }
    },
    {
        "id": "3259364030346706682",
        "title": "公共厕所",
        "address": "湖北省荆门市沙洋县沈东路与荆潜路交叉口正东方向653米左右",
        "tel": "",
        "category": "基础设施:公共设施:公共厕所",
        "type": 0,
        "location": {
            "lat": 30.85019,
            "lng": 112.389677
        },
        "ad_info": {
            "adcode": 420822,
            "province": "湖北省",
            "city": "荆门市",
            "district": "沙洋县"
        }
    },
    {
        "id": "17533976844526966132",
        "title": "公共厕所",
        "address": "湖北省荆门市东宝区泉口一路与金龙泉大道交叉口正东方向137米左右",
        "tel": "",
        "category": "基础设施:公共设施:公共厕所",
        "type": 0,
        "location": {
            "lat": 31.05925,
            "lng": 112.212059
        },
        "ad_info": {
            "adcode": 420802,
            "province": "湖北省",
            "city": "荆门市",
            "district": "东宝区"
        }
    },
    {
        "id": "1382274262540407225",
        "title": "公共厕所",
        "address": "湖北省荆门市东宝区文卫路与漳河大道交叉口东北方向102米左右",
        "tel": "",
        "category": "基础设施:公共设施:公共厕所",
        "type": 0,
        "location": {
            "lat": 30.971972,
            "lng": 112.093062
        },
        "ad_info": {
            "adcode": 420802,
            "province": "湖北省",
            "city": "荆门市",
            "district": "东宝区"
        }
    },
    {
        "id": "8599598511557256476",
        "title": "公共厕所",
        "address": "湖北省荆门市东宝区象山一路与金虾路交叉口正东方向125米左右",
        "tel": "",
        "category": "基础设施:公共设施:公共厕所",
        "type": 0,
        "location": {
            "lat": 31.038024,
            "lng": 112.20357
        },
        "ad_info": {
            "adcode": 420802,
            "province": "湖北省",
            "city": "荆门市",
            "district": "东宝区"
        }
    },
    {
        "id": "5455493065202900127",
        "title": "公共厕所",
        "address": "湖北省荆门市东宝区G347与新水铺中桥交叉口西南方向333米左右",
        "tel": "",
        "category": "基础设施:公共设施:公共厕所",
        "type": 0,
        "location": {
            "lat": 31.049615,
            "lng": 112.299017
        },
        "ad_info": {
            "adcode": 420802,
            "province": "湖北省",
            "city": "荆门市",
            "district": "东宝区"
        }
    },
    {
        "id": "9275763509654402582",
        "title": "公共厕所",
        "address": "湖北省荆门市东宝区汉江大道与花竹路交叉口正北方向468米左右",
        "tel": "",
        "category": "基础设施:公共设施:公共厕所",
        "type": 0,
        "location": {
            "lat": 31.026373,
            "lng": 112.274708
        },
        "ad_info": {
            "adcode": 420802,
            "province": "湖北省",
            "city": "荆门市",
            "district": "东宝区"
        }
    },
    {
        "id": "4277260902484638908",
        "title": "公共厕所",
        "address": "湖北省荆门市东宝区南铁线与洋丰大道交叉口正南方向1466米左右",
        "tel": "",
        "category": "基础设施:公共设施:公共厕所",
        "type": 0,
        "location": {
            "lat": 31.158614,
            "lng": 112.220222
        },
        "ad_info": {
            "adcode": 420802,
            "province": "湖北省",
            "city": "荆门市",
            "district": "东宝区"
        }
    },
    {
        "id": "4725987338823127418",
        "title": "公共厕所",
        "address": "湖北省荆门市东宝区G348与工业路交叉口正东方向200米左右",
        "tel": "",
        "category": "基础设施:公共设施:公共厕所",
        "type": 0,
        "location": {
            "lat": 30.944313,
            "lng": 112.084725
        },
        "ad_info": {
            "adcode": 420802,
            "province": "湖北省",
            "city": "荆门市",
            "district": "东宝区"
        }
    },
    {
        "id": "10878996105996281301",
        "title": "公共厕所",
        "address": "湖北省荆门市东宝区348国道与同乐路交叉口西300米",
        "tel": "",
        "category": "基础设施:公共设施:公共厕所",
        "type": 0,
        "location": {
            "lat": 30.942443,
            "lng": 112.074066
        },
        "ad_info": {
            "adcode": 420802,
            "province": "湖北省",
            "city": "荆门市",
            "district": "东宝区"
        }
    },
    {
        "id": "1756501035981774853",
        "title": "公共厕所",
        "address": "湖北省荆门市东宝区圣境山路与青山北路交叉口东南方向158米左右",
        "tel": "",
        "category": "基础设施:公共设施:公共厕所",
        "type": 0,
        "location": {
            "lat": 31.057471,
            "lng": 112.190632
        },
        "ad_info": {
            "adcode": 420802,
            "province": "湖北省",
            "city": "荆门市",
            "district": "东宝区"
        }
    },
    {
        "id": "15114233404778009583",
        "title": "公共厕所",
        "address": "湖北省荆门市东宝区实验小学(金虾路东)",
        "tel": "",
        "category": "基础设施:公共设施:公共厕所",
        "type": 0,
        "location": {
            "lat": 31.030026,
            "lng": 112.203033
        },
        "ad_info": {
            "adcode": 420802,
            "province": "湖北省",
            "city": "荆门市",
            "district": "东宝区"
        }
    },
    {
        "id": "13389988519632149541",
        "title": "大中路公共厕所",
        "address": "湖北省荆门市京山市大中路与惠山北路交叉口西南方向31米左右",
        "tel": "",
        "category": "基础设施:公共设施:公共厕所",
        "type": 0,
        "location": {
            "lat": 31.019592,
            "lng": 113.108451
        },
        "ad_info": {
            "adcode": 420882,
            "province": "湖北省",
            "city": "荆门市",
            "district": "京山市"
        }
    },
    {
        "id": "7000861795634987328",
        "title": "公共厕所",
        "address": "湖北省荆门市东宝区天鹅路与白云大道交叉口东北方向112米左右",
        "tel": "",
        "category": "基础设施:公共设施:公共厕所",
        "type": 0,
        "location": {
            "lat": 31.019779,
            "lng": 112.203564
        },
        "ad_info": {
            "adcode": 420802,
            "province": "湖北省",
            "city": "荆门市",
            "district": "东宝区"
        }
    },
    {
        "id": "13062143606001657279",
        "title": "京山服务区公共厕所",
        "address": "湖北省荆门市京山市美食广场(随岳高速公路西)",
        "tel": "",
        "category": "基础设施:公共设施:公共厕所",
        "type": 0,
        "location": {
            "lat": 31.220887,
            "lng": 113.237862
        },
        "ad_info": {
            "adcode": 420882,
            "province": "湖北省",
            "city": "荆门市",
            "district": "京山市"
        }
    },
    {
        "id": "10085171464602521662",
        "title": "云杜路公共厕所",
        "address": "湖北省荆门市京山市云杜路与城畈路交叉口西南方向92米左右",
        "tel": "",
        "category": "基础设施:公共设施:公共厕所",
        "type": 0,
        "location": {
            "lat": 31.022278,
            "lng": 113.119641
        },
        "ad_info": {
            "adcode": 420882,
            "province": "湖北省",
            "city": "荆门市",
            "district": "京山市"
        }
    },
    {
        "id": "5399877773698250607",
        "title": "环保公共厕所",
        "address": "湖北省荆门市掇刀区月亮湖路与江山路交叉口正南方向134米左右",
        "tel": "",
        "category": "基础设施:公共设施:公共厕所",
        "type": 0,
        "location": {
            "lat": 31.043484,
            "lng": 112.242451
        },
        "ad_info": {
            "adcode": 420804,
            "province": "湖北省",
            "city": "荆门市",
            "district": "掇刀区"
        }
    },
    {
        "id": "5582116947469330668",
        "title": "无障碍公共厕所",
        "address": "湖北省荆门市京山市京源大道与园艺路交叉口正北方向135米左右",
        "tel": "",
        "category": "基础设施:公共设施:公共厕所",
        "type": 0,
        "location": {
            "lat": 31.032909,
            "lng": 113.097152
        },
        "ad_info": {
            "adcode": 420882,
            "province": "湖北省",
            "city": "荆门市",
            "district": "京山市"
        }
    },
    {
        "id": "4351377215429561301",
        "title": "男洗手间(金都国际广场A区)",
        "address": "湖北省荆门市钟祥市石城中路5号金都国际广场A区F5",
        "tel": "",
        "category": "基础设施:公共设施:公共厕所",
        "type": 0,
        "location": {
            "lat": 31.16808,
            "lng": 112.586777
        },
        "ad_info": {
            "adcode": 420881,
            "province": "湖北省",
            "city": "荆门市",
            "district": "钟祥市"
        }
    },
    {
        "id": "17486687047455603142",
        "title": "无障碍公共厕所",
        "address": "湖北省荆门市东宝区塔影路与象山大道交叉口西北方向41米左右",
        "tel": "",
        "category": "基础设施:公共设施:公共厕所",
        "type": 0,
        "location": {
            "lat": 31.023418,
            "lng": 112.198578
        },
        "ad_info": {
            "adcode": 420802,
            "province": "湖北省",
            "city": "荆门市",
            "district": "东宝区"
        }
    },
    {
        "id": "13954866163366607783",
        "title": "钟祥服务区公共厕所",
        "address": "湖北省荆门市钟祥市长滩镇沪蓉高速公路钟祥服务区南",
        "tel": "",
        "category": "基础设施:公共设施:公共厕所",
        "type": 0,
        "location": {
            "lat": 31.016844,
            "lng": 112.701178
        },
        "ad_info": {
            "adcode": 420881,
            "province": "湖北省",
            "city": "荆门市",
            "district": "钟祥市"
        }
    },
    {
        "id": "2454700921298838236",
        "title": "沙洋服务区公共厕所",
        "address": "湖北省荆门市沙洋县S53枣石高速与沙洋服务区交叉口西南420米",
        "tel": "",
        "category": "基础设施:公共设施:公共厕所",
        "type": 0,
        "location": {
            "lat": 30.678897,
            "lng": 112.509844
        },
        "ad_info": {
            "adcode": 420822,
            "province": "湖北省",
            "city": "荆门市",
            "district": "沙洋县"
        }
    },
    {
        "id": "1472683138427990055",
        "title": "京山服务区第二公共厕所",
        "address": "湖北省荆门市京山市G240与徐家桥交叉口西南方向1209米左右",
        "tel": "",
        "category": "基础设施:公共设施:公共厕所",
        "type": 0,
        "location": {
            "lat": 31.222723,
            "lng": 113.240317
        },
        "ad_info": {
            "adcode": 420882,
            "province": "湖北省",
            "city": "荆门市",
            "district": "京山市"
        }
    },
    {
        "id": "5018437350247085576",
        "title": "钟祥服务区公共厕所",
        "address": "湖北省荆门市钟祥市长滩镇沪蓉高速公路钟祥服务区北",
        "tel": "",
        "category": "基础设施:公共设施:公共厕所",
        "type": 0,
        "location": {
            "lat": 31.019968,
            "lng": 112.701581
        },
        "ad_info": {
            "adcode": 420881,
            "province": "湖北省",
            "city": "荆门市",
            "district": "钟祥市"
        }
    },
    {
        "id": "15104446356407635863",
        "title": "公共厕所",
        "address": "湖北省荆门市东宝区中天街与白云大道交叉口西北方向33米左右",
        "tel": "",
        "category": "基础设施:公共设施:公共厕所",
        "type": 0,
        "location": {
            "lat": 31.028572,
            "lng": 112.208054
        },
        "ad_info": {
            "adcode": 420802,
            "province": "湖北省",
            "city": "荆门市",
            "district": "东宝区"
        }
    },
    {
        "id": "13662824176893263966",
        "title": "荆门服务区第二公共厕所",
        "address": "湖北省荆门市掇刀区二广高速与荆门互通交叉口正北方向615米左右",
        "tel": "",
        "category": "基础设施:公共设施:公共厕所",
        "type": 0,
        "location": {
            "lat": 30.962642,
            "lng": 112.273252
        },
        "ad_info": {
            "adcode": 420804,
            "province": "湖北省",
            "city": "荆门市",
            "district": "掇刀区"
        }
    },
    {
        "id": "14231832409096112829",
        "title": "女洗手间(金都国际广场A区)",
        "address": "湖北省荆门市钟祥市石城中路5号金都国际广场A区F1",
        "tel": "",
        "category": "基础设施:公共设施:女洗手间",
        "type": 0,
        "location": {
            "lat": 31.16806,
            "lng": 112.586633
        },
        "ad_info": {
            "adcode": 420881,
            "province": "湖北省",
            "city": "荆门市",
            "district": "钟祥市"
        }
    },
    {
        "id": "994597386626083494",
        "title": "男洗手间(金都国际广场A区)",
        "address": "湖北省荆门市钟祥市石城中路5号金都国际广场A区F4",
        "tel": "",
        "category": "基础设施:公共设施:男洗手间",
        "type": 0,
        "location": {
            "lat": 31.168105,
            "lng": 112.586733
        },
        "ad_info": {
            "adcode": 420881,
            "province": "湖北省",
            "city": "荆门市",
            "district": "钟祥市"
        }
    },
    {
        "id": "16681921543350526236",
        "title": "洗手间",
        "address": "湖北省荆门市掇刀区象山大道南端38号万达广场漳河店2F",
        "tel": "",
        "category": "基础设施:公共设施:公共厕所",
        "type": 0,
        "location": {
            "lat": 30.982822,
            "lng": 112.185554
        },
        "ad_info": {
            "adcode": 420804,
            "province": "湖北省",
            "city": "荆门市",
            "district": "掇刀区"
        }
    },
    {
        "id": "8725726187714857644",
        "title": "女洗手间(金都国际广场A区)",
        "address": "湖北省荆门市钟祥市石城中路5号金都国际广场A区F3",
        "tel": "",
        "category": "基础设施:公共设施:女洗手间",
        "type": 0,
        "location": {
            "lat": 31.168079,
            "lng": 112.586777
        },
        "ad_info": {
            "adcode": 420881,
            "province": "湖北省",
            "city": "荆门市",
            "district": "钟祥市"
        }
    },
    {
        "id": "2047986284530660790",
        "title": "公共厕所",
        "address": "湖北省荆门市钟祥市G347与S247交叉口正西方向152米左右",
        "tel": "",
        "category": "基础设施:公共设施:公共厕所",
        "type": 0,
        "location": {
            "lat": 31.192374,
            "lng": 112.812363
        },
        "ad_info": {
            "adcode": 420881,
            "province": "湖北省",
            "city": "荆门市",
            "district": "钟祥市"
        }
    },
    {
        "id": "18295534631263529964",
        "title": "公共厕所",
        "address": "湖北省荆门市东宝区G347与Y028交叉口正西方向535米左右",
        "tel": "",
        "category": "基础设施:公共设施:公共厕所",
        "type": 0,
        "location": {
            "lat": 31.04513,
            "lng": 112.286606
        },
        "ad_info": {
            "adcode": 420802,
            "province": "湖北省",
            "city": "荆门市",
            "district": "东宝区"
        }
    },
    {
        "id": "16548458282373374875",
        "title": "公共厕所",
        "address": "湖北省荆门市东宝区石桥驿镇彭湾村卫生室西南侧",
        "tel": "",
        "category": "基础设施:公共设施:公共厕所",
        "type": 0,
        "location": {
            "lat": 31.341061,
            "lng": 112.157457
        },
        "ad_info": {
            "adcode": 420802,
            "province": "湖北省",
            "city": "荆门市",
            "district": "东宝区"
        }
    },
    {
        "id": "16217176713063501869",
        "title": "洗手间",
        "address": "湖北省荆门市掇刀区象山大道南端38号万达广场漳河店3F",
        "tel": "",
        "category": "基础设施:公共设施:公共厕所",
        "type": 0,
        "location": {
            "lat": 30.982636,
            "lng": 112.187699
        },
        "ad_info": {
            "adcode": 420804,
            "province": "湖北省",
            "city": "荆门市",
            "district": "掇刀区"
        }
    },
    {
        "id": "288768989460544148",
        "title": "公共厕所(HUB-JM-0393)",
        "address": "湖北省荆门市沙洋县胜利二街六巷与荷花大道交叉口西40米",
        "tel": "",
        "category": "基础设施:公共设施:公共厕所",
        "type": 0,
        "location": {
            "lat": 30.69426,
            "lng": 112.582322
        },
        "ad_info": {
            "adcode": 420822,
            "province": "湖北省",
            "city": "荆门市",
            "district": "沙洋县"
        }
    },
    {
        "id": "7511046874517367300",
        "title": "公共厕所",
        "address": "湖北省荆门市沙洋县交通路与园林路交叉口东南方向61米左右",
        "tel": "",
        "category": "基础设施:公共设施:公共厕所",
        "type": 0,
        "location": {
            "lat": 30.701136,
            "lng": 112.597938
        },
        "ad_info": {
            "adcode": 420822,
            "province": "湖北省",
            "city": "荆门市",
            "district": "沙洋县"
        }
    },
    {
        "id": "14187383750714746924",
        "title": "公共卫生间",
        "address": "湖北省荆门市掇刀区深圳大道与白云大道辅路交叉口正北方向22米左右",
        "tel": "",
        "category": "基础设施:公共设施:公共厕所",
        "type": 0,
        "location": {
            "lat": 30.982726,
            "lng": 112.201959
        },
        "ad_info": {
            "adcode": 420804,
            "province": "湖北省",
            "city": "荆门市",
            "district": "掇刀区"
        }
    },
    {
        "id": "14988701711206745527",
        "title": "公共厕所",
        "address": "湖北省荆门市钟祥市龙山一路与龙山大道交叉口东南方向297米左右",
        "tel": "",
        "category": "基础设施:公共设施:公共厕所",
        "type": 0,
        "location": {
            "lat": 31.190808,
            "lng": 112.604031
        },
        "ad_info": {
            "adcode": 420881,
            "province": "湖北省",
            "city": "荆门市",
            "district": "钟祥市"
        }
    },
    {
        "id": "14123760791258337662",
        "title": "公共厕所",
        "address": "湖北省荆门市掇刀区康乐巷与白庙路交叉口西南方向25米左右",
        "tel": "",
        "category": "基础设施:公共设施:公共厕所",
        "type": 0,
        "location": {
            "lat": 31.031737,
            "lng": 112.226763
        },
        "ad_info": {
            "adcode": 420804,
            "province": "湖北省",
            "city": "荆门市",
            "district": "掇刀区"
        }
    },
    {
        "id": "3690503504172322568",
        "title": "洗手间",
        "address": "湖北省荆门市掇刀区象山大道南端38号万达广场漳河店1F",
        "tel": "",
        "category": "基础设施:公共设施:公共厕所",
        "type": 0,
        "location": {
            "lat": 30.982365,
            "lng": 112.186853
        },
        "ad_info": {
            "adcode": 420804,
            "province": "湖北省",
            "city": "荆门市",
            "district": "掇刀区"
        }
    },
    {
        "id": "2699578964864326426",
        "title": "荆门避暑山庄国宾酒店洗手间",
        "address": "湖北省荆门市东宝区漳河旅游公路与安三线交叉口西320米",
        "tel": "",
        "category": "基础设施:公共设施:公共厕所",
        "type": 0,
        "location": {
            "lat": 31.01084,
            "lng": 112.06767
        },
        "ad_info": {
            "adcode": 420802,
            "province": "湖北省",
            "city": "荆门市",
            "district": "东宝区"
        }
    },
    {
        "id": "14519450108885218241",
        "title": "公共厕所",
        "address": "湖北省荆门市东宝区四干渠中路与象山二路交叉口正东方向141米左右",
        "tel": "",
        "category": "基础设施:公共设施:公共厕所",
        "type": 0,
        "location": {
            "lat": 31.042327,
            "lng": 112.197739
        },
        "ad_info": {
            "adcode": 420802,
            "province": "湖北省",
            "city": "荆门市",
            "district": "东宝区"
        }
    },
    {
        "id": "7352733885132132607",
        "title": "长寿服务区公共厕所",
        "address": "湖北省荆门市钟祥市枣石高速",
        "tel": "",
        "category": "基础设施:公共设施:公共厕所",
        "type": 0,
        "location": {
            "lat": 31.478747,
            "lng": 112.644376
        },
        "ad_info": {
            "adcode": 420881,
            "province": "湖北省",
            "city": "荆门市",
            "district": "钟祥市"
        }
    },
    {
        "id": "6481444704035248283",
        "title": "沪蓉高速京山停车区公共厕所",
        "address": "湖北省荆门市京山市京山停车区西50米",
        "tel": "",
        "category": "基础设施:公共设施:公共厕所",
        "type": 0,
        "location": {
            "lat": 30.952041,
            "lng": 112.960989
        },
        "ad_info": {
            "adcode": 420882,
            "province": "湖北省",
            "city": "荆门市",
            "district": "京山市"
        }
    },
    {
        "id": "1614159700701478525",
        "title": "男洗手间",
        "address": "湖北省荆门市钟祥市石城中路5号金都国际广场A区F5",
        "tel": "",
        "category": "基础设施:公共设施:男洗手间",
        "type": 0,
        "location": {
            "lat": 31.168105,
            "lng": 112.586732
        },
        "ad_info": {
            "adcode": 420881,
            "province": "湖北省",
            "city": "荆门市",
            "district": "钟祥市"
        }
    },
    {
        "id": "4314490262443001687",
        "title": "公共厕所",
        "address": "湖北省荆门市沙洋县党员群众服务中心西北侧",
        "tel": "",
        "category": "基础设施:公共设施:公共厕所",
        "type": 0,
        "location": {
            "lat": 30.464963,
            "lng": 112.565676
        },
        "ad_info": {
            "adcode": 420822,
            "province": "湖北省",
            "city": "荆门市",
            "district": "沙洋县"
        }
    },
    {
        "id": "11365016324706266300",
        "title": "洗手间",
        "address": "湖北省荆门市掇刀区象山大道南端38号万达广场漳河店3F",
        "tel": "",
        "category": "基础设施:公共设施:公共厕所",
        "type": 0,
        "location": {
            "lat": 30.982749,
            "lng": 112.185504
        },
        "ad_info": {
            "adcode": 420804,
            "province": "湖北省",
            "city": "荆门市",
            "district": "掇刀区"
        }
    },
    {
        "id": "10601144649519874689",
        "title": "公共厕所",
        "address": "湖北省荆门市钟祥市水厂路与皇庄街交叉口正南方向149米左右",
        "tel": "",
        "category": "基础设施:公共设施:公共厕所",
        "type": 0,
        "location": {
            "lat": 31.185066,
            "lng": 112.574496
        },
        "ad_info": {
            "adcode": 420881,
            "province": "湖北省",
            "city": "荆门市",
            "district": "钟祥市"
        }
    },
    {
        "id": "1754777781730979394",
        "title": "公共厕所",
        "address": "湖北省荆门市钟祥市显王路与校场路交叉口西北方向58米左右",
        "tel": "",
        "category": "基础设施:公共设施:公共厕所",
        "type": 0,
        "location": {
            "lat": 31.189392,
            "lng": 112.600986
        },
        "ad_info": {
            "adcode": 420881,
            "province": "湖北省",
            "city": "荆门市",
            "district": "钟祥市"
        }
    },
    {
        "id": "15191045858286189567",
        "title": "长滩镇先锋村农厕服务站",
        "address": "湖北省荆门市钟祥市003乡道",
        "tel": "",
        "category": "基础设施:公共设施:公共厕所",
        "type": 0,
        "location": {
            "lat": 31.026425,
            "lng": 112.726128
        },
        "ad_info": {
            "adcode": 420881,
            "province": "湖北省",
            "city": "荆门市",
            "district": "钟祥市"
        }
    },
    {
        "id": "13098930678193289409",
        "title": "公共厕所",
        "address": "湖北省荆门市钟祥市G347与Y067交叉口东南方向1434米左右",
        "tel": "",
        "category": "基础设施:公共设施:公共厕所",
        "type": 0,
        "location": {
            "lat": 31.092912,
            "lng": 112.472468
        },
        "ad_info": {
            "adcode": 420881,
            "province": "湖北省",
            "city": "荆门市",
            "district": "钟祥市"
        }
    },
    {
        "id": "4263047033935618424",
        "title": "沙洋多辉公共厕所",
        "address": "湖北省荆门市沙洋县工业六路与鹏举大道交叉口正南方向607米左右",
        "tel": "",
        "category": "基础设施:公共设施:公共厕所",
        "type": 0,
        "location": {
            "lat": 30.678015,
            "lng": 112.525716
        },
        "ad_info": {
            "adcode": 420822,
            "province": "湖北省",
            "city": "荆门市",
            "district": "沙洋县"
        }
    },
    {
        "id": "18144440671752792350",
        "title": "公共厕所",
        "address": "湖北省荆门市钟祥市胡集吃鸭子一条街桥头",
        "tel": "",
        "category": "基础设施:公共设施:公共厕所",
        "type": 0,
        "location": {
            "lat": 31.429459,
            "lng": 112.313356
        },
        "ad_info": {
            "adcode": 420881,
            "province": "湖北省",
            "city": "荆门市",
            "district": "钟祥市"
        }
    },
    {
        "id": "67248282440805468",
        "title": "荆门服务区第一公共厕所",
        "address": "湖北省荆门市掇刀区荆门服务区与G55二广高速交叉口东北240米",
        "tel": "",
        "category": "基础设施:公共设施:公共厕所",
        "type": 0,
        "location": {
            "lat": 30.961601,
            "lng": 112.27317
        },
        "ad_info": {
            "adcode": 420804,
            "province": "湖北省",
            "city": "荆门市",
            "district": "掇刀区"
        }
    },
    {
        "id": "3646556618924045057",
        "title": "洗手间",
        "address": "湖北省荆门市掇刀区象山大道南端38号万达广场漳河店2F",
        "tel": "",
        "category": "基础设施:公共设施:公共厕所",
        "type": 0,
        "location": {
            "lat": 30.98241,
            "lng": 112.186822
        },
        "ad_info": {
            "adcode": 420804,
            "province": "湖北省",
            "city": "荆门市",
            "district": "掇刀区"
        }
    },
    {
        "id": "15033490833705880942",
        "title": "公共厕所",
        "address": "湖北省荆门市钟祥市邵集路与黄金路交叉口东北方向32米左右",
        "tel": "",
        "category": "基础设施:公共设施:公共厕所",
        "type": 0,
        "location": {
            "lat": 31.359436,
            "lng": 112.873545
        },
        "ad_info": {
            "adcode": 420881,
            "province": "湖北省",
            "city": "荆门市",
            "district": "钟祥市"
        }
    },
    {
        "id": "13936445340423594247",
        "title": "长寿服务区公共厕所",
        "address": "湖北省荆门市钟祥市S53枣石高速与长寿服务区交叉口南340米",
        "tel": "",
        "category": "基础设施:公共设施:公共厕所",
        "type": 0,
        "location": {
            "lat": 31.479065,
            "lng": 112.641837
        },
        "ad_info": {
            "adcode": 420881,
            "province": "湖北省",
            "city": "荆门市",
            "district": "钟祥市"
        }
    },
    {
        "id": "2461479725560566761",
        "title": "公共卫生间",
        "address": "湖北省荆门市沙洋县工农街与建设街交叉口西北方向65米左右",
        "tel": "",
        "category": "基础设施:公共设施:公共厕所",
        "type": 0,
        "location": {
            "lat": 30.699006,
            "lng": 112.597083
        },
        "ad_info": {
            "adcode": 420822,
            "province": "湖北省",
            "city": "荆门市",
            "district": "沙洋县"
        }
    },
    {
        "id": "3967134133492546953",
        "title": "公共厕所",
        "address": "湖北省荆门市钟祥市S331",
        "tel": "",
        "category": "基础设施:公共设施:公共厕所",
        "type": 0,
        "location": {
            "lat": 31.270507,
            "lng": 112.304351
        },
        "ad_info": {
            "adcode": 420881,
            "province": "湖北省",
            "city": "荆门市",
            "district": "钟祥市"
        }
    },
    {
        "id": "4893319437177336663",
        "title": "荆门服务区第一公共厕所",
        "address": "湖北省荆门市掇刀区二广高速与荆门互通交叉口正北方向788米左右",
        "tel": "",
        "category": "基础设施:公共设施:公共厕所",
        "type": 0,
        "location": {
            "lat": 30.964395,
            "lng": 112.272298
        },
        "ad_info": {
            "adcode": 420804,
            "province": "湖北省",
            "city": "荆门市",
            "district": "掇刀区"
        }
    },
    {
        "id": "12003814143422993916",
        "title": "公共厕所",
        "address": "湖北省荆门市东宝区月亮湖路116号",
        "tel": "",
        "category": "基础设施:公共设施:公共厕所",
        "type": 0,
        "location": {
            "lat": 31.041708,
            "lng": 112.256763
        },
        "ad_info": {
            "adcode": 420802,
            "province": "湖北省",
            "city": "荆门市",
            "district": "东宝区"
        }
    },
    {
        "id": "9772276886692793095",
        "title": "洗手间",
        "address": "湖北省荆门市掇刀区象山大道南端38号万达广场漳河店1F",
        "tel": "",
        "category": "基础设施:公共设施:公共厕所",
        "type": 0,
        "location": {
            "lat": 30.9828,
            "lng": 112.185575
        },
        "ad_info": {
            "adcode": 420804,
            "province": "湖北省",
            "city": "荆门市",
            "district": "掇刀区"
        }
    },
    {
        "id": "8592863465402598332",
        "title": "洗手间",
        "address": "湖北省荆门市掇刀区象山大道南端38号万达广场漳河店1F",
        "tel": "",
        "category": "基础设施:公共设施:公共厕所",
        "type": 0,
        "location": {
            "lat": 30.982669,
            "lng": 112.1877
        },
        "ad_info": {
            "adcode": 420804,
            "province": "湖北省",
            "city": "荆门市",
            "district": "掇刀区"
        }
    },
    {
        "id": "12137188595182130226",
        "title": "公共厕所",
        "address": "湖北省荆门市掇刀区关帝路与忠信路交叉口西北方向133米左右",
        "tel": "",
        "category": "基础设施:公共设施:公共厕所",
        "type": 0,
        "location": {
            "lat": 31.003294,
            "lng": 112.2001
        },
        "ad_info": {
            "adcode": 420804,
            "province": "湖北省",
            "city": "荆门市",
            "district": "掇刀区"
        }
    },
    {
        "id": "5288671216933536462",
        "title": "公共厕所",
        "address": "湖北省荆门市沙洋县湖北辉跃花卉苗木种植有限公司西南侧110米",
        "tel": "",
        "category": "基础设施:公共设施:公共厕所",
        "type": 0,
        "location": {
            "lat": 30.665466,
            "lng": 112.193574
        },
        "ad_info": {
            "adcode": 420822,
            "province": "湖北省",
            "city": "荆门市",
            "district": "沙洋县"
        }
    },
    {
        "id": "1582299346164286285",
        "title": "公共厕所",
        "address": "湖北省荆门市钟祥市王府大道与福寿路交叉口东南方向60米左右",
        "tel": "",
        "category": "基础设施:公共设施:公共厕所",
        "type": 0,
        "location": {
            "lat": 31.184179,
            "lng": 112.587427
        },
        "ad_info": {
            "adcode": 420881,
            "province": "湖北省",
            "city": "荆门市",
            "district": "钟祥市"
        }
    },
    {
        "id": "817301662688613325",
        "title": "公共厕所",
        "address": "湖北省荆门市京山市石龙镇小学北侧260米",
        "tel": "",
        "category": "基础设施:公共设施:公共厕所",
        "type": 0,
        "location": {
            "lat": 30.900247,
            "lng": 112.854778
        },
        "ad_info": {
            "adcode": 420882,
            "province": "湖北省",
            "city": "荆门市",
            "district": "京山市"
        }
    },
    {
        "id": "1430275345457960339",
        "title": "女洗手间(金都国际广场A区)",
        "address": "湖北省荆门市钟祥市石城中路5号金都国际广场A区F2",
        "tel": "",
        "category": "基础设施:公共设施:公共厕所",
        "type": 0,
        "location": {
            "lat": 31.168089,
            "lng": 112.586718
        },
        "ad_info": {
            "adcode": 420881,
            "province": "湖北省",
            "city": "荆门市",
            "district": "钟祥市"
        }
    },
    {
        "id": "13775033890919689382",
        "title": "公共厕所",
        "address": "湖北省荆门市钟祥市",
        "tel": "",
        "category": "基础设施:公共设施:公共厕所",
        "type": 0,
        "location": {
            "lat": 30.845499,
            "lng": 112.722307
        },
        "ad_info": {
            "adcode": 420881,
            "province": "湖北省",
            "city": "荆门市",
            "district": "钟祥市"
        }
    },
    {
        "id": "3141275459701544257",
        "title": "公共厕所",
        "address": "湖北省荆门市东宝区三三0路与三三〇西路交叉口正南方向334米左右",
        "tel": "",
        "category": "基础设施:公共设施:公共厕所",
        "type": 0,
        "location": {
            "lat": 31.056507,
            "lng": 112.196955
        },
        "ad_info": {
            "adcode": 420802,
            "province": "湖北省",
            "city": "荆门市",
            "district": "东宝区"
        }
    },
    {
        "id": "17861490043437566644",
        "title": "公共厕所",
        "address": "湖北省荆门市沙洋县G207与砖桥中桥交叉口正北方向397米左右",
        "tel": "",
        "category": "基础设施:公共设施:公共厕所",
        "type": 0,
        "location": {
            "lat": 30.478429,
            "lng": 112.197971
        },
        "ad_info": {
            "adcode": 420822,
            "province": "湖北省",
            "city": "荆门市",
            "district": "沙洋县"
        }
    },
    {
        "id": "17914654629078300059",
        "title": "公共厕所",
        "address": "湖北省荆门市东宝区南台路与沿河南路交叉口正南方向57米左右",
        "tel": "",
        "category": "基础设施:公共设施:公共厕所",
        "type": 0,
        "location": {
            "lat": 31.026067,
            "lng": 112.201049
        },
        "ad_info": {
            "adcode": 420802,
            "province": "湖北省",
            "city": "荆门市",
            "district": "东宝区"
        }
    },
    {
        "id": "4599417484158056077",
        "title": "石牌停车区公共厕所",
        "address": "湖北省荆门市钟祥市G42沪蓉高速南100米",
        "tel": "",
        "category": "基础设施:公共设施:公共厕所",
        "type": 0,
        "location": {
            "lat": 30.983645,
            "lng": 112.422996
        },
        "ad_info": {
            "adcode": 420881,
            "province": "湖北省",
            "city": "荆门市",
            "district": "钟祥市"
        }
    },
    {
        "id": "831226913141222433",
        "title": "公共厕所",
        "address": "湖北省荆门市钟祥市G234与一五二桥交叉口正南方向109米左右",
        "tel": "",
        "category": "基础设施:公共设施:公共厕所",
        "type": 0,
        "location": {
            "lat": 31.024352,
            "lng": 112.617871
        },
        "ad_info": {
            "adcode": 420881,
            "province": "湖北省",
            "city": "荆门市",
            "district": "钟祥市"
        }
    },
    {
        "id": "11814453254221503183",
        "title": "纪山停车区公共厕所",
        "address": "湖北省荆门市沙洋县中国海油纪山停车区加油站东南侧70米",
        "tel": "",
        "category": "基础设施:公共设施:公共厕所",
        "type": 0,
        "location": {
            "lat": 30.553008,
            "lng": 112.211747
        },
        "ad_info": {
            "adcode": 420822,
            "province": "湖北省",
            "city": "荆门市",
            "district": "沙洋县"
        }
    },
    {
        "id": "4169238780340871904",
        "title": "二广高速G55钟祥停车区公共厕所",
        "address": "湖北省荆门市钟祥市G55钟祥服务区西侧",
        "tel": "",
        "category": "基础设施:公共设施:公共厕所",
        "type": 0,
        "location": {
            "lat": 31.358783,
            "lng": 112.35142
        },
        "ad_info": {
            "adcode": 420881,
            "province": "湖北省",
            "city": "荆门市",
            "district": "钟祥市"
        }
    },
    {
        "id": "15135978971903897774",
        "title": "交通厕所",
        "address": "湖北省荆门市京山市G240与京天路交叉口正北方向114米左右",
        "tel": "",
        "category": "基础设施:公共设施:公共厕所",
        "type": 0,
        "location": {
            "lat": 30.849857,
            "lng": 113.100701
        },
        "ad_info": {
            "adcode": 420882,
            "province": "湖北省",
            "city": "荆门市",
            "district": "京山市"
        }
    },
    {
        "id": "15897042420989124482",
        "title": "公共厕所",
        "address": "湖北省荆门市掇刀区关公大道与培公大道交叉口东北方向48米左右",
        "tel": "",
        "category": "基础设施:公共设施:公共厕所",
        "type": 0,
        "location": {
            "lat": 30.970684,
            "lng": 112.220724
        },
        "ad_info": {
            "adcode": 420804,
            "province": "湖北省",
            "city": "荆门市",
            "district": "掇刀区"
        }
    },
    {
        "id": "11645101928439409752",
        "title": "公共厕所",
        "address": "湖北省荆门市钟祥市王湖路与钟双大道交叉口西北方向49米左右",
        "tel": "",
        "category": "基础设施:公共设施:公共厕所",
        "type": 0,
        "location": {
            "lat": 31.278473,
            "lng": 112.281108
        },
        "ad_info": {
            "adcode": 420881,
            "province": "湖北省",
            "city": "荆门市",
            "district": "钟祥市"
        }
    },
    {
        "id": "14017945447224965786",
        "title": "公共厕所",
        "address": "湖北省荆门市京山市坪坝镇中心小学西侧120米",
        "tel": "",
        "category": "基础设施:公共设施:公共厕所",
        "type": 0,
        "location": {
            "lat": 31.317273,
            "lng": 113.315066
        },
        "ad_info": {
            "adcode": 420882,
            "province": "湖北省",
            "city": "荆门市",
            "district": "京山市"
        }
    },
    {
        "id": "12996433685173121610",
        "title": "男洗手间",
        "address": "湖北省荆门市钟祥市石城中路5号金都国际广场A区F2",
        "tel": "",
        "category": "基础设施:公共设施:男洗手间",
        "type": 0,
        "location": {
            "lat": 31.168108,
            "lng": 112.586735
        },
        "ad_info": {
            "adcode": 420881,
            "province": "湖北省",
            "city": "荆门市",
            "district": "钟祥市"
        }
    },
    {
        "id": "335758497365521706",
        "title": "女洗手间(金都国际广场A区)",
        "address": "湖北省荆门市钟祥市石城中路5号金都国际广场A区F4",
        "tel": "",
        "category": "基础设施:公共设施:公共厕所",
        "type": 0,
        "location": {
            "lat": 31.16808,
            "lng": 112.586777
        },
        "ad_info": {
            "adcode": 420881,
            "province": "湖北省",
            "city": "荆门市",
            "district": "钟祥市"
        }
    },
    {
        "id": "9673213163691167771",
        "title": "公共厕所",
        "address": "湖北省荆门市京山市附近",
        "tel": "",
        "category": "基础设施:公共设施:公共厕所",
        "type": 0,
        "location": {
            "lat": 30.977178,
            "lng": 112.753834
        },
        "ad_info": {
            "adcode": 420882,
            "province": "湖北省",
            "city": "荆门市",
            "district": "京山市"
        }
    },
    {
        "id": "151007402332578992",
        "title": "公共厕所",
        "address": "湖北省荆门市东宝区沿河北路与象山二路交叉口正南方向136米左右",
        "tel": "",
        "category": "基础设施:公共设施:公共厕所",
        "type": 0,
        "location": {
            "lat": 31.041694,
            "lng": 112.205758
        },
        "ad_info": {
            "adcode": 420802,
            "province": "湖北省",
            "city": "荆门市",
            "district": "东宝区"
        }
    },
    {
        "id": "49799908122512800",
        "title": "公共厕所(HUB-JM-0339)",
        "address": "湖北省荆门市京山市G42沪蓉高速出口与240国道交叉口东60米",
        "tel": "",
        "category": "基础设施:公共设施:公共厕所",
        "type": 0,
        "location": {
            "lat": 30.908153,
            "lng": 113.105118
        },
        "ad_info": {
            "adcode": 420882,
            "province": "湖北省",
            "city": "荆门市",
            "district": "京山市"
        }
    },
    {
        "id": "1230604665159785713",
        "title": "公共厕所",
        "address": "湖北省荆门市掇刀区丰安路与普宁路交叉口西180米",
        "tel": "",
        "category": "基础设施:公共设施:公共厕所",
        "type": 0,
        "location": {
            "lat": 30.91576,
            "lng": 112.1826
        },
        "ad_info": {
            "adcode": 420804,
            "province": "湖北省",
            "city": "荆门市",
            "district": "掇刀区"
        }
    },
    {
        "id": "1933194065851552016",
        "title": "公共厕所",
        "address": "湖北省荆门市钟祥市石城公园对面",
        "tel": "",
        "category": "基础设施:公共设施:公共厕所",
        "type": 0,
        "location": {
            "lat": 31.174922,
            "lng": 112.601758
        },
        "ad_info": {
            "adcode": 420881,
            "province": "湖北省",
            "city": "荆门市",
            "district": "钟祥市"
        }
    },
    {
        "id": "3658704023918320849",
        "title": "公共厕所",
        "address": "湖北省荆门市东宝区苏台新村西北侧70米",
        "tel": "",
        "category": "基础设施:公共设施:公共厕所",
        "type": 0,
        "location": {
            "lat": 31.052177,
            "lng": 112.232409
        },
        "ad_info": {
            "adcode": 420802,
            "province": "湖北省",
            "city": "荆门市",
            "district": "东宝区"
        }
    },
    {
        "id": "11923277914820799568",
        "title": "公共厕所",
        "address": "湖北省荆门市京山市京山印象(鸭山路店)东北侧100米",
        "tel": "",
        "category": "基础设施:公共设施:公共厕所",
        "type": 0,
        "location": {
            "lat": 31.00561,
            "lng": 113.110504
        },
        "ad_info": {
            "adcode": 420882,
            "province": "湖北省",
            "city": "荆门市",
            "district": "京山市"
        }
    },
    {
        "id": "10157025122656196378",
        "title": "男洗手间",
        "address": "湖北省荆门市钟祥市石城中路5号金都国际广场A区F3",
        "tel": "",
        "category": "基础设施:公共设施:男洗手间",
        "type": 0,
        "location": {
            "lat": 31.168104,
            "lng": 112.586733
        },
        "ad_info": {
            "adcode": 420881,
            "province": "湖北省",
            "city": "荆门市",
            "district": "钟祥市"
        }
    },
    {
        "id": "16503688602499709435",
        "title": "公共厕所",
        "address": "湖北省荆门市钟祥市石牌镇余秀华旧居",
        "tel": "",
        "category": "基础设施:公共设施:公共厕所",
        "type": 0,
        "location": {
            "lat": 30.995424,
            "lng": 112.364448
        },
        "ad_info": {
            "adcode": 420881,
            "province": "湖北省",
            "city": "荆门市",
            "district": "钟祥市"
        }
    },
    {
        "id": "131637358166166005",
        "title": "纪山停车区公共厕所",
        "address": "湖北省荆门市沙洋县纪山停车区",
        "tel": "",
        "category": "基础设施:公共设施:公共厕所",
        "type": 0,
        "location": {
            "lat": 30.549971,
            "lng": 112.210646
        },
        "ad_info": {
            "adcode": 420822,
            "province": "湖北省",
            "city": "荆门市",
            "district": "沙洋县"
        }
    },
    {
        "id": "3859126469494602734",
        "title": "二广高速G55钟祥停车区公共厕所",
        "address": "湖北省荆门市钟祥市G55钟祥服务区东30米",
        "tel": "",
        "category": "基础设施:公共设施:公共厕所",
        "type": 0,
        "location": {
            "lat": 31.35914,
            "lng": 112.354385
        },
        "ad_info": {
            "adcode": 420881,
            "province": "湖北省",
            "city": "荆门市",
            "district": "钟祥市"
        }
    },
    {
        "id": "9030253283682895246",
        "title": "公共厕所",
        "address": "湖北省荆门市京山市兰德石油加油站北侧140米",
        "tel": "",
        "category": "基础设施:公共设施:公共厕所",
        "type": 0,
        "location": {
            "lat": 31.19988,
            "lng": 113.282406
        },
        "ad_info": {
            "adcode": 420882,
            "province": "湖北省",
            "city": "荆门市",
            "district": "京山市"
        }
    },
    {
        "id": "11450954071860271999",
        "title": "公共厕所",
        "address": "湖北省荆门市东宝区皮防巷与象山二路交叉口东南方向111米左右",
        "tel": "",
        "category": "基础设施:公共设施:公共厕所",
        "type": 0,
        "location": {
            "lat": 31.041927,
            "lng": 112.20456
        },
        "ad_info": {
            "adcode": 420802,
            "province": "湖北省",
            "city": "荆门市",
            "district": "东宝区"
        }
    },
    {
        "id": "260448587701994327",
        "title": "九里服务区公共厕所",
        "address": "湖北省荆门市钟祥市S53枣石高速与九里服务区交叉口西北480米",
        "tel": "",
        "category": "基础设施:公共设施:公共厕所",
        "type": 0,
        "location": {
            "lat": 31.149093,
            "lng": 112.669957
        },
        "ad_info": {
            "adcode": 420881,
            "province": "湖北省",
            "city": "荆门市",
            "district": "钟祥市"
        }
    },
    {
        "id": "10579554020773191768",
        "title": "公共厕所",
        "address": "湖北省荆门市沙洋县G207与砖桥中桥交叉口正北方向367米左右",
        "tel": "",
        "category": "基础设施:公共设施:公共厕所",
        "type": 0,
        "location": {
            "lat": 30.478155,
            "lng": 112.197987
        },
        "ad_info": {
            "adcode": 420822,
            "province": "湖北省",
            "city": "荆门市",
            "district": "沙洋县"
        }
    },
    {
        "id": "1977866245551022649",
        "title": "大桥公共厕所",
        "address": "湖北省荆门市京山市小中路与沿河北路交叉口正西方向19米左右",
        "tel": "",
        "category": "基础设施:公共设施:公共厕所",
        "type": 0,
        "location": {
            "lat": 31.01694,
            "lng": 113.113062
        },
        "ad_info": {
            "adcode": 420882,
            "province": "湖北省",
            "city": "荆门市",
            "district": "京山市"
        }
    },
    {
        "id": "12636701463576305204",
        "title": "公共厕所",
        "address": "湖北省荆门市掇刀区月亮湾桥头",
        "tel": "",
        "category": "基础设施:公共设施:公共厕所",
        "type": 0,
        "location": {
            "lat": 31.035136,
            "lng": 112.217192
        },
        "ad_info": {
            "adcode": 420804,
            "province": "湖北省",
            "city": "荆门市",
            "district": "掇刀区"
        }
    },
    {
        "id": "2541511437548988410",
        "title": "公共厕所",
        "address": "湖北省荆门市钟祥市G234与一五二桥交叉口正东方向175米左右",
        "tel": "",
        "category": "基础设施:公共设施:公共厕所",
        "type": 0,
        "location": {
            "lat": 31.025432,
            "lng": 112.619351
        },
        "ad_info": {
            "adcode": 420881,
            "province": "湖北省",
            "city": "荆门市",
            "district": "钟祥市"
        }
    },
    {
        "id": "3164605965388084247",
        "title": "九里服务区公共厕所",
        "address": "湖北省荆门市钟祥市S53枣石高速与九里服务区交叉口北440米",
        "tel": "",
        "category": "基础设施:公共设施:公共厕所",
        "type": 0,
        "location": {
            "lat": 31.149437,
            "lng": 112.672483
        },
        "ad_info": {
            "adcode": 420881,
            "province": "湖北省",
            "city": "荆门市",
            "district": "钟祥市"
        }
    },
    {
        "id": "9406987397309454486",
        "title": "公共厕所",
        "address": "湖北省荆门市掇刀区培公大道与深圳大道交叉口正东方向366米左右",
        "tel": "",
        "category": "基础设施:公共设施:公共厕所",
        "type": 0,
        "location": {
            "lat": 30.977921,
            "lng": 112.218444
        },
        "ad_info": {
            "adcode": 420804,
            "province": "湖北省",
            "city": "荆门市",
            "district": "掇刀区"
        }
    },
    {
        "id": "4147592415645397467",
        "title": "公共厕所",
        "address": "湖北省荆门市东宝区玉帝巷与金龙泉大道交叉口正北方向479米左右",
        "tel": "",
        "category": "基础设施:公共设施:公共厕所",
        "type": 0,
        "location": {
            "lat": 31.067918,
            "lng": 112.207929
        },
        "ad_info": {
            "adcode": 420802,
            "province": "湖北省",
            "city": "荆门市",
            "district": "东宝区"
        }
    },
    {
        "id": "11352469074798047530",
        "title": "洗手间",
        "address": "湖北省荆门市钟祥市石城中路5号金都国际广场A区F1",
        "tel": "",
        "category": "基础设施:公共设施:公共厕所",
        "type": 0,
        "location": {
            "lat": 31.168036,
            "lng": 112.586672
        },
        "ad_info": {
            "adcode": 420881,
            "province": "湖北省",
            "city": "荆门市",
            "district": "钟祥市"
        }
    },
    {
        "id": "1185052541128055839",
        "title": "公共厕所",
        "address": "湖北省荆门市钟祥市石城公园旅游厕所",
        "tel": "",
        "category": "基础设施:公共设施:公共厕所",
        "type": 0,
        "location": {
            "lat": 31.172058,
            "lng": 112.601408
        },
        "ad_info": {
            "adcode": 420881,
            "province": "湖北省",
            "city": "荆门市",
            "district": "钟祥市"
        }
    },
    {
        "id": "12927654583646163334",
        "title": "公共厕所",
        "address": "湖北省荆门市钟祥市楚贤路与襄汉路交叉口东南方向58米左右",
        "tel": "",
        "category": "基础设施:公共设施:公共厕所",
        "type": 0,
        "location": {
            "lat": 31.157581,
            "lng": 112.578858
        },
        "ad_info": {
            "adcode": 420881,
            "province": "湖北省",
            "city": "荆门市",
            "district": "钟祥市"
        }
    },
    {
        "id": "4981637713947241527",
        "title": "女洗手间",
        "address": "湖北省荆门市钟祥市石城中路5号金都国际广场A区F2",
        "tel": "",
        "category": "基础设施:公共设施:女洗手间",
        "type": 0,
        "location": {
            "lat": 31.168079,
            "lng": 112.586777
        },
        "ad_info": {
            "adcode": 420881,
            "province": "湖北省",
            "city": "荆门市",
            "district": "钟祥市"
        }
    },
    {
        "id": "3658704023918320849",
        "title": "公共厕所",
        "address": "湖北省荆门市东宝区苏台新村西北侧70米",
        "tel": "",
        "category": "基础设施:公共设施:公共厕所",
        "type": 0,
        "location": {
            "lat": 31.052177,
            "lng": 112.232409
        },
        "ad_info": {
            "adcode": 420802,
            "province": "湖北省",
            "city": "荆门市",
            "district": "东宝区"
        }
    },
    {
        "id": "11923277914820799568",
        "title": "公共厕所",
        "address": "湖北省荆门市京山市京山印象(鸭山路店)东北侧100米",
        "tel": "",
        "category": "基础设施:公共设施:公共厕所",
        "type": 0,
        "location": {
            "lat": 31.00561,
            "lng": 113.110504
        },
        "ad_info": {
            "adcode": 420882,
            "province": "湖北省",
            "city": "荆门市",
            "district": "京山市"
        }
    },
    {
        "id": "10157025122656196378",
        "title": "男洗手间",
        "address": "湖北省荆门市钟祥市石城中路5号金都国际广场A区F3",
        "tel": "",
        "category": "基础设施:公共设施:男洗手间",
        "type": 0,
        "location": {
            "lat": 31.168104,
            "lng": 112.586733
        },
        "ad_info": {
            "adcode": 420881,
            "province": "湖北省",
            "city": "荆门市",
            "district": "钟祥市"
        }
    },
    {
        "id": "16503688602499709435",
        "title": "公共厕所",
        "address": "湖北省荆门市钟祥市石牌镇余秀华旧居",
        "tel": "",
        "category": "基础设施:公共设施:公共厕所",
        "type": 0,
        "location": {
            "lat": 30.995424,
            "lng": 112.364448
        },
        "ad_info": {
            "adcode": 420881,
            "province": "湖北省",
            "city": "荆门市",
            "district": "钟祥市"
        }
    },
    {
        "id": "131637358166166005",
        "title": "纪山停车区公共厕所",
        "address": "湖北省荆门市沙洋县纪山停车区",
        "tel": "",
        "category": "基础设施:公共设施:公共厕所",
        "type": 0,
        "location": {
            "lat": 30.549971,
            "lng": 112.210646
        },
        "ad_info": {
            "adcode": 420822,
            "province": "湖北省",
            "city": "荆门市",
            "district": "沙洋县"
        }
    },
    {
        "id": "3859126469494602734",
        "title": "二广高速G55钟祥停车区公共厕所",
        "address": "湖北省荆门市钟祥市G55钟祥服务区东30米",
        "tel": "",
        "category": "基础设施:公共设施:公共厕所",
        "type": 0,
        "location": {
            "lat": 31.35914,
            "lng": 112.354385
        },
        "ad_info": {
            "adcode": 420881,
            "province": "湖北省",
            "city": "荆门市",
            "district": "钟祥市"
        }
    },
    {
        "id": "9030253283682895246",
        "title": "公共厕所",
        "address": "湖北省荆门市京山市兰德石油加油站北侧140米",
        "tel": "",
        "category": "基础设施:公共设施:公共厕所",
        "type": 0,
        "location": {
            "lat": 31.19988,
            "lng": 113.282406
        },
        "ad_info": {
            "adcode": 420882,
            "province": "湖北省",
            "city": "荆门市",
            "district": "京山市"
        }
    },
    {
        "id": "11450954071860271999",
        "title": "公共厕所",
        "address": "湖北省荆门市东宝区皮防巷与象山二路交叉口东南方向111米左右",
        "tel": "",
        "category": "基础设施:公共设施:公共厕所",
        "type": 0,
        "location": {
            "lat": 31.041927,
            "lng": 112.20456
        },
        "ad_info": {
            "adcode": 420802,
            "province": "湖北省",
            "city": "荆门市",
            "district": "东宝区"
        }
    },
    {
        "id": "260448587701994327",
        "title": "九里服务区公共厕所",
        "address": "湖北省荆门市钟祥市S53枣石高速与九里服务区交叉口西北480米",
        "tel": "",
        "category": "基础设施:公共设施:公共厕所",
        "type": 0,
        "location": {
            "lat": 31.149093,
            "lng": 112.669957
        },
        "ad_info": {
            "adcode": 420881,
            "province": "湖北省",
            "city": "荆门市",
            "district": "钟祥市"
        }
    },
    {
        "id": "10579554020773191768",
        "title": "公共厕所",
        "address": "湖北省荆门市沙洋县G207与砖桥中桥交叉口正北方向367米左右",
        "tel": "",
        "category": "基础设施:公共设施:公共厕所",
        "type": 0,
        "location": {
            "lat": 30.478155,
            "lng": 112.197987
        },
        "ad_info": {
            "adcode": 420822,
            "province": "湖北省",
            "city": "荆门市",
            "district": "沙洋县"
        }
    },
    {
        "id": "1977866245551022649",
        "title": "大桥公共厕所",
        "address": "湖北省荆门市京山市小中路与沿河北路交叉口正西方向19米左右",
        "tel": "",
        "category": "基础设施:公共设施:公共厕所",
        "type": 0,
        "location": {
            "lat": 31.01694,
            "lng": 113.113062
        },
        "ad_info": {
            "adcode": 420882,
            "province": "湖北省",
            "city": "荆门市",
            "district": "京山市"
        }
    },
    {
        "id": "12636701463576305204",
        "title": "公共厕所",
        "address": "湖北省荆门市掇刀区月亮湾桥头",
        "tel": "",
        "category": "基础设施:公共设施:公共厕所",
        "type": 0,
        "location": {
            "lat": 31.035136,
            "lng": 112.217192
        },
        "ad_info": {
            "adcode": 420804,
            "province": "湖北省",
            "city": "荆门市",
            "district": "掇刀区"
        }
    },
    {
        "id": "2541511437548988410",
        "title": "公共厕所",
        "address": "湖北省荆门市钟祥市G234与一五二桥交叉口正东方向175米左右",
        "tel": "",
        "category": "基础设施:公共设施:公共厕所",
        "type": 0,
        "location": {
            "lat": 31.025432,
            "lng": 112.619351
        },
        "ad_info": {
            "adcode": 420881,
            "province": "湖北省",
            "city": "荆门市",
            "district": "钟祥市"
        }
    },
    {
        "id": "3164605965388084247",
        "title": "九里服务区公共厕所",
        "address": "湖北省荆门市钟祥市S53枣石高速与九里服务区交叉口北440米",
        "tel": "",
        "category": "基础设施:公共设施:公共厕所",
        "type": 0,
        "location": {
            "lat": 31.149437,
            "lng": 112.672483
        },
        "ad_info": {
            "adcode": 420881,
            "province": "湖北省",
            "city": "荆门市",
            "district": "钟祥市"
        }
    },
    {
        "id": "9406987397309454486",
        "title": "公共厕所",
        "address": "湖北省荆门市掇刀区培公大道与深圳大道交叉口正东方向366米左右",
        "tel": "",
        "category": "基础设施:公共设施:公共厕所",
        "type": 0,
        "location": {
            "lat": 30.977921,
            "lng": 112.218444
        },
        "ad_info": {
            "adcode": 420804,
            "province": "湖北省",
            "city": "荆门市",
            "district": "掇刀区"
        }
    },
    {
        "id": "4147592415645397467",
        "title": "公共厕所",
        "address": "湖北省荆门市东宝区玉帝巷与金龙泉大道交叉口正北方向479米左右",
        "tel": "",
        "category": "基础设施:公共设施:公共厕所",
        "type": 0,
        "location": {
            "lat": 31.067918,
            "lng": 112.207929
        },
        "ad_info": {
            "adcode": 420802,
            "province": "湖北省",
            "city": "荆门市",
            "district": "东宝区"
        }
    },
    {
        "id": "11352469074798047530",
        "title": "洗手间",
        "address": "湖北省荆门市钟祥市石城中路5号金都国际广场A区F1",
        "tel": "",
        "category": "基础设施:公共设施:公共厕所",
        "type": 0,
        "location": {
            "lat": 31.168036,
            "lng": 112.586672
        },
        "ad_info": {
            "adcode": 420881,
            "province": "湖北省",
            "city": "荆门市",
            "district": "钟祥市"
        }
    },
    {
        "id": "1185052541128055839",
        "title": "公共厕所",
        "address": "湖北省荆门市钟祥市石城公园旅游厕所",
        "tel": "",
        "category": "基础设施:公共设施:公共厕所",
        "type": 0,
        "location": {
            "lat": 31.172058,
            "lng": 112.601408
        },
        "ad_info": {
            "adcode": 420881,
            "province": "湖北省",
            "city": "荆门市",
            "district": "钟祥市"
        }
    },
    {
        "id": "12927654583646163334",
        "title": "公共厕所",
        "address": "湖北省荆门市钟祥市楚贤路与襄汉路交叉口东南方向58米左右",
        "tel": "",
        "category": "基础设施:公共设施:公共厕所",
        "type": 0,
        "location": {
            "lat": 31.157581,
            "lng": 112.578858
        },
        "ad_info": {
            "adcode": 420881,
            "province": "湖北省",
            "city": "荆门市",
            "district": "钟祥市"
        }
    },
    {
        "id": "4981637713947241527",
        "title": "女洗手间",
        "address": "湖北省荆门市钟祥市石城中路5号金都国际广场A区F2",
        "tel": "",
        "category": "基础设施:公共设施:女洗手间",
        "type": 0,
        "location": {
            "lat": 31.168079,
            "lng": 112.586777
        },
        "ad_info": {
            "adcode": 420881,
            "province": "湖北省",
            "city": "荆门市",
            "district": "钟祥市"
        }
    },
    {
        "id": "3658704023918320849",
        "title": "公共厕所",
        "address": "湖北省荆门市东宝区苏台新村西北侧70米",
        "tel": "",
        "category": "基础设施:公共设施:公共厕所",
        "type": 0,
        "location": {
            "lat": 31.052177,
            "lng": 112.232409
        },
        "ad_info": {
            "adcode": 420802,
            "province": "湖北省",
            "city": "荆门市",
            "district": "东宝区"
        }
    },
    {
        "id": "11923277914820799568",
        "title": "公共厕所",
        "address": "湖北省荆门市京山市京山印象(鸭山路店)东北侧100米",
        "tel": "",
        "category": "基础设施:公共设施:公共厕所",
        "type": 0,
        "location": {
            "lat": 31.00561,
            "lng": 113.110504
        },
        "ad_info": {
            "adcode": 420882,
            "province": "湖北省",
            "city": "荆门市",
            "district": "京山市"
        }
    },
    {
        "id": "10157025122656196378",
        "title": "男洗手间",
        "address": "湖北省荆门市钟祥市石城中路5号金都国际广场A区F3",
        "tel": "",
        "category": "基础设施:公共设施:男洗手间",
        "type": 0,
        "location": {
            "lat": 31.168104,
            "lng": 112.586733
        },
        "ad_info": {
            "adcode": 420881,
            "province": "湖北省",
            "city": "荆门市",
            "district": "钟祥市"
        }
    },
    {
        "id": "16503688602499709435",
        "title": "公共厕所",
        "address": "湖北省荆门市钟祥市石牌镇余秀华旧居",
        "tel": "",
        "category": "基础设施:公共设施:公共厕所",
        "type": 0,
        "location": {
            "lat": 30.995424,
            "lng": 112.364448
        },
        "ad_info": {
            "adcode": 420881,
            "province": "湖北省",
            "city": "荆门市",
            "district": "钟祥市"
        }
    },
    {
        "id": "131637358166166005",
        "title": "纪山停车区公共厕所",
        "address": "湖北省荆门市沙洋县纪山停车区",
        "tel": "",
        "category": "基础设施:公共设施:公共厕所",
        "type": 0,
        "location": {
            "lat": 30.549971,
            "lng": 112.210646
        },
        "ad_info": {
            "adcode": 420822,
            "province": "湖北省",
            "city": "荆门市",
            "district": "沙洋县"
        }
    },
    {
        "id": "3859126469494602734",
        "title": "二广高速G55钟祥停车区公共厕所",
        "address": "湖北省荆门市钟祥市G55钟祥服务区东30米",
        "tel": "",
        "category": "基础设施:公共设施:公共厕所",
        "type": 0,
        "location": {
            "lat": 31.35914,
            "lng": 112.354385
        },
        "ad_info": {
            "adcode": 420881,
            "province": "湖北省",
            "city": "荆门市",
            "district": "钟祥市"
        }
    },
    {
        "id": "9030253283682895246",
        "title": "公共厕所",
        "address": "湖北省荆门市京山市兰德石油加油站北侧140米",
        "tel": "",
        "category": "基础设施:公共设施:公共厕所",
        "type": 0,
        "location": {
            "lat": 31.19988,
            "lng": 113.282406
        },
        "ad_info": {
            "adcode": 420882,
            "province": "湖北省",
            "city": "荆门市",
            "district": "京山市"
        }
    },
    {
        "id": "11450954071860271999",
        "title": "公共厕所",
        "address": "湖北省荆门市东宝区皮防巷与象山二路交叉口东南方向111米左右",
        "tel": "",
        "category": "基础设施:公共设施:公共厕所",
        "type": 0,
        "location": {
            "lat": 31.041927,
            "lng": 112.20456
        },
        "ad_info": {
            "adcode": 420802,
            "province": "湖北省",
            "city": "荆门市",
            "district": "东宝区"
        }
    },
    {
        "id": "260448587701994327",
        "title": "九里服务区公共厕所",
        "address": "湖北省荆门市钟祥市S53枣石高速与九里服务区交叉口西北480米",
        "tel": "",
        "category": "基础设施:公共设施:公共厕所",
        "type": 0,
        "location": {
            "lat": 31.149093,
            "lng": 112.669957
        },
        "ad_info": {
            "adcode": 420881,
            "province": "湖北省",
            "city": "荆门市",
            "district": "钟祥市"
        }
    },
    {
        "id": "10579554020773191768",
        "title": "公共厕所",
        "address": "湖北省荆门市沙洋县G207与砖桥中桥交叉口正北方向367米左右",
        "tel": "",
        "category": "基础设施:公共设施:公共厕所",
        "type": 0,
        "location": {
            "lat": 30.478155,
            "lng": 112.197987
        },
        "ad_info": {
            "adcode": 420822,
            "province": "湖北省",
            "city": "荆门市",
            "district": "沙洋县"
        }
    },
    {
        "id": "1977866245551022649",
        "title": "大桥公共厕所",
        "address": "湖北省荆门市京山市小中路与沿河北路交叉口正西方向19米左右",
        "tel": "",
        "category": "基础设施:公共设施:公共厕所",
        "type": 0,
        "location": {
            "lat": 31.01694,
            "lng": 113.113062
        },
        "ad_info": {
            "adcode": 420882,
            "province": "湖北省",
            "city": "荆门市",
            "district": "京山市"
        }
    },
    {
        "id": "12636701463576305204",
        "title": "公共厕所",
        "address": "湖北省荆门市掇刀区月亮湾桥头",
        "tel": "",
        "category": "基础设施:公共设施:公共厕所",
        "type": 0,
        "location": {
            "lat": 31.035136,
            "lng": 112.217192
        },
        "ad_info": {
            "adcode": 420804,
            "province": "湖北省",
            "city": "荆门市",
            "district": "掇刀区"
        }
    },
    {
        "id": "2541511437548988410",
        "title": "公共厕所",
        "address": "湖北省荆门市钟祥市G234与一五二桥交叉口正东方向175米左右",
        "tel": "",
        "category": "基础设施:公共设施:公共厕所",
        "type": 0,
        "location": {
            "lat": 31.025432,
            "lng": 112.619351
        },
        "ad_info": {
            "adcode": 420881,
            "province": "湖北省",
            "city": "荆门市",
            "district": "钟祥市"
        }
    },
    {
        "id": "3164605965388084247",
        "title": "九里服务区公共厕所",
        "address": "湖北省荆门市钟祥市S53枣石高速与九里服务区交叉口北440米",
        "tel": "",
        "category": "基础设施:公共设施:公共厕所",
        "type": 0,
        "location": {
            "lat": 31.149437,
            "lng": 112.672483
        },
        "ad_info": {
            "adcode": 420881,
            "province": "湖北省",
            "city": "荆门市",
            "district": "钟祥市"
        }
    },
    {
        "id": "9406987397309454486",
        "title": "公共厕所",
        "address": "湖北省荆门市掇刀区培公大道与深圳大道交叉口正东方向366米左右",
        "tel": "",
        "category": "基础设施:公共设施:公共厕所",
        "type": 0,
        "location": {
            "lat": 30.977921,
            "lng": 112.218444
        },
        "ad_info": {
            "adcode": 420804,
            "province": "湖北省",
            "city": "荆门市",
            "district": "掇刀区"
        }
    },
    {
        "id": "4147592415645397467",
        "title": "公共厕所",
        "address": "湖北省荆门市东宝区玉帝巷与金龙泉大道交叉口正北方向479米左右",
        "tel": "",
        "category": "基础设施:公共设施:公共厕所",
        "type": 0,
        "location": {
            "lat": 31.067918,
            "lng": 112.207929
        },
        "ad_info": {
            "adcode": 420802,
            "province": "湖北省",
            "city": "荆门市",
            "district": "东宝区"
        }
    },
    {
        "id": "11352469074798047530",
        "title": "洗手间",
        "address": "湖北省荆门市钟祥市石城中路5号金都国际广场A区F1",
        "tel": "",
        "category": "基础设施:公共设施:公共厕所",
        "type": 0,
        "location": {
            "lat": 31.168036,
            "lng": 112.586672
        },
        "ad_info": {
            "adcode": 420881,
            "province": "湖北省",
            "city": "荆门市",
            "district": "钟祥市"
        }
    },
    {
        "id": "1185052541128055839",
        "title": "公共厕所",
        "address": "湖北省荆门市钟祥市石城公园旅游厕所",
        "tel": "",
        "category": "基础设施:公共设施:公共厕所",
        "type": 0,
        "location": {
            "lat": 31.172058,
            "lng": 112.601408
        },
        "ad_info": {
            "adcode": 420881,
            "province": "湖北省",
            "city": "荆门市",
            "district": "钟祥市"
        }
    },
    {
        "id": "12927654583646163334",
        "title": "公共厕所",
        "address": "湖北省荆门市钟祥市楚贤路与襄汉路交叉口东南方向58米左右",
        "tel": "",
        "category": "基础设施:公共设施:公共厕所",
        "type": 0,
        "location": {
            "lat": 31.157581,
            "lng": 112.578858
        },
        "ad_info": {
            "adcode": 420881,
            "province": "湖北省",
            "city": "荆门市",
            "district": "钟祥市"
        }
    },
    {
        "id": "4981637713947241527",
        "title": "女洗手间",
        "address": "湖北省荆门市钟祥市石城中路5号金都国际广场A区F2",
        "tel": "",
        "category": "基础设施:公共设施:女洗手间",
        "type": 0,
        "location": {
            "lat": 31.168079,
            "lng": 112.586777
        },
        "ad_info": {
            "adcode": 420881,
            "province": "湖北省",
            "city": "荆门市",
            "district": "钟祥市"
        }
    },
    {
        "id": "3658704023918320849",
        "title": "公共厕所",
        "address": "湖北省荆门市东宝区苏台新村西北侧70米",
        "tel": "",
        "category": "基础设施:公共设施:公共厕所",
        "type": 0,
        "location": {
            "lat": 31.052177,
            "lng": 112.232409
        },
        "ad_info": {
            "adcode": 420802,
            "province": "湖北省",
            "city": "荆门市",
            "district": "东宝区"
        }
    },
    {
        "id": "11923277914820799568",
        "title": "公共厕所",
        "address": "湖北省荆门市京山市京山印象(鸭山路店)东北侧100米",
        "tel": "",
        "category": "基础设施:公共设施:公共厕所",
        "type": 0,
        "location": {
            "lat": 31.00561,
            "lng": 113.110504
        },
        "ad_info": {
            "adcode": 420882,
            "province": "湖北省",
            "city": "荆门市",
            "district": "京山市"
        }
    },
    {
        "id": "10157025122656196378",
        "title": "男洗手间",
        "address": "湖北省荆门市钟祥市石城中路5号金都国际广场A区F3",
        "tel": "",
        "category": "基础设施:公共设施:男洗手间",
        "type": 0,
        "location": {
            "lat": 31.168104,
            "lng": 112.586733
        },
        "ad_info": {
            "adcode": 420881,
            "province": "湖北省",
            "city": "荆门市",
            "district": "钟祥市"
        }
    },
    {
        "id": "16503688602499709435",
        "title": "公共厕所",
        "address": "湖北省荆门市钟祥市石牌镇余秀华旧居",
        "tel": "",
        "category": "基础设施:公共设施:公共厕所",
        "type": 0,
        "location": {
            "lat": 30.995424,
            "lng": 112.364448
        },
        "ad_info": {
            "adcode": 420881,
            "province": "湖北省",
            "city": "荆门市",
            "district": "钟祥市"
        }
    },
    {
        "id": "131637358166166005",
        "title": "纪山停车区公共厕所",
        "address": "湖北省荆门市沙洋县纪山停车区",
        "tel": "",
        "category": "基础设施:公共设施:公共厕所",
        "type": 0,
        "location": {
            "lat": 30.549971,
            "lng": 112.210646
        },
        "ad_info": {
            "adcode": 420822,
            "province": "湖北省",
            "city": "荆门市",
            "district": "沙洋县"
        }
    },
    {
        "id": "3859126469494602734",
        "title": "二广高速G55钟祥停车区公共厕所",
        "address": "湖北省荆门市钟祥市G55钟祥服务区东30米",
        "tel": "",
        "category": "基础设施:公共设施:公共厕所",
        "type": 0,
        "location": {
            "lat": 31.35914,
            "lng": 112.354385
        },
        "ad_info": {
            "adcode": 420881,
            "province": "湖北省",
            "city": "荆门市",
            "district": "钟祥市"
        }
    },
    {
        "id": "9030253283682895246",
        "title": "公共厕所",
        "address": "湖北省荆门市京山市兰德石油加油站北侧140米",
        "tel": "",
        "category": "基础设施:公共设施:公共厕所",
        "type": 0,
        "location": {
            "lat": 31.19988,
            "lng": 113.282406
        },
        "ad_info": {
            "adcode": 420882,
            "province": "湖北省",
            "city": "荆门市",
            "district": "京山市"
        }
    },
    {
        "id": "11450954071860271999",
        "title": "公共厕所",
        "address": "湖北省荆门市东宝区皮防巷与象山二路交叉口东南方向111米左右",
        "tel": "",
        "category": "基础设施:公共设施:公共厕所",
        "type": 0,
        "location": {
            "lat": 31.041927,
            "lng": 112.20456
        },
        "ad_info": {
            "adcode": 420802,
            "province": "湖北省",
            "city": "荆门市",
            "district": "东宝区"
        }
    },
    {
        "id": "260448587701994327",
        "title": "九里服务区公共厕所",
        "address": "湖北省荆门市钟祥市S53枣石高速与九里服务区交叉口西北480米",
        "tel": "",
        "category": "基础设施:公共设施:公共厕所",
        "type": 0,
        "location": {
            "lat": 31.149093,
            "lng": 112.669957
        },
        "ad_info": {
            "adcode": 420881,
            "province": "湖北省",
            "city": "荆门市",
            "district": "钟祥市"
        }
    },
    {
        "id": "10579554020773191768",
        "title": "公共厕所",
        "address": "湖北省荆门市沙洋县G207与砖桥中桥交叉口正北方向367米左右",
        "tel": "",
        "category": "基础设施:公共设施:公共厕所",
        "type": 0,
        "location": {
            "lat": 30.478155,
            "lng": 112.197987
        },
        "ad_info": {
            "adcode": 420822,
            "province": "湖北省",
            "city": "荆门市",
            "district": "沙洋县"
        }
    },
    {
        "id": "1977866245551022649",
        "title": "大桥公共厕所",
        "address": "湖北省荆门市京山市小中路与沿河北路交叉口正西方向19米左右",
        "tel": "",
        "category": "基础设施:公共设施:公共厕所",
        "type": 0,
        "location": {
            "lat": 31.01694,
            "lng": 113.113062
        },
        "ad_info": {
            "adcode": 420882,
            "province": "湖北省",
            "city": "荆门市",
            "district": "京山市"
        }
    },
    {
        "id": "12636701463576305204",
        "title": "公共厕所",
        "address": "湖北省荆门市掇刀区月亮湾桥头",
        "tel": "",
        "category": "基础设施:公共设施:公共厕所",
        "type": 0,
        "location": {
            "lat": 31.035136,
            "lng": 112.217192
        },
        "ad_info": {
            "adcode": 420804,
            "province": "湖北省",
            "city": "荆门市",
            "district": "掇刀区"
        }
    },
    {
        "id": "2541511437548988410",
        "title": "公共厕所",
        "address": "湖北省荆门市钟祥市G234与一五二桥交叉口正东方向175米左右",
        "tel": "",
        "category": "基础设施:公共设施:公共厕所",
        "type": 0,
        "location": {
            "lat": 31.025432,
            "lng": 112.619351
        },
        "ad_info": {
            "adcode": 420881,
            "province": "湖北省",
            "city": "荆门市",
            "district": "钟祥市"
        }
    },
    {
        "id": "3164605965388084247",
        "title": "九里服务区公共厕所",
        "address": "湖北省荆门市钟祥市S53枣石高速与九里服务区交叉口北440米",
        "tel": "",
        "category": "基础设施:公共设施:公共厕所",
        "type": 0,
        "location": {
            "lat": 31.149437,
            "lng": 112.672483
        },
        "ad_info": {
            "adcode": 420881,
            "province": "湖北省",
            "city": "荆门市",
            "district": "钟祥市"
        }
    },
    {
        "id": "9406987397309454486",
        "title": "公共厕所",
        "address": "湖北省荆门市掇刀区培公大道与深圳大道交叉口正东方向366米左右",
        "tel": "",
        "category": "基础设施:公共设施:公共厕所",
        "type": 0,
        "location": {
            "lat": 30.977921,
            "lng": 112.218444
        },
        "ad_info": {
            "adcode": 420804,
            "province": "湖北省",
            "city": "荆门市",
            "district": "掇刀区"
        }
    },
    {
        "id": "4147592415645397467",
        "title": "公共厕所",
        "address": "湖北省荆门市东宝区玉帝巷与金龙泉大道交叉口正北方向479米左右",
        "tel": "",
        "category": "基础设施:公共设施:公共厕所",
        "type": 0,
        "location": {
            "lat": 31.067918,
            "lng": 112.207929
        },
        "ad_info": {
            "adcode": 420802,
            "province": "湖北省",
            "city": "荆门市",
            "district": "东宝区"
        }
    },
    {
        "id": "11352469074798047530",
        "title": "洗手间",
        "address": "湖北省荆门市钟祥市石城中路5号金都国际广场A区F1",
        "tel": "",
        "category": "基础设施:公共设施:公共厕所",
        "type": 0,
        "location": {
            "lat": 31.168036,
            "lng": 112.586672
        },
        "ad_info": {
            "adcode": 420881,
            "province": "湖北省",
            "city": "荆门市",
            "district": "钟祥市"
        }
    },
    {
        "id": "1185052541128055839",
        "title": "公共厕所",
        "address": "湖北省荆门市钟祥市石城公园旅游厕所",
        "tel": "",
        "category": "基础设施:公共设施:公共厕所",
        "type": 0,
        "location": {
            "lat": 31.172058,
            "lng": 112.601408
        },
        "ad_info": {
            "adcode": 420881,
            "province": "湖北省",
            "city": "荆门市",
            "district": "钟祥市"
        }
    },
    {
        "id": "12927654583646163334",
        "title": "公共厕所",
        "address": "湖北省荆门市钟祥市楚贤路与襄汉路交叉口东南方向58米左右",
        "tel": "",
        "category": "基础设施:公共设施:公共厕所",
        "type": 0,
        "location": {
            "lat": 31.157581,
            "lng": 112.578858
        },
        "ad_info": {
            "adcode": 420881,
            "province": "湖北省",
            "city": "荆门市",
            "district": "钟祥市"
        }
    },
    {
        "id": "4981637713947241527",
        "title": "女洗手间",
        "address": "湖北省荆门市钟祥市石城中路5号金都国际广场A区F2",
        "tel": "",
        "category": "基础设施:公共设施:女洗手间",
        "type": 0,
        "location": {
            "lat": 31.168079,
            "lng": 112.586777
        },
        "ad_info": {
            "adcode": 420881,
            "province": "湖北省",
            "city": "荆门市",
            "district": "钟祥市"
        }
    },
    {
        "id": "3658704023918320849",
        "title": "公共厕所",
        "address": "湖北省荆门市东宝区苏台新村西北侧70米",
        "tel": "",
        "category": "基础设施:公共设施:公共厕所",
        "type": 0,
        "location": {
            "lat": 31.052177,
            "lng": 112.232409
        },
        "ad_info": {
            "adcode": 420802,
            "province": "湖北省",
            "city": "荆门市",
            "district": "东宝区"
        }
    },
    {
        "id": "11923277914820799568",
        "title": "公共厕所",
        "address": "湖北省荆门市京山市京山印象(鸭山路店)东北侧100米",
        "tel": "",
        "category": "基础设施:公共设施:公共厕所",
        "type": 0,
        "location": {
            "lat": 31.00561,
            "lng": 113.110504
        },
        "ad_info": {
            "adcode": 420882,
            "province": "湖北省",
            "city": "荆门市",
            "district": "京山市"
        }
    },
    {
        "id": "10157025122656196378",
        "title": "男洗手间",
        "address": "湖北省荆门市钟祥市石城中路5号金都国际广场A区F3",
        "tel": "",
        "category": "基础设施:公共设施:男洗手间",
        "type": 0,
        "location": {
            "lat": 31.168104,
            "lng": 112.586733
        },
        "ad_info": {
            "adcode": 420881,
            "province": "湖北省",
            "city": "荆门市",
            "district": "钟祥市"
        }
    },
    {
        "id": "16503688602499709435",
        "title": "公共厕所",
        "address": "湖北省荆门市钟祥市石牌镇余秀华旧居",
        "tel": "",
        "category": "基础设施:公共设施:公共厕所",
        "type": 0,
        "location": {
            "lat": 30.995424,
            "lng": 112.364448
        },
        "ad_info": {
            "adcode": 420881,
            "province": "湖北省",
            "city": "荆门市",
            "district": "钟祥市"
        }
    },
    {
        "id": "131637358166166005",
        "title": "纪山停车区公共厕所",
        "address": "湖北省荆门市沙洋县纪山停车区",
        "tel": "",
        "category": "基础设施:公共设施:公共厕所",
        "type": 0,
        "location": {
            "lat": 30.549971,
            "lng": 112.210646
        },
        "ad_info": {
            "adcode": 420822,
            "province": "湖北省",
            "city": "荆门市",
            "district": "沙洋县"
        }
    },
    {
        "id": "3859126469494602734",
        "title": "二广高速G55钟祥停车区公共厕所",
        "address": "湖北省荆门市钟祥市G55钟祥服务区东30米",
        "tel": "",
        "category": "基础设施:公共设施:公共厕所",
        "type": 0,
        "location": {
            "lat": 31.35914,
            "lng": 112.354385
        },
        "ad_info": {
            "adcode": 420881,
            "province": "湖北省",
            "city": "荆门市",
            "district": "钟祥市"
        }
    },
    {
        "id": "9030253283682895246",
        "title": "公共厕所",
        "address": "湖北省荆门市京山市兰德石油加油站北侧140米",
        "tel": "",
        "category": "基础设施:公共设施:公共厕所",
        "type": 0,
        "location": {
            "lat": 31.19988,
            "lng": 113.282406
        },
        "ad_info": {
            "adcode": 420882,
            "province": "湖北省",
            "city": "荆门市",
            "district": "京山市"
        }
    },
    {
        "id": "11450954071860271999",
        "title": "公共厕所",
        "address": "湖北省荆门市东宝区皮防巷与象山二路交叉口东南方向111米左右",
        "tel": "",
        "category": "基础设施:公共设施:公共厕所",
        "type": 0,
        "location": {
            "lat": 31.041927,
            "lng": 112.20456
        },
        "ad_info": {
            "adcode": 420802,
            "province": "湖北省",
            "city": "荆门市",
            "district": "东宝区"
        }
    },
    {
        "id": "260448587701994327",
        "title": "九里服务区公共厕所",
        "address": "湖北省荆门市钟祥市S53枣石高速与九里服务区交叉口西北480米",
        "tel": "",
        "category": "基础设施:公共设施:公共厕所",
        "type": 0,
        "location": {
            "lat": 31.149093,
            "lng": 112.669957
        },
        "ad_info": {
            "adcode": 420881,
            "province": "湖北省",
            "city": "荆门市",
            "district": "钟祥市"
        }
    },
    {
        "id": "10579554020773191768",
        "title": "公共厕所",
        "address": "湖北省荆门市沙洋县G207与砖桥中桥交叉口正北方向367米左右",
        "tel": "",
        "category": "基础设施:公共设施:公共厕所",
        "type": 0,
        "location": {
            "lat": 30.478155,
            "lng": 112.197987
        },
        "ad_info": {
            "adcode": 420822,
            "province": "湖北省",
            "city": "荆门市",
            "district": "沙洋县"
        }
    },
    {
        "id": "1977866245551022649",
        "title": "大桥公共厕所",
        "address": "湖北省荆门市京山市小中路与沿河北路交叉口正西方向19米左右",
        "tel": "",
        "category": "基础设施:公共设施:公共厕所",
        "type": 0,
        "location": {
            "lat": 31.01694,
            "lng": 113.113062
        },
        "ad_info": {
            "adcode": 420882,
            "province": "湖北省",
            "city": "荆门市",
            "district": "京山市"
        }
    },
    {
        "id": "12636701463576305204",
        "title": "公共厕所",
        "address": "湖北省荆门市掇刀区月亮湾桥头",
        "tel": "",
        "category": "基础设施:公共设施:公共厕所",
        "type": 0,
        "location": {
            "lat": 31.035136,
            "lng": 112.217192
        },
        "ad_info": {
            "adcode": 420804,
            "province": "湖北省",
            "city": "荆门市",
            "district": "掇刀区"
        }
    },
    {
        "id": "2541511437548988410",
        "title": "公共厕所",
        "address": "湖北省荆门市钟祥市G234与一五二桥交叉口正东方向175米左右",
        "tel": "",
        "category": "基础设施:公共设施:公共厕所",
        "type": 0,
        "location": {
            "lat": 31.025432,
            "lng": 112.619351
        },
        "ad_info": {
            "adcode": 420881,
            "province": "湖北省",
            "city": "荆门市",
            "district": "钟祥市"
        }
    },
    {
        "id": "3164605965388084247",
        "title": "九里服务区公共厕所",
        "address": "湖北省荆门市钟祥市S53枣石高速与九里服务区交叉口北440米",
        "tel": "",
        "category": "基础设施:公共设施:公共厕所",
        "type": 0,
        "location": {
            "lat": 31.149437,
            "lng": 112.672483
        },
        "ad_info": {
            "adcode": 420881,
            "province": "湖北省",
            "city": "荆门市",
            "district": "钟祥市"
        }
    },
    {
        "id": "9406987397309454486",
        "title": "公共厕所",
        "address": "湖北省荆门市掇刀区培公大道与深圳大道交叉口正东方向366米左右",
        "tel": "",
        "category": "基础设施:公共设施:公共厕所",
        "type": 0,
        "location": {
            "lat": 30.977921,
            "lng": 112.218444
        },
        "ad_info": {
            "adcode": 420804,
            "province": "湖北省",
            "city": "荆门市",
            "district": "掇刀区"
        }
    },
    {
        "id": "4147592415645397467",
        "title": "公共厕所",
        "address": "湖北省荆门市东宝区玉帝巷与金龙泉大道交叉口正北方向479米左右",
        "tel": "",
        "category": "基础设施:公共设施:公共厕所",
        "type": 0,
        "location": {
            "lat": 31.067918,
            "lng": 112.207929
        },
        "ad_info": {
            "adcode": 420802,
            "province": "湖北省",
            "city": "荆门市",
            "district": "东宝区"
        }
    },
    {
        "id": "11352469074798047530",
        "title": "洗手间",
        "address": "湖北省荆门市钟祥市石城中路5号金都国际广场A区F1",
        "tel": "",
        "category": "基础设施:公共设施:公共厕所",
        "type": 0,
        "location": {
            "lat": 31.168036,
            "lng": 112.586672
        },
        "ad_info": {
            "adcode": 420881,
            "province": "湖北省",
            "city": "荆门市",
            "district": "钟祥市"
        }
    },
    {
        "id": "1185052541128055839",
        "title": "公共厕所",
        "address": "湖北省荆门市钟祥市石城公园旅游厕所",
        "tel": "",
        "category": "基础设施:公共设施:公共厕所",
        "type": 0,
        "location": {
            "lat": 31.172058,
            "lng": 112.601408
        },
        "ad_info": {
            "adcode": 420881,
            "province": "湖北省",
            "city": "荆门市",
            "district": "钟祥市"
        }
    },
    {
        "id": "12927654583646163334",
        "title": "公共厕所",
        "address": "湖北省荆门市钟祥市楚贤路与襄汉路交叉口东南方向58米左右",
        "tel": "",
        "category": "基础设施:公共设施:公共厕所",
        "type": 0,
        "location": {
            "lat": 31.157581,
            "lng": 112.578858
        },
        "ad_info": {
            "adcode": 420881,
            "province": "湖北省",
            "city": "荆门市",
            "district": "钟祥市"
        }
    },
    {
        "id": "4981637713947241527",
        "title": "女洗手间",
        "address": "湖北省荆门市钟祥市石城中路5号金都国际广场A区F2",
        "tel": "",
        "category": "基础设施:公共设施:女洗手间",
        "type": 0,
        "location": {
            "lat": 31.168079,
            "lng": 112.586777
        },
        "ad_info": {
            "adcode": 420881,
            "province": "湖北省",
            "city": "荆门市",
            "district": "钟祥市"
        }
    },
    {
        "id": "3658704023918320849",
        "title": "公共厕所",
        "address": "湖北省荆门市东宝区苏台新村西北侧70米",
        "tel": "",
        "category": "基础设施:公共设施:公共厕所",
        "type": 0,
        "location": {
            "lat": 31.052177,
            "lng": 112.232409
        },
        "ad_info": {
            "adcode": 420802,
            "province": "湖北省",
            "city": "荆门市",
            "district": "东宝区"
        }
    },
    {
        "id": "11923277914820799568",
        "title": "公共厕所",
        "address": "湖北省荆门市京山市京山印象(鸭山路店)东北侧100米",
        "tel": "",
        "category": "基础设施:公共设施:公共厕所",
        "type": 0,
        "location": {
            "lat": 31.00561,
            "lng": 113.110504
        },
        "ad_info": {
            "adcode": 420882,
            "province": "湖北省",
            "city": "荆门市",
            "district": "京山市"
        }
    },
    {
        "id": "10157025122656196378",
        "title": "男洗手间",
        "address": "湖北省荆门市钟祥市石城中路5号金都国际广场A区F3",
        "tel": "",
        "category": "基础设施:公共设施:男洗手间",
        "type": 0,
        "location": {
            "lat": 31.168104,
            "lng": 112.586733
        },
        "ad_info": {
            "adcode": 420881,
            "province": "湖北省",
            "city": "荆门市",
            "district": "钟祥市"
        }
    },
    {
        "id": "16503688602499709435",
        "title": "公共厕所",
        "address": "湖北省荆门市钟祥市石牌镇余秀华旧居",
        "tel": "",
        "category": "基础设施:公共设施:公共厕所",
        "type": 0,
        "location": {
            "lat": 30.995424,
            "lng": 112.364448
        },
        "ad_info": {
            "adcode": 420881,
            "province": "湖北省",
            "city": "荆门市",
            "district": "钟祥市"
        }
    },
    {
        "id": "131637358166166005",
        "title": "纪山停车区公共厕所",
        "address": "湖北省荆门市沙洋县纪山停车区",
        "tel": "",
        "category": "基础设施:公共设施:公共厕所",
        "type": 0,
        "location": {
            "lat": 30.549971,
            "lng": 112.210646
        },
        "ad_info": {
            "adcode": 420822,
            "province": "湖北省",
            "city": "荆门市",
            "district": "沙洋县"
        }
    },
    {
        "id": "3859126469494602734",
        "title": "二广高速G55钟祥停车区公共厕所",
        "address": "湖北省荆门市钟祥市G55钟祥服务区东30米",
        "tel": "",
        "category": "基础设施:公共设施:公共厕所",
        "type": 0,
        "location": {
            "lat": 31.35914,
            "lng": 112.354385
        },
        "ad_info": {
            "adcode": 420881,
            "province": "湖北省",
            "city": "荆门市",
            "district": "钟祥市"
        }
    },
    {
        "id": "9030253283682895246",
        "title": "公共厕所",
        "address": "湖北省荆门市京山市兰德石油加油站北侧140米",
        "tel": "",
        "category": "基础设施:公共设施:公共厕所",
        "type": 0,
        "location": {
            "lat": 31.19988,
            "lng": 113.282406
        },
        "ad_info": {
            "adcode": 420882,
            "province": "湖北省",
            "city": "荆门市",
            "district": "京山市"
        }
    },
    {
        "id": "11450954071860271999",
        "title": "公共厕所",
        "address": "湖北省荆门市东宝区皮防巷与象山二路交叉口东南方向111米左右",
        "tel": "",
        "category": "基础设施:公共设施:公共厕所",
        "type": 0,
        "location": {
            "lat": 31.041927,
            "lng": 112.20456
        },
        "ad_info": {
            "adcode": 420802,
            "province": "湖北省",
            "city": "荆门市",
            "district": "东宝区"
        }
    },
    {
        "id": "260448587701994327",
        "title": "九里服务区公共厕所",
        "address": "湖北省荆门市钟祥市S53枣石高速与九里服务区交叉口西北480米",
        "tel": "",
        "category": "基础设施:公共设施:公共厕所",
        "type": 0,
        "location": {
            "lat": 31.149093,
            "lng": 112.669957
        },
        "ad_info": {
            "adcode": 420881,
            "province": "湖北省",
            "city": "荆门市",
            "district": "钟祥市"
        }
    },
    {
        "id": "10579554020773191768",
        "title": "公共厕所",
        "address": "湖北省荆门市沙洋县G207与砖桥中桥交叉口正北方向367米左右",
        "tel": "",
        "category": "基础设施:公共设施:公共厕所",
        "type": 0,
        "location": {
            "lat": 30.478155,
            "lng": 112.197987
        },
        "ad_info": {
            "adcode": 420822,
            "province": "湖北省",
            "city": "荆门市",
            "district": "沙洋县"
        }
    },
    {
        "id": "1977866245551022649",
        "title": "大桥公共厕所",
        "address": "湖北省荆门市京山市小中路与沿河北路交叉口正西方向19米左右",
        "tel": "",
        "category": "基础设施:公共设施:公共厕所",
        "type": 0,
        "location": {
            "lat": 31.01694,
            "lng": 113.113062
        },
        "ad_info": {
            "adcode": 420882,
            "province": "湖北省",
            "city": "荆门市",
            "district": "京山市"
        }
    },
    {
        "id": "12636701463576305204",
        "title": "公共厕所",
        "address": "湖北省荆门市掇刀区月亮湾桥头",
        "tel": "",
        "category": "基础设施:公共设施:公共厕所",
        "type": 0,
        "location": {
            "lat": 31.035136,
            "lng": 112.217192
        },
        "ad_info": {
            "adcode": 420804,
            "province": "湖北省",
            "city": "荆门市",
            "district": "掇刀区"
        }
    },
    {
        "id": "2541511437548988410",
        "title": "公共厕所",
        "address": "湖北省荆门市钟祥市G234与一五二桥交叉口正东方向175米左右",
        "tel": "",
        "category": "基础设施:公共设施:公共厕所",
        "type": 0,
        "location": {
            "lat": 31.025432,
            "lng": 112.619351
        },
        "ad_info": {
            "adcode": 420881,
            "province": "湖北省",
            "city": "荆门市",
            "district": "钟祥市"
        }
    },
    {
        "id": "3164605965388084247",
        "title": "九里服务区公共厕所",
        "address": "湖北省荆门市钟祥市S53枣石高速与九里服务区交叉口北440米",
        "tel": "",
        "category": "基础设施:公共设施:公共厕所",
        "type": 0,
        "location": {
            "lat": 31.149437,
            "lng": 112.672483
        },
        "ad_info": {
            "adcode": 420881,
            "province": "湖北省",
            "city": "荆门市",
            "district": "钟祥市"
        }
    },
    {
        "id": "9406987397309454486",
        "title": "公共厕所",
        "address": "湖北省荆门市掇刀区培公大道与深圳大道交叉口正东方向366米左右",
        "tel": "",
        "category": "基础设施:公共设施:公共厕所",
        "type": 0,
        "location": {
            "lat": 30.977921,
            "lng": 112.218444
        },
        "ad_info": {
            "adcode": 420804,
            "province": "湖北省",
            "city": "荆门市",
            "district": "掇刀区"
        }
    },
    {
        "id": "4147592415645397467",
        "title": "公共厕所",
        "address": "湖北省荆门市东宝区玉帝巷与金龙泉大道交叉口正北方向479米左右",
        "tel": "",
        "category": "基础设施:公共设施:公共厕所",
        "type": 0,
        "location": {
            "lat": 31.067918,
            "lng": 112.207929
        },
        "ad_info": {
            "adcode": 420802,
            "province": "湖北省",
            "city": "荆门市",
            "district": "东宝区"
        }
    },
    {
        "id": "11352469074798047530",
        "title": "洗手间",
        "address": "湖北省荆门市钟祥市石城中路5号金都国际广场A区F1",
        "tel": "",
        "category": "基础设施:公共设施:公共厕所",
        "type": 0,
        "location": {
            "lat": 31.168036,
            "lng": 112.586672
        },
        "ad_info": {
            "adcode": 420881,
            "province": "湖北省",
            "city": "荆门市",
            "district": "钟祥市"
        }
    },
    {
        "id": "1185052541128055839",
        "title": "公共厕所",
        "address": "湖北省荆门市钟祥市石城公园旅游厕所",
        "tel": "",
        "category": "基础设施:公共设施:公共厕所",
        "type": 0,
        "location": {
            "lat": 31.172058,
            "lng": 112.601408
        },
        "ad_info": {
            "adcode": 420881,
            "province": "湖北省",
            "city": "荆门市",
            "district": "钟祥市"
        }
    },
    {
        "id": "12927654583646163334",
        "title": "公共厕所",
        "address": "湖北省荆门市钟祥市楚贤路与襄汉路交叉口东南方向58米左右",
        "tel": "",
        "category": "基础设施:公共设施:公共厕所",
        "type": 0,
        "location": {
            "lat": 31.157581,
            "lng": 112.578858
        },
        "ad_info": {
            "adcode": 420881,
            "province": "湖北省",
            "city": "荆门市",
            "district": "钟祥市"
        }
    },
    {
        "id": "4981637713947241527",
        "title": "女洗手间",
        "address": "湖北省荆门市钟祥市石城中路5号金都国际广场A区F2",
        "tel": "",
        "category": "基础设施:公共设施:女洗手间",
        "type": 0,
        "location": {
            "lat": 31.168079,
            "lng": 112.586777
        },
        "ad_info": {
            "adcode": 420881,
            "province": "湖北省",
            "city": "荆门市",
            "district": "钟祥市"
        }
    },
    {
        "id": "3658704023918320849",
        "title": "公共厕所",
        "address": "湖北省荆门市东宝区苏台新村西北侧70米",
        "tel": "",
        "category": "基础设施:公共设施:公共厕所",
        "type": 0,
        "location": {
            "lat": 31.052177,
            "lng": 112.232409
        },
        "ad_info": {
            "adcode": 420802,
            "province": "湖北省",
            "city": "荆门市",
            "district": "东宝区"
        }
    },
    {
        "id": "11923277914820799568",
        "title": "公共厕所",
        "address": "湖北省荆门市京山市京山印象(鸭山路店)东北侧100米",
        "tel": "",
        "category": "基础设施:公共设施:公共厕所",
        "type": 0,
        "location": {
            "lat": 31.00561,
            "lng": 113.110504
        },
        "ad_info": {
            "adcode": 420882,
            "province": "湖北省",
            "city": "荆门市",
            "district": "京山市"
        }
    },
    {
        "id": "10157025122656196378",
        "title": "男洗手间",
        "address": "湖北省荆门市钟祥市石城中路5号金都国际广场A区F3",
        "tel": "",
        "category": "基础设施:公共设施:男洗手间",
        "type": 0,
        "location": {
            "lat": 31.168104,
            "lng": 112.586733
        },
        "ad_info": {
            "adcode": 420881,
            "province": "湖北省",
            "city": "荆门市",
            "district": "钟祥市"
        }
    },
    {
        "id": "16503688602499709435",
        "title": "公共厕所",
        "address": "湖北省荆门市钟祥市石牌镇余秀华旧居",
        "tel": "",
        "category": "基础设施:公共设施:公共厕所",
        "type": 0,
        "location": {
            "lat": 30.995424,
            "lng": 112.364448
        },
        "ad_info": {
            "adcode": 420881,
            "province": "湖北省",
            "city": "荆门市",
            "district": "钟祥市"
        }
    },
    {
        "id": "131637358166166005",
        "title": "纪山停车区公共厕所",
        "address": "湖北省荆门市沙洋县纪山停车区",
        "tel": "",
        "category": "基础设施:公共设施:公共厕所",
        "type": 0,
        "location": {
            "lat": 30.549971,
            "lng": 112.210646
        },
        "ad_info": {
            "adcode": 420822,
            "province": "湖北省",
            "city": "荆门市",
            "district": "沙洋县"
        }
    },
    {
        "id": "3859126469494602734",
        "title": "二广高速G55钟祥停车区公共厕所",
        "address": "湖北省荆门市钟祥市G55钟祥服务区东30米",
        "tel": "",
        "category": "基础设施:公共设施:公共厕所",
        "type": 0,
        "location": {
            "lat": 31.35914,
            "lng": 112.354385
        },
        "ad_info": {
            "adcode": 420881,
            "province": "湖北省",
            "city": "荆门市",
            "district": "钟祥市"
        }
    },
    {
        "id": "9030253283682895246",
        "title": "公共厕所",
        "address": "湖北省荆门市京山市兰德石油加油站北侧140米",
        "tel": "",
        "category": "基础设施:公共设施:公共厕所",
        "type": 0,
        "location": {
            "lat": 31.19988,
            "lng": 113.282406
        },
        "ad_info": {
            "adcode": 420882,
            "province": "湖北省",
            "city": "荆门市",
            "district": "京山市"
        }
    },
    {
        "id": "11450954071860271999",
        "title": "公共厕所",
        "address": "湖北省荆门市东宝区皮防巷与象山二路交叉口东南方向111米左右",
        "tel": "",
        "category": "基础设施:公共设施:公共厕所",
        "type": 0,
        "location": {
            "lat": 31.041927,
            "lng": 112.20456
        },
        "ad_info": {
            "adcode": 420802,
            "province": "湖北省",
            "city": "荆门市",
            "district": "东宝区"
        }
    },
    {
        "id": "260448587701994327",
        "title": "九里服务区公共厕所",
        "address": "湖北省荆门市钟祥市S53枣石高速与九里服务区交叉口西北480米",
        "tel": "",
        "category": "基础设施:公共设施:公共厕所",
        "type": 0,
        "location": {
            "lat": 31.149093,
            "lng": 112.669957
        },
        "ad_info": {
            "adcode": 420881,
            "province": "湖北省",
            "city": "荆门市",
            "district": "钟祥市"
        }
    },
    {
        "id": "10579554020773191768",
        "title": "公共厕所",
        "address": "湖北省荆门市沙洋县G207与砖桥中桥交叉口正北方向367米左右",
        "tel": "",
        "category": "基础设施:公共设施:公共厕所",
        "type": 0,
        "location": {
            "lat": 30.478155,
            "lng": 112.197987
        },
        "ad_info": {
            "adcode": 420822,
            "province": "湖北省",
            "city": "荆门市",
            "district": "沙洋县"
        }
    },
    {
        "id": "1977866245551022649",
        "title": "大桥公共厕所",
        "address": "湖北省荆门市京山市小中路与沿河北路交叉口正西方向19米左右",
        "tel": "",
        "category": "基础设施:公共设施:公共厕所",
        "type": 0,
        "location": {
            "lat": 31.01694,
            "lng": 113.113062
        },
        "ad_info": {
            "adcode": 420882,
            "province": "湖北省",
            "city": "荆门市",
            "district": "京山市"
        }
    },
    {
        "id": "12636701463576305204",
        "title": "公共厕所",
        "address": "湖北省荆门市掇刀区月亮湾桥头",
        "tel": "",
        "category": "基础设施:公共设施:公共厕所",
        "type": 0,
        "location": {
            "lat": 31.035136,
            "lng": 112.217192
        },
        "ad_info": {
            "adcode": 420804,
            "province": "湖北省",
            "city": "荆门市",
            "district": "掇刀区"
        }
    },
    {
        "id": "2541511437548988410",
        "title": "公共厕所",
        "address": "湖北省荆门市钟祥市G234与一五二桥交叉口正东方向175米左右",
        "tel": "",
        "category": "基础设施:公共设施:公共厕所",
        "type": 0,
        "location": {
            "lat": 31.025432,
            "lng": 112.619351
        },
        "ad_info": {
            "adcode": 420881,
            "province": "湖北省",
            "city": "荆门市",
            "district": "钟祥市"
        }
    },
    {
        "id": "3164605965388084247",
        "title": "九里服务区公共厕所",
        "address": "湖北省荆门市钟祥市S53枣石高速与九里服务区交叉口北440米",
        "tel": "",
        "category": "基础设施:公共设施:公共厕所",
        "type": 0,
        "location": {
            "lat": 31.149437,
            "lng": 112.672483
        },
        "ad_info": {
            "adcode": 420881,
            "province": "湖北省",
            "city": "荆门市",
            "district": "钟祥市"
        }
    },
    {
        "id": "9406987397309454486",
        "title": "公共厕所",
        "address": "湖北省荆门市掇刀区培公大道与深圳大道交叉口正东方向366米左右",
        "tel": "",
        "category": "基础设施:公共设施:公共厕所",
        "type": 0,
        "location": {
            "lat": 30.977921,
            "lng": 112.218444
        },
        "ad_info": {
            "adcode": 420804,
            "province": "湖北省",
            "city": "荆门市",
            "district": "掇刀区"
        }
    },
    {
        "id": "4147592415645397467",
        "title": "公共厕所",
        "address": "湖北省荆门市东宝区玉帝巷与金龙泉大道交叉口正北方向479米左右",
        "tel": "",
        "category": "基础设施:公共设施:公共厕所",
        "type": 0,
        "location": {
            "lat": 31.067918,
            "lng": 112.207929
        },
        "ad_info": {
            "adcode": 420802,
            "province": "湖北省",
            "city": "荆门市",
            "district": "东宝区"
        }
    },
    {
        "id": "11352469074798047530",
        "title": "洗手间",
        "address": "湖北省荆门市钟祥市石城中路5号金都国际广场A区F1",
        "tel": "",
        "category": "基础设施:公共设施:公共厕所",
        "type": 0,
        "location": {
            "lat": 31.168036,
            "lng": 112.586672
        },
        "ad_info": {
            "adcode": 420881,
            "province": "湖北省",
            "city": "荆门市",
            "district": "钟祥市"
        }
    },
    {
        "id": "1185052541128055839",
        "title": "公共厕所",
        "address": "湖北省荆门市钟祥市石城公园旅游厕所",
        "tel": "",
        "category": "基础设施:公共设施:公共厕所",
        "type": 0,
        "location": {
            "lat": 31.172058,
            "lng": 112.601408
        },
        "ad_info": {
            "adcode": 420881,
            "province": "湖北省",
            "city": "荆门市",
            "district": "钟祥市"
        }
    },
    {
        "id": "12927654583646163334",
        "title": "公共厕所",
        "address": "湖北省荆门市钟祥市楚贤路与襄汉路交叉口东南方向58米左右",
        "tel": "",
        "category": "基础设施:公共设施:公共厕所",
        "type": 0,
        "location": {
            "lat": 31.157581,
            "lng": 112.578858
        },
        "ad_info": {
            "adcode": 420881,
            "province": "湖北省",
            "city": "荆门市",
            "district": "钟祥市"
        }
    },
    {
        "id": "4981637713947241527",
        "title": "女洗手间",
        "address": "湖北省荆门市钟祥市石城中路5号金都国际广场A区F2",
        "tel": "",
        "category": "基础设施:公共设施:女洗手间",
        "type": 0,
        "location": {
            "lat": 31.168079,
            "lng": 112.586777
        },
        "ad_info": {
            "adcode": 420881,
            "province": "湖北省",
            "city": "荆门市",
            "district": "钟祥市"
        }
    }
]