[
    {
        "id": "17143308202211675416",
        "title": "公共厕所",
        "address": "福建省莆田市仙游县八二五南街辅路与城南东路辅路交叉口东北方向51米左右",
        "tel": "",
        "category": "基础设施:公共设施:公共厕所",
        "type": 0,
        "location": {
            "lat": 25.351673,
            "lng": 118.696711
        },
        "ad_info": {
            "adcode": 350322,
            "province": "福建省",
            "city": "莆田市",
            "district": "仙游县"
        }
    },
    {
        "id": "10175407459697258223",
        "title": "公共厕所(涵井)",
        "address": "福建省莆田市仙游县仙港大道与温泉东路交叉口正西方向196米左右",
        "tel": "",
        "category": "基础设施:公共设施:公共厕所",
        "type": 0,
        "location": {
            "lat": 25.368524,
            "lng": 118.749428
        },
        "ad_info": {
            "adcode": 350322,
            "province": "福建省",
            "city": "莆田市",
            "district": "仙游县"
        }
    },
    {
        "id": "2396125064668517185",
        "title": "公共厕所(东山)",
        "address": "福建省莆田市仙游县鲤南镇东山村东兴137对面",
        "tel": "",
        "category": "基础设施:公共设施:公共厕所",
        "type": 0,
        "location": {
            "lat": 25.328782,
            "lng": 118.696995
        },
        "ad_info": {
            "adcode": 350322,
            "province": "福建省",
            "city": "莆田市",
            "district": "仙游县"
        }
    },
    {
        "id": "4555665545485527191",
        "title": "公共厕所",
        "address": "福建省莆田市涵江区彩云巷与涵华西路交叉口西南方向61米左右",
        "tel": "",
        "category": "基础设施:公共设施:公共厕所",
        "type": 0,
        "location": {
            "lat": 25.454577,
            "lng": 119.103379
        },
        "ad_info": {
            "adcode": 350303,
            "province": "福建省",
            "city": "莆田市",
            "district": "涵江区"
        }
    },
    {
        "id": "16596273919477897485",
        "title": "公共厕所",
        "address": "福建省莆田市涵江区工业街557号",
        "tel": "",
        "category": "基础设施:公共设施:公共厕所",
        "type": 0,
        "location": {
            "lat": 25.460779,
            "lng": 119.114209
        },
        "ad_info": {
            "adcode": 350303,
            "province": "福建省",
            "city": "莆田市",
            "district": "涵江区"
        }
    },
    {
        "id": "2227299432508860739",
        "title": "公共厕所",
        "address": "福建省莆田市仙游县温泉东路下学溪转运站东侧",
        "tel": "",
        "category": "基础设施:公共设施:公共厕所",
        "type": 0,
        "location": {
            "lat": 25.34769,
            "lng": 118.71961
        },
        "ad_info": {
            "adcode": 350322,
            "province": "福建省",
            "city": "莆田市",
            "district": "仙游县"
        }
    },
    {
        "id": "11654580454645206564",
        "title": "公共厕所",
        "address": "福建省莆田市荔城区东井北街与书心街交叉口正南方向27米左右",
        "tel": "",
        "category": "基础设施:公共设施:公共厕所",
        "type": 0,
        "location": {
            "lat": 25.376728,
            "lng": 119.08132
        },
        "ad_info": {
            "adcode": 350304,
            "province": "福建省",
            "city": "莆田市",
            "district": "荔城区"
        }
    },
    {
        "id": "6311581722209982183",
        "title": "公共厕所",
        "address": "福建省莆田市荔城区东圳东路与镇海街交叉口西南方向164米左右",
        "tel": "",
        "category": "基础设施:公共设施:公共厕所",
        "type": 0,
        "location": {
            "lat": 25.444868,
            "lng": 119.02847
        },
        "ad_info": {
            "adcode": 350304,
            "province": "福建省",
            "city": "莆田市",
            "district": "荔城区"
        }
    },
    {
        "id": "10373707617851543653",
        "title": "公共厕所",
        "address": "福建省莆田市荔城区文献东路189弄5号",
        "tel": "",
        "category": "基础设施:公共设施:公共厕所",
        "type": 0,
        "location": {
            "lat": 25.431468,
            "lng": 119.014638
        },
        "ad_info": {
            "adcode": 350304,
            "province": "福建省",
            "city": "莆田市",
            "district": "荔城区"
        }
    },
    {
        "id": "1904899807685035207",
        "title": "公共厕所",
        "address": "福建省莆田市荔城区下店路与延寿北街交叉口西南240米",
        "tel": "",
        "category": "基础设施:公共设施:公共厕所",
        "type": 0,
        "location": {
            "lat": 25.449622,
            "lng": 119.031637
        },
        "ad_info": {
            "adcode": 350304,
            "province": "福建省",
            "city": "莆田市",
            "district": "荔城区"
        }
    },
    {
        "id": "16394913145958441971",
        "title": "公共厕所",
        "address": "福建省莆田市荔城区下店路与八二一北街交叉口正南方向148米左右",
        "tel": "",
        "category": "基础设施:公共设施:公共厕所",
        "type": 0,
        "location": {
            "lat": 25.449929,
            "lng": 119.025754
        },
        "ad_info": {
            "adcode": 350304,
            "province": "福建省",
            "city": "莆田市",
            "district": "荔城区"
        }
    },
    {
        "id": "16410350855674128786",
        "title": "公共厕所",
        "address": "福建省莆田市仙游县仙港大道与石马互通交叉口东南方向1195米左右",
        "tel": "",
        "category": "基础设施:公共设施:公共厕所",
        "type": 0,
        "location": {
            "lat": 25.352254,
            "lng": 118.806751
        },
        "ad_info": {
            "adcode": 350322,
            "province": "福建省",
            "city": "莆田市",
            "district": "仙游县"
        }
    },
    {
        "id": "17597280546349823900",
        "title": "公共厕所",
        "address": "福建省莆田市荔城区东大路与北大南街交叉口正南方向60米左右",
        "tel": "",
        "category": "基础设施:公共设施:公共厕所",
        "type": 0,
        "location": {
            "lat": 25.429331,
            "lng": 119.018698
        },
        "ad_info": {
            "adcode": 350304,
            "province": "福建省",
            "city": "莆田市",
            "district": "荔城区"
        }
    },
    {
        "id": "4595728532220480010",
        "title": "公共厕所",
        "address": "福建省莆田市荔城区荔园中路辅路与荔园南路辅路交叉口正东方向18米左右",
        "tel": "",
        "category": "基础设施:公共设施:公共厕所",
        "type": 0,
        "location": {
            "lat": 25.438106,
            "lng": 119.040295
        },
        "ad_info": {
            "adcode": 350304,
            "province": "福建省",
            "city": "莆田市",
            "district": "荔城区"
        }
    },
    {
        "id": "13523316791153613050",
        "title": "公共厕所",
        "address": "福建省莆田市荔城区新度镇善乡村第一转运站",
        "tel": "",
        "category": "基础设施:公共设施:公共厕所",
        "type": 0,
        "location": {
            "lat": 25.36706,
            "lng": 119.036427
        },
        "ad_info": {
            "adcode": 350304,
            "province": "福建省",
            "city": "莆田市",
            "district": "荔城区"
        }
    },
    {
        "id": "15638099972661374507",
        "title": "公共厕所",
        "address": "福建省莆田市荔城区镇海中街1209号",
        "tel": "",
        "category": "基础设施:公共设施:公共厕所",
        "type": 0,
        "location": {
            "lat": 25.438929,
            "lng": 119.028273
        },
        "ad_info": {
            "adcode": 350304,
            "province": "福建省",
            "city": "莆田市",
            "district": "荔城区"
        }
    },
    {
        "id": "14724122348614422054",
        "title": "公共厕所",
        "address": "福建省莆田市荔城区北大北街与北大街交叉口正西方向116米左右",
        "tel": "",
        "category": "基础设施:公共设施:公共厕所",
        "type": 0,
        "location": {
            "lat": 25.431064,
            "lng": 119.017563
        },
        "ad_info": {
            "adcode": 350304,
            "province": "福建省",
            "city": "莆田市",
            "district": "荔城区"
        }
    },
    {
        "id": "16742572273483948535",
        "title": "公共厕所",
        "address": "福建省莆田市荔城区秀水路与西洪南街交叉口西南方向96米左右",
        "tel": "",
        "category": "基础设施:公共设施:公共厕所",
        "type": 0,
        "location": {
            "lat": 25.440096,
            "lng": 119.037585
        },
        "ad_info": {
            "adcode": 350304,
            "province": "福建省",
            "city": "莆田市",
            "district": "荔城区"
        }
    },
    {
        "id": "12737768527639041109",
        "title": "公共厕所",
        "address": "福建省莆田市荔城区延寿中街与西洪南街交叉口西南方向139米左右",
        "tel": "",
        "category": "基础设施:公共设施:公共厕所",
        "type": 0,
        "location": {
            "lat": 25.4365,
            "lng": 119.029708
        },
        "ad_info": {
            "adcode": 350304,
            "province": "福建省",
            "city": "莆田市",
            "district": "荔城区"
        }
    },
    {
        "id": "6310734760925387594",
        "title": "公共厕所",
        "address": "福建省莆田市荔城区九华西大道辅路与石盘路交叉口正北方向45米左右",
        "tel": "",
        "category": "基础设施:公共设施:公共厕所",
        "type": 0,
        "location": {
            "lat": 25.480087,
            "lng": 119.042635
        },
        "ad_info": {
            "adcode": 350304,
            "province": "福建省",
            "city": "莆田市",
            "district": "荔城区"
        }
    },
    {
        "id": "7093010280074818154",
        "title": "公共厕所",
        "address": "福建省莆田市仙游县锦湖村枫慈溪旁(锦湖村海地83号附近)",
        "tel": "",
        "category": "基础设施:公共设施:公共厕所",
        "type": 0,
        "location": {
            "lat": 25.240485,
            "lng": 118.869951
        },
        "ad_info": {
            "adcode": 350322,
            "province": "福建省",
            "city": "莆田市",
            "district": "仙游县"
        }
    },
    {
        "id": "8386990885852189155",
        "title": "公共厕所(石鼓山公园西侧)",
        "address": "福建省莆田市仙游县八二五南街与宫后路交叉口正东方向264米左右",
        "tel": "",
        "category": "基础设施:公共设施:公共厕所",
        "type": 0,
        "location": {
            "lat": 25.343282,
            "lng": 118.699325
        },
        "ad_info": {
            "adcode": 350322,
            "province": "福建省",
            "city": "莆田市",
            "district": "仙游县"
        }
    },
    {
        "id": "2339763019177938263",
        "title": "公共厕所",
        "address": "福建省莆田市涵江区涵中西路与高林街交叉口正西方向233米左右",
        "tel": "",
        "category": "基础设施:公共设施:公共厕所",
        "type": 0,
        "location": {
            "lat": 25.486195,
            "lng": 119.099383
        },
        "ad_info": {
            "adcode": 350303,
            "province": "福建省",
            "city": "莆田市",
            "district": "涵江区"
        }
    },
    {
        "id": "4141399760499630676",
        "title": "公共厕所",
        "address": "福建省莆田市仙游县仙游康佳医院东南侧50米",
        "tel": "",
        "category": "基础设施:公共设施:公共厕所",
        "type": 0,
        "location": {
            "lat": 25.334169,
            "lng": 118.705543
        },
        "ad_info": {
            "adcode": 350322,
            "province": "福建省",
            "city": "莆田市",
            "district": "仙游县"
        }
    },
    {
        "id": "5193494858034413279",
        "title": "公共厕所",
        "address": "福建省莆田市城厢区新季路与荔城南大道交叉口西北方向136米左右",
        "tel": "",
        "category": "基础设施:公共设施:公共厕所",
        "type": 0,
        "location": {
            "lat": 25.42741,
            "lng": 118.995613
        },
        "ad_info": {
            "adcode": 350302,
            "province": "福建省",
            "city": "莆田市",
            "district": "城厢区"
        }
    },
    {
        "id": "16044615315361940991",
        "title": "公共厕所",
        "address": "福建省莆田市荔城区梅山路与梅雪西路交叉口正东方向409米左右",
        "tel": "",
        "category": "基础设施:公共设施:公共厕所",
        "type": 0,
        "location": {
            "lat": 25.361945,
            "lng": 119.082531
        },
        "ad_info": {
            "adcode": 350304,
            "province": "福建省",
            "city": "莆田市",
            "district": "荔城区"
        }
    },
    {
        "id": "5530320614124164654",
        "title": "公共厕所",
        "address": "福建省莆田市城厢区梅山路与荔华大道交叉口正北方向22米左右",
        "tel": "",
        "category": "基础设施:公共设施:公共厕所",
        "type": 0,
        "location": {
            "lat": 25.416666,
            "lng": 118.992008
        },
        "ad_info": {
            "adcode": 350302,
            "province": "福建省",
            "city": "莆田市",
            "district": "城厢区"
        }
    },
    {
        "id": "14574211685437979460",
        "title": "公共厕所",
        "address": "福建省莆田市荔城区八二一中街与梅园东路交叉口东南方向69米左右",
        "tel": "",
        "category": "基础设施:公共设施:公共厕所",
        "type": 0,
        "location": {
            "lat": 25.431223,
            "lng": 119.022369
        },
        "ad_info": {
            "adcode": 350304,
            "province": "福建省",
            "city": "莆田市",
            "district": "荔城区"
        }
    },
    {
        "id": "3734602119412242328",
        "title": "公共厕所",
        "address": "福建省莆田市荔城区梅园东路与湖岸路交叉口东北方向56米左右",
        "tel": "",
        "category": "基础设施:公共设施:公共厕所",
        "type": 0,
        "location": {
            "lat": 25.433212,
            "lng": 119.021205
        },
        "ad_info": {
            "adcode": 350304,
            "province": "福建省",
            "city": "莆田市",
            "district": "荔城区"
        }
    },
    {
        "id": "4660604383184779014",
        "title": "公共厕所",
        "address": "福建省莆田市荔城区八二一街与新善线交叉口正西方向1479米左右",
        "tel": "",
        "category": "基础设施:公共设施:公共厕所",
        "type": 0,
        "location": {
            "lat": 25.382208,
            "lng": 119.019029
        },
        "ad_info": {
            "adcode": 350304,
            "province": "福建省",
            "city": "莆田市",
            "district": "荔城区"
        }
    },
    {
        "id": "11406966569172220391",
        "title": "公共厕所",
        "address": "福建省莆田市涵江区塘北山巷与涵华西路交叉口正北方向142米左右",
        "tel": "",
        "category": "基础设施:公共设施:公共厕所",
        "type": 0,
        "location": {
            "lat": 25.455384,
            "lng": 119.111598
        },
        "ad_info": {
            "adcode": 350303,
            "province": "福建省",
            "city": "莆田市",
            "district": "涵江区"
        }
    },
    {
        "id": "17891799177236659534",
        "title": "公共厕所",
        "address": "福建省莆田市涵江区塘北街与涵华西路交叉口正南方向116米左右",
        "tel": "",
        "category": "基础设施:公共设施:公共厕所",
        "type": 0,
        "location": {
            "lat": 25.45255,
            "lng": 119.108925
        },
        "ad_info": {
            "adcode": 350303,
            "province": "福建省",
            "city": "莆田市",
            "district": "涵江区"
        }
    },
    {
        "id": "1020565564420462832",
        "title": "公共厕所",
        "address": "福建省莆田市仙游县南园路与新兴街交叉口东北方向153米左右",
        "tel": "",
        "category": "基础设施:公共设施:公共厕所",
        "type": 0,
        "location": {
            "lat": 25.340797,
            "lng": 118.718724
        },
        "ad_info": {
            "adcode": 350322,
            "province": "福建省",
            "city": "莆田市",
            "district": "仙游县"
        }
    },
    {
        "id": "13582289847510180467",
        "title": "公共厕所",
        "address": "福建省莆田市涵江区流寂堂(城涵东大道西)",
        "tel": "",
        "category": "基础设施:公共设施:公共厕所",
        "type": 0,
        "location": {
            "lat": 25.457725,
            "lng": 119.089394
        },
        "ad_info": {
            "adcode": 350303,
            "province": "福建省",
            "city": "莆田市",
            "district": "涵江区"
        }
    },
    {
        "id": "1611614651419912988",
        "title": "公共厕所",
        "address": "福建省莆田市荔城区连心街与荔涵大道辅路交叉口东南60米",
        "tel": "",
        "category": "基础设施:公共设施:公共厕所",
        "type": 0,
        "location": {
            "lat": 25.483276,
            "lng": 119.033586
        },
        "ad_info": {
            "adcode": 350304,
            "province": "福建省",
            "city": "莆田市",
            "district": "荔城区"
        }
    },
    {
        "id": "17052124748650005350",
        "title": "公共厕所",
        "address": "福建省莆田市仙游县彩虹路与艺园路交叉口西南方向62米左右",
        "tel": "",
        "category": "基础设施:公共设施:公共厕所",
        "type": 0,
        "location": {
            "lat": 25.407779,
            "lng": 118.763794
        },
        "ad_info": {
            "adcode": 350322,
            "province": "福建省",
            "city": "莆田市",
            "district": "仙游县"
        }
    },
    {
        "id": "8492166648328412073",
        "title": "公共厕所",
        "address": "福建省莆田市城厢区南门东路320弄",
        "tel": "",
        "category": "基础设施:公共设施:公共厕所",
        "type": 0,
        "location": {
            "lat": 25.426505,
            "lng": 119.011894
        },
        "ad_info": {
            "adcode": 350302,
            "province": "福建省",
            "city": "莆田市",
            "district": "城厢区"
        }
    },
    {
        "id": "17520176833487848347",
        "title": "公共厕所",
        "address": "福建省莆田市仙游县G228与S306交叉口正东方向570米左右",
        "tel": "",
        "category": "基础设施:公共设施:公共厕所",
        "type": 0,
        "location": {
            "lat": 25.259313,
            "lng": 118.880385
        },
        "ad_info": {
            "adcode": 350322,
            "province": "福建省",
            "city": "莆田市",
            "district": "仙游县"
        }
    },
    {
        "id": "10969128232654293245",
        "title": "公共厕所",
        "address": "福建省莆田市城厢区东圳西路与学园中街交叉口正西方向237米左右",
        "tel": "",
        "category": "基础设施:公共设施:公共厕所",
        "type": 0,
        "location": {
            "lat": 25.44861,
            "lng": 119.018252
        },
        "ad_info": {
            "adcode": 350302,
            "province": "福建省",
            "city": "莆田市",
            "district": "城厢区"
        }
    },
    {
        "id": "7086584125206580337",
        "title": "公共厕所",
        "address": "福建省莆田市仙游县甜溪钓鱼场东北侧200米",
        "tel": "",
        "category": "基础设施:公共设施:公共厕所",
        "type": 0,
        "location": {
            "lat": 25.334431,
            "lng": 118.682877
        },
        "ad_info": {
            "adcode": 350322,
            "province": "福建省",
            "city": "莆田市",
            "district": "仙游县"
        }
    },
    {
        "id": "5275253359465285239",
        "title": "公共厕所",
        "address": "福建省莆田市城厢区荔城北大道绶溪公园(西北角)",
        "tel": "",
        "category": "基础设施:公共设施:公共厕所",
        "type": 0,
        "location": {
            "lat": 25.4599,
            "lng": 119.017306
        },
        "ad_info": {
            "adcode": 350302,
            "province": "福建省",
            "city": "莆田市",
            "district": "城厢区"
        }
    },
    {
        "id": "2361988363706675289",
        "title": "公共厕所",
        "address": "福建省莆田市涵江区X212与工业街交叉口正东方向43米",
        "tel": "",
        "category": "基础设施:公共设施:公共厕所",
        "type": 0,
        "location": {
            "lat": 25.488704,
            "lng": 119.092328
        },
        "ad_info": {
            "adcode": 350303,
            "province": "福建省",
            "city": "莆田市",
            "district": "涵江区"
        }
    },
    {
        "id": "3256553068333053200",
        "title": "公共厕所",
        "address": "福建省莆田市仙游县起重设备大全东南侧80米",
        "tel": "",
        "category": "基础设施:公共设施:公共厕所",
        "type": 0,
        "location": {
            "lat": 25.25923,
            "lng": 118.879553
        },
        "ad_info": {
            "adcode": 350322,
            "province": "福建省",
            "city": "莆田市",
            "district": "仙游县"
        }
    },
    {
        "id": "15291617057021033457",
        "title": "公共厕所",
        "address": "福建省莆田市仙游县东峰小学西侧130米",
        "tel": "",
        "category": "基础设施:公共设施:公共厕所",
        "type": 0,
        "location": {
            "lat": 25.410896,
            "lng": 118.58867
        },
        "ad_info": {
            "adcode": 350322,
            "province": "福建省",
            "city": "莆田市",
            "district": "仙游县"
        }
    },
    {
        "id": "5029479119018894275",
        "title": "公共厕所",
        "address": "福建省莆田市荔城区下井路与梅园东路交叉口西北方向88米左右",
        "tel": "",
        "category": "基础设施:公共设施:公共厕所",
        "type": 0,
        "location": {
            "lat": 25.435769,
            "lng": 119.016331
        },
        "ad_info": {
            "adcode": 350304,
            "province": "福建省",
            "city": "莆田市",
            "district": "荔城区"
        }
    },
    {
        "id": "8772267310312022727",
        "title": "公共厕所",
        "address": "福建省莆田市城厢区东园西路辅路与梅山街交叉口正东方向145米左右",
        "tel": "",
        "category": "基础设施:公共设施:公共厕所",
        "type": 0,
        "location": {
            "lat": 25.444333,
            "lng": 119.016509
        },
        "ad_info": {
            "adcode": 350302,
            "province": "福建省",
            "city": "莆田市",
            "district": "城厢区"
        }
    },
    {
        "id": "15765940792138097309",
        "title": "公共厕所",
        "address": "福建省莆田市城厢区后巷街与莆阳西路交叉口东南方向98米左右",
        "tel": "",
        "category": "基础设施:公共设施:公共厕所",
        "type": 0,
        "location": {
            "lat": 25.425691,
            "lng": 119.010301
        },
        "ad_info": {
            "adcode": 350302,
            "province": "福建省",
            "city": "莆田市",
            "district": "城厢区"
        }
    },
    {
        "id": "3859549903190137466",
        "title": "公共厕所",
        "address": "福建省莆田市城厢区霞林街道滨河豪园旁",
        "tel": "",
        "category": "基础设施:公共设施:公共厕所",
        "type": 0,
        "location": {
            "lat": 25.412158,
            "lng": 119.004069
        },
        "ad_info": {
            "adcode": 350302,
            "province": "福建省",
            "city": "莆田市",
            "district": "城厢区"
        }
    },
    {
        "id": "8744436609753141061",
        "title": "公共厕所",
        "address": "福建省莆田市城厢区创业路与荔华西大道交叉口西南方向211米左右",
        "tel": "",
        "category": "基础设施:公共设施:公共厕所",
        "type": 0,
        "location": {
            "lat": 25.394601,
            "lng": 118.957338
        },
        "ad_info": {
            "adcode": 350302,
            "province": "福建省",
            "city": "莆田市",
            "district": "城厢区"
        }
    },
    {
        "id": "9791040859524824978",
        "title": "公共厕所",
        "address": "福建省莆田市城厢区东园西路兴安名城B区",
        "tel": "",
        "category": "基础设施:公共设施:公共厕所",
        "type": 0,
        "location": {
            "lat": 25.443456,
            "lng": 119.016387
        },
        "ad_info": {
            "adcode": 350302,
            "province": "福建省",
            "city": "莆田市",
            "district": "城厢区"
        }
    },
    {
        "id": "17148875962648092401",
        "title": "公共厕所",
        "address": "福建省莆田市城厢区后角村三教祠",
        "tel": "",
        "category": "基础设施:公共设施:公共厕所",
        "type": 0,
        "location": {
            "lat": 25.394842,
            "lng": 118.944412
        },
        "ad_info": {
            "adcode": 350302,
            "province": "福建省",
            "city": "莆田市",
            "district": "城厢区"
        }
    },
    {
        "id": "17114605153011077139",
        "title": "公共厕所",
        "address": "福建省莆田市城厢区筱塘北街市总工会旁",
        "tel": "",
        "category": "基础设施:公共设施:公共厕所",
        "type": 0,
        "location": {
            "lat": 25.435913,
            "lng": 119.002819
        },
        "ad_info": {
            "adcode": 350302,
            "province": "福建省",
            "city": "莆田市",
            "district": "城厢区"
        }
    },
    {
        "id": "17038887364077816871",
        "title": "公共厕所",
        "address": "福建省莆田市城厢区吉祥街与莆阳东路交叉口西南方向38米左右",
        "tel": "",
        "category": "基础设施:公共设施:公共厕所",
        "type": 0,
        "location": {
            "lat": 25.425792,
            "lng": 119.01341
        },
        "ad_info": {
            "adcode": 350302,
            "province": "福建省",
            "city": "莆田市",
            "district": "城厢区"
        }
    },
    {
        "id": "4304029751418112432",
        "title": "公共厕所",
        "address": "福建省莆田市涵江区新涵街与涵北路交叉口东北方向78米左右",
        "tel": "",
        "category": "基础设施:公共设施:公共厕所",
        "type": 0,
        "location": {
            "lat": 25.484595,
            "lng": 119.117474
        },
        "ad_info": {
            "adcode": 350303,
            "province": "福建省",
            "city": "莆田市",
            "district": "涵江区"
        }
    },
    {
        "id": "1749845253609791773",
        "title": "公共厕所",
        "address": "福建省莆田市城厢区梅山路与荔华大道交叉口正南方向99米左右",
        "tel": "",
        "category": "基础设施:公共设施:公共厕所",
        "type": 0,
        "location": {
            "lat": 25.415615,
            "lng": 118.991678
        },
        "ad_info": {
            "adcode": 350302,
            "province": "福建省",
            "city": "莆田市",
            "district": "城厢区"
        }
    },
    {
        "id": "11943534918056857578",
        "title": "公共厕所",
        "address": "福建省莆田市秀屿区大营路与北浦街1号弄交叉口西40米",
        "tel": "",
        "category": "基础设施:公共设施:公共厕所",
        "type": 0,
        "location": {
            "lat": 25.31265,
            "lng": 119.091521
        },
        "ad_info": {
            "adcode": 350305,
            "province": "福建省",
            "city": "莆田市",
            "district": "秀屿区"
        }
    },
    {
        "id": "7978591595288921375",
        "title": "公共厕所",
        "address": "福建省莆田市仙游县党校街与花园路交叉口正南方向119米左右",
        "tel": "",
        "category": "基础设施:公共设施:公共厕所",
        "type": 0,
        "location": {
            "lat": 25.360157,
            "lng": 118.694906
        },
        "ad_info": {
            "adcode": 350322,
            "province": "福建省",
            "city": "莆田市",
            "district": "仙游县"
        }
    },
    {
        "id": "102253757874024073",
        "title": "公共厕所",
        "address": "福建省莆田市涵江区商城街166号",
        "tel": "",
        "category": "基础设施:公共设施:公共厕所",
        "type": 0,
        "location": {
            "lat": 25.452537,
            "lng": 119.098742
        },
        "ad_info": {
            "adcode": 350303,
            "province": "福建省",
            "city": "莆田市",
            "district": "涵江区"
        }
    },
    {
        "id": "2642136524882525997",
        "title": "公共厕所",
        "address": "福建省莆田市涵江区崇兴灯炉寨",
        "tel": "",
        "category": "基础设施:公共设施:公共厕所",
        "type": 0,
        "location": {
            "lat": 25.745847,
            "lng": 119.08901
        },
        "ad_info": {
            "adcode": 350303,
            "province": "福建省",
            "city": "莆田市",
            "district": "涵江区"
        }
    },
    {
        "id": "12249688194076326158",
        "title": "公共厕所",
        "address": "福建省莆田市城厢区东海镇坪洋村东林",
        "tel": "",
        "category": "基础设施:公共设施:公共厕所",
        "type": 0,
        "location": {
            "lat": 25.323779,
            "lng": 118.924394
        },
        "ad_info": {
            "adcode": 350302,
            "province": "福建省",
            "city": "莆田市",
            "district": "城厢区"
        }
    },
    {
        "id": "375493615296233121",
        "title": "公共厕所",
        "address": "福建省莆田市涵江区庄边镇岐山村",
        "tel": "",
        "category": "基础设施:公共设施:公共厕所",
        "type": 0,
        "location": {
            "lat": 25.647024,
            "lng": 118.890197
        },
        "ad_info": {
            "adcode": 350303,
            "province": "福建省",
            "city": "莆田市",
            "district": "涵江区"
        }
    },
    {
        "id": "9545105339250311604",
        "title": "公共厕所(梯亭村锦山寺)",
        "address": "福建省莆田市秀屿区梯亭村锦山寺旁",
        "tel": "",
        "category": "基础设施:公共设施:公共厕所",
        "type": 0,
        "location": {
            "lat": 25.130707,
            "lng": 119.042239
        },
        "ad_info": {
            "adcode": 350305,
            "province": "福建省",
            "city": "莆田市",
            "district": "秀屿区"
        }
    },
    {
        "id": "4403714283534162789",
        "title": "公共厕所",
        "address": "福建省莆田市秀屿区复兴路与白塔街交叉口西北方向91米左右",
        "tel": "",
        "category": "基础设施:公共设施:公共厕所",
        "type": 0,
        "location": {
            "lat": 25.350214,
            "lng": 119.063182
        },
        "ad_info": {
            "adcode": 350305,
            "province": "福建省",
            "city": "莆田市",
            "district": "秀屿区"
        }
    },
    {
        "id": "14307619238908999318",
        "title": "南湖公园公共厕所",
        "address": "福建省莆田市城厢区南湖路南湖公园(西北角)",
        "tel": "",
        "category": "基础设施:公共设施:公共厕所",
        "type": 0,
        "location": {
            "lat": 25.424979,
            "lng": 118.993647
        },
        "ad_info": {
            "adcode": 350302,
            "province": "福建省",
            "city": "莆田市",
            "district": "城厢区"
        }
    },
    {
        "id": "5640612292261489763",
        "title": "公共厕所",
        "address": "福建省莆田市秀屿区笏石梅山小学西南侧100米",
        "tel": "",
        "category": "基础设施:公共设施:公共厕所",
        "type": 0,
        "location": {
            "lat": 25.313541,
            "lng": 119.043547
        },
        "ad_info": {
            "adcode": 350305,
            "province": "福建省",
            "city": "莆田市",
            "district": "秀屿区"
        }
    },
    {
        "id": "2291949820647381796",
        "title": "公共厕所",
        "address": "福建省莆田市荔城区仪莘路与八二一中街交叉口东南方向79米左右",
        "tel": "",
        "category": "基础设施:公共设施:公共厕所",
        "type": 0,
        "location": {
            "lat": 25.438918,
            "lng": 119.025045
        },
        "ad_info": {
            "adcode": 350304,
            "province": "福建省",
            "city": "莆田市",
            "district": "荔城区"
        }
    },
    {
        "id": "2498568560030918565",
        "title": "公共厕所",
        "address": "福建省莆田市秀屿区前沁路与疏港大道交叉口西北方向374米左右",
        "tel": "",
        "category": "基础设施:公共设施:公共厕所",
        "type": 0,
        "location": {
            "lat": 25.281202,
            "lng": 119.13941
        },
        "ad_info": {
            "adcode": 350305,
            "province": "福建省",
            "city": "莆田市",
            "district": "秀屿区"
        }
    },
    {
        "id": "16466688699343971472",
        "title": "公共厕所",
        "address": "福建省莆田市荔城区西洙中心小学西侧80米",
        "tel": "",
        "category": "基础设施:公共设施:公共厕所",
        "type": 0,
        "location": {
            "lat": 25.428648,
            "lng": 119.060683
        },
        "ad_info": {
            "adcode": 350304,
            "province": "福建省",
            "city": "莆田市",
            "district": "荔城区"
        }
    },
    {
        "id": "4927268782909810139",
        "title": "公共厕所",
        "address": "福建省莆田市秀屿区梅山村春风宣传文化活动中心东北侧50米",
        "tel": "",
        "category": "基础设施:公共设施:公共厕所",
        "type": 0,
        "location": {
            "lat": 25.317797,
            "lng": 119.043367
        },
        "ad_info": {
            "adcode": 350305,
            "province": "福建省",
            "city": "莆田市",
            "district": "秀屿区"
        }
    },
    {
        "id": "17824493224882982789",
        "title": "鲤中激情广场公共厕所",
        "address": "福建省莆田市仙游县公园街与师范路交叉口正东方向129米左右",
        "tel": "",
        "category": "基础设施:公共设施:公共厕所",
        "type": 0,
        "location": {
            "lat": 25.359616,
            "lng": 118.699493
        },
        "ad_info": {
            "adcode": 350322,
            "province": "福建省",
            "city": "莆田市",
            "district": "仙游县"
        }
    },
    {
        "id": "18084408668390424098",
        "title": "公共厕所",
        "address": "福建省莆田市荔城区镇海中街463号",
        "tel": "",
        "category": "基础设施:公共设施:公共厕所",
        "type": 0,
        "location": {
            "lat": 25.433503,
            "lng": 119.02548
        },
        "ad_info": {
            "adcode": 350304,
            "province": "福建省",
            "city": "莆田市",
            "district": "荔城区"
        }
    },
    {
        "id": "3076827741180503070",
        "title": "金钟安特公共厕所",
        "address": "福建省莆田市仙游县鲤城金钟大厦与安特御景园之间同侧人行道上(东福街369号)",
        "tel": "",
        "category": "基础设施:公共设施:公共厕所",
        "type": 0,
        "location": {
            "lat": 25.369839,
            "lng": 118.706572
        },
        "ad_info": {
            "adcode": 350322,
            "province": "福建省",
            "city": "莆田市",
            "district": "仙游县"
        }
    },
    {
        "id": "7802253236569250233",
        "title": "黄石公共厕所",
        "address": "福建省莆田市荔城区黄石镇万嘉小区里",
        "tel": "",
        "category": "基础设施:公共设施:公共厕所",
        "type": 0,
        "location": {
            "lat": 25.377443,
            "lng": 119.078328
        },
        "ad_info": {
            "adcode": 350304,
            "province": "福建省",
            "city": "莆田市",
            "district": "荔城区"
        }
    },
    {
        "id": "1182642143923989784",
        "title": "公共厕所",
        "address": "福建省莆田市城厢区昌盛路与沟西街交叉口东南方向27米左右",
        "tel": "",
        "category": "基础设施:公共设施:公共厕所",
        "type": 0,
        "location": {
            "lat": 25.423167,
            "lng": 119.008074
        },
        "ad_info": {
            "adcode": 350302,
            "province": "福建省",
            "city": "莆田市",
            "district": "城厢区"
        }
    },
    {
        "id": "12584994790109129115",
        "title": "公共厕所",
        "address": "福建省莆田市荔城区正荣时代广场7号楼1层",
        "tel": "",
        "category": "基础设施:公共设施:公共厕所",
        "type": 0,
        "location": {
            "lat": 25.437809,
            "lng": 119.019191
        },
        "ad_info": {
            "adcode": 350304,
            "province": "福建省",
            "city": "莆田市",
            "district": "荔城区"
        }
    },
    {
        "id": "1050820261487454760",
        "title": "卫生间",
        "address": "福建省莆田市城厢区霞林街道荔华东大道8号万达广场F3",
        "tel": "",
        "category": "基础设施:公共设施:公共厕所",
        "type": 0,
        "location": {
            "lat": 25.418717,
            "lng": 118.996508
        },
        "ad_info": {
            "adcode": 350302,
            "province": "福建省",
            "city": "莆田市",
            "district": "城厢区"
        }
    },
    {
        "id": "11448255384293647300",
        "title": "公共厕所",
        "address": "福建省莆田市城厢区石景路与荔城中大道交叉口正南方向114米左右",
        "tel": "",
        "category": "基础设施:公共设施:公共厕所",
        "type": 0,
        "location": {
            "lat": 25.43547,
            "lng": 118.999481
        },
        "ad_info": {
            "adcode": 350302,
            "province": "福建省",
            "city": "莆田市",
            "district": "城厢区"
        }
    },
    {
        "id": "7668024587287484385",
        "title": "龙桥转运站公共厕所",
        "address": "福建省莆田市城厢区明阳路232弄32号",
        "tel": "",
        "category": "基础设施:公共设施:公共厕所",
        "type": 0,
        "location": {
            "lat": 25.452261,
            "lng": 119.011734
        },
        "ad_info": {
            "adcode": 350302,
            "province": "福建省",
            "city": "莆田市",
            "district": "城厢区"
        }
    },
    {
        "id": "7183962305060573997",
        "title": "公共厕所",
        "address": "福建省莆田市城厢区荔城北大道绶溪公园内",
        "tel": "",
        "category": "基础设施:公共设施:公共厕所",
        "type": 0,
        "location": {
            "lat": 25.46355,
            "lng": 119.017889
        },
        "ad_info": {
            "adcode": 350302,
            "province": "福建省",
            "city": "莆田市",
            "district": "城厢区"
        }
    },
    {
        "id": "7543833177674904545",
        "title": "公共厕所",
        "address": "福建省莆田市涵江区丽园路与新涵街交叉口西南方向69米左右",
        "tel": "",
        "category": "基础设施:公共设施:公共厕所",
        "type": 0,
        "location": {
            "lat": 25.466953,
            "lng": 119.116573
        },
        "ad_info": {
            "adcode": 350303,
            "province": "福建省",
            "city": "莆田市",
            "district": "涵江区"
        }
    },
    {
        "id": "9341682571648881586",
        "title": "公共厕所",
        "address": "福建省莆田市秀屿区百润超市(苏厝店)东南侧270米",
        "tel": "",
        "category": "基础设施:公共设施:公共厕所",
        "type": 0,
        "location": {
            "lat": 25.231142,
            "lng": 119.036821
        },
        "ad_info": {
            "adcode": 350305,
            "province": "福建省",
            "city": "莆田市",
            "district": "秀屿区"
        }
    },
    {
        "id": "15137770911826011494",
        "title": "环保公共厕所",
        "address": "福建省莆田市涵江区滨海路与鉴前路交叉口正北方向119米左右",
        "tel": "",
        "category": "基础设施:公共设施:公共厕所",
        "type": 0,
        "location": {
            "lat": 25.445671,
            "lng": 119.10849
        },
        "ad_info": {
            "adcode": 350303,
            "province": "福建省",
            "city": "莆田市",
            "district": "涵江区"
        }
    },
    {
        "id": "198992223875710828",
        "title": "公共厕所",
        "address": "福建省莆田市仙游县园滨东路145号",
        "tel": "",
        "category": "基础设施:公共设施:公共厕所",
        "type": 0,
        "location": {
            "lat": 25.354289,
            "lng": 118.697126
        },
        "ad_info": {
            "adcode": 350322,
            "province": "福建省",
            "city": "莆田市",
            "district": "仙游县"
        }
    },
    {
        "id": "7610282814142373063",
        "title": "公共厕所",
        "address": "福建省莆田市城厢区荔园西路3060号",
        "tel": "",
        "category": "基础设施:公共设施:公共厕所",
        "type": 0,
        "location": {
            "lat": 25.410773,
            "lng": 118.98648
        },
        "ad_info": {
            "adcode": 350302,
            "province": "福建省",
            "city": "莆田市",
            "district": "城厢区"
        }
    },
    {
        "id": "6616175836905604201",
        "title": "公共厕所",
        "address": "福建省莆田市城厢区东大路与胜利南街交叉口东北方向25米左右",
        "tel": "",
        "category": "基础设施:公共设施:公共厕所",
        "type": 0,
        "location": {
            "lat": 25.43039,
            "lng": 119.012548
        },
        "ad_info": {
            "adcode": 350302,
            "province": "福建省",
            "city": "莆田市",
            "district": "城厢区"
        }
    },
    {
        "id": "6346720507388556844",
        "title": "公共厕所",
        "address": "福建省莆田市仙游县站前路与铁东横路交叉口正北方向168米左右",
        "tel": "",
        "category": "基础设施:公共设施:公共厕所",
        "type": 0,
        "location": {
            "lat": 25.249762,
            "lng": 118.871787
        },
        "ad_info": {
            "adcode": 350322,
            "province": "福建省",
            "city": "莆田市",
            "district": "仙游县"
        }
    },
    {
        "id": "5107868687945319602",
        "title": "华堤村公共厕所",
        "address": "福建省莆田市荔城区黄石镇华堤村公园旁边",
        "tel": "",
        "category": "基础设施:公共设施:公共厕所",
        "type": 0,
        "location": {
            "lat": 25.403605,
            "lng": 119.094518
        },
        "ad_info": {
            "adcode": 350304,
            "province": "福建省",
            "city": "莆田市",
            "district": "荔城区"
        }
    },
    {
        "id": "14913669407039466731",
        "title": "嘉兴殿公园公共厕所",
        "address": "福建省莆田市涵江区江口镇前面村嘉兴殿公园",
        "tel": "",
        "category": "基础设施:公共设施:公共厕所",
        "type": 0,
        "location": {
            "lat": 25.474596,
            "lng": 119.189604
        },
        "ad_info": {
            "adcode": 350303,
            "province": "福建省",
            "city": "莆田市",
            "district": "涵江区"
        }
    },
    {
        "id": "3137049719374312470",
        "title": "东梅路白湖桥公共厕所",
        "address": "福建省莆田市荔城区文献东路与田庄街交叉口西南方向218米左右",
        "tel": "",
        "category": "基础设施:公共设施:公共厕所",
        "type": 0,
        "location": {
            "lat": 25.425108,
            "lng": 119.030692
        },
        "ad_info": {
            "adcode": 350304,
            "province": "福建省",
            "city": "莆田市",
            "district": "荔城区"
        }
    },
    {
        "id": "29397681169182251",
        "title": "卫生间",
        "address": "福建省莆田市城厢区霞林街道荔华东大道8号万达广场F1",
        "tel": "",
        "category": "基础设施:公共设施:公共厕所",
        "type": 0,
        "location": {
            "lat": 25.417737,
            "lng": 118.995833
        },
        "ad_info": {
            "adcode": 350302,
            "province": "福建省",
            "city": "莆田市",
            "district": "城厢区"
        }
    },
    {
        "id": "13205145793413252695",
        "title": "无障碍公共厕所",
        "address": "福建省莆田市城厢区古城路50号",
        "tel": "",
        "category": "基础设施:公共设施:公共厕所",
        "type": 0,
        "location": {
            "lat": 25.428637,
            "lng": 119.012484
        },
        "ad_info": {
            "adcode": 350302,
            "province": "福建省",
            "city": "莆田市",
            "district": "城厢区"
        }
    },
    {
        "id": "7823082022000145804",
        "title": "莆田市荔城区北高镇竹庄村公共厕所",
        "address": "福建省莆田市荔城区神峰广场南侧120米",
        "tel": "",
        "category": "基础设施:公共设施:公共厕所",
        "type": 0,
        "location": {
            "lat": 25.335979,
            "lng": 119.205312
        },
        "ad_info": {
            "adcode": 350304,
            "province": "福建省",
            "city": "莆田市",
            "district": "荔城区"
        }
    },
    {
        "id": "12586651058754795623",
        "title": "涵东涵碧路公园公共厕所",
        "address": "福建省莆田市涵江区涵华东路与群青路交叉口正西方向233米左右",
        "tel": "",
        "category": "基础设施:公共设施:公共厕所",
        "type": 0,
        "location": {
            "lat": 25.463173,
            "lng": 119.127557
        },
        "ad_info": {
            "adcode": 350303,
            "province": "福建省",
            "city": "莆田市",
            "district": "涵江区"
        }
    },
    {
        "id": "17127579928538040050",
        "title": "上茅村公共厕所",
        "address": "福建省莆田市涵江区镇上茅村罗后组",
        "tel": "",
        "category": "基础设施:公共设施:公共厕所",
        "type": 0,
        "location": {
            "lat": 25.62166,
            "lng": 119.063989
        },
        "ad_info": {
            "adcode": 350303,
            "province": "福建省",
            "city": "莆田市",
            "district": "涵江区"
        }
    },
    {
        "id": "7531173179393020262",
        "title": "无障碍公共厕所",
        "address": "福建省莆田市城厢区霞林街道肖厝安置区内",
        "tel": "",
        "category": "基础设施:公共设施:公共厕所",
        "type": 0,
        "location": {
            "lat": 25.413954,
            "lng": 119.011433
        },
        "ad_info": {
            "adcode": 350302,
            "province": "福建省",
            "city": "莆田市",
            "district": "城厢区"
        }
    },
    {
        "id": "6830834671096974780",
        "title": "隆兴村公共厕所",
        "address": "福建省莆田市城厢区隆兴村下埔310号",
        "tel": "",
        "category": "基础设施:公共设施:公共厕所",
        "type": 0,
        "location": {
            "lat": 25.393336,
            "lng": 118.865705
        },
        "ad_info": {
            "adcode": 350302,
            "province": "福建省",
            "city": "莆田市",
            "district": "城厢区"
        }
    },
    {
        "id": "8409667927555032560",
        "title": "塔兜村坑厝小组公共厕所",
        "address": "福建省莆田市仙游县枫园东路与郊园路交叉口东北方向654米左右",
        "tel": "",
        "category": "基础设施:公共设施:公共厕所",
        "type": 0,
        "location": {
            "lat": 25.216877,
            "lng": 118.759021
        },
        "ad_info": {
            "adcode": 350322,
            "province": "福建省",
            "city": "莆田市",
            "district": "仙游县"
        }
    },
    {
        "id": "8306160644505278970",
        "title": "文甲停车场旅游公共厕所",
        "address": "福建省莆田市秀屿区忠湄轮渡有限责任公司售票处西侧60米",
        "tel": "",
        "category": "基础设施:公共设施:公共厕所",
        "type": 0,
        "location": {
            "lat": 25.122862,
            "lng": 119.151723
        },
        "ad_info": {
            "adcode": 350305,
            "province": "福建省",
            "city": "莆田市",
            "district": "秀屿区"
        }
    },
    {
        "id": "7017967289046680516",
        "title": "蔡亭村东坑公共厕所",
        "address": "福建省莆田市城厢区东海东大道与台湾路交叉口正北方向283米左右",
        "tel": "",
        "category": "基础设施:公共设施:公共厕所",
        "type": 0,
        "location": {
            "lat": 25.28513,
            "lng": 118.943495
        },
        "ad_info": {
            "adcode": 350302,
            "province": "福建省",
            "city": "莆田市",
            "district": "城厢区"
        }
    },
    {
        "id": "954992864665495588",
        "title": "下黄公共厕所",
        "address": "福建省莆田市城厢区下黄东区北侧130米",
        "tel": "",
        "category": "基础设施:公共设施:公共厕所",
        "type": 0,
        "location": {
            "lat": 25.419322,
            "lng": 119.02539
        },
        "ad_info": {
            "adcode": 350302,
            "province": "福建省",
            "city": "莆田市",
            "district": "城厢区"
        }
    },
    {
        "id": "4114602307238026355",
        "title": "顶宅三教祠公共厕所",
        "address": "福建省莆田市城厢区华亭镇顶宅村幸福院东南侧250米",
        "tel": "",
        "category": "基础设施:公共设施:公共厕所",
        "type": 0,
        "location": {
            "lat": 25.375921,
            "lng": 118.941667
        },
        "ad_info": {
            "adcode": 350302,
            "province": "福建省",
            "city": "莆田市",
            "district": "城厢区"
        }
    },
    {
        "id": "15472582778709132659",
        "title": "岐山公共厕所",
        "address": "福建省莆田市涵江区江口镇大东村岐山321号",
        "tel": "",
        "category": "基础设施:公共设施:公共厕所",
        "type": 0,
        "location": {
            "lat": 25.510272,
            "lng": 119.221723
        },
        "ad_info": {
            "adcode": 350303,
            "province": "福建省",
            "city": "莆田市",
            "district": "涵江区"
        }
    },
    {
        "id": "3873361875688149962",
        "title": "男女厕所",
        "address": "福建省莆田市仙游县枫亭东路与枫亭西路交叉口正南方向73米左右",
        "tel": "",
        "category": "基础设施:公共设施:公共厕所",
        "type": 0,
        "location": {
            "lat": 25.247891,
            "lng": 118.856733
        },
        "ad_info": {
            "adcode": 350322,
            "province": "福建省",
            "city": "莆田市",
            "district": "仙游县"
        }
    },
    {
        "id": "16938817128495348025",
        "title": "西墩村公共厕所",
        "address": "福建省莆田市城厢区灵川镇西墩村戏台旁",
        "tel": "",
        "category": "基础设施:公共设施:公共厕所",
        "type": 0,
        "location": {
            "lat": 25.280442,
            "lng": 118.96843
        },
        "ad_info": {
            "adcode": 350302,
            "province": "福建省",
            "city": "莆田市",
            "district": "城厢区"
        }
    },
    {
        "id": "14004343661569969552",
        "title": "隆兴村岩前公共厕所",
        "address": "福建省莆田市城厢区华亭镇隆兴村岩前291号",
        "tel": "",
        "category": "基础设施:公共设施:公共厕所",
        "type": 0,
        "location": {
            "lat": 25.397525,
            "lng": 118.874265
        },
        "ad_info": {
            "adcode": 350302,
            "province": "福建省",
            "city": "莆田市",
            "district": "城厢区"
        }
    },
    {
        "id": "14634721942505339478",
        "title": "菜溪岩服务区第二公共厕所",
        "address": "福建省莆田市仙游县S310与大坪大桥交叉口正北方向1778米左右",
        "tel": "",
        "category": "基础设施:公共设施:公共厕所",
        "type": 0,
        "location": {
            "lat": 25.585173,
            "lng": 118.722113
        },
        "ad_info": {
            "adcode": 350322,
            "province": "福建省",
            "city": "莆田市",
            "district": "仙游县"
        }
    },
    {
        "id": "8255737461310320506",
        "title": "兴沙山利公共厕所",
        "address": "福建省莆田市城厢区木兰大道辅路与群兴路交叉口东南方向1344米左右",
        "tel": "",
        "category": "基础设施:公共设施:公共厕所",
        "type": 0,
        "location": {
            "lat": 25.35932,
            "lng": 118.950934
        },
        "ad_info": {
            "adcode": 350302,
            "province": "福建省",
            "city": "莆田市",
            "district": "城厢区"
        }
    },
    {
        "id": "1454493356593040448",
        "title": "菜溪乡溪边村高速出口公共厕所",
        "address": "福建省莆田市仙游县S310与甬莞高速交叉口西南方向384米左右",
        "tel": "",
        "category": "基础设施:公共设施:公共厕所",
        "type": 0,
        "location": {
            "lat": 25.557493,
            "lng": 118.71053
        },
        "ad_info": {
            "adcode": 350322,
            "province": "福建省",
            "city": "莆田市",
            "district": "仙游县"
        }
    },
    {
        "id": "9672000065615133824",
        "title": "赤港服务区第一公共厕所",
        "address": "福建省莆田市涵江区东港路与联十一支线交叉口东北方向285米左右",
        "tel": "",
        "category": "基础设施:公共设施:公共厕所",
        "type": 0,
        "location": {
            "lat": 25.462813,
            "lng": 119.184584
        },
        "ad_info": {
            "adcode": 350303,
            "province": "福建省",
            "city": "莆田市",
            "district": "涵江区"
        }
    },
    {
        "id": "494910910619305586",
        "title": "山柄村公共厕所",
        "address": "福建省莆田市秀屿区山柄村元山祠戏台下",
        "tel": "",
        "category": "基础设施:公共设施:公共厕所",
        "type": 0,
        "location": {
            "lat": 25.120906,
            "lng": 119.108137
        },
        "ad_info": {
            "adcode": 350305,
            "province": "福建省",
            "city": "莆田市",
            "district": "秀屿区"
        }
    },
    {
        "id": "12436607299412670882",
        "title": "安柄村白石观公共厕所",
        "address": "福建省莆田市秀屿区安柄村村心白石社旁",
        "tel": "",
        "category": "基础设施:公共设施:公共厕所",
        "type": 0,
        "location": {
            "lat": 25.210996,
            "lng": 119.090605
        },
        "ad_info": {
            "adcode": 350305,
            "province": "福建省",
            "city": "莆田市",
            "district": "秀屿区"
        }
    },
    {
        "id": "17569222104395479451",
        "title": "菜溪岩服务区第二公共厕所",
        "address": "福建省莆田市仙游县S35福诏高速西100米",
        "tel": "",
        "category": "基础设施:公共设施:公共厕所",
        "type": 0,
        "location": {
            "lat": 25.587317,
            "lng": 118.721296
        },
        "ad_info": {
            "adcode": 350322,
            "province": "福建省",
            "city": "莆田市",
            "district": "仙游县"
        }
    },
    {
        "id": "17374913946612293601",
        "title": "肯德基(新文献餐厅)-洗手间",
        "address": "福建省莆田市城厢区大唐1号楼",
        "tel": "",
        "category": "基础设施:公共设施:公共厕所",
        "type": 0,
        "location": {
            "lat": 25.431861,
            "lng": 119.012517
        },
        "ad_info": {
            "adcode": 350302,
            "province": "福建省",
            "city": "莆田市",
            "district": "城厢区"
        }
    },
    {
        "id": "11382465984874187268",
        "title": "湄洲岛国家旅游度假区公共厕所",
        "address": "福建省莆田市秀屿区妈祖祖庙南轴线顺济殿公共厕所",
        "tel": "",
        "category": "基础设施:公共设施:公共厕所",
        "type": 0,
        "location": {
            "lat": 25.088404,
            "lng": 119.147289
        },
        "ad_info": {
            "adcode": 350305,
            "province": "福建省",
            "city": "莆田市",
            "district": "秀屿区"
        }
    },
    {
        "id": "7901020851197995770",
        "title": "新乌垞村公共厕所",
        "address": "福建省莆田市秀屿区永福路与田厝南路交叉口西南方向399米左右",
        "tel": "",
        "category": "基础设施:公共设施:公共厕所",
        "type": 0,
        "location": {
            "lat": 25.133249,
            "lng": 119.092734
        },
        "ad_info": {
            "adcode": 350305,
            "province": "福建省",
            "city": "莆田市",
            "district": "秀屿区"
        }
    },
    {
        "id": "9703703611204843071",
        "title": "东仙社区公共厕所",
        "address": "福建省莆田市秀屿区G356与新文路交叉口东北方向362米左右",
        "tel": "",
        "category": "基础设施:公共设施:公共厕所",
        "type": 0,
        "location": {
            "lat": 25.138341,
            "lng": 119.153057
        },
        "ad_info": {
            "adcode": 350305,
            "province": "福建省",
            "city": "莆田市",
            "district": "秀屿区"
        }
    },
    {
        "id": "1542278355433978285",
        "title": "男洗手间(馨宜·新天地)",
        "address": "福建省莆田市荔城区西洪路与东圳东路交汇处馨宜·新天地F4",
        "tel": "",
        "category": "基础设施:公共设施:男洗手间",
        "type": 0,
        "location": {
            "lat": 25.446441,
            "lng": 119.038206
        },
        "ad_info": {
            "adcode": 350304,
            "province": "福建省",
            "city": "莆田市",
            "district": "荔城区"
        }
    },
    {
        "id": "2799274369387698605",
        "title": "女洗手间",
        "address": "福建省莆田市荔城区西洪路与东圳东路交汇处馨宜·新天地F4",
        "tel": "",
        "category": "基础设施:公共设施:女洗手间",
        "type": 0,
        "location": {
            "lat": 25.446417,
            "lng": 119.0382
        },
        "ad_info": {
            "adcode": 350304,
            "province": "福建省",
            "city": "莆田市",
            "district": "荔城区"
        }
    },
    {
        "id": "1241079443441741942",
        "title": "赤港服务区第二公共厕所",
        "address": "福建省莆田市涵江区东港路与联十一支线交叉口正北方向456米左右",
        "tel": "",
        "category": "基础设施:公共设施:公共厕所",
        "type": 0,
        "location": {
            "lat": 25.464762,
            "lng": 119.18371
        },
        "ad_info": {
            "adcode": 350303,
            "province": "福建省",
            "city": "莆田市",
            "district": "涵江区"
        }
    },
    {
        "id": "5897825851162155541",
        "title": "公共厕所",
        "address": "福建省莆田市秀屿区秀永支线与秀永高速交叉口西南方向430米左右",
        "tel": "",
        "category": "基础设施:公共设施:公共厕所",
        "type": 0,
        "location": {
            "lat": 25.328907,
            "lng": 119.048478
        },
        "ad_info": {
            "adcode": 350305,
            "province": "福建省",
            "city": "莆田市",
            "district": "秀屿区"
        }
    },
    {
        "id": "5660965078353512079",
        "title": "公共厕所",
        "address": "福建省莆田市城厢区莆阳西路416号",
        "tel": "",
        "category": "基础设施:公共设施:公共厕所",
        "type": 0,
        "location": {
            "lat": 25.425244,
            "lng": 119.006429
        },
        "ad_info": {
            "adcode": 350302,
            "province": "福建省",
            "city": "莆田市",
            "district": "城厢区"
        }
    },
    {
        "id": "9058278731139628154",
        "title": "钟山镇东溪村公共厕所",
        "address": "福建省莆田市仙游县钟山镇卓泉喇叭口",
        "tel": "",
        "category": "基础设施:公共设施:公共厕所",
        "type": 0,
        "location": {
            "lat": 25.491123,
            "lng": 118.792252
        },
        "ad_info": {
            "adcode": 350322,
            "province": "福建省",
            "city": "莆田市",
            "district": "仙游县"
        }
    },
    {
        "id": "4332669150604261469",
        "title": "男洗手间(莆田城厢万达广场)",
        "address": "福建省莆田市城厢区荔华东大道8号莆田城厢万达广场3F层",
        "tel": "",
        "category": "基础设施:公共设施:公共厕所",
        "type": 0,
        "location": {
            "lat": 25.417543,
            "lng": 118.99578
        },
        "ad_info": {
            "adcode": 350302,
            "province": "福建省",
            "city": "莆田市",
            "district": "城厢区"
        }
    },
    {
        "id": "10129596630636127192",
        "title": "南梧塘公共厕所",
        "address": "福建省莆田市荔城区八二一街与湖滨南路交叉口正南方向371米左右",
        "tel": "",
        "category": "基础设施:公共设施:公共厕所",
        "type": 0,
        "location": {
            "lat": 25.399593,
            "lng": 119.023894
        },
        "ad_info": {
            "adcode": 350304,
            "province": "福建省",
            "city": "莆田市",
            "district": "荔城区"
        }
    },
    {
        "id": "5001147616808908979",
        "title": "公共厕所",
        "address": "福建省莆田市涵江区公园西路与黄安路交叉口东北方向150米左右",
        "tel": "",
        "category": "基础设施:公共设施:公共厕所",
        "type": 0,
        "location": {
            "lat": 25.47036,
            "lng": 119.111227
        },
        "ad_info": {
            "adcode": 350303,
            "province": "福建省",
            "city": "莆田市",
            "district": "涵江区"
        }
    },
    {
        "id": "16910415804472173877",
        "title": "公共厕所",
        "address": "福建省莆田市荔城区沈海高速与西埔枢纽交叉口西南方向1170米左右",
        "tel": "",
        "category": "基础设施:公共设施:公共厕所",
        "type": 0,
        "location": {
            "lat": 25.337519,
            "lng": 119.027321
        },
        "ad_info": {
            "adcode": 350304,
            "province": "福建省",
            "city": "莆田市",
            "district": "荔城区"
        }
    },
    {
        "id": "17495976615484339878",
        "title": "公共厕所",
        "address": "福建省莆田市荔城区S202与天妃路交叉口西北方向92米左右",
        "tel": "",
        "category": "基础设施:公共设施:公共厕所",
        "type": 0,
        "location": {
            "lat": 25.385613,
            "lng": 119.064482
        },
        "ad_info": {
            "adcode": 350304,
            "province": "福建省",
            "city": "莆田市",
            "district": "荔城区"
        }
    },
    {
        "id": "14369402191866869228",
        "title": "白沙服务区公共厕所",
        "address": "福建省莆田市涵江区S202与北辰殿中桥交叉口西北方向1593米左右",
        "tel": "",
        "category": "基础设施:公共设施:公共厕所",
        "type": 0,
        "location": {
            "lat": 25.575551,
            "lng": 119.0469
        },
        "ad_info": {
            "adcode": 350303,
            "province": "福建省",
            "city": "莆田市",
            "district": "涵江区"
        }
    },
    {
        "id": "8773580754399880862",
        "title": "男洗手间",
        "address": "福建省莆田市荔城区西洪路与东圳东路交汇处馨宜·新天地F2",
        "tel": "",
        "category": "基础设施:公共设施:男洗手间",
        "type": 0,
        "location": {
            "lat": 25.447421,
            "lng": 119.038295
        },
        "ad_info": {
            "adcode": 350304,
            "province": "福建省",
            "city": "莆田市",
            "district": "荔城区"
        }
    },
    {
        "id": "2033854240720177039",
        "title": "兰友水果市场公共厕所",
        "address": "福建省莆田市仙游县旧水果市场旁(枫亭西路604号旁)",
        "tel": "",
        "category": "基础设施:公共设施:公共厕所",
        "type": 0,
        "location": {
            "lat": 25.245357,
            "lng": 118.851681
        },
        "ad_info": {
            "adcode": 350322,
            "province": "福建省",
            "city": "莆田市",
            "district": "仙游县"
        }
    },
    {
        "id": "8344581110824039731",
        "title": "无障碍公共厕所",
        "address": "福建省莆田市秀屿区东庄生态休闲农业园西侧150米",
        "tel": "",
        "category": "基础设施:公共设施:公共厕所",
        "type": 0,
        "location": {
            "lat": 25.257152,
            "lng": 119.049332
        },
        "ad_info": {
            "adcode": 350305,
            "province": "福建省",
            "city": "莆田市",
            "district": "秀屿区"
        }
    },
    {
        "id": "15825486695503991647",
        "title": "公共厕所",
        "address": "福建省莆田市荔城区谷城东路与道山街交叉口东南方向377米左右",
        "tel": "",
        "category": "基础设施:公共设施:公共厕所",
        "type": 0,
        "location": {
            "lat": 25.369196,
            "lng": 119.094815
        },
        "ad_info": {
            "adcode": 350304,
            "province": "福建省",
            "city": "莆田市",
            "district": "荔城区"
        }
    },
    {
        "id": "13907683286504506802",
        "title": "洗手间",
        "address": "福建省莆田市荔城区西洪路与东圳东路交汇处馨宜·新天地F2-2116",
        "tel": "",
        "category": "基础设施:公共设施:公共厕所",
        "type": 0,
        "location": {
            "lat": 25.447407,
            "lng": 119.038248
        },
        "ad_info": {
            "adcode": 350304,
            "province": "福建省",
            "city": "莆田市",
            "district": "荔城区"
        }
    },
    {
        "id": "2514526887338888752",
        "title": "公共厕所",
        "address": "福建省莆田市涵江区后埕坡路与海星街交叉口西南方向284米左右",
        "tel": "",
        "category": "基础设施:公共设施:公共厕所",
        "type": 0,
        "location": {
            "lat": 25.474781,
            "lng": 119.195393
        },
        "ad_info": {
            "adcode": 350303,
            "province": "福建省",
            "city": "莆田市",
            "district": "涵江区"
        }
    },
    {
        "id": "4742616438905579895",
        "title": "兰溪北岸(会仙宫段)公共厕所",
        "address": "福建省莆田市仙游县园滨西段绿化带中",
        "tel": "",
        "category": "基础设施:公共设施:公共厕所",
        "type": 0,
        "location": {
            "lat": 25.353679,
            "lng": 118.685672
        },
        "ad_info": {
            "adcode": 350322,
            "province": "福建省",
            "city": "莆田市",
            "district": "仙游县"
        }
    },
    {
        "id": "16080328831346603553",
        "title": "公共厕所",
        "address": "福建省莆田市城厢区龙德井街莆田市第一医院",
        "tel": "",
        "category": "基础设施:公共设施:公共厕所",
        "type": 0,
        "location": {
            "lat": 25.428576,
            "lng": 119.00665
        },
        "ad_info": {
            "adcode": 350302,
            "province": "福建省",
            "city": "莆田市",
            "district": "城厢区"
        }
    },
    {
        "id": "5513128915368608167",
        "title": "公共厕所",
        "address": "福建省莆田市涵江区白塘路与荔东线交叉口正东方向1418米左右",
        "tel": "",
        "category": "基础设施:公共设施:公共厕所",
        "type": 0,
        "location": {
            "lat": 25.441653,
            "lng": 119.068038
        },
        "ad_info": {
            "adcode": 350303,
            "province": "福建省",
            "city": "莆田市",
            "district": "涵江区"
        }
    },
    {
        "id": "13841782469003826008",
        "title": "南山广化寺公共厕所",
        "address": "福建省莆田市城厢区广化路南山广化寺内(东侧)",
        "tel": "",
        "category": "基础设施:公共设施:公共厕所",
        "type": 0,
        "location": {
            "lat": 25.424876,
            "lng": 118.990444
        },
        "ad_info": {
            "adcode": 350302,
            "province": "福建省",
            "city": "莆田市",
            "district": "城厢区"
        }
    },
    {
        "id": "4418641160810999919",
        "title": "男洗手间(馨宜·新天地)",
        "address": "福建省莆田市荔城区西洪路与东圳东路交汇处馨宜·新天地B1",
        "tel": "",
        "category": "基础设施:公共设施:男洗手间",
        "type": 0,
        "location": {
            "lat": 25.446341,
            "lng": 119.037886
        },
        "ad_info": {
            "adcode": 350304,
            "province": "福建省",
            "city": "莆田市",
            "district": "荔城区"
        }
    },
    {
        "id": "13720139612096369325",
        "title": "公共厕所",
        "address": "福建省莆田市涵江区丰山村井头89东南方向90米",
        "tel": "",
        "category": "基础设施:公共设施:公共厕所",
        "type": 0,
        "location": {
            "lat": 25.491196,
            "lng": 119.176557
        },
        "ad_info": {
            "adcode": 350303,
            "province": "福建省",
            "city": "莆田市",
            "district": "涵江区"
        }
    },
    {
        "id": "16126578885591818957",
        "title": "云庄村公共厕所",
        "address": "福建省莆田市城厢区何寨北街与康平东路交叉口东北方向911米左右",
        "tel": "",
        "category": "基础设施:公共设施:公共厕所",
        "type": 0,
        "location": {
            "lat": 25.301424,
            "lng": 118.976906
        },
        "ad_info": {
            "adcode": 350302,
            "province": "福建省",
            "city": "莆田市",
            "district": "城厢区"
        }
    },
    {
        "id": "17204149900987359738",
        "title": "公共厕所",
        "address": "福建省莆田市秀屿区易鲜超市南侧",
        "tel": "",
        "category": "基础设施:公共设施:公共厕所",
        "type": 0,
        "location": {
            "lat": 25.320574,
            "lng": 119.050364
        },
        "ad_info": {
            "adcode": 350305,
            "province": "福建省",
            "city": "莆田市",
            "district": "秀屿区"
        }
    },
    {
        "id": "4708261022640958796",
        "title": "街心公园公共厕所",
        "address": "福建省莆田市仙游县鲤南镇新园街街心公园128号",
        "tel": "",
        "category": "基础设施:公共设施:公共厕所",
        "type": 0,
        "location": {
            "lat": 25.349938,
            "lng": 118.698134
        },
        "ad_info": {
            "adcode": 350322,
            "province": "福建省",
            "city": "莆田市",
            "district": "仙游县"
        }
    },
    {
        "id": "5289179116786472165",
        "title": "公共厕所",
        "address": "福建省莆田市涵江区人民街与荔涵大道交叉口正东方向594米左右",
        "tel": "",
        "category": "基础设施:公共设施:公共厕所",
        "type": 0,
        "location": {
            "lat": 25.49477,
            "lng": 119.127393
        },
        "ad_info": {
            "adcode": 350303,
            "province": "福建省",
            "city": "莆田市",
            "district": "涵江区"
        }
    },
    {
        "id": "3640710907139210216",
        "title": "梧塘新社新公共厕所",
        "address": "福建省莆田市涵江区兴社街与新西路交叉口正西方向21米左右",
        "tel": "",
        "category": "基础设施:公共设施:公共厕所",
        "type": 0,
        "location": {
            "lat": 25.495154,
            "lng": 119.080161
        },
        "ad_info": {
            "adcode": 350303,
            "province": "福建省",
            "city": "莆田市",
            "district": "涵江区"
        }
    },
    {
        "id": "4844596445649193604",
        "title": "公共厕所",
        "address": "福建省莆田市涵江区兴华路与涵西街交叉口正南方向356米左右",
        "tel": "",
        "category": "基础设施:公共设施:公共厕所",
        "type": 0,
        "location": {
            "lat": 25.474849,
            "lng": 119.190471
        },
        "ad_info": {
            "adcode": 350303,
            "province": "福建省",
            "city": "莆田市",
            "district": "涵江区"
        }
    },
    {
        "id": "2465474303891347770",
        "title": "公共厕所",
        "address": "福建省莆田市涵江区西林小学南侧170米",
        "tel": "",
        "category": "基础设施:公共设施:公共厕所",
        "type": 0,
        "location": {
            "lat": 25.493071,
            "lng": 119.125955
        },
        "ad_info": {
            "adcode": 350303,
            "province": "福建省",
            "city": "莆田市",
            "district": "涵江区"
        }
    },
    {
        "id": "17507722442415207958",
        "title": "公共厕所",
        "address": "福建省莆田市城厢区莆田擢英中学(生活区)南侧160米",
        "tel": "",
        "category": "基础设施:公共设施:公共厕所",
        "type": 0,
        "location": {
            "lat": 25.42642,
            "lng": 119.0151
        },
        "ad_info": {
            "adcode": 350302,
            "province": "福建省",
            "city": "莆田市",
            "district": "城厢区"
        }
    },
    {
        "id": "16616408811367317678",
        "title": "公共厕所",
        "address": "福建省莆田市秀屿区下坑南路与东前路交叉口正北方向662米左右",
        "tel": "",
        "category": "基础设施:公共设施:公共厕所",
        "type": 0,
        "location": {
            "lat": 25.163133,
            "lng": 119.050434
        },
        "ad_info": {
            "adcode": 350305,
            "province": "福建省",
            "city": "莆田市",
            "district": "秀屿区"
        }
    },
    {
        "id": "10847942852031744667",
        "title": "女洗手间",
        "address": "福建省莆田市荔城区西洪路与东圳东路交汇处馨宜·新天地F3",
        "tel": "",
        "category": "基础设施:公共设施:女洗手间",
        "type": 0,
        "location": {
            "lat": 25.447018,
            "lng": 119.038718
        },
        "ad_info": {
            "adcode": 350304,
            "province": "福建省",
            "city": "莆田市",
            "district": "荔城区"
        }
    },
    {
        "id": "314372796964242622",
        "title": "公共厕所",
        "address": "福建省莆田市涵江区延宁路与滨海路交叉口东南方向105米左右",
        "tel": "",
        "category": "基础设施:公共设施:公共厕所",
        "type": 0,
        "location": {
            "lat": 25.447025,
            "lng": 119.104807
        },
        "ad_info": {
            "adcode": 350303,
            "province": "福建省",
            "city": "莆田市",
            "district": "涵江区"
        }
    },
    {
        "id": "9876458782625401530",
        "title": "公共厕所",
        "address": "福建省莆田市仙游县园滨西路与融兴街交叉口西南方向76米左右",
        "tel": "",
        "category": "基础设施:公共设施:公共厕所",
        "type": 0,
        "location": {
            "lat": 25.353699,
            "lng": 118.692784
        },
        "ad_info": {
            "adcode": 350322,
            "province": "福建省",
            "city": "莆田市",
            "district": "仙游县"
        }
    },
    {
        "id": "6628291437694166366",
        "title": "公共厕所",
        "address": "福建省莆田市城厢区五云村边乡村",
        "tel": "",
        "category": "基础设施:公共设施:公共厕所",
        "type": 0,
        "location": {
            "lat": 25.399722,
            "lng": 118.863068
        },
        "ad_info": {
            "adcode": 350302,
            "province": "福建省",
            "city": "莆田市",
            "district": "城厢区"
        }
    },
    {
        "id": "870694944822648287",
        "title": "公共厕所",
        "address": "福建省莆田市涵江区礼佛菩提大道与荔涵大道交叉口正南方向631米左右",
        "tel": "",
        "category": "基础设施:公共设施:公共厕所",
        "type": 0,
        "location": {
            "lat": 25.490854,
            "lng": 119.132523
        },
        "ad_info": {
            "adcode": 350303,
            "province": "福建省",
            "city": "莆田市",
            "district": "涵江区"
        }
    },
    {
        "id": "5724422006644092537",
        "title": "公共厕所",
        "address": "福建省莆田市涵江区后埕坡路与无行路交叉口西南方向487米左右",
        "tel": "",
        "category": "基础设施:公共设施:公共厕所",
        "type": 0,
        "location": {
            "lat": 25.470558,
            "lng": 119.195461
        },
        "ad_info": {
            "adcode": 350303,
            "province": "福建省",
            "city": "莆田市",
            "district": "涵江区"
        }
    },
    {
        "id": "12554535581003578848",
        "title": "公共厕所",
        "address": "福建省莆田市仙游县榜头镇莲墘社区顶厝114号对面",
        "tel": "",
        "category": "基础设施:公共设施:公共厕所",
        "type": 0,
        "location": {
            "lat": 25.426887,
            "lng": 118.759426
        },
        "ad_info": {
            "adcode": 350322,
            "province": "福建省",
            "city": "莆田市",
            "district": "仙游县"
        }
    },
    {
        "id": "897788699401396887",
        "title": "公共厕所",
        "address": "福建省莆田市涵江区涵庭路与迎宾路交叉口正南方向167米左右",
        "tel": "",
        "category": "基础设施:公共设施:公共厕所",
        "type": 0,
        "location": {
            "lat": 25.468147,
            "lng": 119.159056
        },
        "ad_info": {
            "adcode": 350303,
            "province": "福建省",
            "city": "莆田市",
            "district": "涵江区"
        }
    },
    {
        "id": "11178608658895235086",
        "title": "公共厕所",
        "address": "福建省莆田市秀屿区笏枫路与笏西街交叉口西220米",
        "tel": "",
        "category": "基础设施:公共设施:公共厕所",
        "type": 0,
        "location": {
            "lat": 25.316838,
            "lng": 119.084106
        },
        "ad_info": {
            "adcode": 350305,
            "province": "福建省",
            "city": "莆田市",
            "district": "秀屿区"
        }
    },
    {
        "id": "12101669961003826637",
        "title": "台湾大酒店-洗手间",
        "address": "福建省莆田市城厢区文献西路1439号",
        "tel": "",
        "category": "基础设施:公共设施:公共厕所",
        "type": 0,
        "location": {
            "lat": 25.434725,
            "lng": 118.998372
        },
        "ad_info": {
            "adcode": 350302,
            "province": "福建省",
            "city": "莆田市",
            "district": "城厢区"
        }
    },
    {
        "id": "7122993870653599398",
        "title": "善乡服务区公共厕所",
        "address": "福建省莆田市荔城区城港大道辅路与惠好路交叉口正西方向580米左右",
        "tel": "",
        "category": "基础设施:公共设施:公共厕所",
        "type": 0,
        "location": {
            "lat": 25.361243,
            "lng": 119.036337
        },
        "ad_info": {
            "adcode": 350304,
            "province": "福建省",
            "city": "莆田市",
            "district": "荔城区"
        }
    },
    {
        "id": "7541649830035909385",
        "title": "公共厕所",
        "address": "福建省莆田市仙游县鲤城街道田岑底肖厝巷22号旁边",
        "tel": "",
        "category": "基础设施:公共设施:公共厕所",
        "type": 0,
        "location": {
            "lat": 25.35785,
            "lng": 118.688146
        },
        "ad_info": {
            "adcode": 350322,
            "province": "福建省",
            "city": "莆田市",
            "district": "仙游县"
        }
    },
    {
        "id": "6121732941545217836",
        "title": "公共厕所",
        "address": "福建省莆田市城厢区荔华西大道与霞皋路交叉口正南方向37米左右",
        "tel": "",
        "category": "基础设施:公共设施:公共厕所",
        "type": 0,
        "location": {
            "lat": 25.389205,
            "lng": 118.952662
        },
        "ad_info": {
            "adcode": 350302,
            "province": "福建省",
            "city": "莆田市",
            "district": "城厢区"
        }
    },
    {
        "id": "8641995012292077670",
        "title": "公共厕所",
        "address": "福建省莆田市涵江区人民街与公园东路交叉口东北方向316米左右",
        "tel": "",
        "category": "基础设施:公共设施:公共厕所",
        "type": 0,
        "location": {
            "lat": 25.471021,
            "lng": 119.124797
        },
        "ad_info": {
            "adcode": 350303,
            "province": "福建省",
            "city": "莆田市",
            "district": "涵江区"
        }
    },
    {
        "id": "3196626002090223997",
        "title": "公共厕所(紫泽社区大厝)",
        "address": "福建省莆田市仙游县紫泽社区大厝75号",
        "tel": "",
        "category": "基础设施:公共设施:公共厕所",
        "type": 0,
        "location": {
            "lat": 25.396973,
            "lng": 118.75551
        },
        "ad_info": {
            "adcode": 350322,
            "province": "福建省",
            "city": "莆田市",
            "district": "仙游县"
        }
    },
    {
        "id": "5655568260818128942",
        "title": "公共厕所",
        "address": "福建省莆田市涵江区迎宾路与涵港路交叉口西460米",
        "tel": "",
        "category": "基础设施:公共设施:公共厕所",
        "type": 0,
        "location": {
            "lat": 25.465826,
            "lng": 119.15627
        },
        "ad_info": {
            "adcode": 350303,
            "province": "福建省",
            "city": "莆田市",
            "district": "涵江区"
        }
    },
    {
        "id": "18015487406217594072",
        "title": "上图村团结公共厕所",
        "address": "福建省莆田市城厢区东海镇上图村903号",
        "tel": "",
        "category": "基础设施:公共设施:公共厕所",
        "type": 0,
        "location": {
            "lat": 25.287941,
            "lng": 118.903302
        },
        "ad_info": {
            "adcode": 350302,
            "province": "福建省",
            "city": "莆田市",
            "district": "城厢区"
        }
    },
    {
        "id": "8409029101965003948",
        "title": "男洗手间(馨宜·新天地)",
        "address": "福建省莆田市荔城区西洪路与东圳东路交汇处馨宜·新天地F3",
        "tel": "",
        "category": "基础设施:公共设施:男洗手间",
        "type": 0,
        "location": {
            "lat": 25.44706,
            "lng": 119.038735
        },
        "ad_info": {
            "adcode": 350304,
            "province": "福建省",
            "city": "莆田市",
            "district": "荔城区"
        }
    },
    {
        "id": "13021252421106223178",
        "title": "公共厕所",
        "address": "福建省莆田市仙游县G324与枫林桥交叉口西南方向311米左右",
        "tel": "",
        "category": "基础设施:公共设施:公共厕所",
        "type": 0,
        "location": {
            "lat": 25.316806,
            "lng": 118.849107
        },
        "ad_info": {
            "adcode": 350322,
            "province": "福建省",
            "city": "莆田市",
            "district": "仙游县"
        }
    },
    {
        "id": "5684392685650360706",
        "title": "公共厕所",
        "address": "福建省莆田市荔城区城瑶线与荔港大道交叉口东北方向585米左右",
        "tel": "",
        "category": "基础设施:公共设施:公共厕所",
        "type": 0,
        "location": {
            "lat": 25.359165,
            "lng": 119.082965
        },
        "ad_info": {
            "adcode": 350304,
            "province": "福建省",
            "city": "莆田市",
            "district": "荔城区"
        }
    },
    {
        "id": "4849088219586581202",
        "title": "莆田御庄园温泉度假村-洗手间",
        "address": "福建省莆田市城厢区荔华东大道2388号",
        "tel": "",
        "category": "基础设施:公共设施:公共厕所",
        "type": 0,
        "location": {
            "lat": 25.40674,
            "lng": 118.978002
        },
        "ad_info": {
            "adcode": 350302,
            "province": "福建省",
            "city": "莆田市",
            "district": "城厢区"
        }
    },
    {
        "id": "3888328238925871579",
        "title": "公共厕所",
        "address": "福建省莆田市仙游县园滨西路与至喜亭街交叉口西南方向36米左右",
        "tel": "",
        "category": "基础设施:公共设施:公共厕所",
        "type": 0,
        "location": {
            "lat": 25.353438,
            "lng": 118.691026
        },
        "ad_info": {
            "adcode": 350322,
            "province": "福建省",
            "city": "莆田市",
            "district": "仙游县"
        }
    },
    {
        "id": "7354627138438528686",
        "title": "大济服务区第二公共厕所",
        "address": "福建省莆田市仙游县垅溪北街与山六大道交叉口正西方向1065米左右",
        "tel": "",
        "category": "基础设施:公共设施:公共厕所",
        "type": 0,
        "location": {
            "lat": 25.379762,
            "lng": 118.621992
        },
        "ad_info": {
            "adcode": 350322,
            "province": "福建省",
            "city": "莆田市",
            "district": "仙游县"
        }
    },
    {
        "id": "13892099178253031304",
        "title": "金桥公共厕所",
        "address": "福建省莆田市荔城区第一实验幼儿园旁",
        "tel": "",
        "category": "基础设施:公共设施:公共厕所",
        "type": 0,
        "location": {
            "lat": 25.431383,
            "lng": 119.017259
        },
        "ad_info": {
            "adcode": 350304,
            "province": "福建省",
            "city": "莆田市",
            "district": "荔城区"
        }
    },
    {
        "id": "13149306995506072493",
        "title": "公共厕所",
        "address": "福建省莆田市涵江区人民南街与人民街交叉口东南方向1104米左右",
        "tel": "",
        "category": "基础设施:公共设施:公共厕所",
        "type": 0,
        "location": {
            "lat": 25.444427,
            "lng": 119.140902
        },
        "ad_info": {
            "adcode": 350303,
            "province": "福建省",
            "city": "莆田市",
            "district": "涵江区"
        }
    },
    {
        "id": "18160995958360790417",
        "title": "公共厕所",
        "address": "福建省莆田市仙游县紫檀南街中国石油宝峰加油站",
        "tel": "",
        "category": "基础设施:公共设施:公共厕所",
        "type": 0,
        "location": {
            "lat": 25.376472,
            "lng": 118.720325
        },
        "ad_info": {
            "adcode": 350322,
            "province": "福建省",
            "city": "莆田市",
            "district": "仙游县"
        }
    },
    {
        "id": "13987135440176038048",
        "title": "无障碍公共厕所",
        "address": "福建省莆田市城厢区梅园西路与筱塘北街交叉口东南方向30米左右",
        "tel": "",
        "category": "基础设施:公共设施:公共厕所",
        "type": 0,
        "location": {
            "lat": 25.438868,
            "lng": 119.002915
        },
        "ad_info": {
            "adcode": 350302,
            "province": "福建省",
            "city": "莆田市",
            "district": "城厢区"
        }
    },
    {
        "id": "6730584856324229610",
        "title": "公共厕所",
        "address": "福建省莆田市仙游县城南东路与温泉东路交叉口西北方向457米左右",
        "tel": "",
        "category": "基础设施:公共设施:公共厕所",
        "type": 0,
        "location": {
            "lat": 25.348105,
            "lng": 118.712645
        },
        "ad_info": {
            "adcode": 350322,
            "province": "福建省",
            "city": "莆田市",
            "district": "仙游县"
        }
    },
    {
        "id": "10599307981817003885",
        "title": "公共厕所",
        "address": "福建省莆田市荔城区溪白路与荔城北大道交叉口正西方向73米左右",
        "tel": "",
        "category": "基础设施:公共设施:公共厕所",
        "type": 0,
        "location": {
            "lat": 25.481304,
            "lng": 119.024089
        },
        "ad_info": {
            "adcode": 350304,
            "province": "福建省",
            "city": "莆田市",
            "district": "荔城区"
        }
    },
    {
        "id": "6681773418048911730",
        "title": "新雪津啤酒厂公共厕所",
        "address": "福建省莆田市涵江区百威雪津啤酒有限公司西南侧160米",
        "tel": "",
        "category": "基础设施:公共设施:公共厕所",
        "type": 0,
        "location": {
            "lat": 25.439267,
            "lng": 119.145991
        },
        "ad_info": {
            "adcode": 350303,
            "province": "福建省",
            "city": "莆田市",
            "district": "涵江区"
        }
    },
    {
        "id": "7307320379296650125",
        "title": "公共厕所",
        "address": "福建省莆田市荔城区漳东线中国石化森美加油站(德亿站)",
        "tel": "",
        "category": "基础设施:公共设施:公共厕所",
        "type": 0,
        "location": {
            "lat": 25.370365,
            "lng": 119.079172
        },
        "ad_info": {
            "adcode": 350304,
            "province": "福建省",
            "city": "莆田市",
            "district": "荔城区"
        }
    },
    {
        "id": "17975972037829789206",
        "title": "公共厕所",
        "address": "福建省莆田市涵江区人民街与荔涵大道交叉口东南方向700米左右",
        "tel": "",
        "category": "基础设施:公共设施:公共厕所",
        "type": 0,
        "location": {
            "lat": 25.49067,
            "lng": 119.1245
        },
        "ad_info": {
            "adcode": 350303,
            "province": "福建省",
            "city": "莆田市",
            "district": "涵江区"
        }
    },
    {
        "id": "4744005760979439484",
        "title": "水池安置房公共厕所",
        "address": "福建省莆田市城厢区荔园西路2310号",
        "tel": "",
        "category": "基础设施:公共设施:公共厕所",
        "type": 0,
        "location": {
            "lat": 25.41214,
            "lng": 118.994373
        },
        "ad_info": {
            "adcode": 350302,
            "province": "福建省",
            "city": "莆田市",
            "district": "城厢区"
        }
    },
    {
        "id": "13117487361680307573",
        "title": "卫生间",
        "address": "福建省莆田市涵江区苍林街538号隆恒财富广场F4",
        "tel": "",
        "category": "基础设施:公共设施:公共厕所",
        "type": 0,
        "location": {
            "lat": 25.459438,
            "lng": 119.106976
        },
        "ad_info": {
            "adcode": 350303,
            "province": "福建省",
            "city": "莆田市",
            "district": "涵江区"
        }
    },
    {
        "id": "18325544152932720442",
        "title": "公共厕所",
        "address": "福建省莆田市仙游县彩虹路与艺园路交叉口正南方向185米左右",
        "tel": "",
        "category": "基础设施:公共设施:公共厕所",
        "type": 0,
        "location": {
            "lat": 25.406747,
            "lng": 118.763352
        },
        "ad_info": {
            "adcode": 350322,
            "province": "福建省",
            "city": "莆田市",
            "district": "仙游县"
        }
    },
    {
        "id": "12329302206413718895",
        "title": "溪白公共厕所",
        "address": "福建省莆田市荔城区荔园北路与霞兰路交叉口正北方向82米左右",
        "tel": "",
        "category": "基础设施:公共设施:公共厕所",
        "type": 0,
        "location": {
            "lat": 25.478202,
            "lng": 119.030768
        },
        "ad_info": {
            "adcode": 350304,
            "province": "福建省",
            "city": "莆田市",
            "district": "荔城区"
        }
    },
    {
        "id": "11946402248207499562",
        "title": "公共厕所(鲤城环卫综合场)",
        "address": "福建省莆田市仙游县秀永高速与蒲峰枢纽交叉口东南方向87米左右",
        "tel": "",
        "category": "基础设施:公共设施:公共厕所",
        "type": 0,
        "location": {
            "lat": 25.382914,
            "lng": 118.666643
        },
        "ad_info": {
            "adcode": 350322,
            "province": "福建省",
            "city": "莆田市",
            "district": "仙游县"
        }
    },
    {
        "id": "9170811061475649389",
        "title": "无障碍洗手间(隆恒财富广场)",
        "address": "福建省莆田市涵江区塘北街西侧隆恒财富广场F3层",
        "tel": "",
        "category": "基础设施:公共设施:公共厕所",
        "type": 0,
        "location": {
            "lat": 25.459432,
            "lng": 119.106913
        },
        "ad_info": {
            "adcode": 350303,
            "province": "福建省",
            "city": "莆田市",
            "district": "涵江区"
        }
    },
    {
        "id": "1490735956593127559",
        "title": "女卫生间",
        "address": "福建省莆田市涵江区苍林街538号隆恒财富广场F2",
        "tel": "",
        "category": "基础设施:公共设施:女洗手间",
        "type": 0,
        "location": {
            "lat": 25.459407,
            "lng": 119.106971
        },
        "ad_info": {
            "adcode": 350303,
            "province": "福建省",
            "city": "莆田市",
            "district": "涵江区"
        }
    },
    {
        "id": "17192226903084232089",
        "title": "公共厕所",
        "address": "福建省莆田市涵江区港后枢纽与G1517莆炎高速交叉口西南220米",
        "tel": "",
        "category": "基础设施:公共设施:公共厕所",
        "type": 0,
        "location": {
            "lat": 25.481442,
            "lng": 119.208674
        },
        "ad_info": {
            "adcode": 350303,
            "province": "福建省",
            "city": "莆田市",
            "district": "涵江区"
        }
    },
    {
        "id": "9537088262719890800",
        "title": "男卫生间(隆恒财富广场)",
        "address": "福建省莆田市涵江区苍林街538号隆恒财富广场F2",
        "tel": "",
        "category": "基础设施:公共设施:男洗手间",
        "type": 0,
        "location": {
            "lat": 25.459446,
            "lng": 119.106965
        },
        "ad_info": {
            "adcode": 350303,
            "province": "福建省",
            "city": "莆田市",
            "district": "涵江区"
        }
    },
    {
        "id": "5213957503549011951",
        "title": "公共厕所",
        "address": "福建省莆田市仙游县亥亭岭街与翔安北街交叉口正东方向287米左右",
        "tel": "",
        "category": "基础设施:公共设施:公共厕所",
        "type": 0,
        "location": {
            "lat": 25.353199,
            "lng": 118.712228
        },
        "ad_info": {
            "adcode": 350322,
            "province": "福建省",
            "city": "莆田市",
            "district": "仙游县"
        }
    },
    {
        "id": "4666943872139171266",
        "title": "鳌山下柯公共厕所",
        "address": "福建省莆田市涵江区塘山路与涵庭路交叉口东南方向1354米左右",
        "tel": "",
        "category": "基础设施:公共设施:公共厕所",
        "type": 0,
        "location": {
            "lat": 25.452743,
            "lng": 119.151223
        },
        "ad_info": {
            "adcode": 350303,
            "province": "福建省",
            "city": "莆田市",
            "district": "涵江区"
        }
    },
    {
        "id": "16342695070169885194",
        "title": "公共厕所",
        "address": "福建省莆田市秀屿区八号路与凌岱路交叉口正西方向969米左右",
        "tel": "",
        "category": "基础设施:公共设施:公共厕所",
        "type": 0,
        "location": {
            "lat": 25.269978,
            "lng": 119.123258
        },
        "ad_info": {
            "adcode": 350305,
            "province": "福建省",
            "city": "莆田市",
            "district": "秀屿区"
        }
    },
    {
        "id": "7379206585631603291",
        "title": "何麓村公共厕所",
        "address": "福建省莆田市仙游县榜头镇何麓村小学旁",
        "tel": "",
        "category": "基础设施:公共设施:公共厕所",
        "type": 0,
        "location": {
            "lat": 25.449478,
            "lng": 118.768363
        },
        "ad_info": {
            "adcode": 350322,
            "province": "福建省",
            "city": "莆田市",
            "district": "仙游县"
        }
    },
    {
        "id": "8057967768644721510",
        "title": "天澜城公共厕所",
        "address": "福建省莆田市涵江区六一西路与香林街交叉口东南方向67米左右",
        "tel": "",
        "category": "基础设施:公共设施:公共厕所",
        "type": 0,
        "location": {
            "lat": 25.462499,
            "lng": 119.093508
        },
        "ad_info": {
            "adcode": 350303,
            "province": "福建省",
            "city": "莆田市",
            "district": "涵江区"
        }
    },
    {
        "id": "13069177227802874335",
        "title": "兰溪幼儿园旁公共厕所",
        "address": "福建省莆田市仙游县鲤南镇官田路兰溪幼儿园旁公厕",
        "tel": "",
        "category": "基础设施:公共设施:公共厕所",
        "type": 0,
        "location": {
            "lat": 25.35954,
            "lng": 118.720884
        },
        "ad_info": {
            "adcode": 350322,
            "province": "福建省",
            "city": "莆田市",
            "district": "仙游县"
        }
    },
    {
        "id": "15734853984696168887",
        "title": "公共厕所",
        "address": "福建省莆田市涵江区晏井村公墓区旁",
        "tel": "",
        "category": "基础设施:公共设施:公共厕所",
        "type": 0,
        "location": {
            "lat": 25.582363,
            "lng": 119.093784
        },
        "ad_info": {
            "adcode": 350303,
            "province": "福建省",
            "city": "莆田市",
            "district": "涵江区"
        }
    },
    {
        "id": "719729720884041046",
        "title": "公共厕所",
        "address": "福建省莆田市城厢区下郑街与溪北路交叉口东北方向149米左右",
        "tel": "",
        "category": "基础设施:公共设施:公共厕所",
        "type": 0,
        "location": {
            "lat": 25.468318,
            "lng": 119.00795
        },
        "ad_info": {
            "adcode": 350302,
            "province": "福建省",
            "city": "莆田市",
            "district": "城厢区"
        }
    },
    {
        "id": "5288243616532565905",
        "title": "三山公共厕所",
        "address": "福建省莆田市荔城区西天尾镇荔涵中大道1708号鼎力鞋业旁",
        "tel": "",
        "category": "基础设施:公共设施:公共厕所",
        "type": 0,
        "location": {
            "lat": 25.500862,
            "lng": 119.066418
        },
        "ad_info": {
            "adcode": 350304,
            "province": "福建省",
            "city": "莆田市",
            "district": "荔城区"
        }
    },
    {
        "id": "2843853831735273710",
        "title": "公共厕所",
        "address": "福建省莆田市秀屿区S202与新文路交叉口东南方向1213米",
        "tel": "",
        "category": "基础设施:公共设施:公共厕所",
        "type": 0,
        "location": {
            "lat": 25.263248,
            "lng": 119.112794
        },
        "ad_info": {
            "adcode": 350305,
            "province": "福建省",
            "city": "莆田市",
            "district": "秀屿区"
        }
    },
    {
        "id": "17975972037829789206",
        "title": "公共厕所",
        "address": "福建省莆田市涵江区人民街与荔涵大道交叉口东南方向700米左右",
        "tel": "",
        "category": "基础设施:公共设施:公共厕所",
        "type": 0,
        "location": {
            "lat": 25.49067,
            "lng": 119.1245
        },
        "ad_info": {
            "adcode": 350303,
            "province": "福建省",
            "city": "莆田市",
            "district": "涵江区"
        }
    },
    {
        "id": "4744005760979439484",
        "title": "水池安置房公共厕所",
        "address": "福建省莆田市城厢区荔园西路2310号",
        "tel": "",
        "category": "基础设施:公共设施:公共厕所",
        "type": 0,
        "location": {
            "lat": 25.41214,
            "lng": 118.994373
        },
        "ad_info": {
            "adcode": 350302,
            "province": "福建省",
            "city": "莆田市",
            "district": "城厢区"
        }
    },
    {
        "id": "13117487361680307573",
        "title": "卫生间",
        "address": "福建省莆田市涵江区苍林街538号隆恒财富广场F4",
        "tel": "",
        "category": "基础设施:公共设施:公共厕所",
        "type": 0,
        "location": {
            "lat": 25.459438,
            "lng": 119.106976
        },
        "ad_info": {
            "adcode": 350303,
            "province": "福建省",
            "city": "莆田市",
            "district": "涵江区"
        }
    },
    {
        "id": "18325544152932720442",
        "title": "公共厕所",
        "address": "福建省莆田市仙游县彩虹路与艺园路交叉口正南方向185米左右",
        "tel": "",
        "category": "基础设施:公共设施:公共厕所",
        "type": 0,
        "location": {
            "lat": 25.406747,
            "lng": 118.763352
        },
        "ad_info": {
            "adcode": 350322,
            "province": "福建省",
            "city": "莆田市",
            "district": "仙游县"
        }
    },
    {
        "id": "12329302206413718895",
        "title": "溪白公共厕所",
        "address": "福建省莆田市荔城区荔园北路与霞兰路交叉口正北方向82米左右",
        "tel": "",
        "category": "基础设施:公共设施:公共厕所",
        "type": 0,
        "location": {
            "lat": 25.478202,
            "lng": 119.030768
        },
        "ad_info": {
            "adcode": 350304,
            "province": "福建省",
            "city": "莆田市",
            "district": "荔城区"
        }
    },
    {
        "id": "11946402248207499562",
        "title": "公共厕所(鲤城环卫综合场)",
        "address": "福建省莆田市仙游县秀永高速与蒲峰枢纽交叉口东南方向87米左右",
        "tel": "",
        "category": "基础设施:公共设施:公共厕所",
        "type": 0,
        "location": {
            "lat": 25.382914,
            "lng": 118.666643
        },
        "ad_info": {
            "adcode": 350322,
            "province": "福建省",
            "city": "莆田市",
            "district": "仙游县"
        }
    },
    {
        "id": "9170811061475649389",
        "title": "无障碍洗手间(隆恒财富广场)",
        "address": "福建省莆田市涵江区塘北街西侧隆恒财富广场F3层",
        "tel": "",
        "category": "基础设施:公共设施:公共厕所",
        "type": 0,
        "location": {
            "lat": 25.459432,
            "lng": 119.106913
        },
        "ad_info": {
            "adcode": 350303,
            "province": "福建省",
            "city": "莆田市",
            "district": "涵江区"
        }
    },
    {
        "id": "1490735956593127559",
        "title": "女卫生间",
        "address": "福建省莆田市涵江区苍林街538号隆恒财富广场F2",
        "tel": "",
        "category": "基础设施:公共设施:女洗手间",
        "type": 0,
        "location": {
            "lat": 25.459407,
            "lng": 119.106971
        },
        "ad_info": {
            "adcode": 350303,
            "province": "福建省",
            "city": "莆田市",
            "district": "涵江区"
        }
    },
    {
        "id": "17192226903084232089",
        "title": "公共厕所",
        "address": "福建省莆田市涵江区港后枢纽与G1517莆炎高速交叉口西南220米",
        "tel": "",
        "category": "基础设施:公共设施:公共厕所",
        "type": 0,
        "location": {
            "lat": 25.481442,
            "lng": 119.208674
        },
        "ad_info": {
            "adcode": 350303,
            "province": "福建省",
            "city": "莆田市",
            "district": "涵江区"
        }
    },
    {
        "id": "9537088262719890800",
        "title": "男卫生间(隆恒财富广场)",
        "address": "福建省莆田市涵江区苍林街538号隆恒财富广场F2",
        "tel": "",
        "category": "基础设施:公共设施:男洗手间",
        "type": 0,
        "location": {
            "lat": 25.459446,
            "lng": 119.106965
        },
        "ad_info": {
            "adcode": 350303,
            "province": "福建省",
            "city": "莆田市",
            "district": "涵江区"
        }
    },
    {
        "id": "5213957503549011951",
        "title": "公共厕所",
        "address": "福建省莆田市仙游县亥亭岭街与翔安北街交叉口正东方向287米左右",
        "tel": "",
        "category": "基础设施:公共设施:公共厕所",
        "type": 0,
        "location": {
            "lat": 25.353199,
            "lng": 118.712228
        },
        "ad_info": {
            "adcode": 350322,
            "province": "福建省",
            "city": "莆田市",
            "district": "仙游县"
        }
    },
    {
        "id": "4666943872139171266",
        "title": "鳌山下柯公共厕所",
        "address": "福建省莆田市涵江区塘山路与涵庭路交叉口东南方向1354米左右",
        "tel": "",
        "category": "基础设施:公共设施:公共厕所",
        "type": 0,
        "location": {
            "lat": 25.452743,
            "lng": 119.151223
        },
        "ad_info": {
            "adcode": 350303,
            "province": "福建省",
            "city": "莆田市",
            "district": "涵江区"
        }
    },
    {
        "id": "16342695070169885194",
        "title": "公共厕所",
        "address": "福建省莆田市秀屿区八号路与凌岱路交叉口正西方向969米左右",
        "tel": "",
        "category": "基础设施:公共设施:公共厕所",
        "type": 0,
        "location": {
            "lat": 25.269978,
            "lng": 119.123258
        },
        "ad_info": {
            "adcode": 350305,
            "province": "福建省",
            "city": "莆田市",
            "district": "秀屿区"
        }
    },
    {
        "id": "7379206585631603291",
        "title": "何麓村公共厕所",
        "address": "福建省莆田市仙游县榜头镇何麓村小学旁",
        "tel": "",
        "category": "基础设施:公共设施:公共厕所",
        "type": 0,
        "location": {
            "lat": 25.449478,
            "lng": 118.768363
        },
        "ad_info": {
            "adcode": 350322,
            "province": "福建省",
            "city": "莆田市",
            "district": "仙游县"
        }
    },
    {
        "id": "8057967768644721510",
        "title": "天澜城公共厕所",
        "address": "福建省莆田市涵江区六一西路与香林街交叉口东南方向67米左右",
        "tel": "",
        "category": "基础设施:公共设施:公共厕所",
        "type": 0,
        "location": {
            "lat": 25.462499,
            "lng": 119.093508
        },
        "ad_info": {
            "adcode": 350303,
            "province": "福建省",
            "city": "莆田市",
            "district": "涵江区"
        }
    },
    {
        "id": "13069177227802874335",
        "title": "兰溪幼儿园旁公共厕所",
        "address": "福建省莆田市仙游县鲤南镇官田路兰溪幼儿园旁公厕",
        "tel": "",
        "category": "基础设施:公共设施:公共厕所",
        "type": 0,
        "location": {
            "lat": 25.35954,
            "lng": 118.720884
        },
        "ad_info": {
            "adcode": 350322,
            "province": "福建省",
            "city": "莆田市",
            "district": "仙游县"
        }
    },
    {
        "id": "15734853984696168887",
        "title": "公共厕所",
        "address": "福建省莆田市涵江区晏井村公墓区旁",
        "tel": "",
        "category": "基础设施:公共设施:公共厕所",
        "type": 0,
        "location": {
            "lat": 25.582363,
            "lng": 119.093784
        },
        "ad_info": {
            "adcode": 350303,
            "province": "福建省",
            "city": "莆田市",
            "district": "涵江区"
        }
    },
    {
        "id": "719729720884041046",
        "title": "公共厕所",
        "address": "福建省莆田市城厢区下郑街与溪北路交叉口东北方向149米左右",
        "tel": "",
        "category": "基础设施:公共设施:公共厕所",
        "type": 0,
        "location": {
            "lat": 25.468318,
            "lng": 119.00795
        },
        "ad_info": {
            "adcode": 350302,
            "province": "福建省",
            "city": "莆田市",
            "district": "城厢区"
        }
    },
    {
        "id": "5288243616532565905",
        "title": "三山公共厕所",
        "address": "福建省莆田市荔城区西天尾镇荔涵中大道1708号鼎力鞋业旁",
        "tel": "",
        "category": "基础设施:公共设施:公共厕所",
        "type": 0,
        "location": {
            "lat": 25.500862,
            "lng": 119.066418
        },
        "ad_info": {
            "adcode": 350304,
            "province": "福建省",
            "city": "莆田市",
            "district": "荔城区"
        }
    },
    {
        "id": "2843853831735273710",
        "title": "公共厕所",
        "address": "福建省莆田市秀屿区S202与新文路交叉口东南方向1213米",
        "tel": "",
        "category": "基础设施:公共设施:公共厕所",
        "type": 0,
        "location": {
            "lat": 25.263248,
            "lng": 119.112794
        },
        "ad_info": {
            "adcode": 350305,
            "province": "福建省",
            "city": "莆田市",
            "district": "秀屿区"
        }
    },
    {
        "id": "17975972037829789206",
        "title": "公共厕所",
        "address": "福建省莆田市涵江区人民街与荔涵大道交叉口东南方向700米左右",
        "tel": "",
        "category": "基础设施:公共设施:公共厕所",
        "type": 0,
        "location": {
            "lat": 25.49067,
            "lng": 119.1245
        },
        "ad_info": {
            "adcode": 350303,
            "province": "福建省",
            "city": "莆田市",
            "district": "涵江区"
        }
    },
    {
        "id": "4744005760979439484",
        "title": "水池安置房公共厕所",
        "address": "福建省莆田市城厢区荔园西路2310号",
        "tel": "",
        "category": "基础设施:公共设施:公共厕所",
        "type": 0,
        "location": {
            "lat": 25.41214,
            "lng": 118.994373
        },
        "ad_info": {
            "adcode": 350302,
            "province": "福建省",
            "city": "莆田市",
            "district": "城厢区"
        }
    },
    {
        "id": "13117487361680307573",
        "title": "卫生间",
        "address": "福建省莆田市涵江区苍林街538号隆恒财富广场F4",
        "tel": "",
        "category": "基础设施:公共设施:公共厕所",
        "type": 0,
        "location": {
            "lat": 25.459438,
            "lng": 119.106976
        },
        "ad_info": {
            "adcode": 350303,
            "province": "福建省",
            "city": "莆田市",
            "district": "涵江区"
        }
    },
    {
        "id": "18325544152932720442",
        "title": "公共厕所",
        "address": "福建省莆田市仙游县彩虹路与艺园路交叉口正南方向185米左右",
        "tel": "",
        "category": "基础设施:公共设施:公共厕所",
        "type": 0,
        "location": {
            "lat": 25.406747,
            "lng": 118.763352
        },
        "ad_info": {
            "adcode": 350322,
            "province": "福建省",
            "city": "莆田市",
            "district": "仙游县"
        }
    },
    {
        "id": "12329302206413718895",
        "title": "溪白公共厕所",
        "address": "福建省莆田市荔城区荔园北路与霞兰路交叉口正北方向82米左右",
        "tel": "",
        "category": "基础设施:公共设施:公共厕所",
        "type": 0,
        "location": {
            "lat": 25.478202,
            "lng": 119.030768
        },
        "ad_info": {
            "adcode": 350304,
            "province": "福建省",
            "city": "莆田市",
            "district": "荔城区"
        }
    },