[
    {
        "id": "1839590349642143421",
        "title": "公共厕所",
        "address": "江西省萍乡市安源区站前路萍乡站停车场",
        "tel": "",
        "category": "基础设施:公共设施:公共厕所",
        "type": 0,
        "location": {
            "lat": 27.646203,
            "lng": 113.842236
        },
        "ad_info": {
            "adcode": 360302,
            "province": "江西省",
            "city": "萍乡市",
            "district": "安源区"
        }
    },
    {
        "id": "14606140589365432316",
        "title": "公共厕所",
        "address": "江西省萍乡市安源区兴隆六街与金山三街交叉口西南方向19米左右",
        "tel": "",
        "category": "基础设施:公共设施:公共厕所",
        "type": 0,
        "location": {
            "lat": 27.64669,
            "lng": 113.871408
        },
        "ad_info": {
            "adcode": 360302,
            "province": "江西省",
            "city": "萍乡市",
            "district": "安源区"
        }
    },
    {
        "id": "7793940133695170186",
        "title": "公共厕所",
        "address": "江西省萍乡市安源区文昌路与文祥路交叉口东南方向22米左右",
        "tel": "",
        "category": "基础设施:公共设施:公共厕所",
        "type": 0,
        "location": {
            "lat": 27.636269,
            "lng": 113.855621
        },
        "ad_info": {
            "adcode": 360302,
            "province": "江西省",
            "city": "萍乡市",
            "district": "安源区"
        }
    },
    {
        "id": "5245845369992444577",
        "title": "公共厕所",
        "address": "江西省萍乡市安源区广场路5号",
        "tel": "",
        "category": "基础设施:公共设施:公共厕所",
        "type": 0,
        "location": {
            "lat": 27.62546,
            "lng": 113.854904
        },
        "ad_info": {
            "adcode": 360302,
            "province": "江西省",
            "city": "萍乡市",
            "district": "安源区"
        }
    },
    {
        "id": "8567628437350131523",
        "title": "公共厕所",
        "address": "江西省萍乡市安源区兴贤西路与萍实北大道交叉口西南方向394米左右",
        "tel": "",
        "category": "基础设施:公共设施:公共厕所",
        "type": 0,
        "location": {
            "lat": 27.661392,
            "lng": 113.853674
        },
        "ad_info": {
            "adcode": 360302,
            "province": "江西省",
            "city": "萍乡市",
            "district": "安源区"
        }
    },
    {
        "id": "7484795172659012686",
        "title": "公共厕所",
        "address": "江西省萍乡市安源区虎形北巷与虎形巷交叉口正北方向78米左右",
        "tel": "",
        "category": "基础设施:公共设施:公共厕所",
        "type": 0,
        "location": {
            "lat": 27.639023,
            "lng": 113.850526
        },
        "ad_info": {
            "adcode": 360302,
            "province": "江西省",
            "city": "萍乡市",
            "district": "安源区"
        }
    },
    {
        "id": "12830102726371197242",
        "title": "公共厕所",
        "address": "江西省萍乡市安源区朝阳中路与萍实南大道交叉口正东方向45米左右",
        "tel": "",
        "category": "基础设施:公共设施:公共厕所",
        "type": 0,
        "location": {
            "lat": 27.653472,
            "lng": 113.847127
        },
        "ad_info": {
            "adcode": 360302,
            "province": "江西省",
            "city": "萍乡市",
            "district": "安源区"
        }
    },
    {
        "id": "14061538568525830082",
        "title": "公共厕所",
        "address": "江西省萍乡市湘东区S232与育英路交叉口正北方向307米左右",
        "tel": "",
        "category": "基础设施:公共设施:公共厕所",
        "type": 0,
        "location": {
            "lat": 27.583518,
            "lng": 113.688945
        },
        "ad_info": {
            "adcode": 360313,
            "province": "江西省",
            "city": "萍乡市",
            "district": "湘东区"
        }
    },
    {
        "id": "2571494550228349792",
        "title": "公共厕所",
        "address": "江西省萍乡市安源区建设中路与朝阳南路交叉口西南方向66米左右",
        "tel": "",
        "category": "基础设施:公共设施:公共厕所",
        "type": 0,
        "location": {
            "lat": 27.64472,
            "lng": 113.848821
        },
        "ad_info": {
            "adcode": 360302,
            "province": "江西省",
            "city": "萍乡市",
            "district": "安源区"
        }
    },
    {
        "id": "1636716520960617914",
        "title": "公共厕所",
        "address": "江西省萍乡市安源区柳园巷与跃进北路交叉口正西方向37米左右",
        "tel": "",
        "category": "基础设施:公共设施:公共厕所",
        "type": 0,
        "location": {
            "lat": 27.64297,
            "lng": 113.843322
        },
        "ad_info": {
            "adcode": 360302,
            "province": "江西省",
            "city": "萍乡市",
            "district": "安源区"
        }
    },
    {
        "id": "8695525398062867774",
        "title": "公共厕所",
        "address": "江西省萍乡市安源区萍水北路与龙泉路交叉口正南方向12米左右",
        "tel": "",
        "category": "基础设施:公共设施:公共厕所",
        "type": 0,
        "location": {
            "lat": 27.616017,
            "lng": 113.84406
        },
        "ad_info": {
            "adcode": 360302,
            "province": "江西省",
            "city": "萍乡市",
            "district": "安源区"
        }
    },
    {
        "id": "12921638275937576772",
        "title": "公共厕所(上栗县长平乡淡塘村)",
        "address": "江西省萍乡市上栗县淡塘村安置小区",
        "tel": "",
        "category": "基础设施:公共设施:公共厕所",
        "type": 0,
        "location": {
            "lat": 27.744772,
            "lng": 113.7349
        },
        "ad_info": {
            "adcode": 360322,
            "province": "江西省",
            "city": "萍乡市",
            "district": "上栗县"
        }
    },
    {
        "id": "5328184339428537496",
        "title": "公共厕所",
        "address": "江西省萍乡市安源区S533与安源中大道交叉口正东方向86米左右",
        "tel": "",
        "category": "基础设施:公共设施:公共厕所",
        "type": 0,
        "location": {
            "lat": 27.620571,
            "lng": 113.885572
        },
        "ad_info": {
            "adcode": 360302,
            "province": "江西省",
            "city": "萍乡市",
            "district": "安源区"
        }
    },
    {
        "id": "9061686952903035893",
        "title": "公共厕所",
        "address": "江西省萍乡市安源区宝塔路与长潭路交叉口正东方向103米左右",
        "tel": "",
        "category": "基础设施:公共设施:公共厕所",
        "type": 0,
        "location": {
            "lat": 27.613004,
            "lng": 113.846969
        },
        "ad_info": {
            "adcode": 360302,
            "province": "江西省",
            "city": "萍乡市",
            "district": "安源区"
        }
    },
    {
        "id": "12463833134849576403",
        "title": "公共厕所",
        "address": "江西省萍乡市安源区城郊略下阳光花海",
        "tel": "",
        "category": "基础设施:公共设施:公共厕所",
        "type": 0,
        "location": {
            "lat": 27.615215,
            "lng": 113.793871
        },
        "ad_info": {
            "adcode": 360302,
            "province": "江西省",
            "city": "萍乡市",
            "district": "安源区"
        }
    },
    {
        "id": "3752305969916646483",
        "title": "公共厕所",
        "address": "江西省萍乡市安源区凤凰街南正街历史文化街区1号",
        "tel": "",
        "category": "基础设施:公共设施:公共厕所",
        "type": 0,
        "location": {
            "lat": 27.621284,
            "lng": 113.855598
        },
        "ad_info": {
            "adcode": 360302,
            "province": "江西省",
            "city": "萍乡市",
            "district": "安源区"
        }
    },
    {
        "id": "12789154081770806468",
        "title": "公共厕所",
        "address": "江西省萍乡市安源区八一东路与八一西路交叉口西南方向45米左右",
        "tel": "",
        "category": "基础设施:公共设施:公共厕所",
        "type": 0,
        "location": {
            "lat": 27.62069,
            "lng": 113.849959
        },
        "ad_info": {
            "adcode": 360302,
            "province": "江西省",
            "city": "萍乡市",
            "district": "安源区"
        }
    },
    {
        "id": "15259236529560407560",
        "title": "公共厕所",
        "address": "江西省萍乡市安源区武官巷与跃进南路交叉口东北方向32米左右",
        "tel": "",
        "category": "基础设施:公共设施:公共厕所",
        "type": 0,
        "location": {
            "lat": 27.61983,
            "lng": 113.85068
        },
        "ad_info": {
            "adcode": 360302,
            "province": "江西省",
            "city": "萍乡市",
            "district": "安源区"
        }
    },
    {
        "id": "653103959354845072",
        "title": "公共厕所",
        "address": "江西省萍乡市安源区亨通南街与萍水南路交叉口正西方向10米左右",
        "tel": "",
        "category": "基础设施:公共设施:公共厕所",
        "type": 0,
        "location": {
            "lat": 27.621459,
            "lng": 113.857535
        },
        "ad_info": {
            "adcode": 360302,
            "province": "江西省",
            "city": "萍乡市",
            "district": "安源区"
        }
    },
    {
        "id": "14152901076973008487",
        "title": "公共厕所",
        "address": "江西省萍乡市安源区八一东路与八一西路交叉口西南方向65米左右",
        "tel": "",
        "category": "基础设施:公共设施:公共厕所",
        "type": 0,
        "location": {
            "lat": 27.620794,
            "lng": 113.849583
        },
        "ad_info": {
            "adcode": 360302,
            "province": "江西省",
            "city": "萍乡市",
            "district": "安源区"
        }
    },
    {
        "id": "14178828087167057060",
        "title": "公共厕所",
        "address": "江西省萍乡市上栗县Y573与Y574交叉口正北方向1522米左右",
        "tel": "",
        "category": "基础设施:公共设施:公共厕所",
        "type": 0,
        "location": {
            "lat": 27.891159,
            "lng": 113.864174
        },
        "ad_info": {
            "adcode": 360322,
            "province": "江西省",
            "city": "萍乡市",
            "district": "上栗县"
        }
    },
    {
        "id": "322607150982231674",
        "title": "公共厕所(JX-PX-0568)",
        "address": "江西省萍乡市安源区Y020与萧河路交叉口正西方向54米左右",
        "tel": "",
        "category": "基础设施:公共设施:公共厕所",
        "type": 0,
        "location": {
            "lat": 27.60361,
            "lng": 113.831231
        },
        "ad_info": {
            "adcode": 360302,
            "province": "江西省",
            "city": "萍乡市",
            "district": "安源区"
        }
    },
    {
        "id": "11708277769215707210",
        "title": "公共厕所",
        "address": "江西省萍乡市安源区Y003与青矿路交叉口西南方向78米左右",
        "tel": "",
        "category": "基础设施:公共设施:公共厕所",
        "type": 0,
        "location": {
            "lat": 27.638313,
            "lng": 113.8062
        },
        "ad_info": {
            "adcode": 360302,
            "province": "江西省",
            "city": "萍乡市",
            "district": "安源区"
        }
    },
    {
        "id": "1869258326606699042",
        "title": "公共厕所",
        "address": "江西省萍乡市上栗县杨岐小学东北侧200米",
        "tel": "",
        "category": "基础设施:公共设施:公共厕所",
        "type": 0,
        "location": {
            "lat": 27.827119,
            "lng": 113.889621
        },
        "ad_info": {
            "adcode": 360322,
            "province": "江西省",
            "city": "萍乡市",
            "district": "上栗县"
        }
    },
    {
        "id": "15242867496688290008",
        "title": "公共厕所",
        "address": "江西省萍乡市上栗县醉美楼下休闲山庄东北侧270米",
        "tel": "",
        "category": "基础设施:公共设施:公共厕所",
        "type": 0,
        "location": {
            "lat": 27.784387,
            "lng": 113.931715
        },
        "ad_info": {
            "adcode": 360322,
            "province": "江西省",
            "city": "萍乡市",
            "district": "上栗县"
        }
    },
    {
        "id": "14582611473434988730",
        "title": "公共厕所",
        "address": "江西省萍乡市湘东区博升北路与峡山口西路交叉口东北方向170米左右",
        "tel": "",
        "category": "基础设施:公共设施:公共厕所",
        "type": 0,
        "location": {
            "lat": 27.633902,
            "lng": 113.742433
        },
        "ad_info": {
            "adcode": 360313,
            "province": "江西省",
            "city": "萍乡市",
            "district": "湘东区"
        }
    },
    {
        "id": "3884729852835060479",
        "title": "公共厕所",
        "address": "江西省萍乡市安源区滨河东路与黄竹巷交叉口西北方向32米左右",
        "tel": "",
        "category": "基础设施:公共设施:公共厕所",
        "type": 0,
        "location": {
            "lat": 27.642001,
            "lng": 113.859024
        },
        "ad_info": {
            "adcode": 360302,
            "province": "江西省",
            "city": "萍乡市",
            "district": "安源区"
        }
    },
    {
        "id": "390568650560491093",
        "title": "公共厕所",
        "address": "江西省萍乡市芦溪县芦万武公路武功山商业街内",
        "tel": "",
        "category": "基础设施:公共设施:公共厕所",
        "type": 0,
        "location": {
            "lat": 27.490901,
            "lng": 114.131044
        },
        "ad_info": {
            "adcode": 360323,
            "province": "江西省",
            "city": "萍乡市",
            "district": "芦溪县"
        }
    },
    {
        "id": "9226726446749386096",
        "title": "公共厕所",
        "address": "江西省萍乡市安源区建设东路与金建街交叉口东北方向32米左右",
        "tel": "",
        "category": "基础设施:公共设施:公共厕所",
        "type": 0,
        "location": {
            "lat": 27.644321,
            "lng": 113.864436
        },
        "ad_info": {
            "adcode": 360302,
            "province": "江西省",
            "city": "萍乡市",
            "district": "安源区"
        }
    },
    {
        "id": "6330318657847584528",
        "title": "公共厕所",
        "address": "江西省萍乡市芦溪县S311与芦万武旅游公路交叉口正南方向214米左右",
        "tel": "",
        "category": "基础设施:公共设施:公共厕所",
        "type": 0,
        "location": {
            "lat": 27.491283,
            "lng": 114.131893
        },
        "ad_info": {
            "adcode": 360323,
            "province": "江西省",
            "city": "萍乡市",
            "district": "芦溪县"
        }
    },
    {
        "id": "5943375302839787550",
        "title": "公共厕所",
        "address": "江西省萍乡市安源区广源巷金陵大市场",
        "tel": "",
        "category": "基础设施:公共设施:公共厕所",
        "type": 0,
        "location": {
            "lat": 27.641333,
            "lng": 113.862176
        },
        "ad_info": {
            "adcode": 360302,
            "province": "江西省",
            "city": "萍乡市",
            "district": "安源区"
        }
    },
    {
        "id": "12014363279722021905",
        "title": "公共厕所",
        "address": "江西省萍乡市安源区东正街与新城路交叉口正东方向54米左右",
        "tel": "",
        "category": "基础设施:公共设施:公共厕所",
        "type": 0,
        "location": {
            "lat": 27.619884,
            "lng": 113.859717
        },
        "ad_info": {
            "adcode": 360302,
            "province": "江西省",
            "city": "萍乡市",
            "district": "安源区"
        }
    },
    {
        "id": "10043800198896775905",
        "title": "公共厕所",
        "address": "江西省萍乡市安源区公园南路与团结巷交叉口正东方向26米左右",
        "tel": "",
        "category": "基础设施:公共设施:公共厕所",
        "type": 0,
        "location": {
            "lat": 27.6275,
            "lng": 113.857679
        },
        "ad_info": {
            "adcode": 360302,
            "province": "江西省",
            "city": "萍乡市",
            "district": "安源区"
        }
    },
    {
        "id": "13769630993589420517",
        "title": "公共厕所",
        "address": "江西省萍乡市安源区五陂镇大田村十里花溪1号",
        "tel": "",
        "category": "基础设施:公共设施:公共厕所",
        "type": 0,
        "location": {
            "lat": 27.580042,
            "lng": 113.866027
        },
        "ad_info": {
            "adcode": 360302,
            "province": "江西省",
            "city": "萍乡市",
            "district": "安源区"
        }
    },
    {
        "id": "3843956800304810522",
        "title": "无障碍公共厕所",
        "address": "江西省萍乡市安源区柳树湾巷与永新路交叉口东南方向30米左右",
        "tel": "",
        "category": "基础设施:公共设施:公共厕所",
        "type": 0,
        "location": {
            "lat": 27.62175,
            "lng": 113.87594
        },
        "ad_info": {
            "adcode": 360302,
            "province": "江西省",
            "city": "萍乡市",
            "district": "安源区"
        }
    },
    {
        "id": "9842947235047729373",
        "title": "公共厕所",
        "address": "江西省萍乡市安源区三星巷与铁工巷交叉口东北方向95米左右",
        "tel": "",
        "category": "基础设施:公共设施:公共厕所",
        "type": 0,
        "location": {
            "lat": 27.624941,
            "lng": 113.847422
        },
        "ad_info": {
            "adcode": 360302,
            "province": "江西省",
            "city": "萍乡市",
            "district": "安源区"
        }
    },
    {
        "id": "8581045720633860159",
        "title": "公共厕所",
        "address": "江西省萍乡市安源区南环路与高山巷交叉口西北方向78米左右",
        "tel": "",
        "category": "基础设施:公共设施:公共厕所",
        "type": 0,
        "location": {
            "lat": 27.615268,
            "lng": 113.852434
        },
        "ad_info": {
            "adcode": 360302,
            "province": "江西省",
            "city": "萍乡市",
            "district": "安源区"
        }
    },
    {
        "id": "2019936717728155786",
        "title": "公共厕所",
        "address": "江西省萍乡市芦溪县天灯柱街与袁河西路交叉口正南方向66米左右",
        "tel": "",
        "category": "基础设施:公共设施:公共厕所",
        "type": 0,
        "location": {
            "lat": 27.632693,
            "lng": 114.041692
        },
        "ad_info": {
            "adcode": 360323,
            "province": "江西省",
            "city": "萍乡市",
            "district": "芦溪县"
        }
    },
    {
        "id": "2175926710642758175",
        "title": "公共厕所",
        "address": "江西省萍乡市莲花县康达东路与解放北路交叉口正北方向28米左右",
        "tel": "",
        "category": "基础设施:公共设施:公共厕所",
        "type": 0,
        "location": {
            "lat": 27.131974,
            "lng": 113.959113
        },
        "ad_info": {
            "adcode": 360321,
            "province": "江西省",
            "city": "萍乡市",
            "district": "莲花县"
        }
    },
    {
        "id": "3093000846562889071",
        "title": "公共厕所",
        "address": "江西省萍乡市安源区八一西路与西环路交叉口正北方向113米左右",
        "tel": "",
        "category": "基础设施:公共设施:公共厕所",
        "type": 0,
        "location": {
            "lat": 27.621423,
            "lng": 113.846443
        },
        "ad_info": {
            "adcode": 360302,
            "province": "江西省",
            "city": "萍乡市",
            "district": "安源区"
        }
    },
    {
        "id": "17727803117995205032",
        "title": "公共厕所",
        "address": "江西省萍乡市安源区南台西巷与南环路交叉口东南方向49米左右",
        "tel": "",
        "category": "基础设施:公共设施:公共厕所",
        "type": 0,
        "location": {
            "lat": 27.614136,
            "lng": 113.848683
        },
        "ad_info": {
            "adcode": 360302,
            "province": "江西省",
            "city": "萍乡市",
            "district": "安源区"
        }
    },
    {
        "id": "1184652066256402839",
        "title": "公共厕所",
        "address": "江西省萍乡市莲花县云安路与芦州路交叉口正南方向93米左右",
        "tel": "",
        "category": "基础设施:公共设施:公共厕所",
        "type": 0,
        "location": {
            "lat": 27.129602,
            "lng": 113.943975
        },
        "ad_info": {
            "adcode": 360321,
            "province": "江西省",
            "city": "萍乡市",
            "district": "莲花县"
        }
    },
    {
        "id": "8637742886471188366",
        "title": "公共厕所",
        "address": "江西省萍乡市安源区铁工巷恒隆国际大厦",
        "tel": "",
        "category": "基础设施:公共设施:公共厕所",
        "type": 0,
        "location": {
            "lat": 27.625807,
            "lng": 113.848522
        },
        "ad_info": {
            "adcode": 360302,
            "province": "江西省",
            "city": "萍乡市",
            "district": "安源区"
        }
    },
    {
        "id": "6108286535733673849",
        "title": "公共厕所",
        "address": "江西省萍乡市安源区府前路与育婴巷交叉口正东方向81米左右",
        "tel": "",
        "category": "基础设施:公共设施:公共厕所",
        "type": 0,
        "location": {
            "lat": 27.621838,
            "lng": 113.854361
        },
        "ad_info": {
            "adcode": 360302,
            "province": "江西省",
            "city": "萍乡市",
            "district": "安源区"
        }
    },
    {
        "id": "7592654468448246367",
        "title": "公共厕所",
        "address": "江西省萍乡市芦溪县古城路与广场路交叉口正北方向71米左右",
        "tel": "",
        "category": "基础设施:公共设施:公共厕所",
        "type": 0,
        "location": {
            "lat": 27.627683,
            "lng": 114.030667
        },
        "ad_info": {
            "adcode": 360323,
            "province": "江西省",
            "city": "萍乡市",
            "district": "芦溪县"
        }
    },
    {
        "id": "11379319663707928831",
        "title": "公共厕所",
        "address": "江西省萍乡市上栗县滨河南路乡村第一餐对面",
        "tel": "",
        "category": "基础设施:公共设施:公共厕所",
        "type": 0,
        "location": {
            "lat": 27.873445,
            "lng": 113.814501
        },
        "ad_info": {
            "adcode": 360322,
            "province": "江西省",
            "city": "萍乡市",
            "district": "上栗县"
        }
    },
    {
        "id": "12538318128995347917",
        "title": "公共厕所",
        "address": "江西省萍乡市湘东区翡翠谷景区",
        "tel": "",
        "category": "基础设施:公共设施:公共厕所",
        "type": 0,
        "location": {
            "lat": 27.402742,
            "lng": 113.645129
        },
        "ad_info": {
            "adcode": 360313,
            "province": "江西省",
            "city": "萍乡市",
            "district": "湘东区"
        }
    },
    {
        "id": "10752575013006679592",
        "title": "公共厕所",
        "address": "江西省萍乡市上栗县滨河南路与花园巷交叉口正北方向17米左右",
        "tel": "",
        "category": "基础设施:公共设施:公共厕所",
        "type": 0,
        "location": {
            "lat": 27.87345,
            "lng": 113.804754
        },
        "ad_info": {
            "adcode": 360322,
            "province": "江西省",
            "city": "萍乡市",
            "district": "上栗县"
        }
    },
    {
        "id": "16954238979366972658",
        "title": "公共厕所",
        "address": "江西省萍乡市安源区吉星街与萍水北路交叉口东北方向65米左右",
        "tel": "",
        "category": "基础设施:公共设施:公共厕所",
        "type": 0,
        "location": {
            "lat": 27.616894,
            "lng": 113.850152
        },
        "ad_info": {
            "adcode": 360302,
            "province": "江西省",
            "city": "萍乡市",
            "district": "安源区"
        }
    },
    {
        "id": "5626085032366397448",
        "title": "公共厕所",
        "address": "江西省萍乡市莲花县G319与S225交叉口正南方向311米左右",
        "tel": "",
        "category": "基础设施:公共设施:公共厕所",
        "type": 0,
        "location": {
            "lat": 27.369881,
            "lng": 113.906132
        },
        "ad_info": {
            "adcode": 360321,
            "province": "江西省",
            "city": "萍乡市",
            "district": "莲花县"
        }
    },
    {
        "id": "15220555500204891109",
        "title": "公共厕所",
        "address": "江西省萍乡市莲花县甘红初心茶产业园东侧50米",
        "tel": "",
        "category": "基础设施:公共设施:公共厕所",
        "type": 0,
        "location": {
            "lat": 27.270894,
            "lng": 113.906441
        },
        "ad_info": {
            "adcode": 360321,
            "province": "江西省",
            "city": "萍乡市",
            "district": "莲花县"
        }
    },
    {
        "id": "9511933658321381539",
        "title": "公共厕所(武功山风景名胜区石溪村石溪人家)",
        "address": "江西省萍乡市芦溪县772乡道四合院厕所",
        "tel": "",
        "category": "基础设施:公共设施:公共厕所",
        "type": 0,
        "location": {
            "lat": 27.489745,
            "lng": 114.101679
        },
        "ad_info": {
            "adcode": 360323,
            "province": "江西省",
            "city": "萍乡市",
            "district": "芦溪县"
        }
    },
    {
        "id": "4783866734859524832",
        "title": "公共厕所",
        "address": "江西省萍乡市安源区五丰河西街与萍水南路交叉口西南方向12米左右",
        "tel": "",
        "category": "基础设施:公共设施:公共厕所",
        "type": 0,
        "location": {
            "lat": 27.624703,
            "lng": 113.859126
        },
        "ad_info": {
            "adcode": 360302,
            "province": "江西省",
            "city": "萍乡市",
            "district": "安源区"
        }
    },
    {
        "id": "8573156001120432973",
        "title": "公共厕所",
        "address": "江西省萍乡市安源区南环路与萍水南路交叉口东北方向30米左右",
        "tel": "",
        "category": "基础设施:公共设施:公共厕所",
        "type": 0,
        "location": {
            "lat": 27.615451,
            "lng": 113.848624
        },
        "ad_info": {
            "adcode": 360302,
            "province": "江西省",
            "city": "萍乡市",
            "district": "安源区"
        }
    },
    {
        "id": "12968660075448638993",
        "title": "公共厕所",
        "address": "江西省萍乡市湘东区四通路与张家屋巷交叉口东南方向168米左右",
        "tel": "",
        "category": "基础设施:公共设施:公共厕所",
        "type": 0,
        "location": {
            "lat": 27.636098,
            "lng": 113.742286
        },
        "ad_info": {
            "adcode": 360313,
            "province": "江西省",
            "city": "萍乡市",
            "district": "湘东区"
        }
    },
    {
        "id": "11872798354652214416",
        "title": "公共厕所",
        "address": "江西省萍乡市安源区南台巷与萍水南路交叉口正南方向37米左右",
        "tel": "",
        "category": "基础设施:公共设施:公共厕所",
        "type": 0,
        "location": {
            "lat": 27.616169,
            "lng": 113.851498
        },
        "ad_info": {
            "adcode": 360302,
            "province": "江西省",
            "city": "萍乡市",
            "district": "安源区"
        }
    },
    {
        "id": "773302471470119735",
        "title": "公共厕所",
        "address": "江西省萍乡市上栗县平安北路与广场南路交叉口正西方向123米左右",
        "tel": "",
        "category": "基础设施:公共设施:公共厕所",
        "type": 0,
        "location": {
            "lat": 27.879276,
            "lng": 113.796188
        },
        "ad_info": {
            "adcode": 360322,
            "province": "江西省",
            "city": "萍乡市",
            "district": "上栗县"
        }
    },
    {
        "id": "11103314713709505625",
        "title": "公共厕所",
        "address": "江西省萍乡市上栗县李畋北大道与胜利北路交叉口西北方向25米左右",
        "tel": "",
        "category": "基础设施:公共设施:公共厕所",
        "type": 0,
        "location": {
            "lat": 27.88512,
            "lng": 113.801856
        },
        "ad_info": {
            "adcode": 360322,
            "province": "江西省",
            "city": "萍乡市",
            "district": "上栗县"
        }
    },
    {
        "id": "18439465892108662228",
        "title": "公共厕所",
        "address": "江西省萍乡市上栗县高科大道与冶金路交叉口正东方向1168米",
        "tel": "",
        "category": "基础设施:公共设施:公共厕所",
        "type": 0,
        "location": {
            "lat": 27.689061,
            "lng": 113.93594
        },
        "ad_info": {
            "adcode": 360322,
            "province": "江西省",
            "city": "萍乡市",
            "district": "上栗县"
        }
    },
    {
        "id": "2269347266618074579",
        "title": "公共厕所",
        "address": "江西省萍乡市莲花县桃源路天如公园(东北角)",
        "tel": "",
        "category": "基础设施:公共设施:公共厕所",
        "type": 0,
        "location": {
            "lat": 27.129805,
            "lng": 113.944243
        },
        "ad_info": {
            "adcode": 360321,
            "province": "江西省",
            "city": "萍乡市",
            "district": "莲花县"
        }
    },
    {
        "id": "14493893694719932795",
        "title": "公共厕所",
        "address": "江西省萍乡市莲花县永福路与清泉路交叉口正东方向195米左右",
        "tel": "",
        "category": "基础设施:公共设施:公共厕所",
        "type": 0,
        "location": {
            "lat": 27.136134,
            "lng": 113.960235
        },
        "ad_info": {
            "adcode": 360321,
            "province": "江西省",
            "city": "萍乡市",
            "district": "莲花县"
        }
    },
    {
        "id": "13479453313148846584",
        "title": "公共厕所",
        "address": "江西省萍乡市芦溪县武功山风景名胜区",
        "tel": "",
        "category": "基础设施:公共设施:公共厕所",
        "type": 0,
        "location": {
            "lat": 27.457852,
            "lng": 114.178545
        },
        "ad_info": {
            "adcode": 360323,
            "province": "江西省",
            "city": "萍乡市",
            "district": "芦溪县"
        }
    },
    {
        "id": "12211377368284062195",
        "title": "公共厕所",
        "address": "江西省萍乡市湘东区G319与S437交叉口西北方向57米左右",
        "tel": "",
        "category": "基础设施:公共设施:公共厕所",
        "type": 0,
        "location": {
            "lat": 27.429233,
            "lng": 113.8261
        },
        "ad_info": {
            "adcode": 360313,
            "province": "江西省",
            "city": "萍乡市",
            "district": "湘东区"
        }
    },
    {
        "id": "6608798800641720059",
        "title": "公共厕所",
        "address": "江西省萍乡市芦溪县年丰路与白鹤峰路交叉口东北方向174米左右",
        "tel": "",
        "category": "基础设施:公共设施:公共厕所",
        "type": 0,
        "location": {
            "lat": 27.643236,
            "lng": 114.05166
        },
        "ad_info": {
            "adcode": 360323,
            "province": "江西省",
            "city": "萍乡市",
            "district": "芦溪县"
        }
    },
    {
        "id": "836330474604610272",
        "title": "公共厕所",
        "address": "江西省萍乡市安源区文化路与黄花巷交叉口西北方向41米左右",
        "tel": "",
        "category": "基础设施:公共设施:公共厕所",
        "type": 0,
        "location": {
            "lat": 27.63421,
            "lng": 113.850554
        },
        "ad_info": {
            "adcode": 360302,
            "province": "江西省",
            "city": "萍乡市",
            "district": "安源区"
        }
    },
    {
        "id": "14456509580923519919",
        "title": "公共厕所",
        "address": "江西省萍乡市芦溪县芦溪互通与迎宾大道交叉口东南方向173米左右",
        "tel": "",
        "category": "基础设施:公共设施:公共厕所",
        "type": 0,
        "location": {
            "lat": 27.687382,
            "lng": 114.009082
        },
        "ad_info": {
            "adcode": 360323,
            "province": "江西省",
            "city": "萍乡市",
            "district": "芦溪县"
        }
    },
    {
        "id": "6973856750170905077",
        "title": "公共厕所(东江村熙谷小镇一号)",
        "address": "江西省萍乡市芦溪县芦万武旅游公路东江村煕谷小镇",
        "tel": "",
        "category": "基础设施:公共设施:公共厕所",
        "type": 0,
        "location": {
            "lat": 27.499847,
            "lng": 114.137648
        },
        "ad_info": {
            "adcode": 360323,
            "province": "江西省",
            "city": "萍乡市",
            "district": "芦溪县"
        }
    },
    {
        "id": "3404310397528842915",
        "title": "公共厕所",
        "address": "江西省萍乡市芦溪县G320与Y753交叉口正西方向61米左右",
        "tel": "",
        "category": "基础设施:公共设施:公共厕所",
        "type": 0,
        "location": {
            "lat": 27.669638,
            "lng": 114.101111
        },
        "ad_info": {
            "adcode": 360323,
            "province": "江西省",
            "city": "萍乡市",
            "district": "芦溪县"
        }
    },
    {
        "id": "17042132354835590067",
        "title": "公共厕所",
        "address": "江西省萍乡市芦溪县凌云北路与老崖山路交叉口正南方向89米左右",
        "tel": "",
        "category": "基础设施:公共设施:公共厕所",
        "type": 0,
        "location": {
            "lat": 27.63447,
            "lng": 114.038967
        },
        "ad_info": {
            "adcode": 360323,
            "province": "江西省",
            "city": "萍乡市",
            "district": "芦溪县"
        }
    },
    {
        "id": "9783060553946836908",
        "title": "公共厕所",
        "address": "江西省萍乡市芦溪县后巷街与虚名巷交叉口正南方向74米左右",
        "tel": "",
        "category": "基础设施:公共设施:公共厕所",
        "type": 0,
        "location": {
            "lat": 27.631875,
            "lng": 114.042475
        },
        "ad_info": {
            "adcode": 360323,
            "province": "江西省",
            "city": "萍乡市",
            "district": "芦溪县"
        }
    },
    {
        "id": "6174599152759780326",
        "title": "公共厕所",
        "address": "江西省萍乡市湘东区G320与X157交叉口东南方向163米左右",
        "tel": "",
        "category": "基础设施:公共设施:公共厕所",
        "type": 0,
        "location": {
            "lat": 27.630012,
            "lng": 113.642355
        },
        "ad_info": {
            "adcode": 360313,
            "province": "江西省",
            "city": "萍乡市",
            "district": "湘东区"
        }
    },
    {
        "id": "9124509045671294993",
        "title": "公共厕所",
        "address": "江西省萍乡市湘东区G320与东环路交叉口西南方向73米左右",
        "tel": "",
        "category": "基础设施:公共设施:公共厕所",
        "type": 0,
        "location": {
            "lat": 27.643866,
            "lng": 113.768544
        },
        "ad_info": {
            "adcode": 360313,
            "province": "江西省",
            "city": "萍乡市",
            "district": "湘东区"
        }
    },
    {
        "id": "5846677644759469928",
        "title": "公共厕所",
        "address": "江西省萍乡市湘东区S533与桐田桥交叉口东北方向583米左右",
        "tel": "",
        "category": "基础设施:公共设施:公共厕所",
        "type": 0,
        "location": {
            "lat": 27.582243,
            "lng": 113.797202
        },
        "ad_info": {
            "adcode": 360313,
            "province": "江西省",
            "city": "萍乡市",
            "district": "湘东区"
        }
    },
    {
        "id": "12698123457581658722",
        "title": "公共厕所",
        "address": "江西省萍乡市芦溪县沙湾路与袁河西路交叉口正南方向108米左右",
        "tel": "",
        "category": "基础设施:公共设施:公共厕所",
        "type": 0,
        "location": {
            "lat": 27.62255,
            "lng": 114.038451
        },
        "ad_info": {
            "adcode": 360323,
            "province": "江西省",
            "city": "萍乡市",
            "district": "芦溪县"
        }
    },
    {
        "id": "15365093364609964679",
        "title": "无障碍公共厕所",
        "address": "江西省萍乡市安源区永陂桥南巷与公园中路交叉口东南80米",
        "tel": "",
        "category": "基础设施:公共设施:公共厕所",
        "type": 0,
        "location": {
            "lat": 27.643149,
            "lng": 113.871953
        },
        "ad_info": {
            "adcode": 360302,
            "province": "江西省",
            "city": "萍乡市",
            "district": "安源区"
        }
    },
    {
        "id": "10702135867700257500",
        "title": "公共厕所",
        "address": "江西省萍乡市芦溪县萍乡电瓷电器厂西侧200米",
        "tel": "",
        "category": "基础设施:公共设施:公共厕所",
        "type": 0,
        "location": {
            "lat": 27.603649,
            "lng": 114.005755
        },
        "ad_info": {
            "adcode": 360323,
            "province": "江西省",
            "city": "萍乡市",
            "district": "芦溪县"
        }
    },
    {
        "id": "10627800372946727555",
        "title": "公共厕所",
        "address": "江西省萍乡市湘东区Y181与陈广线交叉口西南方向1287米左右",
        "tel": "",
        "category": "基础设施:公共设施:公共厕所",
        "type": 0,
        "location": {
            "lat": 27.518294,
            "lng": 113.685262
        },
        "ad_info": {
            "adcode": 360313,
            "province": "江西省",
            "city": "萍乡市",
            "district": "湘东区"
        }
    },
    {
        "id": "11756073951109585712",
        "title": "公共厕所",
        "address": "江西省萍乡市芦溪县G320与X162交叉口西南方向294米左右",
        "tel": "",
        "category": "基础设施:公共设施:公共厕所",
        "type": 0,
        "location": {
            "lat": 27.645522,
            "lng": 114.069779
        },
        "ad_info": {
            "adcode": 360323,
            "province": "江西省",
            "city": "萍乡市",
            "district": "芦溪县"
        }
    },
    {
        "id": "7724973299737075805",
        "title": "公共厕所",
        "address": "江西省萍乡市芦溪县S231与S436交叉口正东方向869米左右",
        "tel": "",
        "category": "基础设施:公共设施:公共厕所",
        "type": 0,
        "location": {
            "lat": 27.54305,
            "lng": 113.914442
        },
        "ad_info": {
            "adcode": 360323,
            "province": "江西省",
            "city": "萍乡市",
            "district": "芦溪县"
        }
    },
    {
        "id": "1696351190060141843",
        "title": "公共厕所",
        "address": "江西省萍乡市安源区公园中路与木客路交叉口西南方向51米左右",
        "tel": "",
        "category": "基础设施:公共设施:公共厕所",
        "type": 0,
        "location": {
            "lat": 27.636538,
            "lng": 113.865921
        },
        "ad_info": {
            "adcode": 360302,
            "province": "江西省",
            "city": "萍乡市",
            "district": "安源区"
        }
    },
    {
        "id": "9697375345279290672",
        "title": "公共厕所",
        "address": "江西省萍乡市湘东区Y153与萍凤路交叉口正西方向98米左右",
        "tel": "",
        "category": "基础设施:公共设施:公共厕所",
        "type": 0,
        "location": {
            "lat": 27.55811,
            "lng": 113.728793
        },
        "ad_info": {
            "adcode": 360313,
            "province": "江西省",
            "city": "萍乡市",
            "district": "湘东区"
        }
    },
    {
        "id": "2781423999214130734",
        "title": "公共厕所",
        "address": "江西省萍乡市湘东区G319与X803交叉口正北方向127米左右",
        "tel": "",
        "category": "基础设施:公共设施:公共厕所",
        "type": 0,
        "location": {
            "lat": 27.51921,
            "lng": 113.829323
        },
        "ad_info": {
            "adcode": 360313,
            "province": "江西省",
            "city": "萍乡市",
            "district": "湘东区"
        }
    },
    {
        "id": "8177574707411148334",
        "title": "公共厕所",
        "address": "江西省萍乡市安源区枫树巷与跃进北路交叉口正北方向57米左右",
        "tel": "",
        "category": "基础设施:公共设施:公共厕所",
        "type": 0,
        "location": {
            "lat": 27.637238,
            "lng": 113.846876
        },
        "ad_info": {
            "adcode": 360302,
            "province": "江西省",
            "city": "萍乡市",
            "district": "安源区"
        }
    },
    {
        "id": "2853999557415436623",
        "title": "公共厕所(麻田镇机关大院)",
        "address": "江西省萍乡市芦溪县麻田镇机关大院59号",
        "tel": "",
        "category": "基础设施:公共设施:公共厕所",
        "type": 0,
        "location": {
            "lat": 27.494106,
            "lng": 114.112571
        },
        "ad_info": {
            "adcode": 360323,
            "province": "江西省",
            "city": "萍乡市",
            "district": "芦溪县"
        }
    },
    {
        "id": "17013029007160501771",
        "title": "公共厕所(桂花村生态旅游)",
        "address": "江西省萍乡市芦溪县武功山风景区骑行道",
        "tel": "",
        "category": "基础设施:公共设施:公共厕所",
        "type": 0,
        "location": {
            "lat": 27.584201,
            "lng": 114.153101
        },
        "ad_info": {
            "adcode": 360323,
            "province": "江西省",
            "city": "萍乡市",
            "district": "芦溪县"
        }
    },
    {
        "id": "18426952749742634416",
        "title": "公共厕所",
        "address": "江西省萍乡市安源区Y003与青矿路交叉口东南方向298米左右",
        "tel": "",
        "category": "基础设施:公共设施:公共厕所",
        "type": 0,
        "location": {
            "lat": 27.642041,
            "lng": 113.801031
        },
        "ad_info": {
            "adcode": 360302,
            "province": "江西省",
            "city": "萍乡市",
            "district": "安源区"
        }
    },
    {
        "id": "1161175611783733301",
        "title": "无障碍公共厕所",
        "address": "江西省萍乡市安源区建设西路与永丰街交叉口正西方向47米左右",
        "tel": "",
        "category": "基础设施:公共设施:公共厕所",
        "type": 0,
        "location": {
            "lat": 27.642135,
            "lng": 113.839084
        },
        "ad_info": {
            "adcode": 360302,
            "province": "江西省",
            "city": "萍乡市",
            "district": "安源区"
        }
    },
    {
        "id": "774909913526400448",
        "title": "公共厕所",
        "address": "江西省萍乡市安源区康庄路与滨河东路交叉口西南方向28米左右",
        "tel": "",
        "category": "基础设施:公共设施:公共厕所",
        "type": 0,
        "location": {
            "lat": 27.633712,
            "lng": 113.858881
        },
        "ad_info": {
            "adcode": 360302,
            "province": "江西省",
            "city": "萍乡市",
            "district": "安源区"
        }
    },
    {
        "id": "17931226025624817154",
        "title": "大丰桐花谷生态旅游公共厕所",
        "address": "江西省萍乡市湘东区上莲高速与萍莲高速交叉口正西方向406米左右",
        "tel": "19179949944",
        "category": "基础设施:公共设施:公共厕所",
        "type": 0,
        "location": {
            "lat": 27.499745,
            "lng": 113.827115
        },
        "ad_info": {
            "adcode": 360313,
            "province": "江西省",
            "city": "萍乡市",
            "district": "湘东区"
        }
    },
    {
        "id": "14228842354131043877",
        "title": "公共厕所",
        "address": "江西省萍乡市芦溪县S311与芦万武旅游公路交叉口西南方向556米左右",
        "tel": "0799-76316666",
        "category": "基础设施:公共设施:公共厕所",
        "type": 0,
        "location": {
            "lat": 27.489052,
            "lng": 114.12934
        },
        "ad_info": {
            "adcode": 360323,
            "province": "江西省",
            "city": "萍乡市",
            "district": "芦溪县"
        }
    },
    {
        "id": "4994070170758023913",
        "title": "公共厕所",
        "address": "江西省萍乡市安源区爱民巷与跃进南路交叉口东南方向69米左右",
        "tel": "",
        "category": "基础设施:公共设施:公共厕所",
        "type": 0,
        "location": {
            "lat": 27.624734,
            "lng": 113.849757
        },
        "ad_info": {
            "adcode": 360302,
            "province": "江西省",
            "city": "萍乡市",
            "district": "安源区"
        }
    },
    {
        "id": "15152078367300515691",
        "title": "公共厕所",
        "address": "江西省萍乡市安源区八一西路与吉星街交叉口东南方向127米左右",
        "tel": "",
        "category": "基础设施:公共设施:公共厕所",
        "type": 0,
        "location": {
            "lat": 27.620032,
            "lng": 113.848821
        },
        "ad_info": {
            "adcode": 360302,
            "province": "江西省",
            "city": "萍乡市",
            "district": "安源区"
        }
    },
    {
        "id": "10224728595453062750",
        "title": "无障碍公共厕所",
        "address": "江西省萍乡市上栗县G319与Y579交叉口西北方向258米左右",
        "tel": "",
        "category": "基础设施:公共设施:公共厕所",
        "type": 0,
        "location": {
            "lat": 27.825727,
            "lng": 113.844262
        },
        "ad_info": {
            "adcode": 360322,
            "province": "江西省",
            "city": "萍乡市",
            "district": "上栗县"
        }
    },
    {
        "id": "13420916217031618999",
        "title": "公共厕所",
        "address": "江西省萍乡市湘东区滨江北路与赣西大道交叉口西南方向21米左右",
        "tel": "",
        "category": "基础设施:公共设施:公共厕所",
        "type": 0,
        "location": {
            "lat": 27.637607,
            "lng": 113.732669
        },
        "ad_info": {
            "adcode": 360313,
            "province": "江西省",
            "city": "萍乡市",
            "district": "湘东区"
        }
    },
    {
        "id": "1922398468122574661",
        "title": "公共厕所",
        "address": "江西省萍乡市湘东区湘泉西路与滨江北路交叉口西南方向40米左右",
        "tel": "",
        "category": "基础设施:公共设施:公共厕所",
        "type": 0,
        "location": {
            "lat": 27.640979,
            "lng": 113.745577
        },
        "ad_info": {
            "adcode": 360313,
            "province": "江西省",
            "city": "萍乡市",
            "district": "湘东区"
        }
    },
    {
        "id": "278891217864333699",
        "title": "公共厕所",
        "address": "江西省萍乡市安源区磨盘巷萍乡市人民商厦",
        "tel": "",
        "category": "基础设施:公共设施:公共厕所",
        "type": 0,
        "location": {
            "lat": 27.621863,
            "lng": 113.852542
        },
        "ad_info": {
            "adcode": 360302,
            "province": "江西省",
            "city": "萍乡市",
            "district": "安源区"
        }
    },
    {
        "id": "15737899950211566760",
        "title": "菲特主题假日酒店-洗手间",
        "address": "江西省萍乡市安源区长兴南路1号",
        "tel": "",
        "category": "基础设施:公共设施:公共厕所",
        "type": 0,
        "location": {
            "lat": 27.62756,
            "lng": 113.838531
        },
        "ad_info": {
            "adcode": 360302,
            "province": "江西省",
            "city": "萍乡市",
            "district": "安源区"
        }
    },
    {
        "id": "108575121986271737",
        "title": "公共厕所",
        "address": "江西省萍乡市安源区甘家巷与萍水北路交叉口正北方向17米左右",
        "tel": "",
        "category": "基础设施:公共设施:公共厕所",
        "type": 0,
        "location": {
            "lat": 27.622174,
            "lng": 113.857041
        },
        "ad_info": {
            "adcode": 360302,
            "province": "江西省",
            "city": "萍乡市",
            "district": "安源区"
        }
    },
    {
        "id": "18103168351651600835",
        "title": "公共厕所",
        "address": "江西省萍乡市安源区S533与Y021交叉口正西方向110米左右",
        "tel": "",
        "category": "基础设施:公共设施:公共厕所",
        "type": 0,
        "location": {
            "lat": 27.619569,
            "lng": 113.885546
        },
        "ad_info": {
            "adcode": 360302,
            "province": "江西省",
            "city": "萍乡市",
            "district": "安源区"
        }
    },
    {
        "id": "18410573449720645579",
        "title": "公共厕所",
        "address": "江西省萍乡市安源区正大街与鲁班巷交叉口正东方向39米左右",
        "tel": "",
        "category": "基础设施:公共设施:公共厕所",
        "type": 0,
        "location": {
            "lat": 27.624185,
            "lng": 113.856947
        },
        "ad_info": {
            "adcode": 360302,
            "province": "江西省",
            "city": "萍乡市",
            "district": "安源区"
        }
    },
    {
        "id": "15821799555160911543",
        "title": "公共厕所",
        "address": "江西省萍乡市芦溪县人民东路与洋田路交叉口正西方向70米左右",
        "tel": "",
        "category": "基础设施:公共设施:公共厕所",
        "type": 0,
        "location": {
            "lat": 27.63458,
            "lng": 114.043012
        },
        "ad_info": {
            "adcode": 360323,
            "province": "江西省",
            "city": "萍乡市",
            "district": "芦溪县"
        }
    },
    {
        "id": "1430574404986072660",
        "title": "公共厕所",
        "address": "江西省萍乡市湘东区峡山口西路与桥南路交叉口正北方向43米左右",
        "tel": "",
        "category": "基础设施:公共设施:公共厕所",
        "type": 0,
        "location": {
            "lat": 27.636515,
            "lng": 113.746112
        },
        "ad_info": {
            "adcode": 360313,
            "province": "江西省",
            "city": "萍乡市",
            "district": "湘东区"
        }
    },
    {
        "id": "3754332662433782900",
        "title": "金螺峰公园公共厕所",
        "address": "江西省萍乡市安源区滨河东路与花园街交叉口正北方向294米左右",
        "tel": "",
        "category": "基础设施:公共设施:公共厕所",
        "type": 0,
        "location": {
            "lat": 27.637419,
            "lng": 113.860341
        },
        "ad_info": {
            "adcode": 360302,
            "province": "江西省",
            "city": "萍乡市",
            "district": "安源区"
        }
    },
    {
        "id": "9272525071554949289",
        "title": "无障碍公共厕所",
        "address": "江西省萍乡市上栗县庆丰路与朝阳西路交叉口东北方向38米左右",
        "tel": "",
        "category": "基础设施:公共设施:公共厕所",
        "type": 0,
        "location": {
            "lat": 27.875948,
            "lng": 113.790579
        },
        "ad_info": {
            "adcode": 360322,
            "province": "江西省",
            "city": "萍乡市",
            "district": "上栗县"
        }
    },
    {
        "id": "9587247243233519350",
        "title": "六市乡美丽乡村公共厕所",
        "address": "江西省萍乡市莲花县上莲高速与萍莲高速交叉口正南方向1698米左右",
        "tel": "",
        "category": "基础设施:公共设施:公共厕所",
        "type": 0,
        "location": {
            "lat": 27.341354,
            "lng": 113.902776
        },
        "ad_info": {
            "adcode": 360321,
            "province": "江西省",
            "city": "萍乡市",
            "district": "莲花县"
        }
    },
    {
        "id": "14815343734153521725",
        "title": "萍乡服务区公共厕所",
        "address": "江西省萍乡市上栗县周江东路与玉湖东路交叉口东南方向289米左右",
        "tel": "",
        "category": "基础设施:公共设施:公共厕所",
        "type": 0,
        "location": {
            "lat": 27.685854,
            "lng": 113.9169
        },
        "ad_info": {
            "adcode": 360322,
            "province": "江西省",
            "city": "萍乡市",
            "district": "上栗县"
        }
    },
    {
        "id": "3235283684670913595",
        "title": "无障碍公共厕所",
        "address": "江西省萍乡市上栗县迎宾大道市民广场",
        "tel": "",
        "category": "基础设施:公共设施:公共厕所",
        "type": 0,
        "location": {
            "lat": 27.858293,
            "lng": 113.805432
        },
        "ad_info": {
            "adcode": 360322,
            "province": "江西省",
            "city": "萍乡市",
            "district": "上栗县"
        }
    },
    {
        "id": "8565364739711398444",
        "title": "六市服务区公共厕所",
        "address": "江西省萍乡市莲花县六市服务区与S89上莲高速交叉口西南160米",
        "tel": "",
        "category": "基础设施:公共设施:公共厕所",
        "type": 0,
        "location": {
            "lat": 27.355114,
            "lng": 113.896594
        },
        "ad_info": {
            "adcode": 360321,
            "province": "江西省",
            "city": "萍乡市",
            "district": "莲花县"
        }
    },
    {
        "id": "10193823223214154183",
        "title": "俏妃卫生间专卖店",
        "address": "江西省萍乡市上栗县X121与彭韶路交叉口西南方向195米左右",
        "tel": "",
        "category": "基础设施:公共设施:公共厕所",
        "type": 0,
        "location": {
            "lat": 27.688174,
            "lng": 113.864243
        },
        "ad_info": {
            "adcode": 360322,
            "province": "江西省",
            "city": "萍乡市",
            "district": "上栗县"
        }
    },
    {
        "id": "16298913441107243377",
        "title": "上栗服务区公共厕所",
        "address": "江西省萍乡市上栗县上栗枢纽与上莲高速交叉口正南方向1355米左右",
        "tel": "",
        "category": "基础设施:公共设施:公共厕所",
        "type": 0,
        "location": {
            "lat": 27.885803,
            "lng": 113.760889
        },
        "ad_info": {
            "adcode": 360322,
            "province": "江西省",
            "city": "萍乡市",
            "district": "上栗县"
        }
    },
    {
        "id": "16519916101464307492",
        "title": "江西省城乡无障碍公共厕所",
        "address": "江西省萍乡市上栗县栗江路与谢家巷交叉口正东方向50米左右",
        "tel": "",
        "category": "基础设施:公共设施:公共厕所",
        "type": 0,
        "location": {
            "lat": 27.874037,
            "lng": 113.79809
        },
        "ad_info": {
            "adcode": 360322,
            "province": "江西省",
            "city": "萍乡市",
            "district": "上栗县"
        }
    },
    {
        "id": "17798424155613696228",
        "title": "上栗服务区公共厕所",
        "address": "江西省萍乡市上栗县上栗枢纽与上莲高速交叉口正南方向1486米左右",
        "tel": "",
        "category": "基础设施:公共设施:公共厕所",
        "type": 0,
        "location": {
            "lat": 27.884501,
            "lng": 113.763817
        },
        "ad_info": {
            "adcode": 360322,
            "province": "江西省",
            "city": "萍乡市",
            "district": "上栗县"
        }
    },
    {
        "id": "11141581191641994382",
        "title": "萍乡服务区第一公共厕所",
        "address": "江西省萍乡市上栗县周江东路与玉湖东路交叉口正南方向532米左右",
        "tel": "",
        "category": "基础设施:公共设施:公共厕所",
        "type": 0,
        "location": {
            "lat": 27.683179,
            "lng": 113.915287
        },
        "ad_info": {
            "adcode": 360322,
            "province": "江西省",
            "city": "萍乡市",
            "district": "上栗县"
        }
    },
    {
        "id": "11218531531870259562",
        "title": "萍乡服务区第二公共厕所",
        "address": "江西省萍乡市上栗县萍乡服务区与G60沪昆高速交叉口西340米",
        "tel": "",
        "category": "基础设施:公共设施:公共厕所",
        "type": 0,
        "location": {
            "lat": 27.683094,
            "lng": 113.916619
        },
        "ad_info": {
            "adcode": 360322,
            "province": "江西省",
            "city": "萍乡市",
            "district": "上栗县"
        }
    },
    {
        "id": "278310810859427634",
        "title": "公共厕所",
        "address": "江西省萍乡市芦溪县武功山风景名胜区内",
        "tel": "",
        "category": "基础设施:公共设施:公共厕所",
        "type": 0,
        "location": {
            "lat": 27.464383,
            "lng": 114.163746
        },
        "ad_info": {
            "adcode": 360323,
            "province": "江西省",
            "city": "萍乡市",
            "district": "芦溪县"
        }
    },
    {
        "id": "671089130069172115",
        "title": "上栗东服务区公共厕所",
        "address": "江西省萍乡市上栗县东服务区",
        "tel": "",
        "category": "基础设施:公共设施:公共厕所",
        "type": 0,
        "location": {
            "lat": 27.970705,
            "lng": 113.987129
        },
        "ad_info": {
            "adcode": 360322,
            "province": "江西省",
            "city": "萍乡市",
            "district": "上栗县"
        }
    },
    {
        "id": "15307320273555557985",
        "title": "上栗东服务区公共厕所",
        "address": "江西省萍乡市上栗县S38昌栗高速附近",
        "tel": "",
        "category": "基础设施:公共设施:公共厕所",
        "type": 0,
        "location": {
            "lat": 27.968029,
            "lng": 113.984624
        },
        "ad_info": {
            "adcode": 360322,
            "province": "江西省",
            "city": "萍乡市",
            "district": "上栗县"
        }
    },
    {
        "id": "14412885554602466819",
        "title": "驿站公共厕所",
        "address": "江西省萍乡市芦溪县S311与Y765交叉口正西方向156米左右",
        "tel": "",
        "category": "基础设施:公共设施:公共厕所",
        "type": 0,
        "location": {
            "lat": 27.605693,
            "lng": 114.232343
        },
        "ad_info": {
            "adcode": 360323,
            "province": "江西省",
            "city": "萍乡市",
            "district": "芦溪县"
        }
    },
    {
        "id": "10068537855837117262",
        "title": "生态公共厕所",
        "address": "江西省萍乡市上栗县吴楚花都三街与胜利北路交叉口正南方向75米左右",
        "tel": "",
        "category": "基础设施:公共设施:公共厕所",
        "type": 0,
        "location": {
            "lat": 27.878214,
            "lng": 113.802754
        },
        "ad_info": {
            "adcode": 360322,
            "province": "江西省",
            "city": "萍乡市",
            "district": "上栗县"
        }
    },
    {
        "id": "15587349221324772336",
        "title": "无障碍公共厕所",
        "address": "江西省萍乡市安源区朝阳南路与站东路交叉口东南方向35米左右",
        "tel": "",
        "category": "基础设施:公共设施:公共厕所",
        "type": 0,
        "location": {
            "lat": 27.649011,
            "lng": 113.84917
        },
        "ad_info": {
            "adcode": 360302,
            "province": "江西省",
            "city": "萍乡市",
            "district": "安源区"
        }
    },
    {
        "id": "2985926069240599782",
        "title": "公共厕所",
        "address": "江西省萍乡市上栗县李畋北大道与李畋南大道交叉口西北方向198米左右",
        "tel": "",
        "category": "基础设施:公共设施:公共厕所",
        "type": 0,
        "location": {
            "lat": 27.869217,
            "lng": 113.812232
        },
        "ad_info": {
            "adcode": 360322,
            "province": "江西省",
            "city": "萍乡市",
            "district": "上栗县"
        }
    },
    {
        "id": "15984825765704267218",
        "title": "公共厕所",
        "address": "江西省萍乡市安源区青山镇中医药养生小镇内",
        "tel": "",
        "category": "基础设施:公共设施:公共厕所",
        "type": 0,
        "location": {
            "lat": 27.632858,
            "lng": 113.824779
        },
        "ad_info": {
            "adcode": 360302,
            "province": "江西省",
            "city": "萍乡市",
            "district": "安源区"
        }
    },
    {
        "id": "14722298554437102277",
        "title": "无障碍公共厕所",
        "address": "江西省萍乡市安源区吉星街与怀王巷交叉口东北方向97米左右",
        "tel": "",
        "category": "基础设施:公共设施:公共厕所",
        "type": 0,
        "location": {
            "lat": 27.618393,
            "lng": 113.849299
        },
        "ad_info": {
            "adcode": 360302,
            "province": "江西省",
            "city": "萍乡市",
            "district": "安源区"
        }
    },
    {
        "id": "17689042830664681719",
        "title": "公共厕所",
        "address": "江西省萍乡市莲花县江西吉内得实业有限公司北侧210米",
        "tel": "",
        "category": "基础设施:公共设施:公共厕所",
        "type": 0,
        "location": {
            "lat": 27.390639,
            "lng": 113.960852
        },
        "ad_info": {
            "adcode": 360321,
            "province": "江西省",
            "city": "萍乡市",
            "district": "莲花县"
        }
    },
    {
        "id": "10166980520973683933",
        "title": "公共厕所",
        "address": "江西省萍乡市芦溪县沙湾路与袁河西路交叉口正南方向272米左右",
        "tel": "",
        "category": "基础设施:公共设施:公共厕所",
        "type": 0,
        "location": {
            "lat": 27.621188,
            "lng": 114.037664
        },
        "ad_info": {
            "adcode": 360323,
            "province": "江西省",
            "city": "萍乡市",
            "district": "芦溪县"
        }
    },
    {
        "id": "370459598592321564",
        "title": "公共厕所",
        "address": "江西省萍乡市上栗县吉祥路与胜利南路交叉口正北方向386米左右",
        "tel": "",
        "category": "基础设施:公共设施:公共厕所",
        "type": 0,
        "location": {
            "lat": 27.864568,
            "lng": 113.807672
        },
        "ad_info": {
            "adcode": 360322,
            "province": "江西省",
            "city": "萍乡市",
            "district": "上栗县"
        }
    },
    {
        "id": "12104660075498116779",
        "title": "六市服务区公共厕所",
        "address": "江西省萍乡市莲花县上莲高速与萍莲高速交叉口正南方向327米左右",
        "tel": "",
        "category": "基础设施:公共设施:公共厕所",
        "type": 0,
        "location": {
            "lat": 27.353154,
            "lng": 113.898607
        },
        "ad_info": {
            "adcode": 360321,
            "province": "江西省",
            "city": "萍乡市",
            "district": "莲花县"
        }
    },
    {
        "id": "7322153634222485414",
        "title": "公共厕所",
        "address": "江西省萍乡市上栗县高站路与高铁站高架桥交叉口正西方向259米左右",
        "tel": "",
        "category": "基础设施:公共设施:公共厕所",
        "type": 0,
        "location": {
            "lat": 27.684197,
            "lng": 113.847647
        },
        "ad_info": {
            "adcode": 360322,
            "province": "江西省",
            "city": "萍乡市",
            "district": "上栗县"
        }
    },
    {
        "id": "3182825434614836467",
        "title": "公共厕所",
        "address": "江西省萍乡市湘东区广寒寨乡大沙江体育公园",
        "tel": "",
        "category": "基础设施:公共设施:公共厕所",
        "type": 0,
        "location": {
            "lat": 27.376352,
            "lng": 113.755029
        },
        "ad_info": {
            "adcode": 360313,
            "province": "江西省",
            "city": "萍乡市",
            "district": "湘东区"
        }
    },
    {
        "id": "11100889364990846722",
        "title": "公共厕所",
        "address": "江西省萍乡市芦溪县772乡道石溪景区",
        "tel": "",
        "category": "基础设施:公共设施:公共厕所",
        "type": 0,
        "location": {
            "lat": 27.497536,
            "lng": 114.101085
        },
        "ad_info": {
            "adcode": 360323,
            "province": "江西省",
            "city": "萍乡市",
            "district": "芦溪县"
        }
    },
    {
        "id": "9529672968068139028",
        "title": "公共厕所(武功山风景名胜区四合院)",
        "address": "江西省萍乡市芦溪县772乡道四合院厕所",
        "tel": "",
        "category": "基础设施:公共设施:公共厕所",
        "type": 0,
        "location": {
            "lat": 27.488517,
            "lng": 114.102874
        },
        "ad_info": {
            "adcode": 360323,
            "province": "江西省",
            "city": "萍乡市",
            "district": "芦溪县"
        }
    },
    {
        "id": "14076343579590578649",
        "title": "公共厕所",
        "address": "江西省萍乡市安源区市府西路与玉湖东路交叉口东南方向148米左右",
        "tel": "",
        "category": "基础设施:公共设施:公共厕所",
        "type": 0,
        "location": {
            "lat": 27.655528,
            "lng": 113.886352
        },
        "ad_info": {
            "adcode": 360302,
            "province": "江西省",
            "city": "萍乡市",
            "district": "安源区"
        }
    },
    {
        "id": "2098316606785606426",
        "title": "便民厕所",
        "address": "江西省萍乡市湘东区S308与Y172交叉口西北方向323米左右",
        "tel": "",
        "category": "基础设施:公共设施:公共厕所",
        "type": 0,
        "location": {
            "lat": 27.69422,
            "lng": 113.728153
        },
        "ad_info": {
            "adcode": 360313,
            "province": "江西省",
            "city": "萍乡市",
            "district": "湘东区"
        }
    },
    {
        "id": "6818436035899187814",
        "title": "公共厕所",
        "address": "江西省萍乡市莲花县广场西路与新建街辅路交叉口正东方向34米左右",
        "tel": "",
        "category": "基础设施:公共设施:公共厕所",
        "type": 0,
        "location": {
            "lat": 27.127364,
            "lng": 113.954375
        },
        "ad_info": {
            "adcode": 360321,
            "province": "江西省",
            "city": "萍乡市",
            "district": "莲花县"
        }
    },
    {
        "id": "3711434114604037972",
        "title": "公共厕所",
        "address": "江西省萍乡市上栗县萍洪收费站出口",
        "tel": "",
        "category": "基础设施:公共设施:公共厕所",
        "type": 0,
        "location": {
            "lat": 27.852363,
            "lng": 113.786173
        },
        "ad_info": {
            "adcode": 360322,
            "province": "江西省",
            "city": "萍乡市",
            "district": "上栗县"
        }
    },
    {
        "id": "10654006525515155082",
        "title": "公共厕所",
        "address": "江西省萍乡市上栗县S225与S309交叉口东南方向27米左右",
        "tel": "",
        "category": "基础设施:公共设施:公共厕所",
        "type": 0,
        "location": {
            "lat": 27.795125,
            "lng": 113.911875
        },
        "ad_info": {
            "adcode": 360322,
            "province": "江西省",
            "city": "萍乡市",
            "district": "上栗县"
        }
    },
    {
        "id": "140374492828088887",
        "title": "公共厕所",
        "address": "江西省萍乡市安源区武功山中大道辅路与苏州东街交叉口正南方向53米左右",
        "tel": "",
        "category": "基础设施:公共设施:公共厕所",
        "type": 0,
        "location": {
            "lat": 27.646835,
            "lng": 113.880478
        },
        "ad_info": {
            "adcode": 360302,
            "province": "江西省",
            "city": "萍乡市",
            "district": "安源区"
        }
    },
    {
        "id": "6389008494644228434",
        "title": "公共厕所",
        "address": "江西省萍乡市安源区建设西路25号",
        "tel": "",
        "category": "基础设施:公共设施:公共厕所",
        "type": 0,
        "location": {
            "lat": 27.643323,
            "lng": 113.841086
        },
        "ad_info": {
            "adcode": 360302,
            "province": "江西省",
            "city": "萍乡市",
            "district": "安源区"
        }
    },
    {
        "id": "10813327484137866304",
        "title": "无障碍公共厕所",
        "address": "江西省萍乡市上栗县李畋北大道与李畋南大道交叉口正东方向408米左右",
        "tel": "",
        "category": "基础设施:公共设施:公共厕所",
        "type": 0,
        "location": {
            "lat": 27.874841,
            "lng": 113.815254
        },
        "ad_info": {
            "adcode": 360322,
            "province": "江西省",
            "city": "萍乡市",
            "district": "上栗县"
        }
    },
    {
        "id": "16840405138570033896",
        "title": "公共厕所",
        "address": "江西省萍乡市安源区朝阳南路与牡丹巷交叉口正东方向105米左右",
        "tel": "",
        "category": "基础设施:公共设施:公共厕所",
        "type": 0,
        "location": {
            "lat": 27.643347,
            "lng": 113.850349
        },
        "ad_info": {
            "adcode": 360302,
            "province": "江西省",
            "city": "萍乡市",
            "district": "安源区"
        }
    },
    {
        "id": "15279309135986268997",
        "title": "公共厕所",
        "address": "江西省萍乡市上栗县滨河北路35号",
        "tel": "",
        "category": "基础设施:公共设施:公共厕所",
        "type": 0,
        "location": {
            "lat": 27.874603,
            "lng": 113.808658
        },
        "ad_info": {
            "adcode": 360322,
            "province": "江西省",
            "city": "萍乡市",
            "district": "上栗县"
        }
    },
    {
        "id": "7417343867828446231",
        "title": "洗手间",
        "address": "江西省萍乡市安源区文化路与文昌路交叉口东北方向57米左右",
        "tel": "",
        "category": "基础设施:公共设施:公共厕所",
        "type": 0,
        "location": {
            "lat": 27.637087,
            "lng": 113.851067
        },
        "ad_info": {
            "adcode": 360302,
            "province": "江西省",
            "city": "萍乡市",
            "district": "安源区"
        }
    },
    {
        "id": "12682427158545989281",
        "title": "公共厕所",
        "address": "江西省萍乡市上栗县S89上莲高速与S89上莲高速入口交叉口西南260米",
        "tel": "",
        "category": "基础设施:公共设施:公共厕所",
        "type": 0,
        "location": {
            "lat": 27.847939,
            "lng": 113.775537
        },
        "ad_info": {
            "adcode": 360322,
            "province": "江西省",
            "city": "萍乡市",
            "district": "上栗县"
        }
    },
    {
        "id": "17049542294034271417",
        "title": "萍乡服务区-公共厕所",
        "address": "江西省萍乡市上栗县周江东路与玉湖东路交叉口正南方向543米左右",
        "tel": "",
        "category": "基础设施:公共设施:公共厕所",
        "type": 0,
        "location": {
            "lat": 27.683089,
            "lng": 113.915618
        },
        "ad_info": {
            "adcode": 360322,
            "province": "江西省",
            "city": "萍乡市",
            "district": "上栗县"
        }
    },
    {
        "id": "8139678272646043961",
        "title": "无障碍洗手间",
        "address": "江西省萍乡市安源区武功山中大道辅路与安东大道辅路交叉口东南80米",
        "tel": "",
        "category": "基础设施:公共设施:公共厕所",
        "type": 0,
        "location": {
            "lat": 27.646406,
            "lng": 113.883525
        },
        "ad_info": {
            "adcode": 360302,
            "province": "江西省",
            "city": "萍乡市",
            "district": "安源区"
        }
    },
    {
        "id": "6853547862087201798",
        "title": "公共厕所",
        "address": "江西省萍乡市安源区正街路124县",
        "tel": "",
        "category": "基础设施:公共设施:公共厕所",
        "type": 0,
        "location": {
            "lat": 27.601558,
            "lng": 113.894013
        },
        "ad_info": {
            "adcode": 360302,
            "province": "江西省",
            "city": "萍乡市",
            "district": "安源区"
        }
    },
    {
        "id": "2152173551154408741",
        "title": "无障碍公共厕所",
        "address": "江西省萍乡市上栗县金鸡公路驿站北侧210米",
        "tel": "",
        "category": "基础设施:公共设施:公共厕所",
        "type": 0,
        "location": {
            "lat": 27.833229,
            "lng": 113.839768
        },
        "ad_info": {
            "adcode": 360322,
            "province": "江西省",
            "city": "萍乡市",
            "district": "上栗县"
        }
    },
    {
        "id": "6345348274387862964",
        "title": "公共厕所",
        "address": "江西省萍乡市上栗县朝阳西路与西顺东巷交叉口正北方向83米左右",
        "tel": "",
        "category": "基础设施:公共设施:公共厕所",
        "type": 0,
        "location": {
            "lat": 27.876213,
            "lng": 113.793723
        },
        "ad_info": {
            "adcode": 360322,
            "province": "江西省",
            "city": "萍乡市",
            "district": "上栗县"
        }
    },
    {
        "id": "14535748616097635684",
        "title": "公共厕所",
        "address": "江西省萍乡市安源区公园南路与团结巷交叉口正东方向51米左右",
        "tel": "",
        "category": "基础设施:公共设施:公共厕所",
        "type": 0,
        "location": {
            "lat": 27.627432,
            "lng": 113.857922
        },
        "ad_info": {
            "adcode": 360302,
            "province": "江西省",
            "city": "萍乡市",
            "district": "安源区"
        }
    },
    {
        "id": "7745301872328322166",
        "title": "无障碍公共厕所",
        "address": "江西省萍乡市莲花县兴苑路与解放南路交叉口正南方向127米左右",
        "tel": "",
        "category": "基础设施:公共设施:公共厕所",
        "type": 0,
        "location": {
            "lat": 27.124141,
            "lng": 113.959409
        },
        "ad_info": {
            "adcode": 360321,
            "province": "江西省",
            "city": "萍乡市",
            "district": "莲花县"
        }
    },
    {
        "id": "1809557951711938707",
        "title": "公共厕所",
        "address": "江西省萍乡市安源区兴贤西路与萍实北大道交叉口西南方向430米左右",
        "tel": "",
        "category": "基础设施:公共设施:公共厕所",
        "type": 0,
        "location": {
            "lat": 27.661124,
            "lng": 113.853475
        },
        "ad_info": {
            "adcode": 360302,
            "province": "江西省",
            "city": "萍乡市",
            "district": "安源区"
        }
    },
    {
        "id": "14555156477602332796",
        "title": "公共厕所(武功山风景名胜区沈子村综合服务区)",
        "address": "江西省萍乡市芦溪县772乡道沈子村综合服务区",
        "tel": "",
        "category": "基础设施:公共设施:公共厕所",
        "type": 0,
        "location": {
            "lat": 27.45879,
            "lng": 114.117324
        },
        "ad_info": {
            "adcode": 360323,
            "province": "江西省",
            "city": "萍乡市",
            "district": "芦溪县"
        }
    },
    {
        "id": "9213356854769348853",
        "title": "公共厕所",
        "address": "江西省萍乡市安源区八一东路与八一西路交叉口西南方向78米左右",
        "tel": "",
        "category": "基础设施:公共设施:公共厕所",
        "type": 0,
        "location": {
            "lat": 27.620452,
            "lng": 113.849766
        },
        "ad_info": {
            "adcode": 360302,
            "province": "江西省",
            "city": "萍乡市",
            "district": "安源区"
        }
    },
    {
        "id": "2209325270368876356",
        "title": "无障碍公共厕所",
        "address": "江西省萍乡市安源区公园南路与友爱巷交叉口正东方向42米左右",
        "tel": "",
        "category": "基础设施:公共设施:公共厕所",
        "type": 0,
        "location": {
            "lat": 27.629714,
            "lng": 113.860514
        },
        "ad_info": {
            "adcode": 360302,
            "province": "江西省",
            "city": "萍乡市",
            "district": "安源区"
        }
    },
    {
        "id": "14862776716735063800",
        "title": "公共厕所",
        "address": "江西省萍乡市上栗县蒜你辣现代农业示范园西北侧140米",
        "tel": "",
        "category": "基础设施:公共设施:公共厕所",
        "type": 0,
        "location": {
            "lat": 27.725056,
            "lng": 113.779642
        },
        "ad_info": {
            "adcode": 360322,
            "province": "江西省",
            "city": "萍乡市",
            "district": "上栗县"
        }
    },
    {
        "id": "6983866196885531400",
        "title": "公共厕所",
        "address": "江西省萍乡市安源区武功山中大道与观泉南路交叉口西北方向63米左右",
        "tel": "",
        "category": "基础设施:公共设施:公共厕所",
        "type": 0,
        "location": {
            "lat": 27.655711,
            "lng": 113.901454
        },
        "ad_info": {
            "adcode": 360302,
            "province": "江西省",
            "city": "萍乡市",
            "district": "安源区"
        }
    },
    {
        "id": "12759011407614695138",
        "title": "美食街旅游厕所",
        "address": "江西省萍乡市安源区朝阳南路14号",
        "tel": "",
        "category": "基础设施:公共设施:公共厕所",
        "type": 0,
        "location": {
            "lat": 27.649644,
            "lng": 113.848986
        },
        "ad_info": {
            "adcode": 360302,
            "province": "江西省",
            "city": "萍乡市",
            "district": "安源区"
        }
    },
    {
        "id": "17564535135813578255",
        "title": "卫生间",
        "address": "江西省萍乡市芦溪县武功山风景名胜区",
        "tel": "",
        "category": "基础设施:公共设施:公共厕所",
        "type": 0,
        "location": {
            "lat": 27.472965,
            "lng": 114.175695
        },
        "ad_info": {
            "adcode": 360323,
            "province": "江西省",
            "city": "萍乡市",
            "district": "芦溪县"
        }
    },
    {
        "id": "10219316328928481254",
        "title": "公共厕所",
        "address": "江西省萍乡市湘东区X062与黄忠路交叉口正北方向395米左右",
        "tel": "",
        "category": "基础设施:公共设施:公共厕所",
        "type": 0,
        "location": {
            "lat": 27.414898,
            "lng": 113.702848
        },
        "ad_info": {
            "adcode": 360313,
            "province": "江西省",
            "city": "萍乡市",
            "district": "湘东区"
        }
    },
    {
        "id": "14405024285992276063",
        "title": "公共厕所",
        "address": "江西省萍乡市上栗县S309与杨宣公路交叉口正东方向139米左右",
        "tel": "",
        "category": "基础设施:公共设施:公共厕所",
        "type": 0,
        "location": {
            "lat": 27.759511,
            "lng": 113.894998
        },
        "ad_info": {
            "adcode": 360322,
            "province": "江西省",
            "city": "萍乡市",
            "district": "上栗县"
        }
    },
    {
        "id": "3526652805455506435",
        "title": "无障碍公共厕所",
        "address": "江西省萍乡市上栗县南源西路与民胜路交叉口西南方向49米左右",
        "tel": "",
        "category": "基础设施:公共设施:公共厕所",
        "type": 0,
        "location": {
            "lat": 27.862478,
            "lng": 113.797681
        },
        "ad_info": {
            "adcode": 360322,
            "province": "江西省",
            "city": "萍乡市",
            "district": "上栗县"
        }
    },
    {
        "id": "16556628953243454983",
        "title": "公共厕所(武功山风景名胜区云顶景区游客中心)",
        "address": "江西省萍乡市芦溪县云顶景区",
        "tel": "",
        "category": "基础设施:公共设施:公共厕所",
        "type": 0,
        "location": {
            "lat": 27.507202,
            "lng": 114.154793
        },
        "ad_info": {
            "adcode": 360323,
            "province": "江西省",
            "city": "萍乡市",
            "district": "芦溪县"
        }
    },
    {
        "id": "10218016387799351184",
        "title": "公共厕所",
        "address": "江西省萍乡市上栗县Y592与杨宣公路交叉口西南方向1652米左右",
        "tel": "",
        "category": "基础设施:公共设施:公共厕所",
        "type": 0,
        "location": {
            "lat": 27.746372,
            "lng": 113.883601
        },
        "ad_info": {
            "adcode": 360322,
            "province": "江西省",
            "city": "萍乡市",
            "district": "上栗县"
        }
    },
    {
        "id": "12483571257770588553",
        "title": "公共厕所",
        "address": "江西省萍乡市上栗县彭高镇吴楚北大道萍乡北站",
        "tel": "",
        "category": "基础设施:公共设施:公共厕所",
        "type": 0,
        "location": {
            "lat": 27.683819,
            "lng": 113.846772
        },
        "ad_info": {
            "adcode": 360322,
            "province": "江西省",
            "city": "萍乡市",
            "district": "上栗县"
        }
    },
    {
        "id": "2944677068812304211",
        "title": "美食街旅游厕所",
        "address": "江西省萍乡市安源区中环西路辅路与中环路交叉口正东方向575米左右",
        "tel": "",
        "category": "基础设施:公共设施:公共厕所",
        "type": 0,
        "location": {
            "lat": 27.648606,
            "lng": 113.833607
        },
        "ad_info": {
            "adcode": 360302,
            "province": "江西省",
            "city": "萍乡市",
            "district": "安源区"
        }
    },
    {
        "id": "9861082508215746475",
        "title": "无障碍公共厕所",
        "address": "江西省萍乡市莲花县永安中路与永安南路交叉口正北方向60米左右",
        "tel": "",
        "category": "基础设施:公共设施:公共厕所",
        "type": 0,
        "location": {
            "lat": 27.125508,
            "lng": 113.954612
        },
        "ad_info": {
            "adcode": 360321,
            "province": "江西省",
            "city": "萍乡市",
            "district": "莲花县"
        }
    },
    {
        "id": "17156494957916350519",
        "title": "洗手间",
        "address": "江西省萍乡市上栗县新发路与浏万西路交叉口西南方向40米左右",
        "tel": "",
        "category": "基础设施:公共设施:公共厕所",
        "type": 0,
        "location": {
            "lat": 27.876592,
            "lng": 113.79541
        },
        "ad_info": {
            "adcode": 360322,
            "province": "江西省",
            "city": "萍乡市",
            "district": "上栗县"
        }
    },
    {
        "id": "17145889063044298323",
        "title": "公共厕所",
        "address": "江西省萍乡市上栗县东源中学东北侧240米",
        "tel": "",
        "category": "基础设施:公共设施:公共厕所",
        "type": 0,
        "location": {
            "lat": 27.763475,
            "lng": 113.902994
        },
        "ad_info": {
            "adcode": 360322,
            "province": "江西省",
            "city": "萍乡市",
            "district": "上栗县"
        }
    },
    {
        "id": "12049269038663129271",
        "title": "公共厕所(白竺乡和平农场二期)",
        "address": "江西省萍乡市湘东区G319与S311交叉口西南方向944米左右",
        "tel": "",
        "category": "基础设施:公共设施:公共厕所",
        "type": 0,
        "location": {
            "lat": 27.510162,
            "lng": 113.825273
        },
        "ad_info": {
            "adcode": 360313,
            "province": "江西省",
            "city": "萍乡市",
            "district": "湘东区"
        }
    },
    {
        "id": "3002658174034641592",
        "title": "公共厕所",
        "address": "江西省萍乡市安源区柳园巷与跃进北路交叉口正东方向42米左右",
        "tel": "",
        "category": "基础设施:公共设施:公共厕所",
        "type": 0,
        "location": {
            "lat": 27.642834,
            "lng": 113.844119
        },
        "ad_info": {
            "adcode": 360302,
            "province": "江西省",
            "city": "萍乡市",
            "district": "安源区"
        }
    },
    {
        "id": "12586989403709577338",
        "title": "公共厕所(东江村熙谷小镇2号)",
        "address": "江西省萍乡市芦溪县芦万武旅游公路东江村熙谷小镇",
        "tel": "",
        "category": "基础设施:公共设施:公共厕所",
        "type": 0,
        "location": {
            "lat": 27.501758,
            "lng": 114.137854
        },
        "ad_info": {
            "adcode": 360323,
            "province": "江西省",
            "city": "萍乡市",
            "district": "芦溪县"
        }
    },
    {
        "id": "6509870000222393806",
        "title": "无障碍公共厕所",
        "address": "江西省萍乡市上栗县上栗服务区和谐商店西侧",
        "tel": "",
        "category": "基础设施:公共设施:公共厕所",
        "type": 0,
        "location": {
            "lat": 27.80434,
            "lng": 113.892071
        },
        "ad_info": {
            "adcode": 360322,
            "province": "江西省",
            "city": "萍乡市",
            "district": "上栗县"
        }
    },
    {
        "id": "11034395826689147597",
        "title": "公共厕所",
        "address": "江西省萍乡市上栗县杨岐普通寺东南侧150米",
        "tel": "",
        "category": "基础设施:公共设施:公共厕所",
        "type": 0,
        "location": {
            "lat": 27.829113,
            "lng": 113.890966
        },
        "ad_info": {
            "adcode": 360322,
            "province": "江西省",
            "city": "萍乡市",
            "district": "上栗县"
        }
    },
    {
        "id": "501438478711398611",
        "title": "公共厕所",
        "address": "江西省萍乡市芦溪县山口岩袁水源",
        "tel": "",
        "category": "基础设施:公共设施:公共厕所",
        "type": 0,
        "location": {
            "lat": 27.588311,
            "lng": 114.011197
        },
        "ad_info": {
            "adcode": 360323,
            "province": "江西省",
            "city": "萍乡市",
            "district": "芦溪县"
        }
    },
    {
        "id": "11913209651058713500",
        "title": "公共厕所",
        "address": "江西省萍乡市上栗县G319与茶园路交叉口东南方向431米左右",
        "tel": "",
        "category": "基础设施:公共设施:公共厕所",
        "type": 0,
        "location": {
            "lat": 27.934074,
            "lng": 113.765931
        },
        "ad_info": {
            "adcode": 360322,
            "province": "江西省",
            "city": "萍乡市",
            "district": "上栗县"
        }
    },
    {
        "id": "16912872526957654007",
        "title": "生态公共厕所",
        "address": "江西省萍乡市上栗县栗江路与谢家巷交叉口正东方向50米左右",
        "tel": "",
        "category": "基础设施:公共设施:公共厕所",
        "type": 0,
        "location": {
            "lat": 27.874037,
            "lng": 113.79809
        },
        "ad_info": {
            "adcode": 360322,
            "province": "江西省",
            "city": "萍乡市",
            "district": "上栗县"
        }
    },
    {
        "id": "17232617829457356855",
        "title": "公共厕所",
        "address": "江西省萍乡市上栗县金鸡公路驿站东北侧",
        "tel": "",
        "category": "基础设施:公共设施:公共厕所",
        "type": 0,
        "location": {
            "lat": 27.831437,
            "lng": 113.839692
        },
        "ad_info": {
            "adcode": 360322,
            "province": "江西省",
            "city": "萍乡市",
            "district": "上栗县"
        }
    },
    {
        "id": "15126848195227078042",
        "title": "公共厕所(桂花自行车休闲绿道)",
        "address": "江西省萍乡市芦溪县桂花村卫生所东北侧150米",
        "tel": "",
        "category": "基础设施:公共设施:公共厕所",
        "type": 0,
        "location": {
            "lat": 27.581676,
            "lng": 114.149435
        },
        "ad_info": {
            "adcode": 360323,
            "province": "江西省",
            "city": "萍乡市",
            "district": "芦溪县"
        }
    },
    {
        "id": "12412151949271394754",
        "title": "洗手间",
        "address": "江西省萍乡市上栗县兴盛大道与萍栗南路交叉口正南方向68米左右",
        "tel": "",
        "category": "基础设施:公共设施:公共厕所",
        "type": 0,
        "location": {
            "lat": 27.866304,
            "lng": 113.79557
        },
        "ad_info": {
            "adcode": 360322,
            "province": "江西省",
            "city": "萍乡市",
            "district": "上栗县"
        }
    },
    {
        "id": "495381352156722445",
        "title": "公共厕所",
        "address": "江西省萍乡市安源区南环路与彭家巷交叉口西北方向296米左右",
        "tel": "",
        "category": "基础设施:公共设施:公共厕所",
        "type": 0,
        "location": {
            "lat": 27.626378,
            "lng": 113.868035
        },
        "ad_info": {
            "adcode": 360302,
            "province": "江西省",
            "city": "萍乡市",
            "district": "安源区"
        }
    },
    {
        "id": "887314198083916208",
        "title": "公共厕所",
        "address": "江西省萍乡市湘东区摇前路与长青北路交叉口正东方向178米左右",
        "tel": "",
        "category": "基础设施:公共设施:公共厕所",
        "type": 0,
        "location": {
            "lat": 27.527286,
            "lng": 113.649639
        },
        "ad_info": {
            "adcode": 360313,
            "province": "江西省",
            "city": "萍乡市",
            "district": "湘东区"
        }
    },
    {
        "id": "4868860330146067463",
        "title": "公共厕所",
        "address": "江西省萍乡市上栗县G319与S309交叉口东北方向57米左右",
        "tel": "",
        "category": "基础设施:公共设施:公共厕所",
        "type": 0,
        "location": {
            "lat": 27.739831,
            "lng": 113.849857
        },
        "ad_info": {
            "adcode": 360322,
            "province": "江西省",
            "city": "萍乡市",
            "district": "上栗县"
        }
    },
    {
        "id": "6388654467942634644",
        "title": "公共厕所",
        "address": "江西省萍乡市芦溪县萍乡武功山国家级风景名胜区(X164北)",
        "tel": "0799-7636666",
        "category": "基础设施:公共设施:公共厕所",
        "type": 0,
        "location": {
            "lat": 27.466867,
            "lng": 114.155103
        },
        "ad_info": {
            "adcode": 360323,
            "province": "江西省",
            "city": "萍乡市",
            "district": "芦溪县"
        }
    },
    {
        "id": "13005515773162036012",
        "title": "公共厕所",
        "address": "江西省萍乡市莲花县Y374与玉壶路交叉口西南方向171米左右",
        "tel": "",
        "category": "基础设施:公共设施:公共厕所",
        "type": 0,
        "location": {
            "lat": 27.12642,
            "lng": 113.965687
        },
        "ad_info": {
            "adcode": 360321,
            "province": "江西省",
            "city": "萍乡市",
            "district": "莲花县"
        }
    },
    {
        "id": "10261543337191967992",
        "title": "公共厕所",
        "address": "江西省萍乡市湘东区民吉巷与滨江东路交叉口正北方向242米左右",
        "tel": "",
        "category": "基础设施:公共设施:公共厕所",
        "type": 0,
        "location": {
            "lat": 27.633106,
            "lng": 113.748183
        },
        "ad_info": {
            "adcode": 360313,
            "province": "江西省",
            "city": "萍乡市",
            "district": "湘东区"
        }
    },
    {
        "id": "10105249977867715563",
        "title": "公共厕所",
        "address": "江西省萍乡市芦溪县人民东路与紫荆路交叉口西南方向69米左右",
        "tel": "",
        "category": "基础设施:公共设施:公共厕所",
        "type": 0,
        "location": {
            "lat": 27.634354,
            "lng": 114.044748
        },
        "ad_info": {
            "adcode": 360323,
            "province": "江西省",
            "city": "萍乡市",
            "district": "芦溪县"
        }
    },
    {
        "id": "1244638589803890910",
        "title": "洗手间",
        "address": "江西省萍乡市湘东区摇前路与长青北路交叉口正东方向367米左右",
        "tel": "",
        "category": "基础设施:公共设施:公共厕所",
        "type": 0,
        "location": {
            "lat": 27.527494,
            "lng": 113.651532
        },
        "ad_info": {
            "adcode": 360313,
            "province": "江西省",
            "city": "萍乡市",
            "district": "湘东区"
        }
    },
    {
        "id": "16069289663606618990",
        "title": "公共厕所",
        "address": "江西省萍乡市安源区广兴西路与玉湖西路交叉口西北方向242米左右",
        "tel": "",
        "category": "基础设施:公共设施:公共厕所",
        "type": 0,
        "location": {
            "lat": 27.656796,
            "lng": 113.858275
        },
        "ad_info": {
            "adcode": 360302,
            "province": "江西省",
            "city": "萍乡市",
            "district": "安源区"
        }
    },
    {
        "id": "4823252521208875245",
        "title": "公共厕所",
        "address": "江西省萍乡市安源区S533与Y020交叉口东北方向96米",
        "tel": "",
        "category": "基础设施:公共设施:公共厕所",
        "type": 0,
        "location": {
            "lat": 27.605148,
            "lng": 113.831875
        },
        "ad_info": {
            "adcode": 360302,
            "province": "江西省",
            "city": "萍乡市",
            "district": "安源区"
        }
    },
    {
        "id": "18117166322895160449",
        "title": "公共厕所",
        "address": "江西省萍乡市芦溪县日江西路与高楼路交叉口西南方向87米左右",
        "tel": "",
        "category": "基础设施:公共设施:公共厕所",
        "type": 0,
        "location": {
            "lat": 27.627302,
            "lng": 114.042728
        },
        "ad_info": {
            "adcode": 360323,
            "province": "江西省",
            "city": "萍乡市",
            "district": "芦溪县"
        }
    },
    {
        "id": "13175657488634686060",
        "title": "公共厕所",
        "address": "江西省萍乡市安源区广兴西路与玉湖西路交叉口西北方向214米左右",
        "tel": "",
        "category": "基础设施:公共设施:公共厕所",
        "type": 0,
        "location": {
            "lat": 27.656618,
            "lng": 113.858471
        },
        "ad_info": {
            "adcode": 360302,
            "province": "江西省",
            "city": "萍乡市",
            "district": "安源区"
        }
    },
    {
        "id": "13815242659133776460",
        "title": "旅游公共厕所",
        "address": "江西省萍乡市芦溪县武功山百公里越野登山步道",
        "tel": "",
        "category": "基础设施:公共设施:公共厕所",
        "type": 0,
        "location": {
            "lat": 27.446836,
            "lng": 114.097482
        },
        "ad_info": {
            "adcode": 360323,
            "province": "江西省",
            "city": "萍乡市",
            "district": "芦溪县"
        }
    },
    {
        "id": "17204578997754591622",
        "title": "公共厕所",
        "address": "江西省萍乡市上栗县平安南路御府壹号对面",
        "tel": "",
        "category": "基础设施:公共设施:公共厕所",
        "type": 0,
        "location": {
            "lat": 27.85927,
            "lng": 113.802621
        },
        "ad_info": {
            "adcode": 360322,
            "province": "江西省",
            "city": "萍乡市",
            "district": "上栗县"
        }
    },
    {
        "id": "13446265021246116676",
        "title": "公共厕所",
        "address": "江西省萍乡市安源区X125与长潭路交叉口正南方向750米左右",
        "tel": "",
        "category": "基础设施:公共设施:公共厕所",
        "type": 0,
        "location": {
            "lat": 27.579213,
            "lng": 113.842849
        },
        "ad_info": {
            "adcode": 360302,
            "province": "江西省",
            "city": "萍乡市",
            "district": "安源区"
        }
    },
    {
        "id": "6282829998453715770",
        "title": "公共厕所",
        "address": "江西省萍乡市芦溪县S225与瓷城路交叉口西南方向69米左右",
        "tel": "",
        "category": "基础设施:公共设施:公共厕所",
        "type": 0,
        "location": {
            "lat": 27.610585,
            "lng": 114.010555
        },
        "ad_info": {
            "adcode": 360323,
            "province": "江西省",
            "city": "萍乡市",
            "district": "芦溪县"
        }
    },
    {
        "id": "1619382239277815398",
        "title": "公共厕所",
        "address": "江西省萍乡市安源区正大街与鲁班巷交叉口正南方向27米左右",
        "tel": "",
        "category": "基础设施:公共设施:公共厕所",
        "type": 0,
        "location": {
            "lat": 27.623904,
            "lng": 113.856608
        },
        "ad_info": {
            "adcode": 360302,
            "province": "江西省",
            "city": "萍乡市",
            "district": "安源区"
        }
    },
    {
        "id": "8275327948153353915",
        "title": "无障碍公共厕所",
        "address": "江西省萍乡市湘东区滨江南路与砚田路交叉口正北方向17米左右",
        "tel": "",
        "category": "基础设施:公共设施:公共厕所",
        "type": 0,
        "location": {
            "lat": 27.639243,
            "lng": 113.736971
        },
        "ad_info": {
            "adcode": 360313,
            "province": "江西省",
            "city": "萍乡市",
            "district": "湘东区"
        }
    },
    {
        "id": "18065595519933028717",
        "title": "公共厕所",
        "address": "江西省萍乡市安源区宝塔路与中环路辅路交叉口东360米",
        "tel": "",
        "category": "基础设施:公共设施:公共厕所",
        "type": 0,
        "location": {
            "lat": 27.609528,
            "lng": 113.840387
        },
        "ad_info": {
            "adcode": 360302,
            "province": "江西省",
            "city": "萍乡市",
            "district": "安源区"
        }
    },
    {
        "id": "3545766290639449269",
        "title": "公共厕所",
        "address": "江西省萍乡市安源区吉星街与怀王巷交叉口正南方向73米左右",
        "tel": "",
        "category": "基础设施:公共设施:公共厕所",
        "type": 0,
        "location": {
            "lat": 27.617211,
            "lng": 113.848651
        },
        "ad_info": {
            "adcode": 360302,
            "province": "江西省",
            "city": "萍乡市",
            "district": "安源区"
        }
    },
    {
        "id": "12012069182748370185",
        "title": "公共厕所",
        "address": "江西省萍乡市安源区萍水南路与跃进南路交叉口东南方向25米左右",
        "tel": "",
        "category": "基础设施:公共设施:公共厕所",
        "type": 0,
        "location": {
            "lat": 27.616974,
            "lng": 113.852259
        },
        "ad_info": {
            "adcode": 360302,
            "province": "江西省",
            "city": "萍乡市",
            "district": "安源区"
        }
    },
    {
        "id": "887314198083916208",
        "title": "公共厕所",
        "address": "江西省萍乡市湘东区摇前路与长青北路交叉口正东方向178米左右",
        "tel": "",
        "category": "基础设施:公共设施:公共厕所",
        "type": 0,
        "location": {
            "lat": 27.527286,
            "lng": 113.649639
        },
        "ad_info": {
            "adcode": 360313,
            "province": "江西省",
            "city": "萍乡市",
            "district": "湘东区"
        }
    },
    {
        "id": "4868860330146067463",
        "title": "公共厕所",
        "address": "江西省萍乡市上栗县G319与S309交叉口东北方向57米左右",
        "tel": "",
        "category": "基础设施:公共设施:公共厕所",
        "type": 0,
        "location": {
            "lat": 27.739831,
            "lng": 113.849857
        },
        "ad_info": {
            "adcode": 360322,
            "province": "江西省",
            "city": "萍乡市",
            "district": "上栗县"
        }
    },
    {
        "id": "6388654467942634644",
        "title": "公共厕所",
        "address": "江西省萍乡市芦溪县萍乡武功山国家级风景名胜区(X164北)",
        "tel": "0799-7636666",
        "category": "基础设施:公共设施:公共厕所",
        "type": 0,
        "location": {
            "lat": 27.466867,
            "lng": 114.155103
        },
        "ad_info": {
            "adcode": 360323,
            "province": "江西省",
            "city": "萍乡市",
            "district": "芦溪县"
        }
    },
    {
        "id": "13005515773162036012",
        "title": "公共厕所",
        "address": "江西省萍乡市莲花县Y374与玉壶路交叉口西南方向171米左右",
        "tel": "",
        "category": "基础设施:公共设施:公共厕所",
        "type": 0,
        "location": {
            "lat": 27.12642,
            "lng": 113.965687
        },
        "ad_info": {
            "adcode": 360321,
            "province": "江西省",
            "city": "萍乡市",
            "district": "莲花县"
        }
    },
    {
        "id": "10261543337191967992",
        "title": "公共厕所",
        "address": "江西省萍乡市湘东区民吉巷与滨江东路交叉口正北方向242米左右",
        "tel": "",
        "category": "基础设施:公共设施:公共厕所",
        "type": 0,
        "location": {
            "lat": 27.633106,
            "lng": 113.748183
        },
        "ad_info": {
            "adcode": 360313,
            "province": "江西省",
            "city": "萍乡市",
            "district": "湘东区"
        }
    },
    {
        "id": "10105249977867715563",
        "title": "公共厕所",
        "address": "江西省萍乡市芦溪县人民东路与紫荆路交叉口西南方向69米左右",
        "tel": "",
        "category": "基础设施:公共设施:公共厕所",
        "type": 0,
        "location": {
            "lat": 27.634354,
            "lng": 114.044748
        },
        "ad_info": {
            "adcode": 360323,
            "province": "江西省",
            "city": "萍乡市",
            "district": "芦溪县"
        }
    },
    {
        "id": "1244638589803890910",
        "title": "洗手间",
        "address": "江西省萍乡市湘东区摇前路与长青北路交叉口正东方向367米左右",
        "tel": "",
        "category": "基础设施:公共设施:公共厕所",
        "type": 0,
        "location": {
            "lat": 27.527494,
            "lng": 113.651532
        },
        "ad_info": {
            "adcode": 360313,
            "province": "江西省",
            "city": "萍乡市",
            "district": "湘东区"
        }
    },
    {
        "id": "16069289663606618990",
        "title": "公共厕所",
        "address": "江西省萍乡市安源区广兴西路与玉湖西路交叉口西北方向242米左右",
        "tel": "",
        "category": "基础设施:公共设施:公共厕所",
        "type": 0,
        "location": {
            "lat": 27.656796,
            "lng": 113.858275
        },
        "ad_info": {
            "adcode": 360302,
            "province": "江西省",
            "city": "萍乡市",
            "district": "安源区"
        }
    },
    {
        "id": "4823252521208875245",
        "title": "公共厕所",
        "address": "江西省萍乡市安源区S533与Y020交叉口东北方向96米",
        "tel": "",
        "category": "基础设施:公共设施:公共厕所",
        "type": 0,
        "location": {
            "lat": 27.605148,
            "lng": 113.831875
        },
        "ad_info": {
            "adcode": 360302,
            "province": "江西省",
            "city": "萍乡市",
            "district": "安源区"
        }
    },
    {
        "id": "18117166322895160449",
        "title": "公共厕所",
        "address": "江西省萍乡市芦溪县日江西路与高楼路交叉口西南方向87米左右",
        "tel": "",
        "category": "基础设施:公共设施:公共厕所",
        "type": 0,
        "location": {
            "lat": 27.627302,
            "lng": 114.042728
        },
        "ad_info": {
            "adcode": 360323,
            "province": "江西省",
            "city": "萍乡市",
            "district": "芦溪县"
        }
    },
    {
        "id": "13175657488634686060",
        "title": "公共厕所",
        "address": "江西省萍乡市安源区广兴西路与玉湖西路交叉口西北方向214米左右",
        "tel": "",
        "category": "基础设施:公共设施:公共厕所",
        "type": 0,
        "location": {
            "lat": 27.656618,
            "lng": 113.858471
        },
        "ad_info": {
            "adcode": 360302,
            "province": "江西省",
            "city": "萍乡市",
            "district": "安源区"
        }
    },
    {
        "id": "13815242659133776460",
        "title": "旅游公共厕所",
        "address": "江西省萍乡市芦溪县武功山百公里越野登山步道",
        "tel": "",
        "category": "基础设施:公共设施:公共厕所",
        "type": 0,
        "location": {
            "lat": 27.446836,
            "lng": 114.097482
        },
        "ad_info": {
            "adcode": 360323,
            "province": "江西省",
            "city": "萍乡市",
            "district": "芦溪县"
        }
    },
    {
        "id": "17204578997754591622",
        "title": "公共厕所",
        "address": "江西省萍乡市上栗县平安南路御府壹号对面",
        "tel": "",
        "category": "基础设施:公共设施:公共厕所",
        "type": 0,
        "location": {
            "lat": 27.85927,
            "lng": 113.802621
        },
        "ad_info": {
            "adcode": 360322,
            "province": "江西省",
            "city": "萍乡市",
            "district": "上栗县"
        }
    },
    {
        "id": "13446265021246116676",
        "title": "公共厕所",
        "address": "江西省萍乡市安源区X125与长潭路交叉口正南方向750米左右",
        "tel": "",
        "category": "基础设施:公共设施:公共厕所",
        "type": 0,
        "location": {
            "lat": 27.579213,
            "lng": 113.842849
        },
        "ad_info": {
            "adcode": 360302,
            "province": "江西省",
            "city": "萍乡市",
            "district": "安源区"
        }
    },
    {
        "id": "6282829998453715770",
        "title": "公共厕所",
        "address": "江西省萍乡市芦溪县S225与瓷城路交叉口西南方向69米左右",
        "tel": "",
        "category": "基础设施:公共设施:公共厕所",
        "type": 0,
        "location": {
            "lat": 27.610585,
            "lng": 114.010555
        },
        "ad_info": {
            "adcode": 360323,
            "province": "江西省",
            "city": "萍乡市",
            "district": "芦溪县"
        }
    },
    {
        "id": "1619382239277815398",
        "title": "公共厕所",
        "address": "江西省萍乡市安源区正大街与鲁班巷交叉口正南方向27米左右",
        "tel": "",
        "category": "基础设施:公共设施:公共厕所",
        "type": 0,
        "location": {
            "lat": 27.623904,
            "lng": 113.856608
        },
        "ad_info": {
            "adcode": 360302,
            "province": "江西省",
            "city": "萍乡市",
            "district": "安源区"
        }
    },
    {
        "id": "8275327948153353915",
        "title": "无障碍公共厕所",
        "address": "江西省萍乡市湘东区滨江南路与砚田路交叉口正北方向17米左右",
        "tel": "",
        "category": "基础设施:公共设施:公共厕所",
        "type": 0,
        "location": {
            "lat": 27.639243,
            "lng": 113.736971
        },
        "ad_info": {
            "adcode": 360313,
            "province": "江西省",
            "city": "萍乡市",
            "district": "湘东区"
        }
    },
    {
        "id": "18065595519933028717",
        "title": "公共厕所",
        "address": "江西省萍乡市安源区宝塔路与中环路辅路交叉口东360米",
        "tel": "",
        "category": "基础设施:公共设施:公共厕所",
        "type": 0,
        "location": {
            "lat": 27.609528,
            "lng": 113.840387
        },
        "ad_info": {
            "adcode": 360302,
            "province": "江西省",
            "city": "萍乡市",
            "district": "安源区"
        }
    },
    {
        "id": "3545766290639449269",
        "title": "公共厕所",
        "address": "江西省萍乡市安源区吉星街与怀王巷交叉口正南方向73米左右",
        "tel": "",
        "category": "基础设施:公共设施:公共厕所",
        "type": 0,
        "location": {
            "lat": 27.617211,
            "lng": 113.848651
        },
        "ad_info": {
            "adcode": 360302,
            "province": "江西省",
            "city": "萍乡市",
            "district": "安源区"
        }
    },
    {
        "id": "12012069182748370185",
        "title": "公共厕所",
        "address": "江西省萍乡市安源区萍水南路与跃进南路交叉口东南方向25米左右",
        "tel": "",
        "category": "基础设施:公共设施:公共厕所",
        "type": 0,
        "location": {
            "lat": 27.616974,
            "lng": 113.852259
        },
        "ad_info": {
            "adcode": 360302,
            "province": "江西省",
            "city": "萍乡市",
            "district": "安源区"
        }
    },
    {
        "id": "887314198083916208",
        "title": "公共厕所",
        "address": "江西省萍乡市湘东区摇前路与长青北路交叉口正东方向178米左右",
        "tel": "",
        "category": "基础设施:公共设施:公共厕所",
        "type": 0,
        "location": {
            "lat": 27.527286,
            "lng": 113.649639
        },
        "ad_info": {
            "adcode": 360313,
            "province": "江西省",
            "city": "萍乡市",
            "district": "湘东区"
        }
    },
    {
        "id": "4868860330146067463",
        "title": "公共厕所",
        "address": "江西省萍乡市上栗县G319与S309交叉口东北方向57米左右",
        "tel": "",
        "category": "基础设施:公共设施:公共厕所",
        "type": 0,
        "location": {
            "lat": 27.739831,
            "lng": 113.849857
        },
        "ad_info": {
            "adcode": 360322,
            "province": "江西省",
            "city": "萍乡市",
            "district": "上栗县"
        }
    },
    {
        "id": "6388654467942634644",
        "title": "公共厕所",
        "address": "江西省萍乡市芦溪县萍乡武功山国家级风景名胜区(X164北)",
        "tel": "0799-7636666",
        "category": "基础设施:公共设施:公共厕所",
        "type": 0,
        "location": {
            "lat": 27.466867,
            "lng": 114.155103
        },
        "ad_info": {
            "adcode": 360323,
            "province": "江西省",
            "city": "萍乡市",
            "district": "芦溪县"
        }
    },
    {
        "id": "13005515773162036012",
        "title": "公共厕所",
        "address": "江西省萍乡市莲花县Y374与玉壶路交叉口西南方向171米左右",
        "tel": "",
        "category": "基础设施:公共设施:公共厕所",
        "type": 0,
        "location": {
            "lat": 27.12642,
            "lng": 113.965687
        },
        "ad_info": {
            "adcode": 360321,
            "province": "江西省",
            "city": "萍乡市",
            "district": "莲花县"
        }
    },
    {
        "id": "10261543337191967992",
        "title": "公共厕所",
        "address": "江西省萍乡市湘东区民吉巷与滨江东路交叉口正北方向242米左右",
        "tel": "",
        "category": "基础设施:公共设施:公共厕所",
        "type": 0,
        "location": {
            "lat": 27.633106,
            "lng": 113.748183
        },
        "ad_info": {
            "adcode": 360313,
            "province": "江西省",
            "city": "萍乡市",
            "district": "湘东区"
        }
    },
    {
        "id": "10105249977867715563",
        "title": "公共厕所",
        "address": "江西省萍乡市芦溪县人民东路与紫荆路交叉口西南方向69米左右",
        "tel": "",
        "category": "基础设施:公共设施:公共厕所",
        "type": 0,
        "location": {
            "lat": 27.634354,
            "lng": 114.044748
        },
        "ad_info": {
            "adcode": 360323,
            "province": "江西省",
            "city": "萍乡市",
            "district": "芦溪县"
        }
    },
    {
        "id": "1244638589803890910",
        "title": "洗手间",
        "address": "江西省萍乡市湘东区摇前路与长青北路交叉口正东方向367米左右",
        "tel": "",
        "category": "基础设施:公共设施:公共厕所",
        "type": 0,
        "location": {
            "lat": 27.527494,
            "lng": 113.651532
        },
        "ad_info": {
            "adcode": 360313,
            "province": "江西省",
            "city": "萍乡市",
            "district": "湘东区"
        }
    },
    {
        "id": "16069289663606618990",
        "title": "公共厕所",
        "address": "江西省萍乡市安源区广兴西路与玉湖西路交叉口西北方向242米左右",
        "tel": "",
        "category": "基础设施:公共设施:公共厕所",
        "type": 0,
        "location": {
            "lat": 27.656796,
            "lng": 113.858275
        },
        "ad_info": {
            "adcode": 360302,
            "province": "江西省",
            "city": "萍乡市",
            "district": "安源区"
        }
    },
    {
        "id": "4823252521208875245",
        "title": "公共厕所",
        "address": "江西省萍乡市安源区S533与Y020交叉口东北方向96米",
        "tel": "",
        "category": "基础设施:公共设施:公共厕所",
        "type": 0,
        "location": {
            "lat": 27.605148,
            "lng": 113.831875
        },
        "ad_info": {
            "adcode": 360302,
            "province": "江西省",
            "city": "萍乡市",
            "district": "安源区"
        }
    },
    {
        "id": "18117166322895160449",
        "title": "公共厕所",
        "address": "江西省萍乡市芦溪县日江西路与高楼路交叉口西南方向87米左右",
        "tel": "",
        "category": "基础设施:公共设施:公共厕所",
        "type": 0,
        "location": {
            "lat": 27.627302,
            "lng": 114.042728
        },
        "ad_info": {
            "adcode": 360323,
            "province": "江西省",
            "city": "萍乡市",
            "district": "芦溪县"
        }
    },
    {
        "id": "13175657488634686060",
        "title": "公共厕所",
        "address": "江西省萍乡市安源区广兴西路与玉湖西路交叉口西北方向214米左右",
        "tel": "",
        "category": "基础设施:公共设施:公共厕所",
        "type": 0,
        "location": {
            "lat": 27.656618,
            "lng": 113.858471
        },
        "ad_info": {
            "adcode": 360302,
            "province": "江西省",
            "city": "萍乡市",
            "district": "安源区"
        }
    },
    {
        "id": "13815242659133776460",
        "title": "旅游公共厕所",
        "address": "江西省萍乡市芦溪县武功山百公里越野登山步道",
        "tel": "",
        "category": "基础设施:公共设施:公共厕所",
        "type": 0,
        "location": {
            "lat": 27.446836,
            "lng": 114.097482
        },
        "ad_info": {
            "adcode": 360323,
            "province": "江西省",
            "city": "萍乡市",
            "district": "芦溪县"
        }
    },
    {
        "id": "17204578997754591622",
        "title": "公共厕所",
        "address": "江西省萍乡市上栗县平安南路御府壹号对面",
        "tel": "",
        "category": "基础设施:公共设施:公共厕所",
        "type": 0,
        "location": {
            "lat": 27.85927,
            "lng": 113.802621
        },
        "ad_info": {
            "adcode": 360322,
            "province": "江西省",
            "city": "萍乡市",
            "district": "上栗县"
        }
    },
    {
        "id": "13446265021246116676",
        "title": "公共厕所",
        "address": "江西省萍乡市安源区X125与长潭路交叉口正南方向750米左右",
        "tel": "",
        "category": "基础设施:公共设施:公共厕所",
        "type": 0,
        "location": {
            "lat": 27.579213,
            "lng": 113.842849
        },
        "ad_info": {
            "adcode": 360302,
            "province": "江西省",
            "city": "萍乡市",
            "district": "安源区"
        }
    },
    {
        "id": "6282829998453715770",
        "title": "公共厕所",
        "address": "江西省萍乡市芦溪县S225与瓷城路交叉口西南方向69米左右",
        "tel": "",
        "category": "基础设施:公共设施:公共厕所",
        "type": 0,
        "location": {
            "lat": 27.610585,
            "lng": 114.010555
        },
        "ad_info": {
            "adcode": 360323,
            "province": "江西省",
            "city": "萍乡市",
            "district": "芦溪县"
        }
    },
    {
        "id": "1619382239277815398",
        "title": "公共厕所",
        "address": "江西省萍乡市安源区正大街与鲁班巷交叉口正南方向27米左右",
        "tel": "",
        "category": "基础设施:公共设施:公共厕所",
        "type": 0,
        "location": {
            "lat": 27.623904,
            "lng": 113.856608
        },
        "ad_info": {
            "adcode": 360302,
            "province": "江西省",
            "city": "萍乡市",
            "district": "安源区"
        }
    },
    {
        "id": "8275327948153353915",
        "title": "无障碍公共厕所",
        "address": "江西省萍乡市湘东区滨江南路与砚田路交叉口正北方向17米左右",
        "tel": "",
        "category": "基础设施:公共设施:公共厕所",
        "type": 0,
        "location": {
            "lat": 27.639243,
            "lng": 113.736971
        },
        "ad_info": {
            "adcode": 360313,
            "province": "江西省",
            "city": "萍乡市",
            "district": "湘东区"
        }
    },
    {
        "id": "18065595519933028717",
        "title": "公共厕所",
        "address": "江西省萍乡市安源区宝塔路与中环路辅路交叉口东360米",
        "tel": "",
        "category": "基础设施:公共设施:公共厕所",
        "type": 0,
        "location": {
            "lat": 27.609528,
            "lng": 113.840387
        },
        "ad_info": {
            "adcode": 360302,
            "province": "江西省",
            "city": "萍乡市",
            "district": "安源区"
        }
    },
    {
        "id": "3545766290639449269",
        "title": "公共厕所",
        "address": "江西省萍乡市安源区吉星街与怀王巷交叉口正南方向73米左右",
        "tel": "",
        "category": "基础设施:公共设施:公共厕所",
        "type": 0,
        "location": {
            "lat": 27.617211,
            "lng": 113.848651
        },
        "ad_info": {
            "adcode": 360302,
            "province": "江西省",
            "city": "萍乡市",
            "district": "安源区"
        }
    },
    {
        "id": "12012069182748370185",
        "title": "公共厕所",
        "address": "江西省萍乡市安源区萍水南路与跃进南路交叉口东南方向25米左右",
        "tel": "",
        "category": "基础设施:公共设施:公共厕所",
        "type": 0,
        "location": {
            "lat": 27.616974,
            "lng": 113.852259
        },
        "ad_info": {
            "adcode": 360302,
            "province": "江西省",
            "city": "萍乡市",
            "district": "安源区"
        }
    }
]