[
    {
        "id": "16471125412905196377",
        "title": "公共厕所",
        "address": "辽宁省营口市站前区东昌南街建丰生活城",
        "tel": "",
        "category": "基础设施:公共设施:公共厕所",
        "type": 0,
        "location": {
            "lat": 40.668602,
            "lng": 122.263571
        },
        "ad_info": {
            "adcode": 210802,
            "province": "辽宁省",
            "city": "营口市",
            "district": "站前区"
        }
    },
    {
        "id": "11744084870431048469",
        "title": "公共厕所",
        "address": "辽宁省营口市站前区南开街与学府路交叉口正北方向111米左右",
        "tel": "",
        "category": "基础设施:公共设施:公共厕所",
        "type": 0,
        "location": {
            "lat": 40.657424,
            "lng": 122.24402
        },
        "ad_info": {
            "adcode": 210802,
            "province": "辽宁省",
            "city": "营口市",
            "district": "站前区"
        }
    },
    {
        "id": "16257418185539038416",
        "title": "公共厕所",
        "address": "辽宁省营口市站前区新华路与滨河大街交叉口东北方向49米左右",
        "tel": "",
        "category": "基础设施:公共设施:公共厕所",
        "type": 0,
        "location": {
            "lat": 40.680027,
            "lng": 122.233861
        },
        "ad_info": {
            "adcode": 210802,
            "province": "辽宁省",
            "city": "营口市",
            "district": "站前区"
        }
    },
    {
        "id": "482507822619527539",
        "title": "公共厕所",
        "address": "辽宁省营口市站前区建设街与文健路交叉口正南方向112米左右",
        "tel": "",
        "category": "基础设施:公共设施:公共厕所",
        "type": 0,
        "location": {
            "lat": 40.677144,
            "lng": 122.241358
        },
        "ad_info": {
            "adcode": 210802,
            "province": "辽宁省",
            "city": "营口市",
            "district": "站前区"
        }
    },
    {
        "id": "12287085604306763630",
        "title": "公共厕所",
        "address": "辽宁省营口市站前区绥定路与辽河大街交叉口西南方向121米左右",
        "tel": "",
        "category": "基础设施:公共设施:公共厕所",
        "type": 0,
        "location": {
            "lat": 40.679135,
            "lng": 122.24645
        },
        "ad_info": {
            "adcode": 210802,
            "province": "辽宁省",
            "city": "营口市",
            "district": "站前区"
        }
    },
    {
        "id": "10695203420413593476",
        "title": "公共厕所",
        "address": "辽宁省营口市站前区东园街与辽河大街交叉口西南方向63米左右",
        "tel": "",
        "category": "基础设施:公共设施:公共厕所",
        "type": 0,
        "location": {
            "lat": 40.692938,
            "lng": 122.285969
        },
        "ad_info": {
            "adcode": 210802,
            "province": "辽宁省",
            "city": "营口市",
            "district": "站前区"
        }
    },
    {
        "id": "15033871618991288191",
        "title": "公共厕所",
        "address": "辽宁省营口市站前区市府路与青花大街交叉口东南方向78米左右",
        "tel": "",
        "category": "基础设施:公共设施:公共厕所",
        "type": 0,
        "location": {
            "lat": 40.650727,
            "lng": 122.238629
        },
        "ad_info": {
            "adcode": 210802,
            "province": "辽宁省",
            "city": "营口市",
            "district": "站前区"
        }
    },
    {
        "id": "6091190029824875711",
        "title": "公共卫生间",
        "address": "辽宁省营口市站前区建设街红塔辽宁烟草有限责任公司营口卷烟厂",
        "tel": "",
        "category": "基础设施:公共设施:公共厕所",
        "type": 0,
        "location": {
            "lat": 40.678117,
            "lng": 122.260426
        },
        "ad_info": {
            "adcode": 210802,
            "province": "辽宁省",
            "city": "营口市",
            "district": "站前区"
        }
    },
    {
        "id": "6224554504883119415",
        "title": "公共厕所",
        "address": "辽宁省营口市西市区清华路与滨河大街交叉口西北方向38米左右",
        "tel": "",
        "category": "基础设施:公共设施:公共厕所",
        "type": 0,
        "location": {
            "lat": 40.681611,
            "lng": 122.224614
        },
        "ad_info": {
            "adcode": 210803,
            "province": "辽宁省",
            "city": "营口市",
            "district": "西市区"
        }
    },
    {
        "id": "5041597076262092331",
        "title": "公共厕所",
        "address": "辽宁省营口市站前区大庆路与联盟街交叉口正南方向147米左右",
        "tel": "",
        "category": "基础设施:公共设施:公共厕所",
        "type": 0,
        "location": {
            "lat": 40.704205,
            "lng": 122.278993
        },
        "ad_info": {
            "adcode": 210802,
            "province": "辽宁省",
            "city": "营口市",
            "district": "站前区"
        }
    },
    {
        "id": "11838036722940313300",
        "title": "公共厕所",
        "address": "辽宁省营口市西市区西环路与辽河大街交叉口东北方向142米左右",
        "tel": "",
        "category": "基础设施:公共设施:公共厕所",
        "type": 0,
        "location": {
            "lat": 40.68412,
            "lng": 122.19752
        },
        "ad_info": {
            "adcode": 210803,
            "province": "辽宁省",
            "city": "营口市",
            "district": "西市区"
        }
    },
    {
        "id": "12783171409439043258",
        "title": "公共厕所",
        "address": "辽宁省营口市站前区纺兴街与锻纺路交叉口西南方向37米左右",
        "tel": "",
        "category": "基础设施:公共设施:公共厕所",
        "type": 0,
        "location": {
            "lat": 40.683833,
            "lng": 122.280809
        },
        "ad_info": {
            "adcode": 210802,
            "province": "辽宁省",
            "city": "营口市",
            "district": "站前区"
        }
    },
    {
        "id": "12514220971265966159",
        "title": "公共厕所",
        "address": "辽宁省营口市站前区盼盼路与青花大街交叉口正西方向186米左右",
        "tel": "",
        "category": "基础设施:公共设施:公共厕所",
        "type": 0,
        "location": {
            "lat": 40.650759,
            "lng": 122.246644
        },
        "ad_info": {
            "adcode": 210802,
            "province": "辽宁省",
            "city": "营口市",
            "district": "站前区"
        }
    },
    {
        "id": "15557400619167148391",
        "title": "公共厕所",
        "address": "辽宁省营口市站前区新兴大街与盼盼路交叉口正南方向189米左右",
        "tel": "",
        "category": "基础设施:公共设施:公共厕所",
        "type": 0,
        "location": {
            "lat": 40.670789,
            "lng": 122.248649
        },
        "ad_info": {
            "adcode": 210802,
            "province": "辽宁省",
            "city": "营口市",
            "district": "站前区"
        }
    },
    {
        "id": "13672200791346056498",
        "title": "公共厕所",
        "address": "辽宁省营口市站前区北辰街与工农路交叉口东南方向304米左右",
        "tel": "",
        "category": "基础设施:公共设施:公共厕所",
        "type": 0,
        "location": {
            "lat": 40.718828,
            "lng": 122.286079
        },
        "ad_info": {
            "adcode": 210802,
            "province": "辽宁省",
            "city": "营口市",
            "district": "站前区"
        }
    },
    {
        "id": "3475865037486981451",
        "title": "公共厕所",
        "address": "辽宁省营口市站前区工农路与联盟街交叉口正南方向100米左右",
        "tel": "",
        "category": "基础设施:公共设施:公共厕所",
        "type": 0,
        "location": {
            "lat": 40.70645,
            "lng": 122.29042
        },
        "ad_info": {
            "adcode": 210802,
            "province": "辽宁省",
            "city": "营口市",
            "district": "站前区"
        }
    },
    {
        "id": "8100636719578184647",
        "title": "公共厕所",
        "address": "辽宁省营口市鲅鱼圈区嘉陵江路与彩霞西街交叉口东南方向20米左右",
        "tel": "",
        "category": "基础设施:公共设施:公共厕所",
        "type": 0,
        "location": {
            "lat": 40.26708,
            "lng": 122.12732
        },
        "ad_info": {
            "adcode": 210804,
            "province": "辽宁省",
            "city": "营口市",
            "district": "鲅鱼圈区"
        }
    },
    {
        "id": "300194373423221221",
        "title": "公共厕所",
        "address": "辽宁省营口市站前区北辰街与大庆路交叉口正南方向61米左右",
        "tel": "",
        "category": "基础设施:公共设施:公共厕所",
        "type": 0,
        "location": {
            "lat": 40.721087,
            "lng": 122.258598
        },
        "ad_info": {
            "adcode": 210802,
            "province": "辽宁省",
            "city": "营口市",
            "district": "站前区"
        }
    },
    {
        "id": "2066095464530983342",
        "title": "公共厕所",
        "address": "辽宁省营口市鲅鱼圈区植物园路与科研街交叉口东南方向77米左右",
        "tel": "",
        "category": "基础设施:公共设施:公共厕所",
        "type": 0,
        "location": {
            "lat": 40.172253,
            "lng": 122.153966
        },
        "ad_info": {
            "adcode": 210804,
            "province": "辽宁省",
            "city": "营口市",
            "district": "鲅鱼圈区"
        }
    },
    {
        "id": "6188795879879425178",
        "title": "公共厕所",
        "address": "辽宁省营口市站前区大庆路营口市第十一中学",
        "tel": "",
        "category": "基础设施:公共设施:公共厕所",
        "type": 0,
        "location": {
            "lat": 40.716969,
            "lng": 122.269601
        },
        "ad_info": {
            "adcode": 210802,
            "province": "辽宁省",
            "city": "营口市",
            "district": "站前区"
        }
    },
    {
        "id": "14735969133660980039",
        "title": "公共厕所",
        "address": "辽宁省营口市鲅鱼圈区西湖路与长江路交叉口西北方向521米左右",
        "tel": "",
        "category": "基础设施:公共设施:公共厕所",
        "type": 0,
        "location": {
            "lat": 40.257759,
            "lng": 122.172806
        },
        "ad_info": {
            "adcode": 210804,
            "province": "辽宁省",
            "city": "营口市",
            "district": "鲅鱼圈区"
        }
    },
    {
        "id": "6404104851796984598",
        "title": "公共厕所",
        "address": "辽宁省营口市老边区育新小区西侧230米",
        "tel": "",
        "category": "基础设施:公共设施:公共厕所",
        "type": 0,
        "location": {
            "lat": 40.685757,
            "lng": 122.284215
        },
        "ad_info": {
            "adcode": 210811,
            "province": "辽宁省",
            "city": "营口市",
            "district": "老边区"
        }
    },
    {
        "id": "6848825792238989654",
        "title": "公共厕所",
        "address": "辽宁省营口市西市区新华路与智泉街交叉口西北方向124米左右",
        "tel": "",
        "category": "基础设施:公共设施:公共厕所",
        "type": 0,
        "location": {
            "lat": 40.655453,
            "lng": 122.226529
        },
        "ad_info": {
            "adcode": 210803,
            "province": "辽宁省",
            "city": "营口市",
            "district": "西市区"
        }
    },
    {
        "id": "4130084445403120692",
        "title": "公共厕所",
        "address": "辽宁省营口市鲅鱼圈区明珠广场与青龙山大街交叉口东北方向236米左右",
        "tel": "",
        "category": "基础设施:公共设施:公共厕所",
        "type": 0,
        "location": {
            "lat": 40.259873,
            "lng": 122.164769
        },
        "ad_info": {
            "adcode": 210804,
            "province": "辽宁省",
            "city": "营口市",
            "district": "鲅鱼圈区"
        }
    },
    {
        "id": "3432699494756717326",
        "title": "公共厕所",
        "address": "辽宁省营口市鲅鱼圈区农科院路与望儿山大街交叉口正南方向663米左右",
        "tel": "",
        "category": "基础设施:公共设施:公共厕所",
        "type": 0,
        "location": {
            "lat": 40.180533,
            "lng": 122.159328
        },
        "ad_info": {
            "adcode": 210804,
            "province": "辽宁省",
            "city": "营口市",
            "district": "鲅鱼圈区"
        }
    },
    {
        "id": "5309192645187668220",
        "title": "公共卫生间",
        "address": "辽宁省营口市西市区辽河大街西57号",
        "tel": "",
        "category": "基础设施:公共设施:公共厕所",
        "type": 0,
        "location": {
            "lat": 40.683064,
            "lng": 122.204529
        },
        "ad_info": {
            "adcode": 210803,
            "province": "辽宁省",
            "city": "营口市",
            "district": "西市区"
        }
    },
    {
        "id": "9268095832044701616",
        "title": "公共厕所",
        "address": "辽宁省营口市鲅鱼圈区日月大道与辽东湾大街交叉口正北方向177米左右",
        "tel": "",
        "category": "基础设施:公共设施:公共厕所",
        "type": 0,
        "location": {
            "lat": 40.235593,
            "lng": 122.113281
        },
        "ad_info": {
            "adcode": 210804,
            "province": "辽宁省",
            "city": "营口市",
            "district": "鲅鱼圈区"
        }
    },
    {
        "id": "6503130901348784455",
        "title": "公共厕所",
        "address": "辽宁省营口市鲅鱼圈区迎宾假日宾馆(熊岳店)",
        "tel": "",
        "category": "基础设施:公共设施:公共厕所",
        "type": 0,
        "location": {
            "lat": 40.180959,
            "lng": 122.144562
        },
        "ad_info": {
            "adcode": 210804,
            "province": "辽宁省",
            "city": "营口市",
            "district": "鲅鱼圈区"
        }
    },
    {
        "id": "17283368490304115467",
        "title": "公共厕所",
        "address": "辽宁省营口市鲅鱼圈区火山大街与熊岳河路交叉口正南方向30米左右",
        "tel": "",
        "category": "基础设施:公共设施:公共厕所",
        "type": 0,
        "location": {
            "lat": 40.171927,
            "lng": 122.105469
        },
        "ad_info": {
            "adcode": 210804,
            "province": "辽宁省",
            "city": "营口市",
            "district": "鲅鱼圈区"
        }
    },
    {
        "id": "9357940796652308068",
        "title": "公共厕所",
        "address": "辽宁省营口市西市区滨河大街平安广场(西侧)",
        "tel": "",
        "category": "基础设施:公共设施:公共厕所",
        "type": 0,
        "location": {
            "lat": 40.68313,
            "lng": 122.217141
        },
        "ad_info": {
            "adcode": 210803,
            "province": "辽宁省",
            "city": "营口市",
            "district": "西市区"
        }
    },
    {
        "id": "1657660458499072859",
        "title": "公共厕所",
        "address": "辽宁省营口市西市区G305与庄林线交叉口正南方向906米左右",
        "tel": "",
        "category": "基础设施:公共设施:公共厕所",
        "type": 0,
        "location": {
            "lat": 40.54561,
            "lng": 122.327071
        },
        "ad_info": {
            "adcode": 210803,
            "province": "辽宁省",
            "city": "营口市",
            "district": "西市区"
        }
    },
    {
        "id": "1882933916720338031",
        "title": "公共厕所",
        "address": "辽宁省营口市西市区科园路与银泉街交叉口西北方向55米左右",
        "tel": "",
        "category": "基础设施:公共设施:公共厕所",
        "type": 0,
        "location": {
            "lat": 40.656694,
            "lng": 122.191915
        },
        "ad_info": {
            "adcode": 210803,
            "province": "辽宁省",
            "city": "营口市",
            "district": "西市区"
        }
    },
    {
        "id": "12408066628135106385",
        "title": "公共厕所",
        "address": "辽宁省营口市西市区依湖路与澄湖东路交叉口西北方向135米左右",
        "tel": "",
        "category": "基础设施:公共设施:公共厕所",
        "type": 0,
        "location": {
            "lat": 40.611708,
            "lng": 122.241463
        },
        "ad_info": {
            "adcode": 210803,
            "province": "辽宁省",
            "city": "营口市",
            "district": "西市区"
        }
    },
    {
        "id": "3441038084071516098",
        "title": "公共厕所",
        "address": "辽宁省营口市鲅鱼圈区平安大街与淮河路交叉口正南方向107米左右",
        "tel": "",
        "category": "基础设施:公共设施:公共厕所",
        "type": 0,
        "location": {
            "lat": 40.272729,
            "lng": 122.141845
        },
        "ad_info": {
            "adcode": 210804,
            "province": "辽宁省",
            "city": "营口市",
            "district": "鲅鱼圈区"
        }
    },
    {
        "id": "7435301673511366974",
        "title": "公共厕所",
        "address": "辽宁省营口市西市区得胜路与新兴大街交叉口正西方向84米左右",
        "tel": "",
        "category": "基础设施:公共设施:公共厕所",
        "type": 0,
        "location": {
            "lat": 40.677331,
            "lng": 122.202036
        },
        "ad_info": {
            "adcode": 210803,
            "province": "辽宁省",
            "city": "营口市",
            "district": "西市区"
        }
    },
    {
        "id": "1521144213283921617",
        "title": "公共厕所",
        "address": "辽宁省营口市西市区新兴大街与正裕路交叉口西南方向187米左右",
        "tel": "",
        "category": "基础设施:公共设施:公共厕所",
        "type": 0,
        "location": {
            "lat": 40.672823,
            "lng": 122.217794
        },
        "ad_info": {
            "adcode": 210803,
            "province": "辽宁省",
            "city": "营口市",
            "district": "西市区"
        }
    },
    {
        "id": "7323850608016097431",
        "title": "公共厕所",
        "address": "辽宁省营口市西市区新联大街与营二路交叉口正北方向370米左右",
        "tel": "",
        "category": "基础设施:公共设施:公共厕所",
        "type": 0,
        "location": {
            "lat": 40.627117,
            "lng": 122.253878
        },
        "ad_info": {
            "adcode": 210803,
            "province": "辽宁省",
            "city": "营口市",
            "district": "西市区"
        }
    },
    {
        "id": "8043273818950853242",
        "title": "公共厕所",
        "address": "辽宁省营口市大石桥市和平大街与峪子沟路交叉口东北方向387米左右",
        "tel": "",
        "category": "基础设施:公共设施:公共厕所",
        "type": 0,
        "location": {
            "lat": 40.635836,
            "lng": 122.526673
        },
        "ad_info": {
            "adcode": 210882,
            "province": "辽宁省",
            "city": "营口市",
            "district": "大石桥市"
        }
    },
    {
        "id": "14481009276829205024",
        "title": "公共厕所",
        "address": "辽宁省营口市鲅鱼圈区沙河大街与辽东湾大街交叉口西南方向99米左右",
        "tel": "",
        "category": "基础设施:公共设施:公共厕所",
        "type": 0,
        "location": {
            "lat": 40.334217,
            "lng": 122.174697
        },
        "ad_info": {
            "adcode": 210804,
            "province": "辽宁省",
            "city": "营口市",
            "district": "鲅鱼圈区"
        }
    },
    {
        "id": "9826582996948410304",
        "title": "公共厕所",
        "address": "辽宁省营口市鲅鱼圈区金灿花园1期西北侧150米",
        "tel": "",
        "category": "基础设施:公共设施:公共厕所",
        "type": 0,
        "location": {
            "lat": 40.189295,
            "lng": 122.132309
        },
        "ad_info": {
            "adcode": 210804,
            "province": "辽宁省",
            "city": "营口市",
            "district": "鲅鱼圈区"
        }
    },
    {
        "id": "12609233800060964260",
        "title": "公共厕所",
        "address": "辽宁省营口市西市区清华路与渤海大街交叉口正北方向132米左右",
        "tel": "",
        "category": "基础设施:公共设施:公共厕所",
        "type": 0,
        "location": {
            "lat": 40.667197,
            "lng": 122.22156
        },
        "ad_info": {
            "adcode": 210803,
            "province": "辽宁省",
            "city": "营口市",
            "district": "西市区"
        }
    },
    {
        "id": "7749289196511842699",
        "title": "公共厕所",
        "address": "辽宁省营口市鲅鱼圈区辽东湾大街与金港路交叉口东北方向93米左右",
        "tel": "",
        "category": "基础设施:公共设施:公共厕所",
        "type": 0,
        "location": {
            "lat": 40.286575,
            "lng": 122.127717
        },
        "ad_info": {
            "adcode": 210804,
            "province": "辽宁省",
            "city": "营口市",
            "district": "鲅鱼圈区"
        }
    },
    {
        "id": "14141632987861666715",
        "title": "公共厕所",
        "address": "辽宁省营口市大石桥市和平大街营耐里",
        "tel": "",
        "category": "基础设施:公共设施:公共厕所",
        "type": 0,
        "location": {
            "lat": 40.635799,
            "lng": 122.518228
        },
        "ad_info": {
            "adcode": 210882,
            "province": "辽宁省",
            "city": "营口市",
            "district": "大石桥市"
        }
    },
    {
        "id": "677907919537917265",
        "title": "公共厕所",
        "address": "辽宁省营口市西市区市府路与盼盼路交叉口正北方向48米左右",
        "tel": "",
        "category": "基础设施:公共设施:公共厕所",
        "type": 0,
        "location": {
            "lat": 40.632783,
            "lng": 122.246397
        },
        "ad_info": {
            "adcode": 210803,
            "province": "辽宁省",
            "city": "营口市",
            "district": "西市区"
        }
    },
    {
        "id": "12173861733029713057",
        "title": "公共厕所",
        "address": "辽宁省营口市大石桥市沿河路中心大市场(泰和新居南)",
        "tel": "",
        "category": "基础设施:公共设施:公共厕所",
        "type": 0,
        "location": {
            "lat": 40.634411,
            "lng": 122.509346
        },
        "ad_info": {
            "adcode": 210882,
            "province": "辽宁省",
            "city": "营口市",
            "district": "大石桥市"
        }
    },
    {
        "id": "7008587963194856052",
        "title": "公共厕所",
        "address": "辽宁省营口市大石桥市文化巷与文化街交叉口正南方向269米左右",
        "tel": "",
        "category": "基础设施:公共设施:公共厕所",
        "type": 0,
        "location": {
            "lat": 40.652701,
            "lng": 122.522371
        },
        "ad_info": {
            "adcode": 210882,
            "province": "辽宁省",
            "city": "营口市",
            "district": "大石桥市"
        }
    },
    {
        "id": "1723804435306576232",
        "title": "公共厕所",
        "address": "辽宁省营口市大石桥市哈大北路与蟠龙路交叉口东南方向193米左右",
        "tel": "",
        "category": "基础设施:公共设施:公共厕所",
        "type": 0,
        "location": {
            "lat": 40.650846,
            "lng": 122.518958
        },
        "ad_info": {
            "adcode": 210882,
            "province": "辽宁省",
            "city": "营口市",
            "district": "大石桥市"
        }
    },
    {
        "id": "13782401269942190328",
        "title": "公共厕所",
        "address": "辽宁省营口市大石桥市人民大街与哈大北路交叉口正北方向111米左右",
        "tel": "",
        "category": "基础设施:公共设施:公共厕所",
        "type": 0,
        "location": {
            "lat": 40.644381,
            "lng": 122.511426
        },
        "ad_info": {
            "adcode": 210882,
            "province": "辽宁省",
            "city": "营口市",
            "district": "大石桥市"
        }
    },
    {
        "id": "17721420846615532115",
        "title": "公共厕所",
        "address": "辽宁省营口市西市区庄林线与新港大街交叉口东南方向1119米左右",
        "tel": "",
        "category": "基础设施:公共设施:公共厕所",
        "type": 0,
        "location": {
            "lat": 40.597059,
            "lng": 122.276884
        },
        "ad_info": {
            "adcode": 210803,
            "province": "辽宁省",
            "city": "营口市",
            "district": "西市区"
        }
    },
    {
        "id": "16136294123549613063",
        "title": "公共厕所",
        "address": "辽宁省营口市西市区渤海大街与西发路交叉口东南方向107米左右",
        "tel": "",
        "category": "基础设施:公共设施:公共厕所",
        "type": 0,
        "location": {
            "lat": 40.664953,
            "lng": 122.1971
        },
        "ad_info": {
            "adcode": 210803,
            "province": "辽宁省",
            "city": "营口市",
            "district": "西市区"
        }
    },
    {
        "id": "9004518692349507628",
        "title": "公共厕所",
        "address": "辽宁省营口市大石桥市陈家福龙地磅西南侧",
        "tel": "",
        "category": "基础设施:公共设施:公共厕所",
        "type": 0,
        "location": {
            "lat": 40.625502,
            "lng": 122.556979
        },
        "ad_info": {
            "adcode": 210882,
            "province": "辽宁省",
            "city": "营口市",
            "district": "大石桥市"
        }
    },
    {
        "id": "11069982498167891868",
        "title": "公共厕所",
        "address": "辽宁省营口市大石桥市和平大街与团结路交叉口正北方向59米左右",
        "tel": "",
        "category": "基础设施:公共设施:公共厕所",
        "type": 0,
        "location": {
            "lat": 40.642528,
            "lng": 122.503655
        },
        "ad_info": {
            "adcode": 210882,
            "province": "辽宁省",
            "city": "营口市",
            "district": "大石桥市"
        }
    },
    {
        "id": "2782881445870725169",
        "title": "公共厕所",
        "address": "辽宁省营口市老边区保温街与花园路交叉口正东方向205米左右",
        "tel": "",
        "category": "基础设施:公共设施:公共厕所",
        "type": 0,
        "location": {
            "lat": 40.682004,
            "lng": 122.38755
        },
        "ad_info": {
            "adcode": 210811,
            "province": "辽宁省",
            "city": "营口市",
            "district": "老边区"
        }
    },
    {
        "id": "3472291879253775856",
        "title": "公共厕所",
        "address": "辽宁省营口市大石桥市营大路与西外环路交叉口西北方向551米左右",
        "tel": "",
        "category": "基础设施:公共设施:公共厕所",
        "type": 0,
        "location": {
            "lat": 40.635928,
            "lng": 122.478192
        },
        "ad_info": {
            "adcode": 210882,
            "province": "辽宁省",
            "city": "营口市",
            "district": "大石桥市"
        }
    },
    {
        "id": "16372111385216710056",
        "title": "公共厕所",
        "address": "辽宁省营口市大石桥市中国石油加油站东侧280米",
        "tel": "",
        "category": "基础设施:公共设施:公共厕所",
        "type": 0,
        "location": {
            "lat": 40.588799,
            "lng": 122.483377
        },
        "ad_info": {
            "adcode": 210882,
            "province": "辽宁省",
            "city": "营口市",
            "district": "大石桥市"
        }
    },
    {
        "id": "11058056925116576521",
        "title": "公共厕所",
        "address": "辽宁省营口市大石桥市前分线与岫水线交叉口西南方向766米左右",
        "tel": "",
        "category": "基础设施:公共设施:公共厕所",
        "type": 0,
        "location": {
            "lat": 40.665221,
            "lng": 122.510097
        },
        "ad_info": {
            "adcode": 210882,
            "province": "辽宁省",
            "city": "营口市",
            "district": "大石桥市"
        }
    },
    {
        "id": "10886830530053531566",
        "title": "公共厕所",
        "address": "辽宁省营口市老边区繁荣路与龙山大街交叉口正西方向134米左右",
        "tel": "",
        "category": "基础设施:公共设施:公共厕所",
        "type": 0,
        "location": {
            "lat": 40.675757,
            "lng": 122.376728
        },
        "ad_info": {
            "adcode": 210811,
            "province": "辽宁省",
            "city": "营口市",
            "district": "老边区"
        }
    },
    {
        "id": "18084159086051522828",
        "title": "公共厕所",
        "address": "辽宁省营口市大石桥市东苇子峪村附近",
        "tel": "",
        "category": "基础设施:公共设施:公共厕所",
        "type": 0,
        "location": {
            "lat": 40.480379,
            "lng": 122.748212
        },
        "ad_info": {
            "adcode": 210882,
            "province": "辽宁省",
            "city": "营口市",
            "district": "大石桥市"
        }
    },
    {
        "id": "12771598134130064497",
        "title": "公共厕所",
        "address": "辽宁省营口市大石桥市工农路与府西路交叉口东南方向220米左右",
        "tel": "",
        "category": "基础设施:公共设施:公共厕所",
        "type": 0,
        "location": {
            "lat": 40.646853,
            "lng": 122.513099
        },
        "ad_info": {
            "adcode": 210882,
            "province": "辽宁省",
            "city": "营口市",
            "district": "大石桥市"
        }
    },
    {
        "id": "9003120193850246780",
        "title": "公共厕所",
        "address": "辽宁省营口市站前区南中路与南开街交叉口正北方向121米左右",
        "tel": "",
        "category": "基础设施:公共设施:公共厕所",
        "type": 0,
        "location": {
            "lat": 40.657562,
            "lng": 122.246931
        },
        "ad_info": {
            "adcode": 210802,
            "province": "辽宁省",
            "city": "营口市",
            "district": "站前区"
        }
    },
    {
        "id": "10912907253742802674",
        "title": "公共厕所",
        "address": "辽宁省营口市大石桥市人民大街与振兴中路交叉口西北方向143米左右",
        "tel": "",
        "category": "基础设施:公共设施:公共厕所",
        "type": 0,
        "location": {
            "lat": 40.645442,
            "lng": 122.50578
        },
        "ad_info": {
            "adcode": 210882,
            "province": "辽宁省",
            "city": "营口市",
            "district": "大石桥市"
        }
    },
    {
        "id": "3018017578297668896",
        "title": "公共厕所",
        "address": "辽宁省营口市大石桥市山西路与文化街交叉口东北方向48米左右",
        "tel": "",
        "category": "基础设施:公共设施:公共厕所",
        "type": 0,
        "location": {
            "lat": 40.654695,
            "lng": 122.525247
        },
        "ad_info": {
            "adcode": 210882,
            "province": "辽宁省",
            "city": "营口市",
            "district": "大石桥市"
        }
    },
    {
        "id": "4379803700736388609",
        "title": "公共厕所",
        "address": "辽宁省营口市老边区茉莉花开制衣有限公司东北侧140米",
        "tel": "",
        "category": "基础设施:公共设施:公共厕所",
        "type": 0,
        "location": {
            "lat": 40.707803,
            "lng": 122.302258
        },
        "ad_info": {
            "adcode": 210811,
            "province": "辽宁省",
            "city": "营口市",
            "district": "老边区"
        }
    },
    {
        "id": "9166371969540703573",
        "title": "公共厕所",
        "address": "辽宁省营口市大石桥市红旗南路与红旗路南交叉口正南方向1277米左右",
        "tel": "",
        "category": "基础设施:公共设施:公共厕所",
        "type": 0,
        "location": {
            "lat": 40.598432,
            "lng": 122.509153
        },
        "ad_info": {
            "adcode": 210882,
            "province": "辽宁省",
            "city": "营口市",
            "district": "大石桥市"
        }
    },
    {
        "id": "15597210391562924500",
        "title": "公共厕所",
        "address": "辽宁省营口市老边区白庙子路与青花大街交叉口正南方向132米左右",
        "tel": "",
        "category": "基础设施:公共设施:公共厕所",
        "type": 0,
        "location": {
            "lat": 40.650019,
            "lng": 122.263991
        },
        "ad_info": {
            "adcode": 210811,
            "province": "辽宁省",
            "city": "营口市",
            "district": "老边区"
        }
    },
    {
        "id": "3408668269712310945",
        "title": "公共厕所",
        "address": "辽宁省营口市大石桥市振兴北路与五一里交叉口东南180米",
        "tel": "",
        "category": "基础设施:公共设施:公共厕所",
        "type": 0,
        "location": {
            "lat": 40.652682,
            "lng": 122.512935
        },
        "ad_info": {
            "adcode": 210882,
            "province": "辽宁省",
            "city": "营口市",
            "district": "大石桥市"
        }
    },
    {
        "id": "8160680957852141768",
        "title": "公共厕所",
        "address": "辽宁省营口市大石桥市上白线与岫水线交叉口正北方向466米左右",
        "tel": "",
        "category": "基础设施:公共设施:公共厕所",
        "type": 0,
        "location": {
            "lat": 40.731175,
            "lng": 122.422202
        },
        "ad_info": {
            "adcode": 210882,
            "province": "辽宁省",
            "city": "营口市",
            "district": "大石桥市"
        }
    },
    {
        "id": "112152863174192949",
        "title": "公共厕所",
        "address": "辽宁省营口市大石桥市岫水线",
        "tel": "",
        "category": "基础设施:公共设施:公共厕所",
        "type": 0,
        "location": {
            "lat": 40.787549,
            "lng": 122.292279
        },
        "ad_info": {
            "adcode": 210882,
            "province": "辽宁省",
            "city": "营口市",
            "district": "大石桥市"
        }
    },
    {
        "id": "10451776394981844387",
        "title": "公共厕所",
        "address": "辽宁省营口市大石桥市大交线与高平线交叉口东南方向182米左右",
        "tel": "",
        "category": "基础设施:公共设施:公共厕所",
        "type": 0,
        "location": {
            "lat": 40.689562,
            "lng": 122.583124
        },
        "ad_info": {
            "adcode": 210882,
            "province": "辽宁省",
            "city": "营口市",
            "district": "大石桥市"
        }
    },
    {
        "id": "2609585946541318993",
        "title": "公共厕所",
        "address": "辽宁省营口市大石桥市平安便利店东南侧160米",
        "tel": "",
        "category": "基础设施:公共设施:公共厕所",
        "type": 0,
        "location": {
            "lat": 40.673327,
            "lng": 122.480186
        },
        "ad_info": {
            "adcode": 210882,
            "province": "辽宁省",
            "city": "营口市",
            "district": "大石桥市"
        }
    },
    {
        "id": "4125576954372813105",
        "title": "公共厕所",
        "address": "辽宁省营口市大石桥市瀚威公司南侧290米",
        "tel": "",
        "category": "基础设施:公共设施:公共厕所",
        "type": 0,
        "location": {
            "lat": 40.61393,
            "lng": 122.59504
        },
        "ad_info": {
            "adcode": 210882,
            "province": "辽宁省",
            "city": "营口市",
            "district": "大石桥市"
        }
    },
    {
        "id": "4341817120265627071",
        "title": "公共厕所",
        "address": "辽宁省营口市大石桥市山西路与文化街交叉口西南方向208米左右",
        "tel": "",
        "category": "基础设施:公共设施:公共厕所",
        "type": 0,
        "location": {
            "lat": 40.652962,
            "lng": 122.523225
        },
        "ad_info": {
            "adcode": 210882,
            "province": "辽宁省",
            "city": "营口市",
            "district": "大石桥市"
        }
    },
    {
        "id": "9005441483876834331",
        "title": "公共厕所",
        "address": "辽宁省营口市大石桥市吉高线与沈营线交叉口西南方向586米左右",
        "tel": "",
        "category": "基础设施:公共设施:公共厕所",
        "type": 0,
        "location": {
            "lat": 40.782359,
            "lng": 122.390731
        },
        "ad_info": {
            "adcode": 210882,
            "province": "辽宁省",
            "city": "营口市",
            "district": "大石桥市"
        }
    },
    {
        "id": "12268317529712945021",
        "title": "公共厕所",
        "address": "辽宁省营口市老边区工农路与营口互通式立交桥交叉口东南方向104米左右",
        "tel": "",
        "category": "基础设施:公共设施:公共厕所",
        "type": 0,
        "location": {
            "lat": 40.693577,
            "lng": 122.290936
        },
        "ad_info": {
            "adcode": 210811,
            "province": "辽宁省",
            "city": "营口市",
            "district": "老边区"
        }
    },
    {
        "id": "15765792188274296105",
        "title": "公共厕所",
        "address": "辽宁省营口市老边区三前线与营大路北线交叉口西北方向101米左右",
        "tel": "",
        "category": "基础设施:公共设施:公共厕所",
        "type": 0,
        "location": {
            "lat": 40.698354,
            "lng": 122.33283
        },
        "ad_info": {
            "adcode": 210811,
            "province": "辽宁省",
            "city": "营口市",
            "district": "老边区"
        }
    },
    {
        "id": "7025608166845187912",
        "title": "公共厕所",
        "address": "辽宁省营口市老边区双于线与龙山大街交叉口西北方向1160米左右",
        "tel": "",
        "category": "基础设施:公共设施:公共厕所",
        "type": 0,
        "location": {
            "lat": 40.701817,
            "lng": 122.376947
        },
        "ad_info": {
            "adcode": 210811,
            "province": "辽宁省",
            "city": "营口市",
            "district": "老边区"
        }
    },
    {
        "id": "4757576233982663819",
        "title": "公共厕所",
        "address": "辽宁省营口市老边区保温街与花园路交叉口正北方向123米左右",
        "tel": "",
        "category": "基础设施:公共设施:公共厕所",
        "type": 0,
        "location": {
            "lat": 40.6826,
            "lng": 122.38559
        },
        "ad_info": {
            "adcode": 210811,
            "province": "辽宁省",
            "city": "营口市",
            "district": "老边区"
        }
    },
    {
        "id": "12968674840931208746",
        "title": "公共厕所",
        "address": "辽宁省营口市老边区三前线与前江线交叉口东南方向86米左右",
        "tel": "",
        "category": "基础设施:公共设施:公共厕所",
        "type": 0,
        "location": {
            "lat": 40.717138,
            "lng": 122.342396
        },
        "ad_info": {
            "adcode": 210811,
            "province": "辽宁省",
            "city": "营口市",
            "district": "老边区"
        }
    },
    {
        "id": "5153576247916387560",
        "title": "公共厕所",
        "address": "辽宁省营口市鲅鱼圈区昆仑大街(营口开发区第一高中)",
        "tel": "",
        "category": "基础设施:公共设施:公共厕所",
        "type": 0,
        "location": {
            "lat": 40.247757,
            "lng": 122.130596
        },
        "ad_info": {
            "adcode": 210804,
            "province": "辽宁省",
            "city": "营口市",
            "district": "鲅鱼圈区"
        }
    },
    {
        "id": "8106931107019958632",
        "title": "公共厕所",
        "address": "辽宁省营口市盖州市市府大街与盖州路交叉口西北方向281米左右",
        "tel": "",
        "category": "基础设施:公共设施:公共厕所",
        "type": 0,
        "location": {
            "lat": 40.398419,
            "lng": 122.350211
        },
        "ad_info": {
            "adcode": 210881,
            "province": "辽宁省",
            "city": "营口市",
            "district": "盖州市"
        }
    },
    {
        "id": "14096626087694507213",
        "title": "公共厕所",
        "address": "辽宁省营口市大石桥市山西路与文化街交叉口正南方向30米左右",
        "tel": "",
        "category": "基础设施:公共设施:公共厕所",
        "type": 0,
        "location": {
            "lat": 40.654095,
            "lng": 122.524809
        },
        "ad_info": {
            "adcode": 210882,
            "province": "辽宁省",
            "city": "营口市",
            "district": "大石桥市"
        }
    },
    {
        "id": "10997218876295336558",
        "title": "山海广场公共厕所",
        "address": "辽宁省营口市鲅鱼圈区海顺路与金沙滩东街交叉口正北方向624米左右",
        "tel": "",
        "category": "基础设施:公共设施:公共厕所",
        "type": 0,
        "location": {
            "lat": 40.220901,
            "lng": 122.084022
        },
        "ad_info": {
            "adcode": 210804,
            "province": "辽宁省",
            "city": "营口市",
            "district": "鲅鱼圈区"
        }
    },
    {
        "id": "4002310206140923018",
        "title": "公共厕所",
        "address": "辽宁省营口市老边区龙山大街与营大路北线交叉口西20米",
        "tel": "",
        "category": "基础设施:公共设施:公共厕所",
        "type": 0,
        "location": {
            "lat": 40.685675,
            "lng": 122.382802
        },
        "ad_info": {
            "adcode": 210811,
            "province": "辽宁省",
            "city": "营口市",
            "district": "老边区"
        }
    },
    {
        "id": "14583351779327475102",
        "title": "公共厕所",
        "address": "辽宁省营口市西市区和宁巷与和安街交叉口正南方向115米左右",
        "tel": "",
        "category": "基础设施:公共设施:公共厕所",
        "type": 0,
        "location": {
            "lat": 40.660476,
            "lng": 122.214914
        },
        "ad_info": {
            "adcode": 210803,
            "province": "辽宁省",
            "city": "营口市",
            "district": "西市区"
        }
    },
    {
        "id": "18108649521037351966",
        "title": "公共厕所",
        "address": "辽宁省营口市站前区东园街与工农路交叉口正西方向131米左右",
        "tel": "",
        "category": "基础设施:公共设施:公共厕所",
        "type": 0,
        "location": {
            "lat": 40.689877,
            "lng": 122.288252
        },
        "ad_info": {
            "adcode": 210802,
            "province": "辽宁省",
            "city": "营口市",
            "district": "站前区"
        }
    },
    {
        "id": "1663215227395101301",
        "title": "公共厕所",
        "address": "辽宁省营口市盖州市爱家晴海七里酒店(营口北海公园店)北侧220米",
        "tel": "",
        "category": "基础设施:公共设施:公共厕所",
        "type": 0,
        "location": {
            "lat": 40.421306,
            "lng": 122.209388
        },
        "ad_info": {
            "adcode": 210881,
            "province": "辽宁省",
            "city": "营口市",
            "district": "盖州市"
        }
    },
    {
        "id": "14269584707935272163",
        "title": "公共厕所",
        "address": "辽宁省营口市盖州市清河大街与盖陈线辅路交叉口西北方向86米左右",
        "tel": "",
        "category": "基础设施:公共设施:公共厕所",
        "type": 0,
        "location": {
            "lat": 40.399047,
            "lng": 122.336394
        },
        "ad_info": {
            "adcode": 210881,
            "province": "辽宁省",
            "city": "营口市",
            "district": "盖州市"
        }
    },
    {
        "id": "2215613593701830973",
        "title": "公共厕所",
        "address": "辽宁省营口市鲅鱼圈区红旗工商分局(青龙山大街东)",
        "tel": "",
        "category": "基础设施:公共设施:公共厕所",
        "type": 0,
        "location": {
            "lat": 40.248253,
            "lng": 122.157697
        },
        "ad_info": {
            "adcode": 210804,
            "province": "辽宁省",
            "city": "营口市",
            "district": "鲅鱼圈区"
        }
    },
    {
        "id": "16714977468296461792",
        "title": "公共厕所",
        "address": "辽宁省营口市盖州市G305与东方路交叉口正南方向386米左右",
        "tel": "",
        "category": "基础设施:公共设施:公共厕所",
        "type": 0,
        "location": {
            "lat": 40.425863,
            "lng": 122.334132
        },
        "ad_info": {
            "adcode": 210881,
            "province": "辽宁省",
            "city": "营口市",
            "district": "盖州市"
        }
    },
    {
        "id": "13728467637771667888",
        "title": "公共厕所",
        "address": "辽宁省营口市盖州市滨海公路首一石油加油站",
        "tel": "",
        "category": "基础设施:公共设施:公共厕所",
        "type": 0,
        "location": {
            "lat": 40.367125,
            "lng": 122.203135
        },
        "ad_info": {
            "adcode": 210881,
            "province": "辽宁省",
            "city": "营口市",
            "district": "盖州市"
        }
    },
    {
        "id": "12086549622317558627",
        "title": "公共厕所",
        "address": "辽宁省营口市盖州市高屯学校北侧250米",
        "tel": "",
        "category": "基础设施:公共设施:公共厕所",
        "type": 0,
        "location": {
            "lat": 40.435275,
            "lng": 122.598666
        },
        "ad_info": {
            "adcode": 210881,
            "province": "辽宁省",
            "city": "营口市",
            "district": "盖州市"
        }
    },
    {
        "id": "711785051272453336",
        "title": "公共厕所",
        "address": "辽宁省营口市老边区文化路文化休闲广场(南侧)",
        "tel": "",
        "category": "基础设施:公共设施:公共厕所",
        "type": 0,
        "location": {
            "lat": 40.68084,
            "lng": 122.368975
        },
        "ad_info": {
            "adcode": 210811,
            "province": "辽宁省",
            "city": "营口市",
            "district": "老边区"
        }
    },
    {
        "id": "17823748622456049142",
        "title": "公共厕所",
        "address": "辽宁省营口市老边区保温街与花园路交叉口正南方向102米左右",
        "tel": "",
        "category": "基础设施:公共设施:公共厕所",
        "type": 0,
        "location": {
            "lat": 40.680632,
            "lng": 122.384914
        },
        "ad_info": {
            "adcode": 210811,
            "province": "辽宁省",
            "city": "营口市",
            "district": "老边区"
        }
    },
    {
        "id": "9873718280386828276",
        "title": "公共厕所",
        "address": "辽宁省营口市大石桥市工农路与府西路交叉口东北方向121米左右",
        "tel": "",
        "category": "基础设施:公共设施:公共厕所",
        "type": 0,
        "location": {
            "lat": 40.648871,
            "lng": 122.511499
        },
        "ad_info": {
            "adcode": 210882,
            "province": "辽宁省",
            "city": "营口市",
            "district": "大石桥市"
        }
    },
    {
        "id": "13999248799858180882",
        "title": "公共厕所",
        "address": "辽宁省营口市盖州市利元超市东侧150米",
        "tel": "",
        "category": "基础设施:公共设施:公共厕所",
        "type": 0,
        "location": {
            "lat": 40.239461,
            "lng": 122.232747
        },
        "ad_info": {
            "adcode": 210881,
            "province": "辽宁省",
            "city": "营口市",
            "district": "盖州市"
        }
    },
    {
        "id": "3414180652681107516",
        "title": "公共厕所",
        "address": "辽宁省营口市老边区商业路与繁荣路交叉口正东方向141米左右",
        "tel": "",
        "category": "基础设施:公共设施:公共厕所",
        "type": 0,
        "location": {
            "lat": 40.675815,
            "lng": 122.376314
        },
        "ad_info": {
            "adcode": 210811,
            "province": "辽宁省",
            "city": "营口市",
            "district": "老边区"
        }
    },
    {
        "id": "12206534980645338506",
        "title": "公共厕所",
        "address": "辽宁省营口市盖州市202国道西50米",
        "tel": "",
        "category": "基础设施:公共设施:公共厕所",
        "type": 0,
        "location": {
            "lat": 40.123286,
            "lng": 122.070719
        },
        "ad_info": {
            "adcode": 210881,
            "province": "辽宁省",
            "city": "营口市",
            "district": "盖州市"
        }
    },
    {
        "id": "17464643159767128085",
        "title": "公共厕所",
        "address": "辽宁省营口市大石桥市哈大南路与育才街交叉口东北方向324米左右",
        "tel": "",
        "category": "基础设施:公共设施:公共厕所",
        "type": 0,
        "location": {
            "lat": 40.622063,
            "lng": 122.50086
        },
        "ad_info": {
            "adcode": 210882,
            "province": "辽宁省",
            "city": "营口市",
            "district": "大石桥市"
        }
    },
    {
        "id": "14927175132496262815",
        "title": "公共厕所",
        "address": "辽宁省营口市大石桥市振兴中路与西市街交叉口正东方向66米左右",
        "tel": "",
        "category": "基础设施:公共设施:公共厕所",
        "type": 0,
        "location": {
            "lat": 40.634145,
            "lng": 122.502546
        },
        "ad_info": {
            "adcode": 210882,
            "province": "辽宁省",
            "city": "营口市",
            "district": "大石桥市"
        }
    },
    {
        "id": "13421520380930511579",
        "title": "公共厕所",
        "address": "辽宁省营口市大石桥市文轩小区东侧120米",
        "tel": "",
        "category": "基础设施:公共设施:公共厕所",
        "type": 0,
        "location": {
            "lat": 40.623221,
            "lng": 122.498594
        },
        "ad_info": {
            "adcode": 210882,
            "province": "辽宁省",
            "city": "营口市",
            "district": "大石桥市"
        }
    },
    {
        "id": "4921090614692254580",
        "title": "公共厕所",
        "address": "辽宁省营口市大石桥市和平大街与团结路交叉口西南方向134米左右",
        "tel": "",
        "category": "基础设施:公共设施:公共厕所",
        "type": 0,
        "location": {
            "lat": 40.641,
            "lng": 122.50263
        },
        "ad_info": {
            "adcode": 210882,
            "province": "辽宁省",
            "city": "营口市",
            "district": "大石桥市"
        }
    },
    {
        "id": "5126464528708839970",
        "title": "公共厕所",
        "address": "辽宁省营口市盖州市梁屯镇董梁线农机加油站旁",
        "tel": "",
        "category": "基础设施:公共设施:公共厕所",
        "type": 0,
        "location": {
            "lat": 40.214527,
            "lng": 122.536786
        },
        "ad_info": {
            "adcode": 210881,
            "province": "辽宁省",
            "city": "营口市",
            "district": "盖州市"
        }
    },
    {
        "id": "5454277498780597626",
        "title": "卫生间",
        "address": "辽宁省营口市西市区得胜路与辽河大街交叉口正东方向422米左右",
        "tel": "",
        "category": "基础设施:公共设施:公共厕所",
        "type": 0,
        "location": {
            "lat": 40.682511,
            "lng": 122.208344
        },
        "ad_info": {
            "adcode": 210803,
            "province": "辽宁省",
            "city": "营口市",
            "district": "西市区"
        }
    },
    {
        "id": "1589889262453941291",
        "title": "公共厕所",
        "address": "辽宁省营口市盖州市G305与盖梁线交叉口西北方向539米左右",
        "tel": "",
        "category": "基础设施:公共设施:公共厕所",
        "type": 0,
        "location": {
            "lat": 40.215396,
            "lng": 122.510275
        },
        "ad_info": {
            "adcode": 210881,
            "province": "辽宁省",
            "city": "营口市",
            "district": "盖州市"
        }
    },
    {
        "id": "5129700135241986958",
        "title": "公共厕所",
        "address": "辽宁省营口市盖州市东升路与红旗大街交叉口正东方向178米左右",
        "tel": "",
        "category": "基础设施:公共设施:公共厕所",
        "type": 0,
        "location": {
            "lat": 40.400642,
            "lng": 122.374308
        },
        "ad_info": {
            "adcode": 210881,
            "province": "辽宁省",
            "city": "营口市",
            "district": "盖州市"
        }
    },
    {
        "id": "17215339132110720346",
        "title": "公共厕所",
        "address": "辽宁省营口市盖州市G305与西海桥交叉口西北方向327米左右",
        "tel": "",
        "category": "基础设施:公共设施:公共厕所",
        "type": 0,
        "location": {
            "lat": 40.431295,
            "lng": 122.329779
        },
        "ad_info": {
            "adcode": 210881,
            "province": "辽宁省",
            "city": "营口市",
            "district": "盖州市"
        }
    },
    {
        "id": "16785037144179404256",
        "title": "公共厕所",
        "address": "辽宁省营口市盖州市清河大街与盖陈线辅路交叉口东南方向414米左右",
        "tel": "",
        "category": "基础设施:公共设施:公共厕所",
        "type": 0,
        "location": {
            "lat": 40.396585,
            "lng": 122.341182
        },
        "ad_info": {
            "adcode": 210881,
            "province": "辽宁省",
            "city": "营口市",
            "district": "盖州市"
        }
    },
    {
        "id": "13539790256051281863",
        "title": "熊岳服务区公共厕所",
        "address": "辽宁省营口市鲅鱼圈区山海大道与沈海高速交叉口正西方向170米左右",
        "tel": "",
        "category": "基础设施:公共设施:公共厕所",
        "type": 0,
        "location": {
            "lat": 40.208463,
            "lng": 122.113838
        },
        "ad_info": {
            "adcode": 210804,
            "province": "辽宁省",
            "city": "营口市",
            "district": "鲅鱼圈区"
        }
    },
    {
        "id": "13831242037767870703",
        "title": "男洗手间(万隆广场)",
        "address": "辽宁省营口市鲅鱼圈区昆仑大街18号万隆广场F5层",
        "tel": "",
        "category": "基础设施:公共设施:公共厕所",
        "type": 0,
        "location": {
            "lat": 40.273562,
            "lng": 122.133655
        },
        "ad_info": {
            "adcode": 210804,
            "province": "辽宁省",
            "city": "营口市",
            "district": "鲅鱼圈区"
        }
    },
    {
        "id": "17738392070321219013",
        "title": "女洗手间(新生活广场)",
        "address": "辽宁省营口市鲅鱼圈区青龙山大街中段新生活广场F2层",
        "tel": "",
        "category": "基础设施:公共设施:公共厕所",
        "type": 0,
        "location": {
            "lat": 40.248091,
            "lng": 122.156508
        },
        "ad_info": {
            "adcode": 210804,
            "province": "辽宁省",
            "city": "营口市",
            "district": "鲅鱼圈区"
        }
    },
    {
        "id": "899752066450800012",
        "title": "男洗手间(新生活广场)",
        "address": "辽宁省营口市鲅鱼圈区青龙山大街中段新生活广场F1层",
        "tel": "",
        "category": "基础设施:公共设施:公共厕所",
        "type": 0,
        "location": {
            "lat": 40.248063,
            "lng": 122.156483
        },
        "ad_info": {
            "adcode": 210804,
            "province": "辽宁省",
            "city": "营口市",
            "district": "鲅鱼圈区"
        }
    },
    {
        "id": "706512607990076645",
        "title": "熊岳服务区公共厕所",
        "address": "辽宁省营口市鲅鱼圈区熊岳服务区东北(沈海高速公路西)",
        "tel": "",
        "category": "基础设施:公共设施:公共厕所",
        "type": 0,
        "location": {
            "lat": 40.210699,
            "lng": 122.11339
        },
        "ad_info": {
            "adcode": 210804,
            "province": "辽宁省",
            "city": "营口市",
            "district": "鲅鱼圈区"
        }
    },
    {
        "id": "9087809801007092082",
        "title": "公共厕所",
        "address": "辽宁省营口市盖州市束鹿路与鱼市胡同交叉口正西方向65米左右",
        "tel": "",
        "category": "基础设施:公共设施:公共厕所",
        "type": 0,
        "location": {
            "lat": 40.399404,
            "lng": 122.367137
        },
        "ad_info": {
            "adcode": 210881,
            "province": "辽宁省",
            "city": "营口市",
            "district": "盖州市"
        }
    },
    {
        "id": "4287951140104702366",
        "title": "公共厕所",
        "address": "辽宁省营口市盖州市胜利街与银市路交叉口西北方向88米左右",
        "tel": "",
        "category": "基础设施:公共设施:公共厕所",
        "type": 0,
        "location": {
            "lat": 40.398627,
            "lng": 122.361063
        },
        "ad_info": {
            "adcode": 210881,
            "province": "辽宁省",
            "city": "营口市",
            "district": "盖州市"
        }
    },
    {
        "id": "171033901310383250",
        "title": "西海服务区公共厕所",
        "address": "辽宁省营口市盖州市中国石油辽宁交投西海服务区加油站北侧240米",
        "tel": "",
        "category": "基础设施:公共设施:公共厕所",
        "type": 0,
        "location": {
            "lat": 40.445013,
            "lng": 122.314122
        },
        "ad_info": {
            "adcode": 210881,
            "province": "辽宁省",
            "city": "营口市",
            "district": "盖州市"
        }
    },
    {
        "id": "16381116026150058390",
        "title": "万福服务区公共厕所",
        "address": "辽宁省营口市盖州市万福镇庄盖高速公路万福服务区",
        "tel": "",
        "category": "基础设施:公共设施:公共厕所",
        "type": 0,
        "location": {
            "lat": 40.10987,
            "lng": 122.561831
        },
        "ad_info": {
            "adcode": 210881,
            "province": "辽宁省",
            "city": "营口市",
            "district": "盖州市"
        }
    },
    {
        "id": "14337129978872020327",
        "title": "西海服务区公共厕所",
        "address": "辽宁省营口市盖州市西海街道沈海高速公路西海服务区",
        "tel": "",
        "category": "基础设施:公共设施:公共厕所",
        "type": 0,
        "location": {
            "lat": 40.442794,
            "lng": 122.318942
        },
        "ad_info": {
            "adcode": 210881,
            "province": "辽宁省",
            "city": "营口市",
            "district": "盖州市"
        }
    },
    {
        "id": "11291899506013786562",
        "title": "女洗手间",
        "address": "辽宁省营口市鲅鱼圈区青龙山大街中段新生活广场B1",
        "tel": "",
        "category": "基础设施:公共设施:女洗手间",
        "type": 0,
        "location": {
            "lat": 40.248087,
            "lng": 122.156351
        },
        "ad_info": {
            "adcode": 210804,
            "province": "辽宁省",
            "city": "营口市",
            "district": "鲅鱼圈区"
        }
    },
    {
        "id": "10558098035436113411",
        "title": "男洗手间",
        "address": "辽宁省营口市鲅鱼圈区青龙山大街中段新生活广场F1",
        "tel": "",
        "category": "基础设施:公共设施:男洗手间",
        "type": 0,
        "location": {
            "lat": 40.248057,
            "lng": 122.156319
        },
        "ad_info": {
            "adcode": 210804,
            "province": "辽宁省",
            "city": "营口市",
            "district": "鲅鱼圈区"
        }
    },
    {
        "id": "6569811742979660393",
        "title": "女洗手间(新生活广场)",
        "address": "辽宁省营口市鲅鱼圈区青龙山大街中段新生活广场F3",
        "tel": "",
        "category": "基础设施:公共设施:女洗手间",
        "type": 0,
        "location": {
            "lat": 40.249058,
            "lng": 122.156073
        },
        "ad_info": {
            "adcode": 210804,
            "province": "辽宁省",
            "city": "营口市",
            "district": "鲅鱼圈区"
        }
    },
    {
        "id": "11843908417284023322",
        "title": "公共厕所",
        "address": "辽宁省营口市大石桥市新后线与沟建线交叉口东北方向125米左右",
        "tel": "",
        "category": "基础设施:公共设施:公共厕所",
        "type": 0,
        "location": {
            "lat": 40.878529,
            "lng": 122.334842
        },
        "ad_info": {
            "adcode": 210882,
            "province": "辽宁省",
            "city": "营口市",
            "district": "大石桥市"
        }
    },
    {
        "id": "15490780354099387095",
        "title": "公共厕所",
        "address": "辽宁省营口市站前区学府路与渤海大街交叉口东北方向170米左右",
        "tel": "",
        "category": "基础设施:公共设施:公共厕所",
        "type": 0,
        "location": {
            "lat": 40.667564,
            "lng": 122.244954
        },
        "ad_info": {
            "adcode": 210802,
            "province": "辽宁省",
            "city": "营口市",
            "district": "站前区"
        }
    },
    {
        "id": "16147185291877068675",
        "title": "女洗手间(万达广场营口店)",
        "address": "辽宁省营口市站前区市府路1号营口站前万达广场3F",
        "tel": "",
        "category": "基础设施:公共设施:女洗手间",
        "type": 0,
        "location": {
            "lat": 40.665495,
            "lng": 122.234891
        },
        "ad_info": {
            "adcode": 210802,
            "province": "辽宁省",
            "city": "营口市",
            "district": "站前区"
        }
    },
    {
        "id": "16241257493682715352",
        "title": "公共厕所",
        "address": "辽宁省营口市盖州市辰州南路与鱼市胡同交叉口正西方向84米左右",
        "tel": "",
        "category": "基础设施:公共设施:公共厕所",
        "type": 0,
        "location": {
            "lat": 40.400214,
            "lng": 122.364415
        },
        "ad_info": {
            "adcode": 210881,
            "province": "辽宁省",
            "city": "营口市",
            "district": "盖州市"
        }
    },
    {
        "id": "14792056304657573324",
        "title": "公共厕所",
        "address": "辽宁省营口市老边区文化路与迎宾路交叉口东北方向173米左右",
        "tel": "",
        "category": "基础设施:公共设施:公共厕所",
        "type": 0,
        "location": {
            "lat": 40.682979,
            "lng": 122.370694
        },
        "ad_info": {
            "adcode": 210811,
            "province": "辽宁省",
            "city": "营口市",
            "district": "老边区"
        }
    },
    {
        "id": "8985970948691922552",
        "title": "公共厕所",
        "address": "辽宁省营口市西市区渤海大街与西发路交叉口正南方向228米左右",
        "tel": "",
        "category": "基础设施:公共设施:公共厕所",
        "type": 0,
        "location": {
            "lat": 40.663829,
            "lng": 122.197117
        },
        "ad_info": {
            "adcode": 210803,
            "province": "辽宁省",
            "city": "营口市",
            "district": "西市区"
        }
    },
    {
        "id": "3087078266769097274",
        "title": "公共厕所",
        "address": "辽宁省营口市老边区开发区路与营大路交叉口正北方向854米左右",
        "tel": "",
        "category": "基础设施:公共设施:公共厕所",
        "type": 0,
        "location": {
            "lat": 40.701456,
            "lng": 122.299906
        },
        "ad_info": {
            "adcode": 210811,
            "province": "辽宁省",
            "city": "营口市",
            "district": "老边区"
        }
    },
    {
        "id": "18023874338960590323",
        "title": "公共厕所",
        "address": "辽宁省营口市站前区辽河大街铁龙住宅小区",
        "tel": "",
        "category": "基础设施:公共设施:公共厕所",
        "type": 0,
        "location": {
            "lat": 40.684336,
            "lng": 122.267259
        },
        "ad_info": {
            "adcode": 210802,
            "province": "辽宁省",
            "city": "营口市",
            "district": "站前区"
        }
    },
    {
        "id": "15900210866873209553",
        "title": "公共厕所",
        "address": "辽宁省营口市鲅鱼圈区火凤路与辽南大街交叉口正南方向747米左右",
        "tel": "",
        "category": "基础设施:公共设施:公共厕所",
        "type": 0,
        "location": {
            "lat": 40.191159,
            "lng": 122.138079
        },
        "ad_info": {
            "adcode": 210804,
            "province": "辽宁省",
            "city": "营口市",
            "district": "鲅鱼圈区"
        }
    },
    {
        "id": "870549042425224109",
        "title": "公共厕所",
        "address": "辽宁省营口市鲅鱼圈区滨城大道与站前路交叉口西北方向677米左右",
        "tel": "",
        "category": "基础设施:公共设施:公共厕所",
        "type": 0,
        "location": {
            "lat": 40.185578,
            "lng": 122.125344
        },
        "ad_info": {
            "adcode": 210804,
            "province": "辽宁省",
            "city": "营口市",
            "district": "鲅鱼圈区"
        }
    },
    {
        "id": "753417340434917812",
        "title": "公共厕所",
        "address": "辽宁省营口市站前区市府路与建设街交叉口正东方向92米左右",
        "tel": "",
        "category": "基础设施:公共设施:公共厕所",
        "type": 0,
        "location": {
            "lat": 40.677949,
            "lng": 122.239609
        },
        "ad_info": {
            "adcode": 210802,
            "province": "辽宁省",
            "city": "营口市",
            "district": "站前区"
        }
    },
    {
        "id": "6291687750667054853",
        "title": "公共厕所",
        "address": "辽宁省营口市老边区双营路与营大路北线交叉口西南方向185米左右",
        "tel": "",
        "category": "基础设施:公共设施:公共厕所",
        "type": 0,
        "location": {
            "lat": 40.69185,
            "lng": 122.355307
        },
        "ad_info": {
            "adcode": 210811,
            "province": "辽宁省",
            "city": "营口市",
            "district": "老边区"
        }
    },
    {
        "id": "5563122579654343619",
        "title": "公共厕所",
        "address": "辽宁省营口市盖州市202国道西50米",
        "tel": "",
        "category": "基础设施:公共设施:公共厕所",
        "type": 0,
        "location": {
            "lat": 40.468219,
            "lng": 122.414304
        },
        "ad_info": {
            "adcode": 210881,
            "province": "辽宁省",
            "city": "营口市",
            "district": "盖州市"
        }
    },
    {
        "id": "15693176653682441555",
        "title": "公共厕所",
        "address": "辽宁省营口市盖州市305国道东50米",
        "tel": "",
        "category": "基础设施:公共设施:公共厕所",
        "type": 0,
        "location": {
            "lat": 40.152707,
            "lng": 122.543852
        },
        "ad_info": {
            "adcode": 210881,
            "province": "辽宁省",
            "city": "营口市",
            "district": "盖州市"
        }
    },
    {
        "id": "3156443824837555674",
        "title": "男洗手间",
        "address": "辽宁省营口市鲅鱼圈区青龙山大街中段新生活广场B1",
        "tel": "",
        "category": "基础设施:公共设施:男洗手间",
        "type": 0,
        "location": {
            "lat": 40.248596,
            "lng": 122.156903
        },
        "ad_info": {
            "adcode": 210804,
            "province": "辽宁省",
            "city": "营口市",
            "district": "鲅鱼圈区"
        }
    },
    {
        "id": "5151404603358093491",
        "title": "公共厕所",
        "address": "辽宁省营口市西市区和宁巷与攀枝花北街交叉口西北方向27米左右",
        "tel": "",
        "category": "基础设施:公共设施:公共厕所",
        "type": 0,
        "location": {
            "lat": 40.662558,
            "lng": 122.214841
        },
        "ad_info": {
            "adcode": 210803,
            "province": "辽宁省",
            "city": "营口市",
            "district": "西市区"
        }
    },
    {
        "id": "12183740587775399018",
        "title": "公共厕所",
        "address": "辽宁省营口市大石桥市和平大街与繁荣大街交叉口东南方向57米左右",
        "tel": "",
        "category": "基础设施:公共设施:公共厕所",
        "type": 0,
        "location": {
            "lat": 40.625013,
            "lng": 122.53323
        },
        "ad_info": {
            "adcode": 210882,
            "province": "辽宁省",
            "city": "营口市",
            "district": "大石桥市"
        }
    },
    {
        "id": "1651473300875289727",
        "title": "公共厕所",
        "address": "辽宁省营口市西市区新兴大街与桃园路交叉口正南方向157米左右",
        "tel": "",
        "category": "基础设施:公共设施:公共厕所",
        "type": 0,
        "location": {
            "lat": 40.67129,
            "lng": 122.22359
        },
        "ad_info": {
            "adcode": 210803,
            "province": "辽宁省",
            "city": "营口市",
            "district": "西市区"
        }
    },
    {
        "id": "13918452837925418045",
        "title": "公共厕所",
        "address": "辽宁省营口市站前区东新路17号",
        "tel": "",
        "category": "基础设施:公共设施:公共厕所",
        "type": 0,
        "location": {
            "lat": 40.675628,
            "lng": 122.258426
        },
        "ad_info": {
            "adcode": 210802,
            "province": "辽宁省",
            "city": "营口市",
            "district": "站前区"
        }
    },
    {
        "id": "17184186806557724228",
        "title": "公共厕所",
        "address": "辽宁省营口市鲅鱼圈区中兴街与站前路交叉口正北方向121米左右",
        "tel": "",
        "category": "基础设施:公共设施:公共厕所",
        "type": 0,
        "location": {
            "lat": 40.182857,
            "lng": 122.137951
        },
        "ad_info": {
            "adcode": 210804,
            "province": "辽宁省",
            "city": "营口市",
            "district": "鲅鱼圈区"
        }
    },
    {
        "id": "5132314044726209478",
        "title": "公共厕所",
        "address": "辽宁省营口市鲅鱼圈区海顺路与金沙滩东街交叉口正北方向416米左右",
        "tel": "",
        "category": "基础设施:公共设施:公共厕所",
        "type": 0,
        "location": {
            "lat": 40.21896,
            "lng": 122.0824
        },
        "ad_info": {
            "adcode": 210804,
            "province": "辽宁省",
            "city": "营口市",
            "district": "鲅鱼圈区"
        }
    },
    {
        "id": "13329880215811111907",
        "title": "公共厕所",
        "address": "辽宁省营口市鲅鱼圈区火山大街与蝴蝶泉路交叉口东南方向241米左右",
        "tel": "",
        "category": "基础设施:公共设施:公共厕所",
        "type": 0,
        "location": {
            "lat": 40.235834,
            "lng": 122.15866
        },
        "ad_info": {
            "adcode": 210804,
            "province": "辽宁省",
            "city": "营口市",
            "district": "鲅鱼圈区"
        }
    },
    {
        "id": "8881356740446882641",
        "title": "无障碍公共厕所",
        "address": "辽宁省营口市鲅鱼圈区海安路与辽东湾大街交叉口西南方向113米左右",
        "tel": "",
        "category": "基础设施:公共设施:公共厕所",
        "type": 0,
        "location": {
            "lat": 40.21956,
            "lng": 122.09622
        },
        "ad_info": {
            "adcode": 210804,
            "province": "辽宁省",
            "city": "营口市",
            "district": "鲅鱼圈区"
        }
    },
    {
        "id": "16624806142309356782",
        "title": "公共厕所",
        "address": "辽宁省营口市老边区白庙子路与青花大街交叉口正北方向312米左右",
        "tel": "",
        "category": "基础设施:公共设施:公共厕所",
        "type": 0,
        "location": {
            "lat": 40.653966,
            "lng": 122.263089
        },
        "ad_info": {
            "adcode": 210811,
            "province": "辽宁省",
            "city": "营口市",
            "district": "老边区"
        }
    },
    {
        "id": "12294200973185575043",
        "title": "公共厕所",
        "address": "辽宁省营口市盖州市G305与东方路交叉口正西方向225米左右",
        "tel": "",
        "category": "基础设施:公共设施:公共厕所",
        "type": 0,
        "location": {
            "lat": 40.419763,
            "lng": 122.333621
        },
        "ad_info": {
            "adcode": 210881,
            "province": "辽宁省",
            "city": "营口市",
            "district": "盖州市"
        }
    },
    {
        "id": "2767810465944219706",
        "title": "公共厕所",
        "address": "辽宁省营口市大石桥市前进街与石桥大街交叉口东北方向291米左右",
        "tel": "",
        "category": "基础设施:公共设施:公共厕所",
        "type": 0,
        "location": {
            "lat": 40.628597,
            "lng": 122.512181
        },
        "ad_info": {
            "adcode": 210882,
            "province": "辽宁省",
            "city": "营口市",
            "district": "大石桥市"
        }
    },
    {
        "id": "10044570483615166544",
        "title": "公共厕所",
        "address": "辽宁省营口市老边区商业路与龙山大街交叉口正南方向189米左右",
        "tel": "",
        "category": "基础设施:公共设施:公共厕所",
        "type": 0,
        "location": {
            "lat": 40.671935,
            "lng": 122.377116
        },
        "ad_info": {
            "adcode": 210811,
            "province": "辽宁省",
            "city": "营口市",
            "district": "老边区"
        }
    },
    {
        "id": "18213823602597919612",
        "title": "公共厕所",
        "address": "辽宁省营口市站前区路南镇光华路南湖新居东",
        "tel": "",
        "category": "基础设施:公共设施:公共厕所",
        "type": 0,
        "location": {
            "lat": 40.656328,
            "lng": 122.257019
        },
        "ad_info": {
            "adcode": 210802,
            "province": "辽宁省",
            "city": "营口市",
            "district": "站前区"
        }
    },
    {
        "id": "192101541093806742",
        "title": "公共厕所",
        "address": "辽宁省营口市老边区龙山大街与营大路北线交叉口东北420米",
        "tel": "",
        "category": "基础设施:公共设施:公共厕所",
        "type": 0,
        "location": {
            "lat": 40.687969,
            "lng": 122.387318
        },
        "ad_info": {
            "adcode": 210811,
            "province": "辽宁省",
            "city": "营口市",
            "district": "老边区"
        }
    },
    {
        "id": "3158209684721461563",
        "title": "公共厕所",
        "address": "辽宁省营口市大石桥市正新大街5号",
        "tel": "",
        "category": "基础设施:公共设施:公共厕所",
        "type": 0,
        "location": {
            "lat": 40.615486,
            "lng": 122.501367
        },
        "ad_info": {
            "adcode": 210882,
            "province": "辽宁省",
            "city": "营口市",
            "district": "大石桥市"
        }
    },
    {
        "id": "5858285874340789846",
        "title": "公共厕所",
        "address": "辽宁省营口市盖州市清河大街与盖亮线交叉口正东方向87米左右",
        "tel": "",
        "category": "基础设施:公共设施:公共厕所",
        "type": 0,
        "location": {
            "lat": 40.372525,
            "lng": 122.367784
        },
        "ad_info": {
            "adcode": 210881,
            "province": "辽宁省",
            "city": "营口市",
            "district": "盖州市"
        }
    },
    {
        "id": "17918547171102385111",
        "title": "肯德基(大石桥哈大餐厅)-洗手间",
        "address": "辽宁省营口市大石桥市哈大中路与繁荣大街交叉口东北方向56米左右",
        "tel": "",
        "category": "基础设施:公共设施:公共厕所",
        "type": 0,
        "location": {
            "lat": 40.632903,
            "lng": 122.511357
        },
        "ad_info": {
            "adcode": 210882,
            "province": "辽宁省",
            "city": "营口市",
            "district": "大石桥市"
        }
    },
    {
        "id": "15681019040771375273",
        "title": "公共厕所",
        "address": "辽宁省营口市西市区西环路与辽河大街交叉口东北方向159米左右",
        "tel": "",
        "category": "基础设施:公共设施:公共厕所",
        "type": 0,
        "location": {
            "lat": 40.684693,
            "lng": 122.196981
        },
        "ad_info": {
            "adcode": 210803,
            "province": "辽宁省",
            "city": "营口市",
            "district": "西市区"
        }
    },
    {
        "id": "14793221980677208348",
        "title": "公共厕所",
        "address": "辽宁省营口市鲅鱼圈区火凤路与辽南大街交叉口西南方向237米左右",
        "tel": "",
        "category": "基础设施:公共设施:公共厕所",
        "type": 0,
        "location": {
            "lat": 40.197053,
            "lng": 122.136219
        },
        "ad_info": {
            "adcode": 210804,
            "province": "辽宁省",
            "city": "营口市",
            "district": "鲅鱼圈区"
        }
    },
    {
        "id": "12473691210467933956",
        "title": "公共厕所",
        "address": "辽宁省营口市西市区工农路与新联大街交叉口东南方向948米左右",
        "tel": "",
        "category": "基础设施:公共设施:公共厕所",
        "type": 0,
        "location": {
            "lat": 40.61916,
            "lng": 122.271111
        },
        "ad_info": {
            "adcode": 210803,
            "province": "辽宁省",
            "city": "营口市",
            "district": "西市区"
        }
    },
    {
        "id": "15626526718441003448",
        "title": "公共厕所",
        "address": "辽宁省营口市大石桥市G16丹锡高速入口与G16丹锡高速出口交叉口南200米",
        "tel": "",
        "category": "基础设施:公共设施:公共厕所",
        "type": 0,
        "location": {
            "lat": 40.868065,
            "lng": 122.430739
        },
        "ad_info": {
            "adcode": 210882,
            "province": "辽宁省",
            "city": "营口市",
            "district": "大石桥市"
        }
    },
    {
        "id": "11638484849459896031",
        "title": "公共厕所",
        "address": "辽宁省营口市站前区光华路与金牛山大街交叉口西南方向198米左右",
        "tel": "",
        "category": "基础设施:公共设施:公共厕所",
        "type": 0,
        "location": {
            "lat": 40.657207,
            "lng": 122.256201
        },
        "ad_info": {
            "adcode": 210802,
            "province": "辽宁省",
            "city": "营口市",
            "district": "站前区"
        }
    },
    {
        "id": "16786651493462978965",
        "title": "公共厕所",
        "address": "辽宁省营口市站前区养老院东北侧140米",
        "tel": "",
        "category": "基础设施:公共设施:公共厕所",
        "type": 0,
        "location": {
            "lat": 40.715777,
            "lng": 122.277791
        },
        "ad_info": {
            "adcode": 210802,
            "province": "辽宁省",
            "city": "营口市",
            "district": "站前区"
        }
    },
    {
        "id": "4994455911623738631",
        "title": "男洗手间(万达广场营口店)",
        "address": "辽宁省营口市站前区市府路1号营口站前万达广场3F",
        "tel": "",
        "category": "基础设施:公共设施:公共厕所",
        "type": 0,
        "location": {
            "lat": 40.665463,
            "lng": 122.234879
        },
        "ad_info": {
            "adcode": 210802,
            "province": "辽宁省",
            "city": "营口市",
            "district": "站前区"
        }
    },
    {
        "id": "12447859473141134033",
        "title": "女洗手间",
        "address": "辽宁省营口市站前区市府路1号营口站前万达广场2F",
        "tel": "",
        "category": "基础设施:公共设施:女洗手间",
        "type": 0,
        "location": {
            "lat": 40.66388,
            "lng": 122.235087
        },
        "ad_info": {
            "adcode": 210802,
            "province": "辽宁省",
            "city": "营口市",
            "district": "站前区"
        }
    },
    {
        "id": "15907229785440150698",
        "title": "男洗手间(万隆广场)",
        "address": "辽宁省营口市鲅鱼圈区昆仑大街18号万隆广场F4层",
        "tel": "",
        "category": "基础设施:公共设施:公共厕所",
        "type": 0,
        "location": {
            "lat": 40.273562,
            "lng": 122.133655
        },
        "ad_info": {
            "adcode": 210804,
            "province": "辽宁省",
            "city": "营口市",
            "district": "鲅鱼圈区"
        }
    },
    {
        "id": "15653866745743531906",
        "title": "公共厕所",
        "address": "辽宁省营口市大石桥市营口鹏昊米业有限公司东侧",
        "tel": "",
        "category": "基础设施:公共设施:公共厕所",
        "type": 0,
        "location": {
            "lat": 40.848759,
            "lng": 122.365429
        },
        "ad_info": {
            "adcode": 210882,
            "province": "辽宁省",
            "city": "营口市",
            "district": "大石桥市"
        }
    },
    {
        "id": "11343506220484401795",
        "title": "女洗手间",
        "address": "辽宁省营口市鲅鱼圈区蝴蝶泉路45号鲅鱼圈万达广场店F2",
        "tel": "",
        "category": "基础设施:公共设施:女洗手间",
        "type": 0,
        "location": {
            "lat": 40.242306,
            "lng": 122.148611
        },
        "ad_info": {
            "adcode": 210804,
            "province": "辽宁省",
            "city": "营口市",
            "district": "鲅鱼圈区"
        }
    },
    {
        "id": "15332185341720978617",
        "title": "公共厕所",
        "address": "辽宁省营口市西市区辽河大街",
        "tel": "",
        "category": "基础设施:公共设施:公共厕所",
        "type": 0,
        "location": {
            "lat": 40.685589,
            "lng": 122.203621
        },
        "ad_info": {
            "adcode": 210803,
            "province": "辽宁省",
            "city": "营口市",
            "district": "西市区"
        }
    },
    {
        "id": "17670895108213901090",
        "title": "公共厕所",
        "address": "辽宁省营口市西市区市府路与海澜街交叉口西南方向250米左右",
        "tel": "",
        "category": "基础设施:公共设施:公共厕所",
        "type": 0,
        "location": {
            "lat": 40.639972,
            "lng": 122.235988
        },
        "ad_info": {
            "adcode": 210803,
            "province": "辽宁省",
            "city": "营口市",
            "district": "西市区"
        }
    },
    {
        "id": "6385684250240951488",
        "title": "公共厕所",
        "address": "辽宁省营口市西市区S327",
        "tel": "",
        "category": "基础设施:公共设施:公共厕所",
        "type": 0,
        "location": {
            "lat": 40.692553,
            "lng": 122.186029
        },
        "ad_info": {
            "adcode": 210803,
            "province": "辽宁省",
            "city": "营口市",
            "district": "西市区"
        }
    },
    {
        "id": "12373374775438873275",
        "title": "公共厕所",
        "address": "辽宁省营口市鲅鱼圈区辽南大街与钱江路交叉口正东方向53米左右",
        "tel": "",
        "category": "基础设施:公共设施:公共厕所",
        "type": 0,
        "location": {
            "lat": 40.256345,
            "lng": 122.183144
        },
        "ad_info": {
            "adcode": 210804,
            "province": "辽宁省",
            "city": "营口市",
            "district": "鲅鱼圈区"
        }
    },
    {
        "id": "18079006553529125247",
        "title": "公共厕所",
        "address": "辽宁省营口市站前区东园街与辽河大街交叉口正南方向32米左右",
        "tel": "",
        "category": "基础设施:公共设施:公共厕所",
        "type": 0,
        "location": {
            "lat": 40.693165,
            "lng": 122.286254
        },
        "ad_info": {
            "adcode": 210802,
            "province": "辽宁省",
            "city": "营口市",
            "district": "站前区"
        }
    },
    {
        "id": "1223056989991321626",
        "title": "公共厕所",
        "address": "辽宁省营口市鲅鱼圈区站前街与黄河路交叉口正北方向539米左右",
        "tel": "",
        "category": "基础设施:公共设施:公共厕所",
        "type": 0,
        "location": {
            "lat": 40.283794,
            "lng": 122.138651
        },
        "ad_info": {
            "adcode": 210804,
            "province": "辽宁省",
            "city": "营口市",
            "district": "鲅鱼圈区"
        }
    },
    {
        "id": "12023929921313358850",
        "title": "女洗手间",
        "address": "辽宁省营口市站前区市府路1号营口站前万达广场3F",
        "tel": "",
        "category": "基础设施:公共设施:女洗手间",
        "type": 0,
        "location": {
            "lat": 40.664873,
            "lng": 122.23564
        },
        "ad_info": {
            "adcode": 210802,
            "province": "辽宁省",
            "city": "营口市",
            "district": "站前区"
        }
    },
    {
        "id": "4606103415269428095",
        "title": "男洗手间(新生活广场)",
        "address": "辽宁省营口市鲅鱼圈区青龙山大街中段新生活广场F1",
        "tel": "",
        "category": "基础设施:公共设施:男洗手间",
        "type": 0,
        "location": {
            "lat": 40.248594,
            "lng": 122.1569
        },
        "ad_info": {
            "adcode": 210804,
            "province": "辽宁省",
            "city": "营口市",
            "district": "鲅鱼圈区"
        }
    },
    {
        "id": "4185309834861002676",
        "title": "女洗手间",
        "address": "辽宁省营口市站前区市府路1号营口站前万达广场1F",
        "tel": "",
        "category": "基础设施:公共设施:女洗手间",
        "type": 0,
        "location": {
            "lat": 40.665496,
            "lng": 122.235048
        },
        "ad_info": {
            "adcode": 210802,
            "province": "辽宁省",
            "city": "营口市",
            "district": "站前区"
        }
    },
    {
        "id": "2628800917187244130",
        "title": "公共厕所",
        "address": "辽宁省营口市盖州市龙泉加油站(钱薛线东)附近",
        "tel": "",
        "category": "基础设施:公共设施:公共厕所",
        "type": 0,
        "location": {
            "lat": 40.240488,
            "lng": 122.740384
        },
        "ad_info": {
            "adcode": 210881,
            "province": "辽宁省",
            "city": "营口市",
            "district": "盖州市"
        }
    },
    {
        "id": "18107978261627518939",
        "title": "公共厕所",
        "address": "辽宁省营口市老边区文化里与营大路北线交叉口西南方向154米左右",
        "tel": "",
        "category": "基础设施:公共设施:公共厕所",
        "type": 0,
        "location": {
            "lat": 40.685051,
            "lng": 122.380444
        },
        "ad_info": {
            "adcode": 210811,
            "province": "辽宁省",
            "city": "营口市",
            "district": "老边区"
        }
    },
    {
        "id": "2768472221913145865",
        "title": "公共厕所",
        "address": "辽宁省营口市西市区辽河大街",
        "tel": "",
        "category": "基础设施:公共设施:公共厕所",
        "type": 0,
        "location": {
            "lat": 40.686296,
            "lng": 122.199452
        },
        "ad_info": {
            "adcode": 210803,
            "province": "辽宁省",
            "city": "营口市",
            "district": "西市区"
        }
    },
    {
        "id": "6167012265743752326",
        "title": "女洗手间",
        "address": "辽宁省营口市站前区市府路1号营口站前万达广场1F",
        "tel": "",
        "category": "基础设施:公共设施:女洗手间",
        "type": 0,
        "location": {
            "lat": 40.663881,
            "lng": 122.235096
        },
        "ad_info": {
            "adcode": 210802,
            "province": "辽宁省",
            "city": "营口市",
            "district": "站前区"
        }
    },
    {
        "id": "10838885973278476884",
        "title": "男洗手间",
        "address": "辽宁省营口市鲅鱼圈区蝴蝶泉路45号鲅鱼圈万达广场店F3",
        "tel": "",
        "category": "基础设施:公共设施:男洗手间",
        "type": 0,
        "location": {
            "lat": 40.243546,
            "lng": 122.145938
        },
        "ad_info": {
            "adcode": 210804,
            "province": "辽宁省",
            "city": "营口市",
            "district": "鲅鱼圈区"
        }
    },
    {
        "id": "13232975619125226088",
        "title": "女洗手间(万达广场营口店)",
        "address": "辽宁省营口市站前区市府路1号万达广场(营口店)1F层",
        "tel": "",
        "category": "基础设施:公共设施:公共厕所",
        "type": 0,
        "location": {
            "lat": 40.665475,
            "lng": 122.235034
        },
        "ad_info": {
            "adcode": 210802,
            "province": "辽宁省",
            "city": "营口市",
            "district": "站前区"
        }
    },
    {
        "id": "14054242495017501144",
        "title": "男洗手间(万达广场营口店)",
        "address": "辽宁省营口市站前区市府路1号营口站前万达广场1F",
        "tel": "",
        "category": "基础设施:公共设施:公共厕所",
        "type": 0,
        "location": {
            "lat": 40.663881,
            "lng": 122.235137
        },
        "ad_info": {
            "adcode": 210802,
            "province": "辽宁省",
            "city": "营口市",
            "district": "站前区"
        }
    },
    {
        "id": "3785060987652551126",
        "title": "女洗手间(万达广场营口店)",
        "address": "辽宁省营口市站前区市府路1号营口站前万达广场1F",
        "tel": "",
        "category": "基础设施:公共设施:女洗手间",
        "type": 0,
        "location": {
            "lat": 40.664872,
            "lng": 122.235649
        },
        "ad_info": {
            "adcode": 210802,
            "province": "辽宁省",
            "city": "营口市",
            "district": "站前区"
        }
    },
    {
        "id": "11466498672431821341",
        "title": "男洗手间",
        "address": "辽宁省营口市站前区市府路1号营口站前万达广场3F",
        "tel": "",
        "category": "基础设施:公共设施:男洗手间",
        "type": 0,
        "location": {
            "lat": 40.665431,
            "lng": 122.234906
        },
        "ad_info": {
            "adcode": 210802,
            "province": "辽宁省",
            "city": "营口市",
            "district": "站前区"
        }
    },
    {
        "id": "13511957111050905593",
        "title": "男洗手间",
        "address": "辽宁省营口市站前区市府路1号营口站前万达广场2F",
        "tel": "",
        "category": "基础设施:公共设施:男洗手间",
        "type": 0,
        "location": {
            "lat": 40.664931,
            "lng": 122.23564
        },
        "ad_info": {
            "adcode": 210802,
            "province": "辽宁省",
            "city": "营口市",
            "district": "站前区"
        }
    },
    {
        "id": "64715811182739478",
        "title": "无障碍-洗手间",
        "address": "辽宁省营口市站前区市府路1号营口站前万达广场2F",
        "tel": "",
        "category": "基础设施:公共设施:无障碍洗手间",
        "type": 0,
        "location": {
            "lat": 40.66388,
            "lng": 122.235129
        },
        "ad_info": {
            "adcode": 210802,
            "province": "辽宁省",
            "city": "营口市",
            "district": "站前区"
        }
    },
    {
        "id": "7067159523005783863",
        "title": "男洗手间(新生活广场)",
        "address": "辽宁省营口市鲅鱼圈区青龙山大街中段新生活广场F3",
        "tel": "",
        "category": "基础设施:公共设施:男洗手间",
        "type": 0,
        "location": {
            "lat": 40.248063,
            "lng": 122.15632
        },
        "ad_info": {
            "adcode": 210804,
            "province": "辽宁省",
            "city": "营口市",
            "district": "鲅鱼圈区"
        }
    },
    {
        "id": "6999939248813063857",
        "title": "男洗手间",
        "address": "辽宁省营口市站前区市府路1号营口站前万达广场1F",
        "tel": "",
        "category": "基础设施:公共设施:男洗手间",
        "type": 0,
        "location": {
            "lat": 40.665426,
            "lng": 122.235047
        },
        "ad_info": {
            "adcode": 210802,
            "province": "辽宁省",
            "city": "营口市",
            "district": "站前区"
        }
    },
    {
        "id": "10327070118320454568",
        "title": "女洗手间",
        "address": "辽宁省营口市鲅鱼圈区蝴蝶泉路45号鲅鱼圈万达广场店F3",
        "tel": "",
        "category": "基础设施:公共设施:女洗手间",
        "type": 0,
        "location": {
            "lat": 40.243582,
            "lng": 122.145967
        },
        "ad_info": {
            "adcode": 210804,
            "province": "辽宁省",
            "city": "营口市",
            "district": "鲅鱼圈区"
        }
    },
    {
        "id": "1212510398944651244",
        "title": "女洗手间",
        "address": "辽宁省营口市鲅鱼圈区蝴蝶泉路45号鲅鱼圈万达广场店F2",
        "tel": "",
        "category": "基础设施:公共设施:女洗手间",
        "type": 0,
        "location": {
            "lat": 40.243582,
            "lng": 122.145968
        },
        "ad_info": {
            "adcode": 210804,
            "province": "辽宁省",
            "city": "营口市",
            "district": "鲅鱼圈区"
        }
    },
    {
        "id": "1604181659184801572",
        "title": "男洗手间",
        "address": "辽宁省营口市鲅鱼圈区青龙山大街中段新生活广场B1",
        "tel": "",
        "category": "基础设施:公共设施:男洗手间",
        "type": 0,
        "location": {
            "lat": 40.248061,
            "lng": 122.156321
        },
        "ad_info": {
            "adcode": 210804,
            "province": "辽宁省",
            "city": "营口市",
            "district": "鲅鱼圈区"
        }
    },
    {
        "id": "393656740238525027",
        "title": "公共厕所",
        "address": "辽宁省营口市西市区市府路与海澜街交叉口正西方向216米左右",
        "tel": "",
        "category": "基础设施:公共设施:公共厕所",
        "type": 0,
        "location": {
            "lat": 40.641,
            "lng": 122.236056
        },
        "ad_info": {
            "adcode": 210803,
            "province": "辽宁省",
            "city": "营口市",
            "district": "西市区"
        }
    },
    {
        "id": "6394805295380308133",
        "title": "公共厕所",
        "address": "辽宁省营口市西市区辽河大街",
        "tel": "",
        "category": "基础设施:公共设施:公共厕所",
        "type": 0,
        "location": {
            "lat": 40.689276,
            "lng": 122.191464
        },
        "ad_info": {
            "adcode": 210803,
            "province": "辽宁省",
            "city": "营口市",
            "district": "西市区"
        }
    },
    {
        "id": "12440391239864509144",
        "title": "男洗手间(万隆广场)",
        "address": "辽宁省营口市鲅鱼圈区昆仑大街18号万隆广场F4层",
        "tel": "",
        "category": "基础设施:公共设施:公共厕所",
        "type": 0,
        "location": {
            "lat": 40.273175,
            "lng": 122.132504
        },
        "ad_info": {
            "adcode": 210804,
            "province": "辽宁省",
            "city": "营口市",
            "district": "鲅鱼圈区"
        }
    },
    {
        "id": "11771980629050781559",
        "title": "公共厕所",
        "address": "辽宁省营口市老边区捻线里与保温街交叉口东160米",
        "tel": "",
        "category": "基础设施:公共设施:公共厕所",
        "type": 0,
        "location": {
            "lat": 40.681274,
            "lng": 122.38712
        },
        "ad_info": {
            "adcode": 210811,
            "province": "辽宁省",
            "city": "营口市",
            "district": "老边区"
        }
    },
    {
        "id": "1280407839176538101",
        "title": "公共厕所",
        "address": "辽宁省营口市西市区得胜路与辽河大街交叉口东北方向416米左右",
        "tel": "",
        "category": "基础设施:公共设施:公共厕所",
        "type": 0,
        "location": {
            "lat": 40.684788,
            "lng": 122.20788
        },
        "ad_info": {
            "adcode": 210803,
            "province": "辽宁省",
            "city": "营口市",
            "district": "西市区"
        }
    },
    {
        "id": "5864234913763985281",
        "title": "男洗手间",
        "address": "辽宁省营口市站前区市府路1号营口站前万达广场2F",
        "tel": "",
        "category": "基础设施:公共设施:男洗手间",
        "type": 0,
        "location": {
            "lat": 40.665458,
            "lng": 122.235004
        },
        "ad_info": {
            "adcode": 210802,
            "province": "辽宁省",
            "city": "营口市",
            "district": "站前区"
        }
    },
    {
        "id": "14435158697018988845",
        "title": "女洗手间",
        "address": "辽宁省营口市站前区市府路1号营口站前万达广场3F",
        "tel": "",
        "category": "基础设施:公共设施:女洗手间",
        "type": 0,
        "location": {
            "lat": 40.663877,
            "lng": 122.235102
        },
        "ad_info": {
            "adcode": 210802,
            "province": "辽宁省",
            "city": "营口市",
            "district": "站前区"
        }
    },
    {
        "id": "5768497553622985290",
        "title": "男洗手间",
        "address": "辽宁省营口市站前区市府路1号营口站前万达广场2F",
        "tel": "",
        "category": "基础设施:公共设施:男洗手间",
        "type": 0,
        "location": {
            "lat": 40.66388,
            "lng": 122.235173
        },
        "ad_info": {
            "adcode": 210802,
            "province": "辽宁省",
            "city": "营口市",
            "district": "站前区"
        }
    },
    {
        "id": "15491937401719844505",
        "title": "女洗手间(万达广场)",
        "address": "辽宁省营口市鲅鱼圈区蝴蝶泉路45号鲅鱼圈万达广场店F4",
        "tel": "",
        "category": "基础设施:公共设施:女洗手间",
        "type": 0,
        "location": {
            "lat": 40.242182,
            "lng": 122.147496
        },
        "ad_info": {
            "adcode": 210804,
            "province": "辽宁省",
            "city": "营口市",
            "district": "鲅鱼圈区"
        }
    },
    {
        "id": "15197456138993808676",
        "title": "公共厕所",
        "address": "辽宁省营口市大石桥市振兴北路与五一里交叉口西南60米",
        "tel": "",
        "category": "基础设施:公共设施:公共厕所",
        "type": 0,
        "location": {
            "lat": 40.653853,
            "lng": 122.511748
        },
        "ad_info": {
            "adcode": 210882,
            "province": "辽宁省",
            "city": "营口市",
            "district": "大石桥市"
        }
    },
    {
        "id": "6574818510402222114",
        "title": "男洗手间(万达广场)",
        "address": "辽宁省营口市鲅鱼圈区蝴蝶泉路45号鲅鱼圈万达广场店F1",
        "tel": "",
        "category": "基础设施:公共设施:男洗手间",
        "type": 0,
        "location": {
            "lat": 40.242265,
            "lng": 122.148594
        },
        "ad_info": {
            "adcode": 210804,
            "province": "辽宁省",
            "city": "营口市",
            "district": "鲅鱼圈区"
        }
    },
    {
        "id": "2198948176602456858",
        "title": "女洗手间(新生活广场)",
        "address": "辽宁省营口市鲅鱼圈区青龙山大街中段新生活广场F3",
        "tel": "",
        "category": "基础设施:公共设施:女洗手间",
        "type": 0,
        "location": {
            "lat": 40.248628,
            "lng": 122.155348
        },
        "ad_info": {
            "adcode": 210804,
            "province": "辽宁省",
            "city": "营口市",
            "district": "鲅鱼圈区"
        }
    },
    {
        "id": "11466498672431821341",
        "title": "男洗手间",
        "address": "辽宁省营口市站前区市府路1号营口站前万达广场3F",
        "tel": "",
        "category": "基础设施:公共设施:男洗手间",
        "type": 0,
        "location": {
            "lat": 40.665431,
            "lng": 122.234906
        },
        "ad_info": {
            "adcode": 210802,
            "province": "辽宁省",
            "city": "营口市",
            "district": "站前区"
        }
    },
    {
        "id": "13511957111050905593",
        "title": "男洗手间",
        "address": "辽宁省营口市站前区市府路1号营口站前万达广场2F",
        "tel": "",
        "category": "基础设施:公共设施:男洗手间",
        "type": 0,
        "location": {
            "lat": 40.664931,
            "lng": 122.23564
        },
        "ad_info": {
            "adcode": 210802,
            "province": "辽宁省",
            "city": "营口市",
            "district": "站前区"
        }
    },
    {
        "id": "64715811182739478",
        "title": "无障碍-洗手间",
        "address": "辽宁省营口市站前区市府路1号营口站前万达广场2F",
        "tel": "",
        "category": "基础设施:公共设施:无障碍洗手间",
        "type": 0,
        "location": {
            "lat": 40.66388,
            "lng": 122.235129
        },
        "ad_info": {
            "adcode": 210802,
            "province": "辽宁省",
            "city": "营口市",
            "district": "站前区"
        }
    },
    {
        "id": "7067159523005783863",
        "title": "男洗手间(新生活广场)",
        "address": "辽宁省营口市鲅鱼圈区青龙山大街中段新生活广场F3",
        "tel": "",
        "category": "基础设施:公共设施:男洗手间",
        "type": 0,
        "location": {
            "lat": 40.248063,
            "lng": 122.15632
        },
        "ad_info": {
            "adcode": 210804,
            "province": "辽宁省",
            "city": "营口市",
            "district": "鲅鱼圈区"
        }
    },
    {
        "id": "6999939248813063857",
        "title": "男洗手间",
        "address": "辽宁省营口市站前区市府路1号营口站前万达广场1F",
        "tel": "",
        "category": "基础设施:公共设施:男洗手间",
        "type": 0,
        "location": {
            "lat": 40.665426,
            "lng": 122.235047
        },
        "ad_info": {
            "adcode": 210802,
            "province": "辽宁省",
            "city": "营口市",
            "district": "站前区"
        }
    },
    {
        "id": "10327070118320454568",
        "title": "女洗手间",
        "address": "辽宁省营口市鲅鱼圈区蝴蝶泉路45号鲅鱼圈万达广场店F3",
        "tel": "",
        "category": "基础设施:公共设施:女洗手间",
        "type": 0,
        "location": {
            "lat": 40.243582,
            "lng": 122.145967
        },
        "ad_info": {
            "adcode": 210804,
            "province": "辽宁省",
            "city": "营口市",
            "district": "鲅鱼圈区"
        }
    },
    {
        "id": "1212510398944651244",
        "title": "女洗手间",
        "address": "辽宁省营口市鲅鱼圈区蝴蝶泉路45号鲅鱼圈万达广场店F2",
        "tel": "",
        "category": "基础设施:公共设施:女洗手间",
        "type": 0,
        "location": {
            "lat": 40.243582,
            "lng": 122.145968
        },
        "ad_info": {
            "adcode": 210804,
            "province": "辽宁省",
            "city": "营口市",
            "district": "鲅鱼圈区"
        }
    },
    {
        "id": "1604181659184801572",
        "title": "男洗手间",
        "address": "辽宁省营口市鲅鱼圈区青龙山大街中段新生活广场B1",
        "tel": "",
        "category": "基础设施:公共设施:男洗手间",
        "type": 0,
        "location": {
            "lat": 40.248061,
            "lng": 122.156321
        },
        "ad_info": {
            "adcode": 210804,
            "province": "辽宁省",
            "city": "营口市",
            "district": "鲅鱼圈区"
        }
    },
    {
        "id": "393656740238525027",
        "title": "公共厕所",
        "address": "辽宁省营口市西市区市府路与海澜街交叉口正西方向216米左右",
        "tel": "",
        "category": "基础设施:公共设施:公共厕所",
        "type": 0,
        "location": {
            "lat": 40.641,
            "lng": 122.236056
        },
        "ad_info": {
            "adcode": 210803,
            "province": "辽宁省",
            "city": "营口市",
            "district": "西市区"
        }
    },
    {
        "id": "6394805295380308133",
        "title": "公共厕所",
        "address": "辽宁省营口市西市区辽河大街",
        "tel": "",
        "category": "基础设施:公共设施:公共厕所",
        "type": 0,
        "location": {
            "lat": 40.689276,
            "lng": 122.191464
        },
        "ad_info": {
            "adcode": 210803,
            "province": "辽宁省",
            "city": "营口市",
            "district": "西市区"
        }
    },
    {
        "id": "12440391239864509144",
        "title": "男洗手间(万隆广场)",
        "address": "辽宁省营口市鲅鱼圈区昆仑大街18号万隆广场F4层",
        "tel": "",
        "category": "基础设施:公共设施:公共厕所",
        "type": 0,
        "location": {
            "lat": 40.273175,
            "lng": 122.132504
        },
        "ad_info": {
            "adcode": 210804,
            "province": "辽宁省",
            "city": "营口市",
            "district": "鲅鱼圈区"
        }
    },
    {
        "id": "11771980629050781559",
        "title": "公共厕所",
        "address": "辽宁省营口市老边区捻线里与保温街交叉口东160米",
        "tel": "",
        "category": "基础设施:公共设施:公共厕所",
        "type": 0,
        "location": {
            "lat": 40.681274,
            "lng": 122.38712
        },
        "ad_info": {
            "adcode": 210811,
            "province": "辽宁省",
            "city": "营口市",
            "district": "老边区"
        }
    },
    {
        "id": "1280407839176538101",
        "title": "公共厕所",
        "address": "辽宁省营口市西市区得胜路与辽河大街交叉口东北方向416米左右",
        "tel": "",
        "category": "基础设施:公共设施:公共厕所",
        "type": 0,
        "location": {
            "lat": 40.684788,
            "lng": 122.20788
        },
        "ad_info": {
            "adcode": 210803,
            "province": "辽宁省",
            "city": "营口市",
            "district": "西市区"
        }
    },
    {
        "id": "5864234913763985281",
        "title": "男洗手间",
        "address": "辽宁省营口市站前区市府路1号营口站前万达广场2F",
        "tel": "",
        "category": "基础设施:公共设施:男洗手间",
        "type": 0,
        "location": {
            "lat": 40.665458,
            "lng": 122.235004
        },
        "ad_info": {
            "adcode": 210802,
            "province": "辽宁省",
            "city": "营口市",
            "district": "站前区"
        }
    },
    {
        "id": "14435158697018988845",
        "title": "女洗手间",
        "address": "辽宁省营口市站前区市府路1号营口站前万达广场3F",
        "tel": "",
        "category": "基础设施:公共设施:女洗手间",
        "type": 0,
        "location": {
            "lat": 40.663877,
            "lng": 122.235102
        },
        "ad_info": {
            "adcode": 210802,
            "province": "辽宁省",
            "city": "营口市",
            "district": "站前区"
        }
    },
    {
        "id": "5768497553622985290",
        "title": "男洗手间",
        "address": "辽宁省营口市站前区市府路1号营口站前万达广场2F",
        "tel": "",
        "category": "基础设施:公共设施:男洗手间",
        "type": 0,
        "location": {
            "lat": 40.66388,
            "lng": 122.235173
        },
        "ad_info": {
            "adcode": 210802,
            "province": "辽宁省",
            "city": "营口市",
            "district": "站前区"
        }
    },
    {
        "id": "15491937401719844505",
        "title": "女洗手间(万达广场)",
        "address": "辽宁省营口市鲅鱼圈区蝴蝶泉路45号鲅鱼圈万达广场店F4",
        "tel": "",
        "category": "基础设施:公共设施:女洗手间",
        "type": 0,
        "location": {
            "lat": 40.242182,
            "lng": 122.147496
        },
        "ad_info": {
            "adcode": 210804,
            "province": "辽宁省",
            "city": "营口市",
            "district": "鲅鱼圈区"
        }
    },
    {
        "id": "15197456138993808676",
        "title": "公共厕所",
        "address": "辽宁省营口市大石桥市振兴北路与五一里交叉口西南60米",
        "tel": "",
        "category": "基础设施:公共设施:公共厕所",
        "type": 0,
        "location": {
            "lat": 40.653853,
            "lng": 122.511748
        },
        "ad_info": {
            "adcode": 210882,
            "province": "辽宁省",
            "city": "营口市",
            "district": "大石桥市"
        }
    },
    {
        "id": "6574818510402222114",
        "title": "男洗手间(万达广场)",
        "address": "辽宁省营口市鲅鱼圈区蝴蝶泉路45号鲅鱼圈万达广场店F1",
        "tel": "",
        "category": "基础设施:公共设施:男洗手间",
        "type": 0,
        "location": {
            "lat": 40.242265,
            "lng": 122.148594
        },
        "ad_info": {
            "adcode": 210804,
            "province": "辽宁省",
            "city": "营口市",
            "district": "鲅鱼圈区"
        }
    },
    {
        "id": "2198948176602456858",
        "title": "女洗手间(新生活广场)",
        "address": "辽宁省营口市鲅鱼圈区青龙山大街中段新生活广场F3",
        "tel": "",
        "category": "基础设施:公共设施:女洗手间",
        "type": 0,
        "location": {
            "lat": 40.248628,
            "lng": 122.155348
        },
        "ad_info": {
            "adcode": 210804,
            "province": "辽宁省",
            "city": "营口市",
            "district": "鲅鱼圈区"
        }
    },
    {
        "id": "11466498672431821341",
        "title": "男洗手间",
        "address": "辽宁省营口市站前区市府路1号营口站前万达广场3F",
        "tel": "",
        "category": "基础设施:公共设施:男洗手间",
        "type": 0,
        "location": {
            "lat": 40.665431,
            "lng": 122.234906
        },
        "ad_info": {
            "adcode": 210802,
            "province": "辽宁省",
            "city": "营口市",
            "district": "站前区"
        }
    },
    {
        "id": "13511957111050905593",
        "title": "男洗手间",
        "address": "辽宁省营口市站前区市府路1号营口站前万达广场2F",
        "tel": "",
        "category": "基础设施:公共设施:男洗手间",
        "type": 0,
        "location": {
            "lat": 40.664931,
            "lng": 122.23564
        },
        "ad_info": {
            "adcode": 210802,
            "province": "辽宁省",
            "city": "营口市",
            "district": "站前区"
        }
    },
    {
        "id": "64715811182739478",
        "title": "无障碍-洗手间",
        "address": "辽宁省营口市站前区市府路1号营口站前万达广场2F",
        "tel": "",
        "category": "基础设施:公共设施:无障碍洗手间",
        "type": 0,
        "location": {
            "lat": 40.66388,
            "lng": 122.235129
        },
        "ad_info": {
            "adcode": 210802,
            "province": "辽宁省",
            "city": "营口市",
            "district": "站前区"
        }
    },
    {
        "id": "7067159523005783863",
        "title": "男洗手间(新生活广场)",
        "address": "辽宁省营口市鲅鱼圈区青龙山大街中段新生活广场F3",
        "tel": "",
        "category": "基础设施:公共设施:男洗手间",
        "type": 0,
        "location": {
            "lat": 40.248063,
            "lng": 122.15632
        },
        "ad_info": {
            "adcode": 210804,
            "province": "辽宁省",
            "city": "营口市",
            "district": "鲅鱼圈区"
        }
    },
    {
        "id": "6999939248813063857",
        "title": "男洗手间",
        "address": "辽宁省营口市站前区市府路1号营口站前万达广场1F",
        "tel": "",
        "category": "基础设施:公共设施:男洗手间",
        "type": 0,
        "location": {
            "lat": 40.665426,
            "lng": 122.235047
        },
        "ad_info": {
            "adcode": 210802,
            "province": "辽宁省",
            "city": "营口市",
            "district": "站前区"
        }
    },
    {
        "id": "10327070118320454568",
        "title": "女洗手间",
        "address": "辽宁省营口市鲅鱼圈区蝴蝶泉路45号鲅鱼圈万达广场店F3",
        "tel": "",
        "category": "基础设施:公共设施:女洗手间",
        "type": 0,
        "location": {
            "lat": 40.243582,
            "lng": 122.145967
        },
        "ad_info": {
            "adcode": 210804,
            "province": "辽宁省",
            "city": "营口市",
            "district": "鲅鱼圈区"
        }
    },
    {
        "id": "1212510398944651244",
        "title": "女洗手间",
        "address": "辽宁省营口市鲅鱼圈区蝴蝶泉路45号鲅鱼圈万达广场店F2",
        "tel": "",
        "category": "基础设施:公共设施:女洗手间",
        "type": 0,
        "location": {
            "lat": 40.243582,
            "lng": 122.145968
        },
        "ad_info": {
            "adcode": 210804,
            "province": "辽宁省",
            "city": "营口市",
            "district": "鲅鱼圈区"
        }
    },
    {
        "id": "1604181659184801572",
        "title": "男洗手间",
        "address": "辽宁省营口市鲅鱼圈区青龙山大街中段新生活广场B1",
        "tel": "",
        "category": "基础设施:公共设施:男洗手间",
        "type": 0,
        "location": {
            "lat": 40.248061,
            "lng": 122.156321
        },
        "ad_info": {
            "adcode": 210804,
            "province": "辽宁省",
            "city": "营口市",
            "district": "鲅鱼圈区"
        }
    },
    {
        "id": "393656740238525027",
        "title": "公共厕所",
        "address": "辽宁省营口市西市区市府路与海澜街交叉口正西方向216米左右",
        "tel": "",
        "category": "基础设施:公共设施:公共厕所",
        "type": 0,
        "location": {
            "lat": 40.641,
            "lng": 122.236056
        },
        "ad_info": {
            "adcode": 210803,
            "province": "辽宁省",
            "city": "营口市",
            "district": "西市区"
        }
    },
    {
        "id": "6394805295380308133",
        "title": "公共厕所",
        "address": "辽宁省营口市西市区辽河大街",
        "tel": "",
        "category": "基础设施:公共设施:公共厕所",
        "type": 0,
        "location": {
            "lat": 40.689276,
            "lng": 122.191464
        },
        "ad_info": {
            "adcode": 210803,
            "province": "辽宁省",
            "city": "营口市",
            "district": "西市区"
        }
    },
    {
        "id": "12440391239864509144",
        "title": "男洗手间(万隆广场)",
        "address": "辽宁省营口市鲅鱼圈区昆仑大街18号万隆广场F4层",
        "tel": "",
        "category": "基础设施:公共设施:公共厕所",
        "type": 0,
        "location": {
            "lat": 40.273175,
            "lng": 122.132504
        },
        "ad_info": {
            "adcode": 210804,
            "province": "辽宁省",
            "city": "营口市",
            "district": "鲅鱼圈区"
        }
    },
    {
        "id": "11771980629050781559",
        "title": "公共厕所",
        "address": "辽宁省营口市老边区捻线里与保温街交叉口东160米",
        "tel": "",
        "category": "基础设施:公共设施:公共厕所",
        "type": 0,
        "location": {
            "lat": 40.681274,
            "lng": 122.38712
        },
        "ad_info": {
            "adcode": 210811,
            "province": "辽宁省",
            "city": "营口市",
            "district": "老边区"
        }
    },
    {
        "id": "1280407839176538101",
        "title": "公共厕所",
        "address": "辽宁省营口市西市区得胜路与辽河大街交叉口东北方向416米左右",
        "tel": "",
        "category": "基础设施:公共设施:公共厕所",
        "type": 0,
        "location": {
            "lat": 40.684788,
            "lng": 122.20788
        },
        "ad_info": {
            "adcode": 210803,
            "province": "辽宁省",
            "city": "营口市",
            "district": "西市区"
        }
    },
    {
        "id": "5864234913763985281",
        "title": "男洗手间",
        "address": "辽宁省营口市站前区市府路1号营口站前万达广场2F",
        "tel": "",
        "category": "基础设施:公共设施:男洗手间",
        "type": 0,
        "location": {
            "lat": 40.665458,
            "lng": 122.235004
        },
        "ad_info": {
            "adcode": 210802,
            "province": "辽宁省",
            "city": "营口市",
            "district": "站前区"
        }
    },
    {
        "id": "14435158697018988845",
        "title": "女洗手间",
        "address": "辽宁省营口市站前区市府路1号营口站前万达广场3F",
        "tel": "",
        "category": "基础设施:公共设施:女洗手间",
        "type": 0,
        "location": {
            "lat": 40.663877,
            "lng": 122.235102
        },
        "ad_info": {
            "adcode": 210802,
            "province": "辽宁省",
            "city": "营口市",
            "district": "站前区"
        }
    },
    {
        "id": "5768497553622985290",
        "title": "男洗手间",
        "address": "辽宁省营口市站前区市府路1号营口站前万达广场2F",
        "tel": "",
        "category": "基础设施:公共设施:男洗手间",
        "type": 0,
        "location": {
            "lat": 40.66388,
            "lng": 122.235173
        },
        "ad_info": {
            "adcode": 210802,
            "province": "辽宁省",
            "city": "营口市",
            "district": "站前区"
        }
    },
    {
        "id": "15491937401719844505",
        "title": "女洗手间(万达广场)",
        "address": "辽宁省营口市鲅鱼圈区蝴蝶泉路45号鲅鱼圈万达广场店F4",
        "tel": "",
        "category": "基础设施:公共设施:女洗手间",
        "type": 0,
        "location": {
            "lat": 40.242182,
            "lng": 122.147496
        },
        "ad_info": {
            "adcode": 210804,
            "province": "辽宁省",
            "city": "营口市",
            "district": "鲅鱼圈区"
        }
    },
    {
        "id": "15197456138993808676",
        "title": "公共厕所",
        "address": "辽宁省营口市大石桥市振兴北路与五一里交叉口西南60米",
        "tel": "",
        "category": "基础设施:公共设施:公共厕所",
        "type": 0,
        "location": {
            "lat": 40.653853,
            "lng": 122.511748
        },
        "ad_info": {
            "adcode": 210882,
            "province": "辽宁省",
            "city": "营口市",
            "district": "大石桥市"
        }
    },
    {
        "id": "6574818510402222114",
        "title": "男洗手间(万达广场)",
        "address": "辽宁省营口市鲅鱼圈区蝴蝶泉路45号鲅鱼圈万达广场店F1",
        "tel": "",
        "category": "基础设施:公共设施:男洗手间",
        "type": 0,
        "location": {
            "lat": 40.242265,
            "lng": 122.148594
        },
        "ad_info": {
            "adcode": 210804,
            "province": "辽宁省",
            "city": "营口市",
            "district": "鲅鱼圈区"
        }
    },
    {
        "id": "2198948176602456858",
        "title": "女洗手间(新生活广场)",
        "address": "辽宁省营口市鲅鱼圈区青龙山大街中段新生活广场F3",
        "tel": "",
        "category": "基础设施:公共设施:女洗手间",
        "type": 0,
        "location": {
            "lat": 40.248628,
            "lng": 122.155348
        },
        "ad_info": {
            "adcode": 210804,
            "province": "辽宁省",
            "city": "营口市",
            "district": "鲅鱼圈区"
        }
    },
    {
        "id": "11466498672431821341",
        "title": "男洗手间",
        "address": "辽宁省营口市站前区市府路1号营口站前万达广场3F",
        "tel": "",
        "category": "基础设施:公共设施:男洗手间",
        "type": 0,
        "location": {
            "lat": 40.665431,
            "lng": 122.234906
        },
        "ad_info": {
            "adcode": 210802,
            "province": "辽宁省",
            "city": "营口市",
            "district": "站前区"
        }
    },
    {
        "id": "13511957111050905593",
        "title": "男洗手间",
        "address": "辽宁省营口市站前区市府路1号营口站前万达广场2F",
        "tel": "",
        "category": "基础设施:公共设施:男洗手间",
        "type": 0,
        "location": {
            "lat": 40.664931,
            "lng": 122.23564
        },
        "ad_info": {
            "adcode": 210802,
            "province": "辽宁省",
            "city": "营口市",
            "district": "站前区"
        }
    },
    {
        "id": "64715811182739478",
        "title": "无障碍-洗手间",
        "address": "辽宁省营口市站前区市府路1号营口站前万达广场2F",
        "tel": "",
        "category": "基础设施:公共设施:无障碍洗手间",
        "type": 0,
        "location": {
            "lat": 40.66388,
            "lng": 122.235129
        },
        "ad_info": {
            "adcode": 210802,
            "province": "辽宁省",
            "city": "营口市",
            "district": "站前区"
        }
    },
    {
        "id": "7067159523005783863",
        "title": "男洗手间(新生活广场)",
        "address": "辽宁省营口市鲅鱼圈区青龙山大街中段新生活广场F3",
        "tel": "",
        "category": "基础设施:公共设施:男洗手间",
        "type": 0,
        "location": {
            "lat": 40.248063,
            "lng": 122.15632
        },
        "ad_info": {
            "adcode": 210804,
            "province": "辽宁省",
            "city": "营口市",
            "district": "鲅鱼圈区"
        }
    },
    {
        "id": "6999939248813063857",
        "title": "男洗手间",
        "address": "辽宁省营口市站前区市府路1号营口站前万达广场1F",
        "tel": "",
        "category": "基础设施:公共设施:男洗手间",
        "type": 0,
        "location": {
            "lat": 40.665426,
            "lng": 122.235047
        },
        "ad_info": {
            "adcode": 210802,
            "province": "辽宁省",
            "city": "营口市",
            "district": "站前区"
        }
    },
    {
        "id": "10327070118320454568",
        "title": "女洗手间",
        "address": "辽宁省营口市鲅鱼圈区蝴蝶泉路45号鲅鱼圈万达广场店F3",
        "tel": "",
        "category": "基础设施:公共设施:女洗手间",
        "type": 0,
        "location": {
            "lat": 40.243582,
            "lng": 122.145967
        },
        "ad_info": {
            "adcode": 210804,
            "province": "辽宁省",
            "city": "营口市",
            "district": "鲅鱼圈区"
        }
    },
    {
        "id": "1212510398944651244",
        "title": "女洗手间",
        "address": "辽宁省营口市鲅鱼圈区蝴蝶泉路45号鲅鱼圈万达广场店F2",
        "tel": "",
        "category": "基础设施:公共设施:女洗手间",
        "type": 0,
        "location": {
            "lat": 40.243582,
            "lng": 122.145968
        },
        "ad_info": {
            "adcode": 210804,
            "province": "辽宁省",
            "city": "营口市",
            "district": "鲅鱼圈区"
        }
    },
    {
        "id": "1604181659184801572",
        "title": "男洗手间",
        "address": "辽宁省营口市鲅鱼圈区青龙山大街中段新生活广场B1",
        "tel": "",
        "category": "基础设施:公共设施:男洗手间",
        "type": 0,
        "location": {
            "lat": 40.248061,
            "lng": 122.156321
        },
        "ad_info": {
            "adcode": 210804,
            "province": "辽宁省",
            "city": "营口市",
            "district": "鲅鱼圈区"
        }
    },
    {
        "id": "393656740238525027",
        "title": "公共厕所",
        "address": "辽宁省营口市西市区市府路与海澜街交叉口正西方向216米左右",
        "tel": "",
        "category": "基础设施:公共设施:公共厕所",
        "type": 0,
        "location": {
            "lat": 40.641,
            "lng": 122.236056
        },
        "ad_info": {
            "adcode": 210803,
            "province": "辽宁省",
            "city": "营口市",
            "district": "西市区"
        }
    },
    {
        "id": "6394805295380308133",
        "title": "公共厕所",
        "address": "辽宁省营口市西市区辽河大街",
        "tel": "",
        "category": "基础设施:公共设施:公共厕所",
        "type": 0,
        "location": {
            "lat": 40.689276,
            "lng": 122.191464
        },
        "ad_info": {
            "adcode": 210803,
            "province": "辽宁省",
            "city": "营口市",
            "district": "西市区"
        }
    },
    {
        "id": "12440391239864509144",
        "title": "男洗手间(万隆广场)",
        "address": "辽宁省营口市鲅鱼圈区昆仑大街18号万隆广场F4层",
        "tel": "",
        "category": "基础设施:公共设施:公共厕所",
        "type": 0,
        "location": {
            "lat": 40.273175,
            "lng": 122.132504
        },
        "ad_info": {
            "adcode": 210804,
            "province": "辽宁省",
            "city": "营口市",
            "district": "鲅鱼圈区"
        }
    },
    {
        "id": "11771980629050781559",
        "title": "公共厕所",
        "address": "辽宁省营口市老边区捻线里与保温街交叉口东160米",
        "tel": "",
        "category": "基础设施:公共设施:公共厕所",
        "type": 0,
        "location": {
            "lat": 40.681274,
            "lng": 122.38712
        },
        "ad_info": {
            "adcode": 210811,
            "province": "辽宁省",
            "city": "营口市",
            "district": "老边区"
        }
    },
    {
        "id": "1280407839176538101",
        "title": "公共厕所",
        "address": "辽宁省营口市西市区得胜路与辽河大街交叉口东北方向416米左右",
        "tel": "",
        "category": "基础设施:公共设施:公共厕所",
        "type": 0,
        "location": {
            "lat": 40.684788,
            "lng": 122.20788
        },
        "ad_info": {
            "adcode": 210803,
            "province": "辽宁省",
            "city": "营口市",
            "district": "西市区"
        }
    },
    {
        "id": "5864234913763985281",
        "title": "男洗手间",
        "address": "辽宁省营口市站前区市府路1号营口站前万达广场2F",
        "tel": "",
        "category": "基础设施:公共设施:男洗手间",
        "type": 0,
        "location": {
            "lat": 40.665458,
            "lng": 122.235004
        },
        "ad_info": {
            "adcode": 210802,
            "province": "辽宁省",
            "city": "营口市",
            "district": "站前区"
        }
    },
    {
        "id": "14435158697018988845",
        "title": "女洗手间",
        "address": "辽宁省营口市站前区市府路1号营口站前万达广场3F",
        "tel": "",
        "category": "基础设施:公共设施:女洗手间",
        "type": 0,
        "location": {
            "lat": 40.663877,
            "lng": 122.235102
        },
        "ad_info": {
            "adcode": 210802,
            "province": "辽宁省",
            "city": "营口市",
            "district": "站前区"
        }
    },
    {
        "id": "5768497553622985290",
        "title": "男洗手间",
        "address": "辽宁省营口市站前区市府路1号营口站前万达广场2F",
        "tel": "",
        "category": "基础设施:公共设施:男洗手间",
        "type": 0,
        "location": {
            "lat": 40.66388,
            "lng": 122.235173
        },
        "ad_info": {
            "adcode": 210802,
            "province": "辽宁省",
            "city": "营口市",
            "district": "站前区"
        }
    },
    {
        "id": "15491937401719844505",
        "title": "女洗手间(万达广场)",
        "address": "辽宁省营口市鲅鱼圈区蝴蝶泉路45号鲅鱼圈万达广场店F4",
        "tel": "",
        "category": "基础设施:公共设施:女洗手间",
        "type": 0,
        "location": {
            "lat": 40.242182,
            "lng": 122.147496
        },
        "ad_info": {
            "adcode": 210804,
            "province": "辽宁省",
            "city": "营口市",
            "district": "鲅鱼圈区"
        }
    },
    {
        "id": "15197456138993808676",
        "title": "公共厕所",
        "address": "辽宁省营口市大石桥市振兴北路与五一里交叉口西南60米",
        "tel": "",
        "category": "基础设施:公共设施:公共厕所",
        "type": 0,
        "location": {
            "lat": 40.653853,
            "lng": 122.511748
        },
        "ad_info": {
            "adcode": 210882,
            "province": "辽宁省",
            "city": "营口市",
            "district": "大石桥市"
        }
    },
    {
        "id": "6574818510402222114",
        "title": "男洗手间(万达广场)",
        "address": "辽宁省营口市鲅鱼圈区蝴蝶泉路45号鲅鱼圈万达广场店F1",
        "tel": "",
        "category": "基础设施:公共设施:男洗手间",
        "type": 0,
        "location": {
            "lat": 40.242265,
            "lng": 122.148594
        },
        "ad_info": {
            "adcode": 210804,
            "province": "辽宁省",
            "city": "营口市",
            "district": "鲅鱼圈区"
        }
    },
    {
        "id": "2198948176602456858",
        "title": "女洗手间(新生活广场)",
        "address": "辽宁省营口市鲅鱼圈区青龙山大街中段新生活广场F3",
        "tel": "",
        "category": "基础设施:公共设施:女洗手间",
        "type": 0,
        "location": {
            "lat": 40.248628,
            "lng": 122.155348
        },
        "ad_info": {
            "adcode": 210804,
            "province": "辽宁省",
            "city": "营口市",
            "district": "鲅鱼圈区"
        }
    },
    {
        "id": "11466498672431821341",
        "title": "男洗手间",
        "address": "辽宁省营口市站前区市府路1号营口站前万达广场3F",
        "tel": "",
        "category": "基础设施:公共设施:男洗手间",
        "type": 0,
        "location": {
            "lat": 40.665431,
            "lng": 122.234906
        },
        "ad_info": {
            "adcode": 210802,
            "province": "辽宁省",
            "city": "营口市",
            "district": "站前区"
        }
    },
    {
        "id": "13511957111050905593",
        "title": "男洗手间",
        "address": "辽宁省营口市站前区市府路1号营口站前万达广场2F",
        "tel": "",
        "category": "基础设施:公共设施:男洗手间",
        "type": 0,
        "location": {
            "lat": 40.664931,
            "lng": 122.23564
        },
        "ad_info": {
            "adcode": 210802,
            "province": "辽宁省",
            "city": "营口市",
            "district": "站前区"
        }
    },
    {
        "id": "64715811182739478",
        "title": "无障碍-洗手间",
        "address": "辽宁省营口市站前区市府路1号营口站前万达广场2F",
        "tel": "",
        "category": "基础设施:公共设施:无障碍洗手间",
        "type": 0,
        "location": {
            "lat": 40.66388,
            "lng": 122.235129
        },
        "ad_info": {
            "adcode": 210802,
            "province": "辽宁省",
            "city": "营口市",
            "district": "站前区"
        }
    },
    {
        "id": "7067159523005783863",
        "title": "男洗手间(新生活广场)",
        "address": "辽宁省营口市鲅鱼圈区青龙山大街中段新生活广场F3",
        "tel": "",
        "category": "基础设施:公共设施:男洗手间",
        "type": 0,
        "location": {
            "lat": 40.248063,
            "lng": 122.15632
        },
        "ad_info": {
            "adcode": 210804,
            "province": "辽宁省",
            "city": "营口市",
            "district": "鲅鱼圈区"
        }
    },
    {
        "id": "6999939248813063857",
        "title": "男洗手间",
        "address": "辽宁省营口市站前区市府路1号营口站前万达广场1F",
        "tel": "",
        "category": "基础设施:公共设施:男洗手间",
        "type": 0,
        "location": {
            "lat": 40.665426,
            "lng": 122.235047
        },
        "ad_info": {
            "adcode": 210802,
            "province": "辽宁省",
            "city": "营口市",
            "district": "站前区"
        }
    },
    {
        "id": "10327070118320454568",
        "title": "女洗手间",
        "address": "辽宁省营口市鲅鱼圈区蝴蝶泉路45号鲅鱼圈万达广场店F3",
        "tel": "",
        "category": "基础设施:公共设施:女洗手间",
        "type": 0,
        "location": {
            "lat": 40.243582,
            "lng": 122.145967
        },
        "ad_info": {
            "adcode": 210804,
            "province": "辽宁省",
            "city": "营口市",
            "district": "鲅鱼圈区"
        }
    },
    {
        "id": "1212510398944651244",
        "title": "女洗手间",
        "address": "辽宁省营口市鲅鱼圈区蝴蝶泉路45号鲅鱼圈万达广场店F2",
        "tel": "",
        "category": "基础设施:公共设施:女洗手间",
        "type": 0,
        "location": {
            "lat": 40.243582,
            "lng": 122.145968
        },
        "ad_info": {
            "adcode": 210804,
            "province": "辽宁省",
            "city": "营口市",
            "district": "鲅鱼圈区"
        }
    },
    {
        "id": "1604181659184801572",
        "title": "男洗手间",
        "address": "辽宁省营口市鲅鱼圈区青龙山大街中段新生活广场B1",
        "tel": "",
        "category": "基础设施:公共设施:男洗手间",
        "type": 0,
        "location": {
            "lat": 40.248061,
            "lng": 122.156321
        },
        "ad_info": {
            "adcode": 210804,
            "province": "辽宁省",
            "city": "营口市",
            "district": "鲅鱼圈区"
        }
    },
    {
        "id": "393656740238525027",
        "title": "公共厕所",
        "address": "辽宁省营口市西市区市府路与海澜街交叉口正西方向216米左右",
        "tel": "",
        "category": "基础设施:公共设施:公共厕所",
        "type": 0,
        "location": {
            "lat": 40.641,
            "lng": 122.236056
        },
        "ad_info": {
            "adcode": 210803,
            "province": "辽宁省",
            "city": "营口市",
            "district": "西市区"
        }
    },
    {
        "id": "6394805295380308133",
        "title": "公共厕所",
        "address": "辽宁省营口市西市区辽河大街",
        "tel": "",
        "category": "基础设施:公共设施:公共厕所",
        "type": 0,
        "location": {
            "lat": 40.689276,
            "lng": 122.191464
        },
        "ad_info": {
            "adcode": 210803,
            "province": "辽宁省",
            "city": "营口市",
            "district": "西市区"
        }
    },
    {
        "id": "12440391239864509144",
        "title": "男洗手间(万隆广场)",
        "address": "辽宁省营口市鲅鱼圈区昆仑大街18号万隆广场F4层",
        "tel": "",
        "category": "基础设施:公共设施:公共厕所",
        "type": 0,
        "location": {
            "lat": 40.273175,
            "lng": 122.132504
        },
        "ad_info": {
            "adcode": 210804,
            "province": "辽宁省",
            "city": "营口市",
            "district": "鲅鱼圈区"
        }
    },
    {
        "id": "11771980629050781559",
        "title": "公共厕所",
        "address": "辽宁省营口市老边区捻线里与保温街交叉口东160米",
        "tel": "",
        "category": "基础设施:公共设施:公共厕所",
        "type": 0,
        "location": {
            "lat": 40.681274,
            "lng": 122.38712
        },
        "ad_info": {
            "adcode": 210811,
            "province": "辽宁省",
            "city": "营口市",
            "district": "老边区"
        }
    },
    {
        "id": "1280407839176538101",
        "title": "公共厕所",
        "address": "辽宁省营口市西市区得胜路与辽河大街交叉口东北方向416米左右",
        "tel": "",
        "category": "基础设施:公共设施:公共厕所",
        "type": 0,
        "location": {
            "lat": 40.684788,
            "lng": 122.20788
        },
        "ad_info": {
            "adcode": 210803,
            "province": "辽宁省",
            "city": "营口市",
            "district": "西市区"
        }
    },
    {
        "id": "5864234913763985281",
        "title": "男洗手间",
        "address": "辽宁省营口市站前区市府路1号营口站前万达广场2F",
        "tel": "",
        "category": "基础设施:公共设施:男洗手间",
        "type": 0,
        "location": {
            "lat": 40.665458,
            "lng": 122.235004
        },
        "ad_info": {
            "adcode": 210802,
            "province": "辽宁省",
            "city": "营口市",
            "district": "站前区"
        }
    },
    {
        "id": "14435158697018988845",
        "title": "女洗手间",
        "address": "辽宁省营口市站前区市府路1号营口站前万达广场3F",
        "tel": "",
        "category": "基础设施:公共设施:女洗手间",
        "type": 0,
        "location": {
            "lat": 40.663877,
            "lng": 122.235102
        },
        "ad_info": {
            "adcode": 210802,
            "province": "辽宁省",
            "city": "营口市",
            "district": "站前区"
        }
    },
    {
        "id": "5768497553622985290",
        "title": "男洗手间",
        "address": "辽宁省营口市站前区市府路1号营口站前万达广场2F",
        "tel": "",
        "category": "基础设施:公共设施:男洗手间",
        "type": 0,
        "location": {
            "lat": 40.66388,
            "lng": 122.235173
        },
        "ad_info": {
            "adcode": 210802,
            "province": "辽宁省",
            "city": "营口市",
            "district": "站前区"
        }
    },
    {
        "id": "15491937401719844505",
        "title": "女洗手间(万达广场)",
        "address": "辽宁省营口市鲅鱼圈区蝴蝶泉路45号鲅鱼圈万达广场店F4",
        "tel": "",
        "category": "基础设施:公共设施:女洗手间",
        "type": 0,
        "location": {
            "lat": 40.242182,
            "lng": 122.147496
        },
        "ad_info": {
            "adcode": 210804,
            "province": "辽宁省",
            "city": "营口市",
            "district": "鲅鱼圈区"
        }
    },
    {
        "id": "15197456138993808676",
        "title": "公共厕所",
        "address": "辽宁省营口市大石桥市振兴北路与五一里交叉口西南60米",
        "tel": "",
        "category": "基础设施:公共设施:公共厕所",
        "type": 0,
        "location": {
            "lat": 40.653853,
            "lng": 122.511748
        },
        "ad_info": {
            "adcode": 210882,
            "province": "辽宁省",
            "city": "营口市",
            "district": "大石桥市"
        }
    },
    {
        "id": "6574818510402222114",
        "title": "男洗手间(万达广场)",
        "address": "辽宁省营口市鲅鱼圈区蝴蝶泉路45号鲅鱼圈万达广场店F1",
        "tel": "",
        "category": "基础设施:公共设施:男洗手间",
        "type": 0,
        "location": {
            "lat": 40.242265,
            "lng": 122.148594
        },
        "ad_info": {
            "adcode": 210804,
            "province": "辽宁省",
            "city": "营口市",
            "district": "鲅鱼圈区"
        }
    },
    {
        "id": "2198948176602456858",
        "title": "女洗手间(新生活广场)",
        "address": "辽宁省营口市鲅鱼圈区青龙山大街中段新生活广场F3",
        "tel": "",
        "category": "基础设施:公共设施:女洗手间",
        "type": 0,
        "location": {
            "lat": 40.248628,
            "lng": 122.155348
        },
        "ad_info": {
            "adcode": 210804,
            "province": "辽宁省",
            "city": "营口市",
            "district": "鲅鱼圈区"
        }
    },
    {
        "id": "11466498672431821341",
        "title": "男洗手间",
        "address": "辽宁省营口市站前区市府路1号营口站前万达广场3F",
        "tel": "",
        "category": "基础设施:公共设施:男洗手间",
        "type": 0,
        "location": {
            "lat": 40.665431,
            "lng": 122.234906
        },
        "ad_info": {
            "adcode": 210802,
            "province": "辽宁省",
            "city": "营口市",
            "district": "站前区"
        }
    },
    {
        "id": "13511957111050905593",
        "title": "男洗手间",
        "address": "辽宁省营口市站前区市府路1号营口站前万达广场2F",
        "tel": "",
        "category": "基础设施:公共设施:男洗手间",
        "type": 0,
        "location": {
            "lat": 40.664931,
            "lng": 122.23564
        },
        "ad_info": {
            "adcode": 210802,
            "province": "辽宁省",
            "city": "营口市",
            "district": "站前区"
        }
    },
    {
        "id": "64715811182739478",
        "title": "无障碍-洗手间",
        "address": "辽宁省营口市站前区市府路1号营口站前万达广场2F",
        "tel": "",
        "category": "基础设施:公共设施:无障碍洗手间",
        "type": 0,
        "location": {
            "lat": 40.66388,
            "lng": 122.235129
        },
        "ad_info": {
            "adcode": 210802,
            "province": "辽宁省",
            "city": "营口市",
            "district": "站前区"
        }
    },
    {
        "id": "7067159523005783863",
        "title": "男洗手间(新生活广场)",
        "address": "辽宁省营口市鲅鱼圈区青龙山大街中段新生活广场F3",
        "tel": "",
        "category": "基础设施:公共设施:男洗手间",
        "type": 0,
        "location": {
            "lat": 40.248063,
            "lng": 122.15632
        },
        "ad_info": {
            "adcode": 210804,
            "province": "辽宁省",
            "city": "营口市",
            "district": "鲅鱼圈区"
        }
    },
    {
        "id": "6999939248813063857",
        "title": "男洗手间",
        "address": "辽宁省营口市站前区市府路1号营口站前万达广场1F",
        "tel": "",
        "category": "基础设施:公共设施:男洗手间",
        "type": 0,
        "location": {
            "lat": 40.665426,
            "lng": 122.235047
        },
        "ad_info": {
            "adcode": 210802,
            "province": "辽宁省",
            "city": "营口市",
            "district": "站前区"
        }
    },
    {
        "id": "10327070118320454568",
        "title": "女洗手间",
        "address": "辽宁省营口市鲅鱼圈区蝴蝶泉路45号鲅鱼圈万达广场店F3",
        "tel": "",
        "category": "基础设施:公共设施:女洗手间",
        "type": 0,
        "location": {
            "lat": 40.243582,
            "lng": 122.145967
        },
        "ad_info": {
            "adcode": 210804,
            "province": "辽宁省",
            "city": "营口市",
            "district": "鲅鱼圈区"
        }
    },
    {
        "id": "1212510398944651244",
        "title": "女洗手间",
        "address": "辽宁省营口市鲅鱼圈区蝴蝶泉路45号鲅鱼圈万达广场店F2",
        "tel": "",
        "category": "基础设施:公共设施:女洗手间",
        "type": 0,
        "location": {
            "lat": 40.243582,
            "lng": 122.145968
        },
        "ad_info": {
            "adcode": 210804,
            "province": "辽宁省",
            "city": "营口市",
            "district": "鲅鱼圈区"
        }
    },
    {
        "id": "1604181659184801572",
        "title": "男洗手间",
        "address": "辽宁省营口市鲅鱼圈区青龙山大街中段新生活广场B1",
        "tel": "",
        "category": "基础设施:公共设施:男洗手间",
        "type": 0,
        "location": {
            "lat": 40.248061,
            "lng": 122.156321
        },
        "ad_info": {
            "adcode": 210804,
            "province": "辽宁省",
            "city": "营口市",
            "district": "鲅鱼圈区"
        }
    },
    {
        "id": "393656740238525027",
        "title": "公共厕所",
        "address": "辽宁省营口市西市区市府路与海澜街交叉口正西方向216米左右",
        "tel": "",
        "category": "基础设施:公共设施:公共厕所",
        "type": 0,
        "location": {
            "lat": 40.641,
            "lng": 122.236056
        },
        "ad_info": {
            "adcode": 210803,
            "province": "辽宁省",
            "city": "营口市",
            "district": "西市区"
        }
    },
    {
        "id": "6394805295380308133",
        "title": "公共厕所",
        "address": "辽宁省营口市西市区辽河大街",
        "tel": "",
        "category": "基础设施:公共设施:公共厕所",
        "type": 0,
        "location": {
            "lat": 40.689276,
            "lng": 122.191464
        },
        "ad_info": {
            "adcode": 210803,
            "province": "辽宁省",
            "city": "营口市",
            "district": "西市区"
        }
    },
    {
        "id": "12440391239864509144",
        "title": "男洗手间(万隆广场)",
        "address": "辽宁省营口市鲅鱼圈区昆仑大街18号万隆广场F4层",
        "tel": "",
        "category": "基础设施:公共设施:公共厕所",
        "type": 0,
        "location": {
            "lat": 40.273175,
            "lng": 122.132504
        },
        "ad_info": {
            "adcode": 210804,
            "province": "辽宁省",
            "city": "营口市",
            "district": "鲅鱼圈区"
        }
    },
    {
        "id": "11771980629050781559",
        "title": "公共厕所",
        "address": "辽宁省营口市老边区捻线里与保温街交叉口东160米",
        "tel": "",
        "category": "基础设施:公共设施:公共厕所",
        "type": 0,
        "location": {
            "lat": 40.681274,
            "lng": 122.38712
        },
        "ad_info": {
            "adcode": 210811,
            "province": "辽宁省",
            "city": "营口市",
            "district": "老边区"
        }
    },
    {
        "id": "1280407839176538101",
        "title": "公共厕所",
        "address": "辽宁省营口市西市区得胜路与辽河大街交叉口东北方向416米左右",
        "tel": "",
        "category": "基础设施:公共设施:公共厕所",
        "type": 0,
        "location": {
            "lat": 40.684788,
            "lng": 122.20788
        },
        "ad_info": {
            "adcode": 210803,
            "province": "辽宁省",
            "city": "营口市",
            "district": "西市区"
        }
    },
    {
        "id": "5864234913763985281",
        "title": "男洗手间",
        "address": "辽宁省营口市站前区市府路1号营口站前万达广场2F",
        "tel": "",
        "category": "基础设施:公共设施:男洗手间",
        "type": 0,
        "location": {
            "lat": 40.665458,
            "lng": 122.235004
        },
        "ad_info": {
            "adcode": 210802,
            "province": "辽宁省",
            "city": "营口市",
            "district": "站前区"
        }
    },
    {
        "id": "14435158697018988845",
        "title": "女洗手间",
        "address": "辽宁省营口市站前区市府路1号营口站前万达广场3F",
        "tel": "",
        "category": "基础设施:公共设施:女洗手间",
        "type": 0,
        "location": {
            "lat": 40.663877,
            "lng": 122.235102
        },
        "ad_info": {
            "adcode": 210802,
            "province": "辽宁省",
            "city": "营口市",
            "district": "站前区"
        }
    },
    {
        "id": "5768497553622985290",
        "title": "男洗手间",
        "address": "辽宁省营口市站前区市府路1号营口站前万达广场2F",
        "tel": "",
        "category": "基础设施:公共设施:男洗手间",
        "type": 0,
        "location": {
            "lat": 40.66388,
            "lng": 122.235173
        },
        "ad_info": {
            "adcode": 210802,
            "province": "辽宁省",
            "city": "营口市",
            "district": "站前区"
        }
    },
    {
        "id": "15491937401719844505",
        "title": "女洗手间(万达广场)",
        "address": "辽宁省营口市鲅鱼圈区蝴蝶泉路45号鲅鱼圈万达广场店F4",
        "tel": "",
        "category": "基础设施:公共设施:女洗手间",
        "type": 0,
        "location": {
            "lat": 40.242182,
            "lng": 122.147496
        },
        "ad_info": {
            "adcode": 210804,
            "province": "辽宁省",
            "city": "营口市",
            "district": "鲅鱼圈区"
        }
    },
    {
        "id": "15197456138993808676",
        "title": "公共厕所",
        "address": "辽宁省营口市大石桥市振兴北路与五一里交叉口西南60米",
        "tel": "",
        "category": "基础设施:公共设施:公共厕所",
        "type": 0,
        "location": {
            "lat": 40.653853,
            "lng": 122.511748
        },
        "ad_info": {
            "adcode": 210882,
            "province": "辽宁省",
            "city": "营口市",
            "district": "大石桥市"
        }
    },
    {
        "id": "6574818510402222114",
        "title": "男洗手间(万达广场)",
        "address": "辽宁省营口市鲅鱼圈区蝴蝶泉路45号鲅鱼圈万达广场店F1",
        "tel": "",
        "category": "基础设施:公共设施:男洗手间",
        "type": 0,
        "location": {
            "lat": 40.242265,
            "lng": 122.148594
        },
        "ad_info": {
            "adcode": 210804,
            "province": "辽宁省",
            "city": "营口市",
            "district": "鲅鱼圈区"
        }
    },
    {
        "id": "2198948176602456858",
        "title": "女洗手间(新生活广场)",
        "address": "辽宁省营口市鲅鱼圈区青龙山大街中段新生活广场F3",
        "tel": "",
        "category": "基础设施:公共设施:女洗手间",
        "type": 0,
        "location": {
            "lat": 40.248628,
            "lng": 122.155348
        },
        "ad_info": {
            "adcode": 210804,
            "province": "辽宁省",
            "city": "营口市",
            "district": "鲅鱼圈区"
        }
    }
]