[
    {
        "id": "12184306164911314536",
        "title": "公共厕所",
        "address": "辽宁省葫芦岛市连山区中央路与福盛路交叉口正北方向91米左右",
        "tel": "",
        "category": "基础设施:公共设施:公共厕所",
        "type": 0,
        "location": {
            "lat": 40.756986,
            "lng": 120.858512
        },
        "ad_info": {
            "adcode": 211402,
            "province": "辽宁省",
            "city": "葫芦岛市",
            "district": "连山区"
        }
    },
    {
        "id": "11722173757075627472",
        "title": "公共厕所",
        "address": "辽宁省葫芦岛市连山区中央路与民安步行街交叉口正南方向34米左右",
        "tel": "",
        "category": "基础设施:公共设施:公共厕所",
        "type": 0,
        "location": {
            "lat": 40.755261,
            "lng": 120.860181
        },
        "ad_info": {
            "adcode": 211402,
            "province": "辽宁省",
            "city": "葫芦岛市",
            "district": "连山区"
        }
    },
    {
        "id": "8662668690655204519",
        "title": "公共厕所",
        "address": "辽宁省葫芦岛市连山区群英街三角公园(西侧)",
        "tel": "",
        "category": "基础设施:公共设施:公共厕所",
        "type": 0,
        "location": {
            "lat": 40.758697,
            "lng": 120.866228
        },
        "ad_info": {
            "adcode": 211402,
            "province": "辽宁省",
            "city": "葫芦岛市",
            "district": "连山区"
        }
    },
    {
        "id": "2070286575874052228",
        "title": "公共厕所",
        "address": "辽宁省葫芦岛市连山区红星路与连山大街交叉口正东方向38米左右",
        "tel": "",
        "category": "基础设施:公共设施:公共厕所",
        "type": 0,
        "location": {
            "lat": 40.762089,
            "lng": 120.866323
        },
        "ad_info": {
            "adcode": 211402,
            "province": "辽宁省",
            "city": "葫芦岛市",
            "district": "连山区"
        }
    },
    {
        "id": "8993614353140947958",
        "title": "公共厕所",
        "address": "辽宁省葫芦岛市连山区木材福利厂西(兴工路东)",
        "tel": "",
        "category": "基础设施:公共设施:公共厕所",
        "type": 0,
        "location": {
            "lat": 40.772226,
            "lng": 120.846428
        },
        "ad_info": {
            "adcode": 211402,
            "province": "辽宁省",
            "city": "葫芦岛市",
            "district": "连山区"
        }
    },
    {
        "id": "14923604548799902338",
        "title": "公共厕所",
        "address": "辽宁省葫芦岛市连山区文兴路与新华大街交叉口西南方向328米左右",
        "tel": "",
        "category": "基础设施:公共设施:公共厕所",
        "type": 0,
        "location": {
            "lat": 40.750947,
            "lng": 120.848689
        },
        "ad_info": {
            "adcode": 211402,
            "province": "辽宁省",
            "city": "葫芦岛市",
            "district": "连山区"
        }
    },
    {
        "id": "13944320892864102767",
        "title": "公共厕所",
        "address": "辽宁省葫芦岛市连山区寺缸线与葫六线交叉口正东方向108米左右",
        "tel": "",
        "category": "基础设施:公共设施:公共厕所",
        "type": 0,
        "location": {
            "lat": 40.80186,
            "lng": 120.736088
        },
        "ad_info": {
            "adcode": 211402,
            "province": "辽宁省",
            "city": "葫芦岛市",
            "district": "连山区"
        }
    },
    {
        "id": "14262474464073311133",
        "title": "公共厕所",
        "address": "辽宁省葫芦岛市连山区营盘小学南侧130米",
        "tel": "",
        "category": "基础设施:公共设施:公共厕所",
        "type": 0,
        "location": {
            "lat": 40.761333,
            "lng": 120.802757
        },
        "ad_info": {
            "adcode": 211402,
            "province": "辽宁省",
            "city": "葫芦岛市",
            "district": "连山区"
        }
    },
    {
        "id": "10341985238089374112",
        "title": "公共厕所",
        "address": "辽宁省葫芦岛市连山区泰康路与红星路交叉口西南方向14米左右",
        "tel": "",
        "category": "基础设施:公共设施:公共厕所",
        "type": 0,
        "location": {
            "lat": 40.743811,
            "lng": 120.863709
        },
        "ad_info": {
            "adcode": 211402,
            "province": "辽宁省",
            "city": "葫芦岛市",
            "district": "连山区"
        }
    },
    {
        "id": "7685172824271293519",
        "title": "公共厕所",
        "address": "辽宁省葫芦岛市连山区化工街与正安路交叉口正东方向169米左右",
        "tel": "",
        "category": "基础设施:公共设施:公共厕所",
        "type": 0,
        "location": {
            "lat": 40.754664,
            "lng": 120.833942
        },
        "ad_info": {
            "adcode": 211402,
            "province": "辽宁省",
            "city": "葫芦岛市",
            "district": "连山区"
        }
    },
    {
        "id": "11155157033532214265",
        "title": "公共厕所",
        "address": "辽宁省葫芦岛市连山区北昌路与永昌路交叉口东南方向181米左右",
        "tel": "",
        "category": "基础设施:公共设施:公共厕所",
        "type": 0,
        "location": {
            "lat": 40.759643,
            "lng": 120.877471
        },
        "ad_info": {
            "adcode": 211402,
            "province": "辽宁省",
            "city": "葫芦岛市",
            "district": "连山区"
        }
    },
    {
        "id": "6645216420543238000",
        "title": "公共厕所",
        "address": "辽宁省葫芦岛市连山区中央路与渤海街交叉口西北方向18米左右",
        "tel": "",
        "category": "基础设施:公共设施:公共厕所",
        "type": 0,
        "location": {
            "lat": 40.755356,
            "lng": 120.861772
        },
        "ad_info": {
            "adcode": 211402,
            "province": "辽宁省",
            "city": "葫芦岛市",
            "district": "连山区"
        }
    },
    {
        "id": "6643739012547186404",
        "title": "公共厕所",
        "address": "辽宁省葫芦岛市连山区渤海街与连山大街交叉口东北方向64米左右",
        "tel": "",
        "category": "基础设施:公共设施:公共厕所",
        "type": 0,
        "location": {
            "lat": 40.760753,
            "lng": 120.862736
        },
        "ad_info": {
            "adcode": 211402,
            "province": "辽宁省",
            "city": "葫芦岛市",
            "district": "连山区"
        }
    },
    {
        "id": "12762718711703801136",
        "title": "公共厕所",
        "address": "辽宁省葫芦岛市连山区东城中路与秋实街交叉口正东方向42米左右",
        "tel": "",
        "category": "基础设施:公共设施:公共厕所",
        "type": 0,
        "location": {
            "lat": 40.774579,
            "lng": 120.880583
        },
        "ad_info": {
            "adcode": 211402,
            "province": "辽宁省",
            "city": "葫芦岛市",
            "district": "连山区"
        }
    },
    {
        "id": "492410947947224066",
        "title": "公共卫生间",
        "address": "辽宁省葫芦岛市连山区红星路与连山大街交叉口正东方向63米左右",
        "tel": "",
        "category": "基础设施:公共设施:公共厕所",
        "type": 0,
        "location": {
            "lat": 40.762225,
            "lng": 120.866609
        },
        "ad_info": {
            "adcode": 211402,
            "province": "辽宁省",
            "city": "葫芦岛市",
            "district": "连山区"
        }
    },
    {
        "id": "7593046513724186986",
        "title": "公共厕所",
        "address": "辽宁省葫芦岛市连山区东星街与连山大街交叉口正南方向79米左右",
        "tel": "",
        "category": "基础设施:公共设施:公共厕所",
        "type": 0,
        "location": {
            "lat": 40.762524,
            "lng": 120.868844
        },
        "ad_info": {
            "adcode": 211402,
            "province": "辽宁省",
            "city": "葫芦岛市",
            "district": "连山区"
        }
    },
    {
        "id": "10178915557488708826",
        "title": "公共厕所",
        "address": "辽宁省葫芦岛市连山区",
        "tel": "",
        "category": "基础设施:公共设施:公共厕所",
        "type": 0,
        "location": {
            "lat": 40.867903,
            "lng": 120.621563
        },
        "ad_info": {
            "adcode": 211402,
            "province": "辽宁省",
            "city": "葫芦岛市",
            "district": "连山区"
        }
    },
    {
        "id": "16679669590606298000",
        "title": "公共厕所",
        "address": "辽宁省葫芦岛市连山区兴发街与葫金线交叉口东南方向174米左右",
        "tel": "",
        "category": "基础设施:公共设施:公共厕所",
        "type": 0,
        "location": {
            "lat": 40.774272,
            "lng": 120.85638
        },
        "ad_info": {
            "adcode": 211402,
            "province": "辽宁省",
            "city": "葫芦岛市",
            "district": "连山区"
        }
    },
    {
        "id": "2214099460071838220",
        "title": "公共厕所",
        "address": "辽宁省葫芦岛市连山区海辰路与葫芦岛西立交桥交叉口西北方向601米左右",
        "tel": "",
        "category": "基础设施:公共设施:公共厕所",
        "type": 0,
        "location": {
            "lat": 40.74284,
            "lng": 120.78277
        },
        "ad_info": {
            "adcode": 211402,
            "province": "辽宁省",
            "city": "葫芦岛市",
            "district": "连山区"
        }
    },
    {
        "id": "16895639690435884761",
        "title": "公共厕所",
        "address": "辽宁省葫芦岛市龙港区龙湾大街辅路与文化路交叉口西南80米",
        "tel": "",
        "category": "基础设施:公共设施:公共厕所",
        "type": 0,
        "location": {
            "lat": 40.730164,
            "lng": 120.864686
        },
        "ad_info": {
            "adcode": 211403,
            "province": "辽宁省",
            "city": "葫芦岛市",
            "district": "龙港区"
        }
    },
    {
        "id": "18015035435936852370",
        "title": "公共厕所",
        "address": "辽宁省葫芦岛市连山区丰乐路与群英街交叉口东南方向371米左右",
        "tel": "",
        "category": "基础设施:公共设施:公共厕所",
        "type": 0,
        "location": {
            "lat": 40.748586,
            "lng": 120.864629
        },
        "ad_info": {
            "adcode": 211402,
            "province": "辽宁省",
            "city": "葫芦岛市",
            "district": "连山区"
        }
    },
    {
        "id": "8082560260491990752",
        "title": "公共厕所",
        "address": "辽宁省葫芦岛市连山区光明路与兴工路交叉口西北方向116米左右",
        "tel": "",
        "category": "基础设施:公共设施:公共厕所",
        "type": 0,
        "location": {
            "lat": 40.764149,
            "lng": 120.849088
        },
        "ad_info": {
            "adcode": 211402,
            "province": "辽宁省",
            "city": "葫芦岛市",
            "district": "连山区"
        }
    },
    {
        "id": "8328158340445158154",
        "title": "公共厕所",
        "address": "辽宁省葫芦岛市连山区老杨线与葫六线交叉口东南方向736米左右",
        "tel": "",
        "category": "基础设施:公共设施:公共厕所",
        "type": 0,
        "location": {
            "lat": 40.787481,
            "lng": 120.563981
        },
        "ad_info": {
            "adcode": 211402,
            "province": "辽宁省",
            "city": "葫芦岛市",
            "district": "连山区"
        }
    },
    {
        "id": "14845176533332494148",
        "title": "公共厕所",
        "address": "辽宁省葫芦岛市建昌县建军胡同49号",
        "tel": "",
        "category": "基础设施:公共设施:公共厕所",
        "type": 0,
        "location": {
            "lat": 40.81192,
            "lng": 119.802875
        },
        "ad_info": {
            "adcode": 211422,
            "province": "辽宁省",
            "city": "葫芦岛市",
            "district": "建昌县"
        }
    },
    {
        "id": "17077490304818258782",
        "title": "公共厕所",
        "address": "辽宁省葫芦岛市绥中县北环路东段10-263号",
        "tel": "",
        "category": "基础设施:公共设施:公共厕所",
        "type": 0,
        "location": {
            "lat": 40.341108,
            "lng": 120.350035
        },
        "ad_info": {
            "adcode": 211421,
            "province": "辽宁省",
            "city": "葫芦岛市",
            "district": "绥中县"
        }
    },
    {
        "id": "17507898528050416299",
        "title": "公共厕所",
        "address": "辽宁省葫芦岛市龙港区海星路与龙前街交叉口正东方向42米左右",
        "tel": "",
        "category": "基础设施:公共设施:公共厕所",
        "type": 0,
        "location": {
            "lat": 40.711117,
            "lng": 120.830992
        },
        "ad_info": {
            "adcode": 211403,
            "province": "辽宁省",
            "city": "葫芦岛市",
            "district": "龙港区"
        }
    },
    {
        "id": "11366562984415957805",
        "title": "公共厕所",
        "address": "辽宁省葫芦岛市兴城市滨海大道",
        "tel": "",
        "category": "基础设施:公共设施:公共厕所",
        "type": 0,
        "location": {
            "lat": 40.566955,
            "lng": 120.744314
        },
        "ad_info": {
            "adcode": 211481,
            "province": "辽宁省",
            "city": "葫芦岛市",
            "district": "兴城市"
        }
    },
    {
        "id": "11866742545510708780",
        "title": "公共厕所",
        "address": "辽宁省葫芦岛市南票区龙城路与龙飞路交叉口正北方向107米左右",
        "tel": "",
        "category": "基础设施:公共设施:公共厕所",
        "type": 0,
        "location": {
            "lat": 41.095281,
            "lng": 120.759578
        },
        "ad_info": {
            "adcode": 211404,
            "province": "辽宁省",
            "city": "葫芦岛市",
            "district": "南票区"
        }
    },
    {
        "id": "4469239965244755982",
        "title": "公共厕所",
        "address": "辽宁省葫芦岛市建昌县建新街与西河路交叉口西北方向311米左右",
        "tel": "",
        "category": "基础设施:公共设施:公共厕所",
        "type": 0,
        "location": {
            "lat": 40.817055,
            "lng": 119.792677
        },
        "ad_info": {
            "adcode": 211422,
            "province": "辽宁省",
            "city": "葫芦岛市",
            "district": "建昌县"
        }
    },
    {
        "id": "12989258717307101638",
        "title": "公共厕所",
        "address": "辽宁省葫芦岛市绥中县商业路与站前街交叉口正南方向21米左右",
        "tel": "",
        "category": "基础设施:公共设施:公共厕所",
        "type": 0,
        "location": {
            "lat": 40.323123,
            "lng": 120.354558
        },
        "ad_info": {
            "adcode": 211421,
            "province": "辽宁省",
            "city": "葫芦岛市",
            "district": "绥中县"
        }
    },
    {
        "id": "11958438843420665943",
        "title": "塔山服务区公共厕所",
        "address": "辽宁省葫芦岛市连山区G102与京哈高速交叉口西南方向810米左右",
        "tel": "",
        "category": "基础设施:公共设施:公共厕所",
        "type": 0,
        "location": {
            "lat": 40.862146,
            "lng": 120.924353
        },
        "ad_info": {
            "adcode": 211402,
            "province": "辽宁省",
            "city": "葫芦岛市",
            "district": "连山区"
        }
    },
    {
        "id": "6359547222945668105",
        "title": "公共厕所",
        "address": "辽宁省葫芦岛市兴城市兴城市风景区管理局(新东路东)",
        "tel": "",
        "category": "基础设施:公共设施:公共厕所",
        "type": 0,
        "location": {
            "lat": 40.612696,
            "lng": 120.800024
        },
        "ad_info": {
            "adcode": 211481,
            "province": "辽宁省",
            "city": "葫芦岛市",
            "district": "兴城市"
        }
    },
    {
        "id": "4852464772496229739",
        "title": "公共厕所",
        "address": "辽宁省葫芦岛市绥中县中央路与工人街交叉口正西方向20米左右",
        "tel": "",
        "category": "基础设施:公共设施:公共厕所",
        "type": 0,
        "location": {
            "lat": 40.322784,
            "lng": 120.347825
        },
        "ad_info": {
            "adcode": 211421,
            "province": "辽宁省",
            "city": "葫芦岛市",
            "district": "绥中县"
        }
    },
    {
        "id": "880966729866079930",
        "title": "公共厕所",
        "address": "辽宁省葫芦岛市绥中县东戴河大街与址九线交叉口正南方向498米左右",
        "tel": "",
        "category": "基础设施:公共设施:公共厕所",
        "type": 0,
        "location": {
            "lat": 40.011196,
            "lng": 119.912149
        },
        "ad_info": {
            "adcode": 211421,
            "province": "辽宁省",
            "city": "葫芦岛市",
            "district": "绥中县"
        }
    },
    {
        "id": "12180601189889806944",
        "title": "公共卫生间",
        "address": "辽宁省葫芦岛市龙港区海月路与龙程街交叉口正南方向140米左右",
        "tel": "",
        "category": "基础设施:公共设施:公共厕所",
        "type": 0,
        "location": {
            "lat": 40.708041,
            "lng": 120.845248
        },
        "ad_info": {
            "adcode": 211403,
            "province": "辽宁省",
            "city": "葫芦岛市",
            "district": "龙港区"
        }
    },
    {
        "id": "10905326644145298064",
        "title": "公共厕所",
        "address": "辽宁省葫芦岛市绥中县展拓街与滨海大道交叉口正东方向157米左右",
        "tel": "",
        "category": "基础设施:公共设施:公共厕所",
        "type": 0,
        "location": {
            "lat": 39.994041,
            "lng": 119.87094
        },
        "ad_info": {
            "adcode": 211421,
            "province": "辽宁省",
            "city": "葫芦岛市",
            "district": "绥中县"
        }
    },
    {
        "id": "15767644458247390082",
        "title": "公共厕所",
        "address": "辽宁省葫芦岛市绥中县北环路中段与韩家街交叉口正东方向31米左右",
        "tel": "",
        "category": "基础设施:公共设施:公共厕所",
        "type": 0,
        "location": {
            "lat": 40.338758,
            "lng": 120.325098
        },
        "ad_info": {
            "adcode": 211421,
            "province": "辽宁省",
            "city": "葫芦岛市",
            "district": "绥中县"
        }
    },
    {
        "id": "17679899881257630717",
        "title": "公共厕所",
        "address": "辽宁省葫芦岛市绥中县和平街与新兴街交叉口正北方向177米左右",
        "tel": "",
        "category": "基础设施:公共设施:公共厕所",
        "type": 0,
        "location": {
            "lat": 40.326335,
            "lng": 120.330224
        },
        "ad_info": {
            "adcode": 211421,
            "province": "辽宁省",
            "city": "葫芦岛市",
            "district": "绥中县"
        }
    },
    {
        "id": "11559055201772572578",
        "title": "公共卫生间",
        "address": "辽宁省葫芦岛市龙港区海月路与龙程街交叉口正南方向112米左右",
        "tel": "",
        "category": "基础设施:公共设施:公共厕所",
        "type": 0,
        "location": {
            "lat": 40.708258,
            "lng": 120.84495
        },
        "ad_info": {
            "adcode": 211403,
            "province": "辽宁省",
            "city": "葫芦岛市",
            "district": "龙港区"
        }
    },
    {
        "id": "18211792011041689403",
        "title": "公共厕所",
        "address": "辽宁省葫芦岛市建昌县建绥路与蟒郝线交叉口东南方向50米左右",
        "tel": "",
        "category": "基础设施:公共设施:公共厕所",
        "type": 0,
        "location": {
            "lat": 40.797878,
            "lng": 119.828396
        },
        "ad_info": {
            "adcode": 211422,
            "province": "辽宁省",
            "city": "葫芦岛市",
            "district": "建昌县"
        }
    },
    {
        "id": "8979781589028036903",
        "title": "公共厕所",
        "address": "辽宁省葫芦岛市建昌县朝阳路与西安胡同交叉口正北方向145米左右",
        "tel": "",
        "category": "基础设施:公共设施:公共厕所",
        "type": 0,
        "location": {
            "lat": 40.812103,
            "lng": 119.786835
        },
        "ad_info": {
            "adcode": 211422,
            "province": "辽宁省",
            "city": "葫芦岛市",
            "district": "建昌县"
        }
    },
    {
        "id": "15275332564413614727",
        "title": "公共厕所",
        "address": "辽宁省葫芦岛市绥中县信誉建材商店东南侧280米",
        "tel": "",
        "category": "基础设施:公共设施:公共厕所",
        "type": 0,
        "location": {
            "lat": 40.256897,
            "lng": 120.387154
        },
        "ad_info": {
            "adcode": 211421,
            "province": "辽宁省",
            "city": "葫芦岛市",
            "district": "绥中县"
        }
    },
    {
        "id": "15199648482213940008",
        "title": "公共厕所",
        "address": "辽宁省葫芦岛市建昌县朝阳路轻工商场",
        "tel": "",
        "category": "基础设施:公共设施:公共厕所",
        "type": 0,
        "location": {
            "lat": 40.814631,
            "lng": 119.805652
        },
        "ad_info": {
            "adcode": 211422,
            "province": "辽宁省",
            "city": "葫芦岛市",
            "district": "建昌县"
        }
    },
    {
        "id": "3010932861317132182",
        "title": "公共厕所",
        "address": "辽宁省葫芦岛市兴城市菊花岛北村",
        "tel": "",
        "category": "基础设施:公共设施:公共厕所",
        "type": 0,
        "location": {
            "lat": 40.520047,
            "lng": 120.817993
        },
        "ad_info": {
            "adcode": 211481,
            "province": "辽宁省",
            "city": "葫芦岛市",
            "district": "兴城市"
        }
    },
    {
        "id": "9625546071067716773",
        "title": "公共厕所",
        "address": "辽宁省葫芦岛市龙港区锦葫北路与锦葫路交叉口正西方向325米左右",
        "tel": "",
        "category": "基础设施:公共设施:公共厕所",
        "type": 0,
        "location": {
            "lat": 40.723455,
            "lng": 120.905872
        },
        "ad_info": {
            "adcode": 211403,
            "province": "辽宁省",
            "city": "葫芦岛市",
            "district": "龙港区"
        }
    },
    {
        "id": "16334089948357394211",
        "title": "公共厕所",
        "address": "辽宁省葫芦岛市建昌县朝阳路与西庆胡同交叉口西北方向268米左右",
        "tel": "",
        "category": "基础设施:公共设施:公共厕所",
        "type": 0,
        "location": {
            "lat": 40.813964,
            "lng": 119.791267
        },
        "ad_info": {
            "adcode": 211422,
            "province": "辽宁省",
            "city": "葫芦岛市",
            "district": "建昌县"
        }
    },
    {
        "id": "7246227961055802992",
        "title": "公共厕所",
        "address": "辽宁省葫芦岛市绥中县京哈线与北环路西段交叉口东北方向281米左右",
        "tel": "",
        "category": "基础设施:公共设施:公共厕所",
        "type": 0,
        "location": {
            "lat": 40.307871,
            "lng": 120.292182
        },
        "ad_info": {
            "adcode": 211421,
            "province": "辽宁省",
            "city": "葫芦岛市",
            "district": "绥中县"
        }
    },
    {
        "id": "6043834755380411905",
        "title": "公共厕所",
        "address": "辽宁省葫芦岛市兴城市兴城市头道牌坊西胡同与永宁门南顺墙胡同交叉口西北方向40米左右",
        "tel": "",
        "category": "基础设施:公共设施:公共厕所",
        "type": 0,
        "location": {
            "lat": 40.619198,
            "lng": 120.709003
        },
        "ad_info": {
            "adcode": 211481,
            "province": "辽宁省",
            "city": "葫芦岛市",
            "district": "兴城市"
        }
    },
    {
        "id": "15281180284972973399",
        "title": "公共厕所",
        "address": "辽宁省葫芦岛市建昌县红旗街与西河路交叉口正西方向98米左右",
        "tel": "",
        "category": "基础设施:公共设施:公共厕所",
        "type": 0,
        "location": {
            "lat": 40.816913,
            "lng": 119.799275
        },
        "ad_info": {
            "adcode": 211422,
            "province": "辽宁省",
            "city": "葫芦岛市",
            "district": "建昌县"
        }
    },
    {
        "id": "3321848353182992848",
        "title": "公共厕所",
        "address": "辽宁省葫芦岛市建昌县凌河西街与朝阳路交叉口东南方向122米左右",
        "tel": "",
        "category": "基础设施:公共设施:公共厕所",
        "type": 0,
        "location": {
            "lat": 40.813697,
            "lng": 119.810336
        },
        "ad_info": {
            "adcode": 211422,
            "province": "辽宁省",
            "city": "葫芦岛市",
            "district": "建昌县"
        }
    },
    {
        "id": "2440667345921511932",
        "title": "公共厕所",
        "address": "辽宁省葫芦岛市建昌县G306与莲花路交叉口正东方向1435米左右",
        "tel": "",
        "category": "基础设施:公共设施:公共厕所",
        "type": 0,
        "location": {
            "lat": 40.731388,
            "lng": 119.890827
        },
        "ad_info": {
            "adcode": 211422,
            "province": "辽宁省",
            "city": "葫芦岛市",
            "district": "建昌县"
        }
    },
    {
        "id": "11905130147415580600",
        "title": "公共厕所",
        "address": "辽宁省葫芦岛市南票区南海街与龙城路交叉口东南方向196米左右",
        "tel": "",
        "category": "基础设施:公共设施:公共厕所",
        "type": 0,
        "location": {
            "lat": 41.098228,
            "lng": 120.75404
        },
        "ad_info": {
            "adcode": 211404,
            "province": "辽宁省",
            "city": "葫芦岛市",
            "district": "南票区"
        }
    },
    {
        "id": "3143872863249464633",
        "title": "公共厕所",
        "address": "辽宁省葫芦岛市绥中县建兴路与新兴街交叉口正北方向28米左右",
        "tel": "",
        "category": "基础设施:公共设施:公共厕所",
        "type": 0,
        "location": {
            "lat": 40.325854,
            "lng": 120.333495
        },
        "ad_info": {
            "adcode": 211421,
            "province": "辽宁省",
            "city": "葫芦岛市",
            "district": "绥中县"
        }
    },
    {
        "id": "9714252876199231723",
        "title": "公共厕所",
        "address": "辽宁省葫芦岛市建昌县建平胡同与建设路交叉口正西方向88米左右",
        "tel": "",
        "category": "基础设施:公共设施:公共厕所",
        "type": 0,
        "location": {
            "lat": 40.809239,
            "lng": 119.805298
        },
        "ad_info": {
            "adcode": 211422,
            "province": "辽宁省",
            "city": "葫芦岛市",
            "district": "建昌县"
        }
    },
    {
        "id": "3578695451305465031",
        "title": "公共厕所",
        "address": "辽宁省葫芦岛市龙港区海辰路与龙程街交叉口东南方向251米左右",
        "tel": "",
        "category": "基础设施:公共设施:公共厕所",
        "type": 0,
        "location": {
            "lat": 40.699103,
            "lng": 120.838485
        },
        "ad_info": {
            "adcode": 211403,
            "province": "辽宁省",
            "city": "葫芦岛市",
            "district": "龙港区"
        }
    },
    {
        "id": "13472003480887363095",
        "title": "公共厕所",
        "address": "辽宁省葫芦岛市龙港区海滨路与龙绣街交叉口正东方向46米左右",
        "tel": "",
        "category": "基础设施:公共设施:公共厕所",
        "type": 0,
        "location": {
            "lat": 40.725178,
            "lng": 120.845899
        },
        "ad_info": {
            "adcode": 211403,
            "province": "辽宁省",
            "city": "葫芦岛市",
            "district": "龙港区"
        }
    },
    {
        "id": "17134792442103083749",
        "title": "公共厕所",
        "address": "辽宁省葫芦岛市绥中县文化路与香坊街交叉口西南方向209米左右",
        "tel": "",
        "category": "基础设施:公共设施:公共厕所",
        "type": 0,
        "location": {
            "lat": 40.328347,
            "lng": 120.318451
        },
        "ad_info": {
            "adcode": 211421,
            "province": "辽宁省",
            "city": "葫芦岛市",
            "district": "绥中县"
        }
    },
    {
        "id": "10564360859693233312",
        "title": "公共厕所",
        "address": "辽宁省葫芦岛市建昌县成才街与沿河南路交叉口西南方向469米左右",
        "tel": "",
        "category": "基础设施:公共设施:公共厕所",
        "type": 0,
        "location": {
            "lat": 40.822451,
            "lng": 119.819722
        },
        "ad_info": {
            "adcode": 211422,
            "province": "辽宁省",
            "city": "葫芦岛市",
            "district": "建昌县"
        }
    },
    {
        "id": "1844358934549076681",
        "title": "公共厕所",
        "address": "辽宁省葫芦岛市龙港区西二街与高新四路交叉口东北方向366米左右",
        "tel": "",
        "category": "基础设施:公共设施:公共厕所",
        "type": 0,
        "location": {
            "lat": 40.724773,
            "lng": 120.807453
        },
        "ad_info": {
            "adcode": 211403,
            "province": "辽宁省",
            "city": "葫芦岛市",
            "district": "龙港区"
        }
    },
    {
        "id": "397424106682190925",
        "title": "公共厕所",
        "address": "辽宁省葫芦岛市龙港区文艺路与龙湾大街辅路交叉口北40米",
        "tel": "",
        "category": "基础设施:公共设施:公共厕所",
        "type": 0,
        "location": {
            "lat": 40.728483,
            "lng": 120.860781
        },
        "ad_info": {
            "adcode": 211403,
            "province": "辽宁省",
            "city": "葫芦岛市",
            "district": "龙港区"
        }
    },
    {
        "id": "16804332739971314457",
        "title": "公共厕所",
        "address": "辽宁省葫芦岛市兴城市延辉门东顺墙胡同与潘家胡同交叉口东南方向64米左右",
        "tel": "",
        "category": "基础设施:公共设施:公共厕所",
        "type": 0,
        "location": {
            "lat": 40.619111,
            "lng": 120.716131
        },
        "ad_info": {
            "adcode": 211481,
            "province": "辽宁省",
            "city": "葫芦岛市",
            "district": "兴城市"
        }
    },
    {
        "id": "2656425385198373029",
        "title": "公共厕所",
        "address": "辽宁省葫芦岛市建昌县建兴胡同与红旗街交叉口正西方向331米左右",
        "tel": "",
        "category": "基础设施:公共设施:公共厕所",
        "type": 0,
        "location": {
            "lat": 40.80725,
            "lng": 119.798092
        },
        "ad_info": {
            "adcode": 211422,
            "province": "辽宁省",
            "city": "葫芦岛市",
            "district": "建昌县"
        }
    },
    {
        "id": "2016039028039071891",
        "title": "公共厕所",
        "address": "辽宁省葫芦岛市龙港区西山街与锦葫路交叉口正南方向69米左右",
        "tel": "",
        "category": "基础设施:公共设施:公共厕所",
        "type": 0,
        "location": {
            "lat": 40.720835,
            "lng": 120.918882
        },
        "ad_info": {
            "adcode": 211403,
            "province": "辽宁省",
            "city": "葫芦岛市",
            "district": "龙港区"
        }
    },
    {
        "id": "12735868525871703650",
        "title": "公共厕所",
        "address": "辽宁省葫芦岛市建昌县G230与朝阳路交叉口正西方向23米左右",
        "tel": "",
        "category": "基础设施:公共设施:公共厕所",
        "type": 0,
        "location": {
            "lat": 40.837352,
            "lng": 119.864329
        },
        "ad_info": {
            "adcode": 211422,
            "province": "辽宁省",
            "city": "葫芦岛市",
            "district": "建昌县"
        }
    },
    {
        "id": "4584870208440931997",
        "title": "公共厕所",
        "address": "辽宁省葫芦岛市龙港区文化路与龙绣街交叉口正西方向271米左右",
        "tel": "",
        "category": "基础设施:公共设施:公共厕所",
        "type": 0,
        "location": {
            "lat": 40.734283,
            "lng": 120.857458
        },
        "ad_info": {
            "adcode": 211403,
            "province": "辽宁省",
            "city": "葫芦岛市",
            "district": "龙港区"
        }
    },
    {
        "id": "651600514215242987",
        "title": "公共厕所",
        "address": "辽宁省葫芦岛市建昌县G230与龙安路交叉口东北方向534米左右",
        "tel": "",
        "category": "基础设施:公共设施:公共厕所",
        "type": 0,
        "location": {
            "lat": 40.646742,
            "lng": 119.677744
        },
        "ad_info": {
            "adcode": 211422,
            "province": "辽宁省",
            "city": "葫芦岛市",
            "district": "建昌县"
        }
    },
    {
        "id": "15271747639199094526",
        "title": "公共厕所",
        "address": "辽宁省葫芦岛市兴城市延辉门里西顺城胡同与西水门沟胡同交叉口正南方向124米左右",
        "tel": "",
        "category": "基础设施:公共设施:公共厕所",
        "type": 0,
        "location": {
            "lat": 40.617561,
            "lng": 120.711675
        },
        "ad_info": {
            "adcode": 211481,
            "province": "辽宁省",
            "city": "葫芦岛市",
            "district": "兴城市"
        }
    },
    {
        "id": "12128960099592149015",
        "title": "女洗手间(宏运·新天地购物广场)",
        "address": "辽宁省葫芦岛市连山区新华大街3号宏运·新天地购物广场F2层",
        "tel": "",
        "category": "基础设施:公共设施:公共厕所",
        "type": 0,
        "location": {
            "lat": 40.755357,
            "lng": 120.855819
        },
        "ad_info": {
            "adcode": 211402,
            "province": "辽宁省",
            "city": "葫芦岛市",
            "district": "连山区"
        }
    },
    {
        "id": "13171787807785864783",
        "title": "公共厕所",
        "address": "辽宁省葫芦岛市绥中县新华街与老马路交叉口西北方向126米左右",
        "tel": "",
        "category": "基础设施:公共设施:公共厕所",
        "type": 0,
        "location": {
            "lat": 40.325127,
            "lng": 120.347477
        },
        "ad_info": {
            "adcode": 211421,
            "province": "辽宁省",
            "city": "葫芦岛市",
            "district": "绥中县"
        }
    },
    {
        "id": "664473357604728784",
        "title": "公共厕所",
        "address": "辽宁省葫芦岛市兴城市强盛冷库西侧",
        "tel": "",
        "category": "基础设施:公共设施:公共厕所",
        "type": 0,
        "location": {
            "lat": 40.608886,
            "lng": 120.716468
        },
        "ad_info": {
            "adcode": 211481,
            "province": "辽宁省",
            "city": "葫芦岛市",
            "district": "兴城市"
        }
    },
    {
        "id": "3121824652100687341",
        "title": "公共卫生间",
        "address": "辽宁省葫芦岛市绥中县兴隆路与新兴街交叉口东北方向96米左右",
        "tel": "",
        "category": "基础设施:公共设施:公共厕所",
        "type": 0,
        "location": {
            "lat": 40.329845,
            "lng": 120.34758
        },
        "ad_info": {
            "adcode": 211421,
            "province": "辽宁省",
            "city": "葫芦岛市",
            "district": "绥中县"
        }
    },
    {
        "id": "8041311495216079818",
        "title": "公共厕所",
        "address": "辽宁省葫芦岛市龙港区锦葫北路与锦葫路交叉口东南方向223米左右",
        "tel": "",
        "category": "基础设施:公共设施:公共厕所",
        "type": 0,
        "location": {
            "lat": 40.72308,
            "lng": 120.911989
        },
        "ad_info": {
            "adcode": 211403,
            "province": "辽宁省",
            "city": "葫芦岛市",
            "district": "龙港区"
        }
    },
    {
        "id": "2688335339010717723",
        "title": "公共厕所",
        "address": "辽宁省葫芦岛市龙港区龙程街一号小区",
        "tel": "",
        "category": "基础设施:公共设施:公共厕所",
        "type": 0,
        "location": {
            "lat": 40.707575,
            "lng": 120.842763
        },
        "ad_info": {
            "adcode": 211403,
            "province": "辽宁省",
            "city": "葫芦岛市",
            "district": "龙港区"
        }
    },
    {
        "id": "15839583079371360016",
        "title": "公共厕所",
        "address": "辽宁省葫芦岛市兴城市五里小路与旭东路交叉口正西方向990米左右",
        "tel": "",
        "category": "基础设施:公共设施:公共厕所",
        "type": 0,
        "location": {
            "lat": 40.503504,
            "lng": 120.611579
        },
        "ad_info": {
            "adcode": 211481,
            "province": "辽宁省",
            "city": "葫芦岛市",
            "district": "兴城市"
        }
    },
    {
        "id": "8814206730668542525",
        "title": "公共厕所",
        "address": "辽宁省葫芦岛市绥中县新兴街与金屯路交叉口东南方向264米左右",
        "tel": "",
        "category": "基础设施:公共设施:公共厕所",
        "type": 0,
        "location": {
            "lat": 40.332477,
            "lng": 120.354976
        },
        "ad_info": {
            "adcode": 211421,
            "province": "辽宁省",
            "city": "葫芦岛市",
            "district": "绥中县"
        }
    },
    {
        "id": "2891554251184843046",
        "title": "公共厕所",
        "address": "辽宁省葫芦岛市绥中县滨河大道与滨海大道交叉口正西方向69米左右",
        "tel": "",
        "category": "基础设施:公共设施:公共厕所",
        "type": 0,
        "location": {
            "lat": 40.272059,
            "lng": 120.466795
        },
        "ad_info": {
            "adcode": 211421,
            "province": "辽宁省",
            "city": "葫芦岛市",
            "district": "绥中县"
        }
    },
    {
        "id": "6801923710747978381",
        "title": "公共厕所",
        "address": "辽宁省葫芦岛市龙港区海星路与海滨南路交叉口正北方向138米左右",
        "tel": "",
        "category": "基础设施:公共设施:公共厕所",
        "type": 0,
        "location": {
            "lat": 40.70165,
            "lng": 120.851939
        },
        "ad_info": {
            "adcode": 211403,
            "province": "辽宁省",
            "city": "葫芦岛市",
            "district": "龙港区"
        }
    },
    {
        "id": "6886711940056745257",
        "title": "公共厕所",
        "address": "辽宁省葫芦岛市绥中县东戴河大街与京哈线交叉口正北方向554米左右",
        "tel": "",
        "category": "基础设施:公共设施:公共厕所",
        "type": 0,
        "location": {
            "lat": 40.062932,
            "lng": 119.86693
        },
        "ad_info": {
            "adcode": 211421,
            "province": "辽宁省",
            "city": "葫芦岛市",
            "district": "绥中县"
        }
    },
    {
        "id": "9617218192338823316",
        "title": "公共厕所",
        "address": "辽宁省葫芦岛市兴城市兴海南街与延辉路交叉口正南方向740米左右",
        "tel": "",
        "category": "基础设施:公共设施:公共厕所",
        "type": 0,
        "location": {
            "lat": 40.609662,
            "lng": 120.714345
        },
        "ad_info": {
            "adcode": 211481,
            "province": "辽宁省",
            "city": "葫芦岛市",
            "district": "兴城市"
        }
    },
    {
        "id": "1126434654123274424",
        "title": "公共厕所",
        "address": "辽宁省葫芦岛市兴城市S318与老边小学路交叉口西北方向34米左右",
        "tel": "",
        "category": "基础设施:公共设施:公共厕所",
        "type": 0,
        "location": {
            "lat": 40.65314,
            "lng": 120.647003
        },
        "ad_info": {
            "adcode": 211481,
            "province": "辽宁省",
            "city": "葫芦岛市",
            "district": "兴城市"
        }
    },
    {
        "id": "9033215343413731312",
        "title": "女洗手间(宏运·新天地购物广场)",
        "address": "辽宁省葫芦岛市连山区新华大街3号宏运·新天地购物广场F5层",
        "tel": "",
        "category": "基础设施:公共设施:公共厕所",
        "type": 0,
        "location": {
            "lat": 40.755263,
            "lng": 120.855955
        },
        "ad_info": {
            "adcode": 211402,
            "province": "辽宁省",
            "city": "葫芦岛市",
            "district": "连山区"
        }
    },
    {
        "id": "1898907647191249920",
        "title": "公共厕所",
        "address": "辽宁省葫芦岛市绥中县金丝路与金屯路交叉口正南方向433米左右",
        "tel": "",
        "category": "基础设施:公共设施:公共厕所",
        "type": 0,
        "location": {
            "lat": 40.327414,
            "lng": 120.357018
        },
        "ad_info": {
            "adcode": 211421,
            "province": "辽宁省",
            "city": "葫芦岛市",
            "district": "绥中县"
        }
    },
    {
        "id": "8791630584721683280",
        "title": "公共厕所",
        "address": "辽宁省葫芦岛市龙港区海飞路与龙程街交叉口东北方向120米左右",
        "tel": "",
        "category": "基础设施:公共设施:公共厕所",
        "type": 0,
        "location": {
            "lat": 40.719516,
            "lng": 120.858498
        },
        "ad_info": {
            "adcode": 211403,
            "province": "辽宁省",
            "city": "葫芦岛市",
            "district": "龙港区"
        }
    },
    {
        "id": "2619436382281828125",
        "title": "公共厕所",
        "address": "辽宁省葫芦岛市绥中县三八路与东大街交叉口正北方向121米左右",
        "tel": "",
        "category": "基础设施:公共设施:公共厕所",
        "type": 0,
        "location": {
            "lat": 40.33351,
            "lng": 120.344405
        },
        "ad_info": {
            "adcode": 211421,
            "province": "辽宁省",
            "city": "葫芦岛市",
            "district": "绥中县"
        }
    },
    {
        "id": "5110572156951670761",
        "title": "公共厕所",
        "address": "辽宁省葫芦岛市绥中县S213与塔山路交叉口正北方向613米左右",
        "tel": "",
        "category": "基础设施:公共设施:公共厕所",
        "type": 0,
        "location": {
            "lat": 40.314899,
            "lng": 120.342611
        },
        "ad_info": {
            "adcode": 211421,
            "province": "辽宁省",
            "city": "葫芦岛市",
            "district": "绥中县"
        }
    },
    {
        "id": "11728092000172783245",
        "title": "公共厕所",
        "address": "辽宁省葫芦岛市连山区京哈高速与葫芦岛西立交桥交叉口西南方向660米左右",
        "tel": "",
        "category": "基础设施:公共设施:公共厕所",
        "type": 0,
        "location": {
            "lat": 40.742038,
            "lng": 120.763524
        },
        "ad_info": {
            "adcode": 211402,
            "province": "辽宁省",
            "city": "葫芦岛市",
            "district": "连山区"
        }
    },
    {
        "id": "7875808767723426080",
        "title": "公共厕所",
        "address": "辽宁省葫芦岛市绥中县平老线与绥青线交叉口西北方向59米左右",
        "tel": "",
        "category": "基础设施:公共设施:公共厕所",
        "type": 0,
        "location": {
            "lat": 40.370192,
            "lng": 119.897283
        },
        "ad_info": {
            "adcode": 211421,
            "province": "辽宁省",
            "city": "葫芦岛市",
            "district": "绥中县"
        }
    },
    {
        "id": "8239566636578940943",
        "title": "公共厕所",
        "address": "辽宁省葫芦岛市绥中县建兴路与西关街交叉口东北方向163米左右",
        "tel": "",
        "category": "基础设施:公共设施:公共厕所",
        "type": 0,
        "location": {
            "lat": 40.329518,
            "lng": 120.332679
        },
        "ad_info": {
            "adcode": 211421,
            "province": "辽宁省",
            "city": "葫芦岛市",
            "district": "绥中县"
        }
    },
    {
        "id": "6876150251326355762",
        "title": "公共厕所",
        "address": "辽宁省葫芦岛市绥中县站南街与绥二线交叉口正西方向76米左右",
        "tel": "",
        "category": "基础设施:公共设施:公共厕所",
        "type": 0,
        "location": {
            "lat": 40.318572,
            "lng": 120.349245
        },
        "ad_info": {
            "adcode": 211421,
            "province": "辽宁省",
            "city": "葫芦岛市",
            "district": "绥中县"
        }
    },
    {
        "id": "11953594390183664493",
        "title": "公共厕所",
        "address": "辽宁省葫芦岛市绥中县址九线与蛇李线交叉口西南方向507米左右",
        "tel": "",
        "category": "基础设施:公共设施:公共厕所",
        "type": 0,
        "location": {
            "lat": 40.111609,
            "lng": 119.822956
        },
        "ad_info": {
            "adcode": 211421,
            "province": "辽宁省",
            "city": "葫芦岛市",
            "district": "绥中县"
        }
    },
    {
        "id": "13222994910533234012",
        "title": "公共厕所",
        "address": "辽宁省葫芦岛市绥中县西关街5号",
        "tel": "",
        "category": "基础设施:公共设施:公共厕所",
        "type": 0,
        "location": {
            "lat": 40.33239,
            "lng": 120.335073
        },
        "ad_info": {
            "adcode": 211421,
            "province": "辽宁省",
            "city": "葫芦岛市",
            "district": "绥中县"
        }
    },
    {
        "id": "1806324505054884243",
        "title": "公共厕所",
        "address": "辽宁省葫芦岛市龙港区泰山街与疏港公路交叉口西北方向180米左右",
        "tel": "",
        "category": "基础设施:公共设施:公共厕所",
        "type": 0,
        "location": {
            "lat": 40.749581,
            "lng": 120.933924
        },
        "ad_info": {
            "adcode": 211403,
            "province": "辽宁省",
            "city": "葫芦岛市",
            "district": "龙港区"
        }
    },
    {
        "id": "17547114394830029755",
        "title": "公共厕所",
        "address": "辽宁省葫芦岛市绥中县文化路与香坊街交叉口正南方向90米左右",
        "tel": "",
        "category": "基础设施:公共设施:公共厕所",
        "type": 0,
        "location": {
            "lat": 40.328491,
            "lng": 120.320894
        },
        "ad_info": {
            "adcode": 211421,
            "province": "辽宁省",
            "city": "葫芦岛市",
            "district": "绥中县"
        }
    },
    {
        "id": "1448089963158325338",
        "title": "公共厕所",
        "address": "辽宁省葫芦岛市绥中县北环路东段与新兴街交叉口东南方向34米左右",
        "tel": "",
        "category": "基础设施:公共设施:公共厕所",
        "type": 0,
        "location": {
            "lat": 40.337148,
            "lng": 120.356837
        },
        "ad_info": {
            "adcode": 211421,
            "province": "辽宁省",
            "city": "葫芦岛市",
            "district": "绥中县"
        }
    },
    {
        "id": "16932224803574636314",
        "title": "公共厕所",
        "address": "辽宁省葫芦岛市龙港区海星路与龙湾大街交叉口东北方向327米左右",
        "tel": "",
        "category": "基础设施:公共设施:公共厕所",
        "type": 0,
        "location": {
            "lat": 40.709166,
            "lng": 120.839674
        },
        "ad_info": {
            "adcode": 211403,
            "province": "辽宁省",
            "city": "葫芦岛市",
            "district": "龙港区"
        }
    },
    {
        "id": "11754217459350047491",
        "title": "公共厕所",
        "address": "辽宁省葫芦岛市绥中县商业路9-42号",
        "tel": "",
        "category": "基础设施:公共设施:公共厕所",
        "type": 0,
        "location": {
            "lat": 40.327436,
            "lng": 120.353727
        },
        "ad_info": {
            "adcode": 211421,
            "province": "辽宁省",
            "city": "葫芦岛市",
            "district": "绥中县"
        }
    },
    {
        "id": "7946828797567980004",
        "title": "兴城古城-公共厕所",
        "address": "辽宁省葫芦岛市兴城市延辉门东顺墙胡同与潘家胡同交叉口西南方向46米左右",
        "tel": "",
        "category": "基础设施:公共设施:公共厕所",
        "type": 0,
        "location": {
            "lat": 40.619091,
            "lng": 120.71502
        },
        "ad_info": {
            "adcode": 211481,
            "province": "辽宁省",
            "city": "葫芦岛市",
            "district": "兴城市"
        }
    },
    {
        "id": "777081599073839847",
        "title": "公共厕所",
        "address": "辽宁省葫芦岛市连山区五一街与兴工路交叉口正西方向20米左右",
        "tel": "",
        "category": "基础设施:公共设施:公共厕所",
        "type": 0,
        "location": {
            "lat": 40.761014,
            "lng": 120.851645
        },
        "ad_info": {
            "adcode": 211402,
            "province": "辽宁省",
            "city": "葫芦岛市",
            "district": "连山区"
        }
    },
    {
        "id": "16194627700198312449",
        "title": "公共厕所",
        "address": "辽宁省葫芦岛市兴城市广来宾馆西北(兴城市人民医院西)",
        "tel": "",
        "category": "基础设施:公共设施:公共厕所",
        "type": 0,
        "location": {
            "lat": 40.616963,
            "lng": 120.722556
        },
        "ad_info": {
            "adcode": 211481,
            "province": "辽宁省",
            "city": "葫芦岛市",
            "district": "兴城市"
        }
    },
    {
        "id": "16586473545286048628",
        "title": "公共厕所",
        "address": "辽宁省葫芦岛市兴城市正宗蒙古烤全羊东侧50米",
        "tel": "",
        "category": "基础设施:公共设施:公共厕所",
        "type": 0,
        "location": {
            "lat": 40.607968,
            "lng": 120.707306
        },
        "ad_info": {
            "adcode": 211481,
            "province": "辽宁省",
            "city": "葫芦岛市",
            "district": "兴城市"
        }
    },
    {
        "id": "3481783133367269487",
        "title": "公共厕所",
        "address": "辽宁省葫芦岛市建昌县凌河西街与朝阳路交叉口正北方向34米左右",
        "tel": "",
        "category": "基础设施:公共设施:公共厕所",
        "type": 0,
        "location": {
            "lat": 40.814861,
            "lng": 119.80931
        },
        "ad_info": {
            "adcode": 211422,
            "province": "辽宁省",
            "city": "葫芦岛市",
            "district": "建昌县"
        }
    },
    {
        "id": "11714850693631957652",
        "title": "塔山服务区第一公共厕所",
        "address": "辽宁省葫芦岛市连山区G102与京哈高速交叉口西南方向851米左右",
        "tel": "",
        "category": "基础设施:公共设施:公共厕所",
        "type": 0,
        "location": {
            "lat": 40.860597,
            "lng": 120.925321
        },
        "ad_info": {
            "adcode": 211402,
            "province": "辽宁省",
            "city": "葫芦岛市",
            "district": "连山区"
        }
    },
    {
        "id": "12414090563597876957",
        "title": "公共厕所",
        "address": "辽宁省葫芦岛市绥中县中央路与南市路交叉口西南方向138米左右",
        "tel": "",
        "category": "基础设施:公共设施:公共厕所",
        "type": 0,
        "location": {
            "lat": 40.33051,
            "lng": 120.339365
        },
        "ad_info": {
            "adcode": 211421,
            "province": "辽宁省",
            "city": "葫芦岛市",
            "district": "绥中县"
        }
    },
    {
        "id": "8682218491986013964",
        "title": "公共厕所",
        "address": "辽宁省葫芦岛市绥中县东戴河大街与京哈线交叉口正西方向59米左右",
        "tel": "",
        "category": "基础设施:公共设施:公共厕所",
        "type": 0,
        "location": {
            "lat": 40.058468,
            "lng": 119.86861
        },
        "ad_info": {
            "adcode": 211421,
            "province": "辽宁省",
            "city": "葫芦岛市",
            "district": "绥中县"
        }
    },
    {
        "id": "4908395824900439453",
        "title": "公共厕所",
        "address": "辽宁省葫芦岛市龙港区锦葫路与龙程北街交叉口东北方向247米左右",
        "tel": "",
        "category": "基础设施:公共设施:公共厕所",
        "type": 0,
        "location": {
            "lat": 40.740102,
            "lng": 120.8867
        },
        "ad_info": {
            "adcode": 211403,
            "province": "辽宁省",
            "city": "葫芦岛市",
            "district": "龙港区"
        }
    },
    {
        "id": "685050843646024648",
        "title": "绥中服务区公共厕所",
        "address": "辽宁省葫芦岛市绥中县沙河镇京哈高速公路绥中服务区",
        "tel": "",
        "category": "基础设施:公共设施:公共厕所",
        "type": 0,
        "location": {
            "lat": 40.280324,
            "lng": 120.22521
        },
        "ad_info": {
            "adcode": 211421,
            "province": "辽宁省",
            "city": "葫芦岛市",
            "district": "绥中县"
        }
    },
    {
        "id": "13209590523705839299",
        "title": "公共厕所",
        "address": "辽宁省葫芦岛市绥中县东大街与兴隆路交叉口正东方向20米左右",
        "tel": "",
        "category": "基础设施:公共设施:公共厕所",
        "type": 0,
        "location": {
            "lat": 40.332231,
            "lng": 120.346335
        },
        "ad_info": {
            "adcode": 211421,
            "province": "辽宁省",
            "city": "葫芦岛市",
            "district": "绥中县"
        }
    },
    {
        "id": "4601094305595424227",
        "title": "公共卫生间",
        "address": "辽宁省葫芦岛市龙港区海辰路与龙绣街交叉口东北方向162米左右",
        "tel": "",
        "category": "基础设施:公共设施:公共厕所",
        "type": 0,
        "location": {
            "lat": 40.710996,
            "lng": 120.824171
        },
        "ad_info": {
            "adcode": 211403,
            "province": "辽宁省",
            "city": "葫芦岛市",
            "district": "龙港区"
        }
    },
    {
        "id": "6684028001860466121",
        "title": "万家服务区公共厕所",
        "address": "辽宁省葫芦岛市绥中县东戴河大街与京哈线交叉口正北方向1130米左右",
        "tel": "",
        "category": "基础设施:公共设施:公共厕所",
        "type": 0,
        "location": {
            "lat": 40.068444,
            "lng": 119.869587
        },
        "ad_info": {
            "adcode": 211421,
            "province": "辽宁省",
            "city": "葫芦岛市",
            "district": "绥中县"
        }
    },
    {
        "id": "4880911080908102694",
        "title": "药王庙服务区公共厕所",
        "address": "辽宁省葫芦岛市建昌县S318与石门大桥交叉口西北方向1372米左右",
        "tel": "",
        "category": "基础设施:公共设施:公共厕所",
        "type": 0,
        "location": {
            "lat": 40.810413,
            "lng": 120.177068
        },
        "ad_info": {
            "adcode": 211422,
            "province": "辽宁省",
            "city": "葫芦岛市",
            "district": "建昌县"
        }
    },
    {
        "id": "14844776272492943348",
        "title": "药王庙服务区公共厕所",
        "address": "辽宁省葫芦岛市建昌县S318与石门大桥交叉口西北方向1326米左右",
        "tel": "",
        "category": "基础设施:公共设施:公共厕所",
        "type": 0,
        "location": {
            "lat": 40.808376,
            "lng": 120.175632
        },
        "ad_info": {
            "adcode": 211422,
            "province": "辽宁省",
            "city": "葫芦岛市",
            "district": "建昌县"
        }
    },
    {
        "id": "9416139094185588784",
        "title": "兴城服务区公共厕所",
        "address": "辽宁省葫芦岛市兴城市中国石油辽宁交投兴城服务区加油站西南侧180米",
        "tel": "",
        "category": "基础设施:公共设施:公共厕所",
        "type": 0,
        "location": {
            "lat": 40.598521,
            "lng": 120.639706
        },
        "ad_info": {
            "adcode": 211481,
            "province": "辽宁省",
            "city": "葫芦岛市",
            "district": "兴城市"
        }
    },
    {
        "id": "14041670693316592766",
        "title": "绥中服务区公共厕所",
        "address": "辽宁省葫芦岛市绥中县乱沙线与沙范线交叉口西南方向1561米左右",
        "tel": "",
        "category": "基础设施:公共设施:公共厕所",
        "type": 0,
        "location": {
            "lat": 40.278981,
            "lng": 120.228083
        },
        "ad_info": {
            "adcode": 211421,
            "province": "辽宁省",
            "city": "葫芦岛市",
            "district": "绥中县"
        }
    },
    {
        "id": "679879463653213831",
        "title": "女洗手间(银象·宁远城)",
        "address": "辽宁省葫芦岛市兴城市兴海南路86号银象·宁远城F4",
        "tel": "",
        "category": "基础设施:公共设施:女洗手间",
        "type": 0,
        "location": {
            "lat": 40.614697,
            "lng": 120.728472
        },
        "ad_info": {
            "adcode": 211481,
            "province": "辽宁省",
            "city": "葫芦岛市",
            "district": "兴城市"
        }
    },
    {
        "id": "9593393486729542602",
        "title": "男洗手间(银象·宁远城)",
        "address": "辽宁省葫芦岛市兴城市兴海南路86号银象·宁远城F2",
        "tel": "",
        "category": "基础设施:公共设施:男洗手间",
        "type": 0,
        "location": {
            "lat": 40.613697,
            "lng": 120.729238
        },
        "ad_info": {
            "adcode": 211481,
            "province": "辽宁省",
            "city": "葫芦岛市",
            "district": "兴城市"
        }
    },
    {
        "id": "12314043400186162537",
        "title": "女洗手间(银象·宁远城)",
        "address": "辽宁省葫芦岛市兴城市兴海南路86号银象·宁远城F2",
        "tel": "",
        "category": "基础设施:公共设施:女洗手间",
        "type": 0,
        "location": {
            "lat": 40.613981,
            "lng": 120.727904
        },
        "ad_info": {
            "adcode": 211481,
            "province": "辽宁省",
            "city": "葫芦岛市",
            "district": "兴城市"
        }
    },
    {
        "id": "18132178008545563000",
        "title": "男洗手间",
        "address": "辽宁省葫芦岛市兴城市兴海南路86号银象·宁远城F4",
        "tel": "",
        "category": "基础设施:公共设施:男洗手间",
        "type": 0,
        "location": {
            "lat": 40.614685,
            "lng": 120.72852
        },
        "ad_info": {
            "adcode": 211481,
            "province": "辽宁省",
            "city": "葫芦岛市",
            "district": "兴城市"
        }
    },
    {
        "id": "18281519001413985773",
        "title": "男洗手间(银象·宁远城)",
        "address": "辽宁省葫芦岛市兴城市兴海南路86号银象·宁远城F4",
        "tel": "",
        "category": "基础设施:公共设施:男洗手间",
        "type": 0,
        "location": {
            "lat": 40.6137,
            "lng": 120.729235
        },
        "ad_info": {
            "adcode": 211481,
            "province": "辽宁省",
            "city": "葫芦岛市",
            "district": "兴城市"
        }
    },
    {
        "id": "7913194633054980246",
        "title": "女洗手间",
        "address": "辽宁省葫芦岛市兴城市兴海南路86号银象·宁远城F3",
        "tel": "",
        "category": "基础设施:公共设施:女洗手间",
        "type": 0,
        "location": {
            "lat": 40.613984,
            "lng": 120.727911
        },
        "ad_info": {
            "adcode": 211481,
            "province": "辽宁省",
            "city": "葫芦岛市",
            "district": "兴城市"
        }
    },
    {
        "id": "15972328773713235876",
        "title": "公共厕所",
        "address": "辽宁省葫芦岛市龙港区海星路与龙程街交叉口正北方向269米左右",
        "tel": "",
        "category": "基础设施:公共设施:公共厕所",
        "type": 0,
        "location": {
            "lat": 40.707678,
            "lng": 120.841461
        },
        "ad_info": {
            "adcode": 211403,
            "province": "辽宁省",
            "city": "葫芦岛市",
            "district": "龙港区"
        }
    },
    {
        "id": "7326674667725304924",
        "title": "女洗手间",
        "address": "辽宁省葫芦岛市兴城市兴海南路86号银象·宁远城F2",
        "tel": "",
        "category": "基础设施:公共设施:女洗手间",
        "type": 0,
        "location": {
            "lat": 40.613709,
            "lng": 120.729177
        },
        "ad_info": {
            "adcode": 211481,
            "province": "辽宁省",
            "city": "葫芦岛市",
            "district": "兴城市"
        }
    },
    {
        "id": "17784480213068214709",
        "title": "公共厕所",
        "address": "辽宁省葫芦岛市龙港区文翠路与龙绣街交叉口西北方向102米左右",
        "tel": "",
        "category": "基础设施:公共设施:公共厕所",
        "type": 0,
        "location": {
            "lat": 40.738457,
            "lng": 120.864072
        },
        "ad_info": {
            "adcode": 211403,
            "province": "辽宁省",
            "city": "葫芦岛市",
            "district": "龙港区"
        }
    },
    {
        "id": "4597284205081334146",
        "title": "公共厕所",
        "address": "辽宁省葫芦岛市连山区老杨线与葫六线交叉口正南方向380米左右",
        "tel": "",
        "category": "基础设施:公共设施:公共厕所",
        "type": 0,
        "location": {
            "lat": 40.790136,
            "lng": 120.561278
        },
        "ad_info": {
            "adcode": 211402,
            "province": "辽宁省",
            "city": "葫芦岛市",
            "district": "连山区"
        }
    },
    {
        "id": "3025238241572948255",
        "title": "公共厕所",
        "address": "辽宁省葫芦岛市兴城市318省道南50米",
        "tel": "",
        "category": "基础设施:公共设施:公共厕所",
        "type": 0,
        "location": {
            "lat": 40.748566,
            "lng": 120.441302
        },
        "ad_info": {
            "adcode": 211481,
            "province": "辽宁省",
            "city": "葫芦岛市",
            "district": "兴城市"
        }
    },
    {
        "id": "1744359980187460629",
        "title": "无障碍公共厕所",
        "address": "辽宁省葫芦岛市绥中县中国石油绥中第一加油站东北侧110米",
        "tel": "",
        "category": "基础设施:公共设施:公共厕所",
        "type": 0,
        "location": {
            "lat": 40.337035,
            "lng": 120.316737
        },
        "ad_info": {
            "adcode": 211421,
            "province": "辽宁省",
            "city": "葫芦岛市",
            "district": "绥中县"
        }
    },
    {
        "id": "12224024434909436078",
        "title": "公共厕所",
        "address": "辽宁省葫芦岛市连山区东星街与连山大街交叉口正南方向113米左右",
        "tel": "",
        "category": "基础设施:公共设施:公共厕所",
        "type": 0,
        "location": {
            "lat": 40.762202,
            "lng": 120.868947
        },
        "ad_info": {
            "adcode": 211402,
            "province": "辽宁省",
            "city": "葫芦岛市",
            "district": "连山区"
        }
    },
    {
        "id": "2439404938359650362",
        "title": "男洗手间(宏运·新天地购物广场)",
        "address": "辽宁省葫芦岛市连山区新华大街3号宏运·新天地购物广场F4层",
        "tel": "",
        "category": "基础设施:公共设施:公共厕所",
        "type": 0,
        "location": {
            "lat": 40.755333,
            "lng": 120.855786
        },
        "ad_info": {
            "adcode": 211402,
            "province": "辽宁省",
            "city": "葫芦岛市",
            "district": "连山区"
        }
    },
    {
        "id": "16101172004434369254",
        "title": "公共厕所",
        "address": "辽宁省葫芦岛市兴城市首山湖公园",
        "tel": "",
        "category": "基础设施:公共设施:公共厕所",
        "type": 0,
        "location": {
            "lat": 40.633501,
            "lng": 120.78817
        },
        "ad_info": {
            "adcode": 211481,
            "province": "辽宁省",
            "city": "葫芦岛市",
            "district": "兴城市"
        }
    },
    {
        "id": "1417368334903761391",
        "title": "公共厕所",
        "address": "辽宁省葫芦岛市连山区红星路与连山大街交叉口正西方向98米左右",
        "tel": "",
        "category": "基础设施:公共设施:公共厕所",
        "type": 0,
        "location": {
            "lat": 40.762007,
            "lng": 120.864712
        },
        "ad_info": {
            "adcode": 211402,
            "province": "辽宁省",
            "city": "葫芦岛市",
            "district": "连山区"
        }
    },
    {
        "id": "3304756891554351472",
        "title": "公共厕所",
        "address": "辽宁省葫芦岛市绥中县文娟食杂店西南侧110米",
        "tel": "",
        "category": "基础设施:公共设施:公共厕所",
        "type": 0,
        "location": {
            "lat": 40.360479,
            "lng": 120.145898
        },
        "ad_info": {
            "adcode": 211421,
            "province": "辽宁省",
            "city": "葫芦岛市",
            "district": "绥中县"
        }
    },
    {
        "id": "3480646007755121521",
        "title": "公共厕所",
        "address": "辽宁省葫芦岛市兴城市兴海南街与滨海大道交叉口东南方向159米左右",
        "tel": "",
        "category": "基础设施:公共设施:公共厕所",
        "type": 0,
        "location": {
            "lat": 40.611337,
            "lng": 120.797995
        },
        "ad_info": {
            "adcode": 211481,
            "province": "辽宁省",
            "city": "葫芦岛市",
            "district": "兴城市"
        }
    },
    {
        "id": "12022265015960677152",
        "title": "公共厕所",
        "address": "辽宁省葫芦岛市龙港区望海街与滨海大道交叉口东南方向130米左右",
        "tel": "",
        "category": "基础设施:公共设施:公共厕所",
        "type": 0,
        "location": {
            "lat": 40.71402,
            "lng": 120.954086
        },
        "ad_info": {
            "adcode": 211403,
            "province": "辽宁省",
            "city": "葫芦岛市",
            "district": "龙港区"
        }
    },
    {
        "id": "4561249060837302082",
        "title": "女洗手间",
        "address": "辽宁省葫芦岛市兴城市兴海南路86号银象·宁远城F3",
        "tel": "",
        "category": "基础设施:公共设施:女洗手间",
        "type": 0,
        "location": {
            "lat": 40.613706,
            "lng": 120.729179
        },
        "ad_info": {
            "adcode": 211481,
            "province": "辽宁省",
            "city": "葫芦岛市",
            "district": "兴城市"
        }
    },
    {
        "id": "9598696423208641567",
        "title": "公共厕所",
        "address": "辽宁省葫芦岛市绥中县京哈线与凉后线交叉口西南方向124米左右",
        "tel": "",
        "category": "基础设施:公共设施:公共厕所",
        "type": 0,
        "location": {
            "lat": 40.223936,
            "lng": 120.149235
        },
        "ad_info": {
            "adcode": 211421,
            "province": "辽宁省",
            "city": "葫芦岛市",
            "district": "绥中县"
        }
    },
    {
        "id": "14107289949610093248",
        "title": "无障碍公共厕所",
        "address": "辽宁省葫芦岛市龙港区海辰路与龙绣街交叉口东北方向152米左右",
        "tel": "",
        "category": "基础设施:公共设施:公共厕所",
        "type": 0,
        "location": {
            "lat": 40.711274,
            "lng": 120.823704
        },
        "ad_info": {
            "adcode": 211403,
            "province": "辽宁省",
            "city": "葫芦岛市",
            "district": "龙港区"
        }
    },
    {
        "id": "6174270655801928509",
        "title": "公共厕所",
        "address": "辽宁省葫芦岛市兴城市广场西路与弘丰街交叉口东北方向96米左右",
        "tel": "",
        "category": "基础设施:公共设施:公共厕所",
        "type": 0,
        "location": {
            "lat": 40.621053,
            "lng": 120.732428
        },
        "ad_info": {
            "adcode": 211481,
            "province": "辽宁省",
            "city": "葫芦岛市",
            "district": "兴城市"
        }
    },
    {
        "id": "10673407607118810226",
        "title": "男洗手间",
        "address": "辽宁省葫芦岛市兴城市兴海南路86号银象·宁远城F3",
        "tel": "",
        "category": "基础设施:公共设施:男洗手间",
        "type": 0,
        "location": {
            "lat": 40.613697,
            "lng": 120.729237
        },
        "ad_info": {
            "adcode": 211481,
            "province": "辽宁省",
            "city": "葫芦岛市",
            "district": "兴城市"
        }
    },
    {
        "id": "14046824934428632701",
        "title": "公共厕所",
        "address": "辽宁省葫芦岛市建昌县人民路与凌河西街交叉口正北方向27米左右",
        "tel": "",
        "category": "基础设施:公共设施:公共厕所",
        "type": 0,
        "location": {
            "lat": 40.819722,
            "lng": 119.808934
        },
        "ad_info": {
            "adcode": 211422,
            "province": "辽宁省",
            "city": "葫芦岛市",
            "district": "建昌县"
        }
    },
    {
        "id": "4311355712562357705",
        "title": "公共厕所",
        "address": "辽宁省葫芦岛市龙港区海云路与海晏北路交叉口正南方向101米左右",
        "tel": "",
        "category": "基础设施:公共设施:公共厕所",
        "type": 0,
        "location": {
            "lat": 40.676001,
            "lng": 120.828166
        },
        "ad_info": {
            "adcode": 211403,
            "province": "辽宁省",
            "city": "葫芦岛市",
            "district": "龙港区"
        }
    },
    {
        "id": "17008936170003493483",
        "title": "葫芦岛凯丽酒店-洗手间",
        "address": "辽宁省葫芦岛市龙港区海辰路与龙警街交叉口东南方向254米左右",
        "tel": "",
        "category": "基础设施:公共设施:公共厕所",
        "type": 0,
        "location": {
            "lat": 40.696595,
            "lng": 120.843606
        },
        "ad_info": {
            "adcode": 211403,
            "province": "辽宁省",
            "city": "葫芦岛市",
            "district": "龙港区"
        }
    },
    {
        "id": "15121236605944701972",
        "title": "女洗手间",
        "address": "辽宁省葫芦岛市兴城市兴海南路86号银象·宁远城F4",
        "tel": "",
        "category": "基础设施:公共设施:女洗手间",
        "type": 0,
        "location": {
            "lat": 40.613708,
            "lng": 120.729182
        },
        "ad_info": {
            "adcode": 211481,
            "province": "辽宁省",
            "city": "葫芦岛市",
            "district": "兴城市"
        }
    },
    {
        "id": "1995783259477740735",
        "title": "公共厕所",
        "address": "辽宁省葫芦岛市龙港区茨齐路与西苑街交叉口东南方向309米左右",
        "tel": "",
        "category": "基础设施:公共设施:公共厕所",
        "type": 0,
        "location": {
            "lat": 40.715576,
            "lng": 120.918229
        },
        "ad_info": {
            "adcode": 211403,
            "province": "辽宁省",
            "city": "葫芦岛市",
            "district": "龙港区"
        }
    },
    {
        "id": "1749811555480769781",
        "title": "男洗手间",
        "address": "辽宁省葫芦岛市兴城市兴海南路86号银象·宁远城F3",
        "tel": "",
        "category": "基础设施:公共设施:男洗手间",
        "type": 0,
        "location": {
            "lat": 40.613973,
            "lng": 120.727969
        },
        "ad_info": {
            "adcode": 211481,
            "province": "辽宁省",
            "city": "葫芦岛市",
            "district": "兴城市"
        }
    },
    {
        "id": "6416494550143397961",
        "title": "男洗手间(银象·宁远城)",
        "address": "辽宁省葫芦岛市兴城市兴海南路86号银象·宁远城F2",
        "tel": "",
        "category": "基础设施:公共设施:男洗手间",
        "type": 0,
        "location": {
            "lat": 40.613971,
            "lng": 120.727968
        },
        "ad_info": {
            "adcode": 211481,
            "province": "辽宁省",
            "city": "葫芦岛市",
            "district": "兴城市"
        }
    },
    {
        "id": "11555149429634624067",
        "title": "公共厕所",
        "address": "辽宁省葫芦岛市兴城市白塔乡华山街道",
        "tel": "",
        "category": "基础设施:公共设施:公共厕所",
        "type": 0,
        "location": {
            "lat": 40.763486,
            "lng": 120.516845
        },
        "ad_info": {
            "adcode": 211481,
            "province": "辽宁省",
            "city": "葫芦岛市",
            "district": "兴城市"
        }
    },
    {
        "id": "11344974471407714462",
        "title": "公共厕所",
        "address": "辽宁省葫芦岛市绥中县京万线与京哈线交叉口西南方向223米左右",
        "tel": "",
        "category": "基础设施:公共设施:公共厕所",
        "type": 0,
        "location": {
            "lat": 40.050898,
            "lng": 119.845879
        },
        "ad_info": {
            "adcode": 211421,
            "province": "辽宁省",
            "city": "葫芦岛市",
            "district": "绥中县"
        }
    },
    {
        "id": "4358413836288238530",
        "title": "公共厕所",
        "address": "辽宁省葫芦岛市绥中县中央路与工人街交叉口正西方向75米左右",
        "tel": "",
        "category": "基础设施:公共设施:公共厕所",
        "type": 0,
        "location": {
            "lat": 40.322559,
            "lng": 120.347197
        },
        "ad_info": {
            "adcode": 211421,
            "province": "辽宁省",
            "city": "葫芦岛市",
            "district": "绥中县"
        }
    },
    {
        "id": "11784084643048580687",
        "title": "公共厕所",
        "address": "辽宁省葫芦岛市绥中县绥克线与高高线交叉口东南方向233米左右",
        "tel": "",
        "category": "基础设施:公共设施:公共厕所",
        "type": 0,
        "location": {
            "lat": 40.385647,
            "lng": 120.230505
        },
        "ad_info": {
            "adcode": 211421,
            "province": "辽宁省",
            "city": "葫芦岛市",
            "district": "绥中县"
        }
    },
    {
        "id": "10636992408319461675",
        "title": "公共厕所",
        "address": "辽宁省葫芦岛市绥中县东大街与中央路交叉口东北方向178米左右",
        "tel": "",
        "category": "基础设施:公共设施:公共厕所",
        "type": 0,
        "location": {
            "lat": 40.333992,
            "lng": 120.341484
        },
        "ad_info": {
            "adcode": 211421,
            "province": "辽宁省",
            "city": "葫芦岛市",
            "district": "绥中县"
        }
    },
    {
        "id": "14045758835095718558",
        "title": "公共厕所",
        "address": "辽宁省葫芦岛市绥中县三小线与三山线交叉口东南方向1630米左右",
        "tel": "",
        "category": "基础设施:公共设施:公共厕所",
        "type": 0,
        "location": {
            "lat": 40.118522,
            "lng": 120.159844
        },
        "ad_info": {
            "adcode": 211421,
            "province": "辽宁省",
            "city": "葫芦岛市",
            "district": "绥中县"
        }
    },
    {
        "id": "14338320752860241087",
        "title": "公共厕所",
        "address": "辽宁省葫芦岛市龙港区锦葫北路与风华街交叉口正西方向200米左右",
        "tel": "",
        "category": "基础设施:公共设施:公共厕所",
        "type": 0,
        "location": {
            "lat": 40.724094,
            "lng": 120.93391
        },
        "ad_info": {
            "adcode": 211403,
            "province": "辽宁省",
            "city": "葫芦岛市",
            "district": "龙港区"
        }
    },
    {
        "id": "9909818019243410391",
        "title": "公共厕所",
        "address": "辽宁省葫芦岛市龙港区海日路与龙绣街交叉口正西方向143米左右",
        "tel": "",
        "category": "基础设施:公共设施:公共厕所",
        "type": 0,
        "location": {
            "lat": 40.721648,
            "lng": 120.838296
        },
        "ad_info": {
            "adcode": 211403,
            "province": "辽宁省",
            "city": "葫芦岛市",
            "district": "龙港区"
        }
    },
    {
        "id": "1949515211769219751",
        "title": "公共厕所",
        "address": "辽宁省葫芦岛市绥中县文化路与香坊街交叉口正南方向683米左右",
        "tel": "",
        "category": "基础设施:公共设施:公共厕所",
        "type": 0,
        "location": {
            "lat": 40.323397,
            "lng": 120.318221
        },
        "ad_info": {
            "adcode": 211421,
            "province": "辽宁省",
            "city": "葫芦岛市",
            "district": "绥中县"
        }
    },
    {
        "id": "1973815821342936472",
        "title": "公共厕所",
        "address": "辽宁省葫芦岛市兴城市永宁门南顺墙胡同与铧炉胡同交叉口西北方向27米左右",
        "tel": "",
        "category": "基础设施:公共设施:公共厕所",
        "type": 0,
        "location": {
            "lat": 40.62092,
            "lng": 120.708416
        },
        "ad_info": {
            "adcode": 211481,
            "province": "辽宁省",
            "city": "葫芦岛市",
            "district": "兴城市"
        }
    },
    {
        "id": "13740355185745502583",
        "title": "公共厕所",
        "address": "辽宁省葫芦岛市龙港区永达路与龙湾大街交叉口正西方向99米左右",
        "tel": "",
        "category": "基础设施:公共设施:公共厕所",
        "type": 0,
        "location": {
            "lat": 40.724615,
            "lng": 120.854751
        },
        "ad_info": {
            "adcode": 211403,
            "province": "辽宁省",
            "city": "葫芦岛市",
            "district": "龙港区"
        }
    },
    {
        "id": "3510966794372969054",
        "title": "无障碍公共厕所",
        "address": "辽宁省葫芦岛市连山区永昌路与连山大街交叉口西南方向59米左右",
        "tel": "",
        "category": "基础设施:公共设施:公共厕所",
        "type": 0,
        "location": {
            "lat": 40.765378,
            "lng": 120.876858
        },
        "ad_info": {
            "adcode": 211402,
            "province": "辽宁省",
            "city": "葫芦岛市",
            "district": "连山区"
        }
    },
    {
        "id": "3166119551475353791",
        "title": "公共厕所",
        "address": "辽宁省葫芦岛市连山区文兴路与新华大街交叉口西北方向32米左右",
        "tel": "",
        "category": "基础设施:公共设施:公共厕所",
        "type": 0,
        "location": {
            "lat": 40.75313,
            "lng": 120.851471
        },
        "ad_info": {
            "adcode": 211402,
            "province": "辽宁省",
            "city": "葫芦岛市",
            "district": "连山区"
        }
    },
    {
        "id": "17397337364939994472",
        "title": "公共厕所",
        "address": "辽宁省葫芦岛市绥中县金丝路与金屯路交叉口正南方向22米左右",
        "tel": "",
        "category": "基础设施:公共设施:公共厕所",
        "type": 0,
        "location": {
            "lat": 40.330842,
            "lng": 120.358876
        },
        "ad_info": {
            "adcode": 211421,
            "province": "辽宁省",
            "city": "葫芦岛市",
            "district": "绥中县"
        }
    },
    {
        "id": "2943475224208204218",
        "title": "公共厕所",
        "address": "辽宁省葫芦岛市龙港区海滨路与龙湾大街辅路交叉口西南方向249米左右",
        "tel": "",
        "category": "基础设施:公共设施:公共厕所",
        "type": 0,
        "location": {
            "lat": 40.720258,
            "lng": 120.846997
        },
        "ad_info": {
            "adcode": 211403,
            "province": "辽宁省",
            "city": "葫芦岛市",
            "district": "龙港区"
        }
    },
    {
        "id": "2991322180249960855",
        "title": "橡榕饭店-洗手间",
        "address": "辽宁省葫芦岛市兴城市兴海南街橡榕国际酒店",
        "tel": "",
        "category": "基础设施:公共设施:公共厕所",
        "type": 0,
        "location": {
            "lat": 40.608159,
            "lng": 120.774014
        },
        "ad_info": {
            "adcode": 211481,
            "province": "辽宁省",
            "city": "葫芦岛市",
            "district": "兴城市"
        }
    },
    {
        "id": "16761775883835165205",
        "title": "公共厕所",
        "address": "辽宁省葫芦岛市连山区S221与兴发街交叉口西北方向103米左右",
        "tel": "",
        "category": "基础设施:公共设施:公共厕所",
        "type": 0,
        "location": {
            "lat": 40.773934,
            "lng": 120.849771
        },
        "ad_info": {
            "adcode": 211402,
            "province": "辽宁省",
            "city": "葫芦岛市",
            "district": "连山区"
        }
    },
    {
        "id": "10068536139793081310",
        "title": "公共厕所",
        "address": "辽宁省葫芦岛市兴城市广场西路与康宁路交叉口西南方向289米左右",
        "tel": "",
        "category": "基础设施:公共设施:公共厕所",
        "type": 0,
        "location": {
            "lat": 40.627001,
            "lng": 120.727527
        },
        "ad_info": {
            "adcode": 211481,
            "province": "辽宁省",
            "city": "葫芦岛市",
            "district": "兴城市"
        }
    },
    {
        "id": "17734976435892666066",
        "title": "公共厕所",
        "address": "辽宁省葫芦岛市兴城市钓鱼台西路与钓鱼台路交叉口东南方向55米左右",
        "tel": "",
        "category": "基础设施:公共设施:公共厕所",
        "type": 0,
        "location": {
            "lat": 40.611516,
            "lng": 120.783708
        },
        "ad_info": {
            "adcode": 211481,
            "province": "辽宁省",
            "city": "葫芦岛市",
            "district": "兴城市"
        }
    },
    {
        "id": "13157140297360899893",
        "title": "公共厕所",
        "address": "辽宁省葫芦岛市兴城市G102与东河大桥交叉口正南方向584米左右",
        "tel": "",
        "category": "基础设施:公共设施:公共厕所",
        "type": 0,
        "location": {
            "lat": 40.633956,
            "lng": 120.708837
        },
        "ad_info": {
            "adcode": 211481,
            "province": "辽宁省",
            "city": "葫芦岛市",
            "district": "兴城市"
        }
    },
    {
        "id": "194236878721066986",
        "title": "公共厕所",
        "address": "辽宁省葫芦岛市兴城市兴海南街与延辉路交叉口正南方向796米左右",
        "tel": "",
        "category": "基础设施:公共设施:公共厕所",
        "type": 0,
        "location": {
            "lat": 40.609149,
            "lng": 120.716238
        },
        "ad_info": {
            "adcode": 211481,
            "province": "辽宁省",
            "city": "葫芦岛市",
            "district": "兴城市"
        }
    },
    {
        "id": "12432451932529395242",
        "title": "公共厕所",
        "address": "辽宁省葫芦岛市龙港区望海街与滨海公路交叉口正西方向21米左右",
        "tel": "",
        "category": "基础设施:公共设施:公共厕所",
        "type": 0,
        "location": {
            "lat": 40.701527,
            "lng": 120.952688
        },
        "ad_info": {
            "adcode": 211403,
            "province": "辽宁省",
            "city": "葫芦岛市",
            "district": "龙港区"
        }
    },
    {
        "id": "15210156343615417518",
        "title": "公共厕所",
        "address": "辽宁省葫芦岛市兴城市永宁门北顺墙胡同与财神庙后胡同交叉口西南方向19米左右",
        "tel": "",
        "category": "基础设施:公共设施:公共厕所",
        "type": 0,
        "location": {
            "lat": 40.624024,
            "lng": 120.707359
        },
        "ad_info": {
            "adcode": 211481,
            "province": "辽宁省",
            "city": "葫芦岛市",
            "district": "兴城市"
        }
    },
    {
        "id": "5433257575139227315",
        "title": "公共厕所",
        "address": "辽宁省葫芦岛市龙港区渤船重工青年公寓东南侧140米",
        "tel": "",
        "category": "基础设施:公共设施:公共厕所",
        "type": 0,
        "location": {
            "lat": 40.721415,
            "lng": 120.984771
        },
        "ad_info": {
            "adcode": 211403,
            "province": "辽宁省",
            "city": "葫芦岛市",
            "district": "龙港区"
        }
    },
    {
        "id": "10492682287677768455",
        "title": "公共厕所",
        "address": "辽宁省葫芦岛市绥中县和平街与老马路交叉口正南方向174米左右",
        "tel": "",
        "category": "基础设施:公共设施:公共厕所",
        "type": 0,
        "location": {
            "lat": 40.325987,
            "lng": 120.346734
        },
        "ad_info": {
            "adcode": 211421,
            "province": "辽宁省",
            "city": "葫芦岛市",
            "district": "绥中县"
        }
    },
    {
        "id": "14012309375189735634",
        "title": "公共厕所",
        "address": "辽宁省葫芦岛市绥中县万贺线与京哈线交叉口正北方向840米左右",
        "tel": "",
        "category": "基础设施:公共设施:公共厕所",
        "type": 0,
        "location": {
            "lat": 40.063296,
            "lng": 119.857364
        },
        "ad_info": {
            "adcode": 211421,
            "province": "辽宁省",
            "city": "葫芦岛市",
            "district": "绥中县"
        }
    },
    {
        "id": "97329445745459005",
        "title": "公共厕所",
        "address": "辽宁省葫芦岛市兴城市延辉门里西顺城胡同与永宁门南顺墙胡同交叉口正南方向27米左右",
        "tel": "",
        "category": "基础设施:公共设施:公共厕所",
        "type": 0,
        "location": {
            "lat": 40.61793,
            "lng": 120.709604
        },
        "ad_info": {
            "adcode": 211481,
            "province": "辽宁省",
            "city": "葫芦岛市",
            "district": "兴城市"
        }
    },
    {
        "id": "10185326945344273697",
        "title": "公共厕所",
        "address": "辽宁省葫芦岛市兴城市兴海南街与川北路交叉口西北方向236米左右",
        "tel": "",
        "category": "基础设施:公共设施:公共厕所",
        "type": 0,
        "location": {
            "lat": 40.614162,
            "lng": 120.734881
        },
        "ad_info": {
            "adcode": 211481,
            "province": "辽宁省",
            "city": "葫芦岛市",
            "district": "兴城市"
        }
    },
    {
        "id": "17189561292757572118",
        "title": "公共厕所",
        "address": "辽宁省葫芦岛市绥中县绥西线与绥青线交叉口西南方向436米左右",
        "tel": "",
        "category": "基础设施:公共设施:公共厕所",
        "type": 0,
        "location": {
            "lat": 40.374495,
            "lng": 119.761971
        },
        "ad_info": {
            "adcode": 211421,
            "province": "辽宁省",
            "city": "葫芦岛市",
            "district": "绥中县"
        }
    },
    {
        "id": "7893376942300058839",
        "title": "公共厕所",
        "address": "辽宁省葫芦岛市连山区殡仪馆综合服务楼西侧120米",
        "tel": "",
        "category": "基础设施:公共设施:公共厕所",
        "type": 0,
        "location": {
            "lat": 40.800623,
            "lng": 120.854118
        },
        "ad_info": {
            "adcode": 211402,
            "province": "辽宁省",
            "city": "葫芦岛市",
            "district": "连山区"
        }
    },
    {
        "id": "5461812144626254401",
        "title": "公共厕所",
        "address": "辽宁省葫芦岛市连山区S221与兴发街交叉口正西方向123米左右",
        "tel": "",
        "category": "基础设施:公共设施:公共厕所",
        "type": 0,
        "location": {
            "lat": 40.7734,
            "lng": 120.849234
        },
        "ad_info": {
            "adcode": 211402,
            "province": "辽宁省",
            "city": "葫芦岛市",
            "district": "连山区"
        }
    },
    {
        "id": "5022547193598390457",
        "title": "公共厕所",
        "address": "辽宁省葫芦岛市龙港区文兴南路辅路与金融街交叉口东北方向68米左右",
        "tel": "",
        "category": "基础设施:公共设施:公共厕所",
        "type": 0,
        "location": {
            "lat": 40.736903,
            "lng": 120.874986
        },
        "ad_info": {
            "adcode": 211403,
            "province": "辽宁省",
            "city": "葫芦岛市",
            "district": "龙港区"
        }
    },
    {
        "id": "4263402194076459537",
        "title": "公共厕所",
        "address": "辽宁省葫芦岛市连山区化工街与天化街交叉口西南方向89米左右",
        "tel": "",
        "category": "基础设施:公共设施:公共厕所",
        "type": 0,
        "location": {
            "lat": 40.763949,
            "lng": 120.845739
        },
        "ad_info": {
            "adcode": 211402,
            "province": "辽宁省",
            "city": "葫芦岛市",
            "district": "连山区"
        }
    },
    {
        "id": "14694801905158581157",
        "title": "女洗手间(绥中百货大楼)",
        "address": "辽宁省葫芦岛市绥中县团结路25号绥中百货大楼F4层",
        "tel": "",
        "category": "基础设施:公共设施:公共厕所",
        "type": 0,
        "location": {
            "lat": 40.327483,
            "lng": 120.338638
        },
        "ad_info": {
            "adcode": 211421,
            "province": "辽宁省",
            "city": "葫芦岛市",
            "district": "绥中县"
        }
    },
    {
        "id": "7659917520377880610",
        "title": "公共厕所",
        "address": "辽宁省葫芦岛市连山区北岳路西150米",
        "tel": "",
        "category": "基础设施:公共设施:公共厕所",
        "type": 0,
        "location": {
            "lat": 40.811784,
            "lng": 120.536051
        },
        "ad_info": {
            "adcode": 211402,
            "province": "辽宁省",
            "city": "葫芦岛市",
            "district": "连山区"
        }
    },
    {
        "id": "1265585738299447933",
        "title": "公共厕所",
        "address": "辽宁省葫芦岛市建昌县凌河西街与建设路交叉口正南方向35米左右",
        "tel": "",
        "category": "基础设施:公共设施:公共厕所",
        "type": 0,
        "location": {
            "lat": 40.810209,
            "lng": 119.811212
        },
        "ad_info": {
            "adcode": 211422,
            "province": "辽宁省",
            "city": "葫芦岛市",
            "district": "建昌县"
        }
    },
    {
        "id": "1227599179956804041",
        "title": "公共厕所",
        "address": "辽宁省葫芦岛市建昌县建平胡同与朝阳路交叉口正南方向250米左右",
        "tel": "",
        "category": "基础设施:公共设施:公共厕所",
        "type": 0,
        "location": {
            "lat": 40.811691,
            "lng": 119.804324
        },
        "ad_info": {
            "adcode": 211422,
            "province": "辽宁省",
            "city": "葫芦岛市",
            "district": "建昌县"
        }
    },
    {
        "id": "16897310789418388984",
        "title": "公共厕所",
        "address": "辽宁省葫芦岛市连山区丰乐路与新华大街交叉口西南方向165米左右",
        "tel": "",
        "category": "基础设施:公共设施:公共厕所",
        "type": 0,
        "location": {
            "lat": 40.754615,
            "lng": 120.85316
        },
        "ad_info": {
            "adcode": 211402,
            "province": "辽宁省",
            "city": "葫芦岛市",
            "district": "连山区"
        }
    },
    {
        "id": "18407868013351058543",
        "title": "环保公共厕所",
        "address": "辽宁省葫芦岛市绥中县东戴河大街与址九线交叉口正南方向237米左右",
        "tel": "",
        "category": "基础设施:公共设施:公共厕所",
        "type": 0,
        "location": {
            "lat": 40.013382,
            "lng": 119.91079
        },
        "ad_info": {
            "adcode": 211421,
            "province": "辽宁省",
            "city": "葫芦岛市",
            "district": "绥中县"
        }
    },
    {
        "id": "8100176248809792789",
        "title": "塔山服务区第二公共厕所",
        "address": "辽宁省葫芦岛市连山区中国石化辽宁交投塔山服务区加油站东南侧130米",
        "tel": "",
        "category": "基础设施:公共设施:公共厕所",
        "type": 0,
        "location": {
            "lat": 40.860533,
            "lng": 120.924666
        },
        "ad_info": {
            "adcode": 211402,
            "province": "辽宁省",
            "city": "葫芦岛市",
            "district": "连山区"
        }
    },
    {
        "id": "7637070871741418278",
        "title": "公共厕所",
        "address": "辽宁省葫芦岛市连山区北昌路与永昌路交叉口正东方向371米左右",
        "tel": "",
        "category": "基础设施:公共设施:公共厕所",
        "type": 0,
        "location": {
            "lat": 40.759841,
            "lng": 120.879967
        },
        "ad_info": {
            "adcode": 211402,
            "province": "辽宁省",
            "city": "葫芦岛市",
            "district": "连山区"
        }
    },
    {
        "id": "15108661814996568348",
        "title": "公共厕所",
        "address": "辽宁省葫芦岛市兴城市兴城市兴泰制衣有限公司南侧50米",
        "tel": "",
        "category": "基础设施:公共设施:公共厕所",
        "type": 0,
        "location": {
            "lat": 40.715493,
            "lng": 120.668265
        },
        "ad_info": {
            "adcode": 211481,
            "province": "辽宁省",
            "city": "葫芦岛市",
            "district": "兴城市"
        }
    },
    {
        "id": "10480090609610984950",
        "title": "公共厕所",
        "address": "辽宁省葫芦岛市绥中县蔬菜水果店西南侧280米",
        "tel": "",
        "category": "基础设施:公共设施:公共厕所",
        "type": 0,
        "location": {
            "lat": 40.138904,
            "lng": 120.225057
        },
        "ad_info": {
            "adcode": 211421,
            "province": "辽宁省",
            "city": "葫芦岛市",
            "district": "绥中县"
        }
    },
    {
        "id": "7415844218507157826",
        "title": "公共厕所",
        "address": "辽宁省葫芦岛市连山区丰乐路与群英街交叉口正北方向135米左右",
        "tel": "",
        "category": "基础设施:公共设施:公共厕所",
        "type": 0,
        "location": {
            "lat": 40.751874,
            "lng": 120.861465
        },
        "ad_info": {
            "adcode": 211402,
            "province": "辽宁省",
            "city": "葫芦岛市",
            "district": "连山区"
        }
    },
    {
        "id": "15317228394290688469",
        "title": "公共厕所",
        "address": "辽宁省葫芦岛市兴城市兴海南街与兴海路一段交叉口西北方向86米左右",
        "tel": "",
        "category": "基础设施:公共设施:公共厕所",
        "type": 0,
        "location": {
            "lat": 40.615647,
            "lng": 120.70703
        },
        "ad_info": {
            "adcode": 211481,
            "province": "辽宁省",
            "city": "葫芦岛市",
            "district": "兴城市"
        }
    },
    {
        "id": "2743660746899884405",
        "title": "公共厕所",
        "address": "辽宁省葫芦岛市建昌县G230与全新线交叉口正北方向375米左右",
        "tel": "",
        "category": "基础设施:公共设施:公共厕所",
        "type": 0,
        "location": {
            "lat": 40.525116,
            "lng": 119.583682
        },
        "ad_info": {
            "adcode": 211422,
            "province": "辽宁省",
            "city": "葫芦岛市",
            "district": "建昌县"
        }
    },
    {
        "id": "2676896242459330343",
        "title": "公共厕所",
        "address": "辽宁省葫芦岛市龙港区锦葫路与风华街交叉口正西方向83米左右",
        "tel": "",
        "category": "基础设施:公共设施:公共厕所",
        "type": 0,
        "location": {
            "lat": 40.720876,
            "lng": 120.935054
        },
        "ad_info": {
            "adcode": 211403,
            "province": "辽宁省",
            "city": "葫芦岛市",
            "district": "龙港区"
        }
    },
    {
        "id": "6793866617979348348",
        "title": "公共厕所",
        "address": "辽宁省葫芦岛市建昌县凌河西街与建设路交叉口东南方向321米左右",
        "tel": "",
        "category": "基础设施:公共设施:公共厕所",
        "type": 0,
        "location": {
            "lat": 40.808584,
            "lng": 119.813975
        },
        "ad_info": {
            "adcode": 211422,
            "province": "辽宁省",
            "city": "葫芦岛市",
            "district": "建昌县"
        }
    },
    {
        "id": "5422038560475561472",
        "title": "公共厕所",
        "address": "辽宁省葫芦岛市绥中县址九线与蛇李线交叉口正西方向1497米左右",
        "tel": "",
        "category": "基础设施:公共设施:公共厕所",
        "type": 0,
        "location": {
            "lat": 40.109452,
            "lng": 119.811454
        },
        "ad_info": {
            "adcode": 211421,
            "province": "辽宁省",
            "city": "葫芦岛市",
            "district": "绥中县"
        }
    },
    {
        "id": "4122476671658685710",
        "title": "无障碍公共厕所",
        "address": "辽宁省葫芦岛市兴城市兴城市头道牌坊东胡同与春和门南顺墙胡同交叉口东北方向55米左右",
        "tel": "",
        "category": "基础设施:公共设施:公共厕所",
        "type": 0,
        "location": {
            "lat": 40.621489,
            "lng": 120.718529
        },
        "ad_info": {
            "adcode": 211481,
            "province": "辽宁省",
            "city": "葫芦岛市",
            "district": "兴城市"
        }
    },
    {
        "id": "15254718350482182064",
        "title": "公共厕所",
        "address": "辽宁省葫芦岛市绥中县印兴修配厂东南侧110米",
        "tel": "",
        "category": "基础设施:公共设施:公共厕所",
        "type": 0,
        "location": {
            "lat": 40.312841,
            "lng": 120.300643
        },
        "ad_info": {
            "adcode": 211421,
            "province": "辽宁省",
            "city": "葫芦岛市",
            "district": "绥中县"
        }
    },
    {
        "id": "3138857560433598549",
        "title": "无障碍公共厕所",
        "address": "辽宁省葫芦岛市龙港区银龙大厦(海日路)东侧80米",
        "tel": "",
        "category": "基础设施:公共设施:公共厕所",
        "type": 0,
        "location": {
            "lat": 40.717755,
            "lng": 120.844646
        },
        "ad_info": {
            "adcode": 211403,
            "province": "辽宁省",
            "city": "葫芦岛市",
            "district": "龙港区"
        }
    },
    {
        "id": "2853803243520789045",
        "title": "公共厕所",
        "address": "辽宁省葫芦岛市绥中县城内西街与西门北路交叉口正北方向47米左右",
        "tel": "",
        "category": "基础设施:公共设施:公共厕所",
        "type": 0,
        "location": {
            "lat": 40.334495,
            "lng": 120.336236
        },
        "ad_info": {
            "adcode": 211421,
            "province": "辽宁省",
            "city": "葫芦岛市",
            "district": "绥中县"
        }
    },
    {
        "id": "4614077213171939731",
        "title": "兴城服务区公共厕所",
        "address": "辽宁省葫芦岛市兴城市G1京哈高速西100米",
        "tel": "",
        "category": "基础设施:公共设施:公共厕所",
        "type": 0,
        "location": {
            "lat": 40.598695,
            "lng": 120.637809
        },
        "ad_info": {
            "adcode": 211481,
            "province": "辽宁省",
            "city": "葫芦岛市",
            "district": "兴城市"
        }
    },
    {
        "id": "2383814329583491152",
        "title": "公共厕所",
        "address": "辽宁省葫芦岛市建昌县",
        "tel": "",
        "category": "基础设施:公共设施:公共厕所",
        "type": 0,
        "location": {
            "lat": 40.695576,
            "lng": 120.078069
        },
        "ad_info": {
            "adcode": 211422,
            "province": "辽宁省",
            "city": "葫芦岛市",
            "district": "建昌县"
        }
    },
    {
        "id": "9207445356594354288",
        "title": "市场公共厕所",
        "address": "辽宁省葫芦岛市建昌县建凌街与建设路交叉口正北方向125米左右",
        "tel": "",
        "category": "基础设施:公共设施:公共厕所",
        "type": 0,
        "location": {
            "lat": 40.810834,
            "lng": 119.808163
        },
        "ad_info": {
            "adcode": 211422,
            "province": "辽宁省",
            "city": "葫芦岛市",
            "district": "建昌县"
        }
    },
    {
        "id": "1227599179956804041",
        "title": "公共厕所",
        "address": "辽宁省葫芦岛市建昌县建平胡同与朝阳路交叉口正南方向250米左右",
        "tel": "",
        "category": "基础设施:公共设施:公共厕所",
        "type": 0,
        "location": {
            "lat": 40.811691,
            "lng": 119.804324
        },
        "ad_info": {
            "adcode": 211422,
            "province": "辽宁省",
            "city": "葫芦岛市",
            "district": "建昌县"
        }
    },
    {
        "id": "16897310789418388984",
        "title": "公共厕所",
        "address": "辽宁省葫芦岛市连山区丰乐路与新华大街交叉口西南方向165米左右",
        "tel": "",
        "category": "基础设施:公共设施:公共厕所",
        "type": 0,
        "location": {
            "lat": 40.754615,
            "lng": 120.85316
        },
        "ad_info": {
            "adcode": 211402,
            "province": "辽宁省",
            "city": "葫芦岛市",
            "district": "连山区"
        }
    },
    {
        "id": "18407868013351058543",
        "title": "环保公共厕所",
        "address": "辽宁省葫芦岛市绥中县东戴河大街与址九线交叉口正南方向237米左右",
        "tel": "",
        "category": "基础设施:公共设施:公共厕所",
        "type": 0,
        "location": {
            "lat": 40.013382,
            "lng": 119.91079
        },
        "ad_info": {
            "adcode": 211421,
            "province": "辽宁省",
            "city": "葫芦岛市",
            "district": "绥中县"
        }
    },
    {
        "id": "8100176248809792789",
        "title": "塔山服务区第二公共厕所",
        "address": "辽宁省葫芦岛市连山区中国石化辽宁交投塔山服务区加油站东南侧130米",
        "tel": "",
        "category": "基础设施:公共设施:公共厕所",
        "type": 0,
        "location": {
            "lat": 40.860533,
            "lng": 120.924666
        },
        "ad_info": {
            "adcode": 211402,
            "province": "辽宁省",
            "city": "葫芦岛市",
            "district": "连山区"
        }
    },
    {
        "id": "7637070871741418278",
        "title": "公共厕所",
        "address": "辽宁省葫芦岛市连山区北昌路与永昌路交叉口正东方向371米左右",
        "tel": "",
        "category": "基础设施:公共设施:公共厕所",
        "type": 0,
        "location": {
            "lat": 40.759841,
            "lng": 120.879967
        },
        "ad_info": {
            "adcode": 211402,
            "province": "辽宁省",
            "city": "葫芦岛市",
            "district": "连山区"
        }
    },
    {
        "id": "15108661814996568348",
        "title": "公共厕所",
        "address": "辽宁省葫芦岛市兴城市兴城市兴泰制衣有限公司南侧50米",
        "tel": "",
        "category": "基础设施:公共设施:公共厕所",
        "type": 0,
        "location": {
            "lat": 40.715493,
            "lng": 120.668265
        },
        "ad_info": {
            "adcode": 211481,
            "province": "辽宁省",
            "city": "葫芦岛市",
            "district": "兴城市"
        }
    },
    {
        "id": "10480090609610984950",
        "title": "公共厕所",
        "address": "辽宁省葫芦岛市绥中县蔬菜水果店西南侧280米",
        "tel": "",
        "category": "基础设施:公共设施:公共厕所",
        "type": 0,
        "location": {
            "lat": 40.138904,
            "lng": 120.225057
        },
        "ad_info": {
            "adcode": 211421,
            "province": "辽宁省",
            "city": "葫芦岛市",
            "district": "绥中县"
        }
    },
    {
        "id": "7415844218507157826",
        "title": "公共厕所",
        "address": "辽宁省葫芦岛市连山区丰乐路与群英街交叉口正北方向135米左右",
        "tel": "",
        "category": "基础设施:公共设施:公共厕所",
        "type": 0,
        "location": {
            "lat": 40.751874,
            "lng": 120.861465
        },
        "ad_info": {
            "adcode": 211402,
            "province": "辽宁省",
            "city": "葫芦岛市",
            "district": "连山区"
        }
    },
    {
        "id": "15317228394290688469",
        "title": "公共厕所",
        "address": "辽宁省葫芦岛市兴城市兴海南街与兴海路一段交叉口西北方向86米左右",
        "tel": "",
        "category": "基础设施:公共设施:公共厕所",
        "type": 0,
        "location": {
            "lat": 40.615647,
            "lng": 120.70703
        },
        "ad_info": {
            "adcode": 211481,
            "province": "辽宁省",
            "city": "葫芦岛市",
            "district": "兴城市"
        }
    },
    {
        "id": "2743660746899884405",
        "title": "公共厕所",
        "address": "辽宁省葫芦岛市建昌县G230与全新线交叉口正北方向375米左右",
        "tel": "",
        "category": "基础设施:公共设施:公共厕所",
        "type": 0,
        "location": {
            "lat": 40.525116,
            "lng": 119.583682
        },
        "ad_info": {
            "adcode": 211422,
            "province": "辽宁省",
            "city": "葫芦岛市",
            "district": "建昌县"
        }
    },
    {
        "id": "2676896242459330343",
        "title": "公共厕所",
        "address": "辽宁省葫芦岛市龙港区锦葫路与风华街交叉口正西方向83米左右",
        "tel": "",
        "category": "基础设施:公共设施:公共厕所",
        "type": 0,
        "location": {
            "lat": 40.720876,
            "lng": 120.935054
        },
        "ad_info": {
            "adcode": 211403,
            "province": "辽宁省",
            "city": "葫芦岛市",
            "district": "龙港区"
        }
    },
    {
        "id": "6793866617979348348",
        "title": "公共厕所",
        "address": "辽宁省葫芦岛市建昌县凌河西街与建设路交叉口东南方向321米左右",
        "tel": "",
        "category": "基础设施:公共设施:公共厕所",
        "type": 0,
        "location": {
            "lat": 40.808584,
            "lng": 119.813975
        },
        "ad_info": {
            "adcode": 211422,
            "province": "辽宁省",
            "city": "葫芦岛市",
            "district": "建昌县"
        }
    },
    {
        "id": "5422038560475561472",
        "title": "公共厕所",
        "address": "辽宁省葫芦岛市绥中县址九线与蛇李线交叉口正西方向1497米左右",
        "tel": "",
        "category": "基础设施:公共设施:公共厕所",
        "type": 0,
        "location": {
            "lat": 40.109452,
            "lng": 119.811454
        },
        "ad_info": {
            "adcode": 211421,
            "province": "辽宁省",
            "city": "葫芦岛市",
            "district": "绥中县"
        }
    },
    {
        "id": "4122476671658685710",
        "title": "无障碍公共厕所",
        "address": "辽宁省葫芦岛市兴城市兴城市头道牌坊东胡同与春和门南顺墙胡同交叉口东北方向55米左右",
        "tel": "",
        "category": "基础设施:公共设施:公共厕所",
        "type": 0,
        "location": {
            "lat": 40.621489,
            "lng": 120.718529
        },
        "ad_info": {
            "adcode": 211481,
            "province": "辽宁省",
            "city": "葫芦岛市",
            "district": "兴城市"
        }
    },
    {
        "id": "15254718350482182064",
        "title": "公共厕所",
        "address": "辽宁省葫芦岛市绥中县印兴修配厂东南侧110米",
        "tel": "",
        "category": "基础设施:公共设施:公共厕所",
        "type": 0,
        "location": {
            "lat": 40.312841,
            "lng": 120.300643
        },
        "ad_info": {
            "adcode": 211421,
            "province": "辽宁省",
            "city": "葫芦岛市",
            "district": "绥中县"
        }
    },
    {
        "id": "3138857560433598549",
        "title": "无障碍公共厕所",
        "address": "辽宁省葫芦岛市龙港区银龙大厦(海日路)东侧80米",
        "tel": "",
        "category": "基础设施:公共设施:公共厕所",
        "type": 0,
        "location": {
            "lat": 40.717755,
            "lng": 120.844646
        },
        "ad_info": {
            "adcode": 211403,
            "province": "辽宁省",
            "city": "葫芦岛市",
            "district": "龙港区"
        }
    },
    {
        "id": "2853803243520789045",
        "title": "公共厕所",
        "address": "辽宁省葫芦岛市绥中县城内西街与西门北路交叉口正北方向47米左右",
        "tel": "",
        "category": "基础设施:公共设施:公共厕所",
        "type": 0,
        "location": {
            "lat": 40.334495,
            "lng": 120.336236
        },
        "ad_info": {
            "adcode": 211421,
            "province": "辽宁省",
            "city": "葫芦岛市",
            "district": "绥中县"
        }
    },
    {
        "id": "4614077213171939731",
        "title": "兴城服务区公共厕所",
        "address": "辽宁省葫芦岛市兴城市G1京哈高速西100米",
        "tel": "",
        "category": "基础设施:公共设施:公共厕所",
        "type": 0,
        "location": {
            "lat": 40.598695,
            "lng": 120.637809
        },
        "ad_info": {
            "adcode": 211481,
            "province": "辽宁省",
            "city": "葫芦岛市",
            "district": "兴城市"
        }
    },
    {
        "id": "2383814329583491152",
        "title": "公共厕所",
        "address": "辽宁省葫芦岛市建昌县",
        "tel": "",
        "category": "基础设施:公共设施:公共厕所",
        "type": 0,
        "location": {
            "lat": 40.695576,
            "lng": 120.078069
        },
        "ad_info": {
            "adcode": 211422,
            "province": "辽宁省",
            "city": "葫芦岛市",
            "district": "建昌县"
        }
    },
    {
        "id": "9207445356594354288",
        "title": "市场公共厕所",
        "address": "辽宁省葫芦岛市建昌县建凌街与建设路交叉口正北方向125米左右",
        "tel": "",
        "category": "基础设施:公共设施:公共厕所",
        "type": 0,
        "location": {
            "lat": 40.810834,
            "lng": 119.808163
        },
        "ad_info": {
            "adcode": 211422,
            "province": "辽宁省",
            "city": "葫芦岛市",
            "district": "建昌县"
        }
    }
]