[
    {
        "id": "16891363569650689666",
        "title": "公共厕所",
        "address": "云南省西双版纳傣族自治州景洪市宣慰大道与景亮路交叉口正东方向46米左右",
        "tel": "",
        "category": "基础设施:公共设施:公共厕所",
        "type": 0,
        "location": {
            "lat": 22.013936,
            "lng": 100.81211
        },
        "ad_info": {
            "adcode": 532801,
            "province": "云南省",
            "city": "西双版纳傣族自治州",
            "district": "景洪市"
        }
    },
    {
        "id": "13517579559571867240",
        "title": "公共厕所",
        "address": "云南省西双版纳傣族自治州景洪市景亮路与港口路交叉口正北方向74米左右",
        "tel": "",
        "category": "基础设施:公共设施:公共厕所",
        "type": 0,
        "location": {
            "lat": 22.016909,
            "lng": 100.808759
        },
        "ad_info": {
            "adcode": 532801,
            "province": "云南省",
            "city": "西双版纳傣族自治州",
            "district": "景洪市"
        }
    },
    {
        "id": "8360612451415453574",
        "title": "公共厕所",
        "address": "云南省西双版纳傣族自治州景洪市庄慕路与庄董东路交叉口西北方向346米左右",
        "tel": "",
        "category": "基础设施:公共设施:公共厕所",
        "type": 0,
        "location": {
            "lat": 21.974326,
            "lng": 100.812818
        },
        "ad_info": {
            "adcode": 532801,
            "province": "云南省",
            "city": "西双版纳傣族自治州",
            "district": "景洪市"
        }
    },
    {
        "id": "7355934171934528234",
        "title": "公共厕所",
        "address": "云南省西双版纳傣族自治州景洪市万象大道与菩提大道交叉口正西方向270米左右",
        "tel": "",
        "category": "基础设施:公共设施:公共厕所",
        "type": 0,
        "location": {
            "lat": 22.009784,
            "lng": 100.817355
        },
        "ad_info": {
            "adcode": 532801,
            "province": "云南省",
            "city": "西双版纳傣族自治州",
            "district": "景洪市"
        }
    },
    {
        "id": "11936210327578731779",
        "title": "公共厕所",
        "address": "云南省西双版纳傣族自治州景洪市勐泐大道与勐海路交叉口正西方向99米左右",
        "tel": "",
        "category": "基础设施:公共设施:公共厕所",
        "type": 0,
        "location": {
            "lat": 21.991643,
            "lng": 100.799373
        },
        "ad_info": {
            "adcode": 532801,
            "province": "云南省",
            "city": "西双版纳傣族自治州",
            "district": "景洪市"
        }
    },
    {
        "id": "12782202870400476871",
        "title": "公共厕所",
        "address": "云南省西双版纳傣族自治州景洪市么囡路与宣慰大道交叉口正北方向26米左右",
        "tel": "",
        "category": "基础设施:公共设施:公共厕所",
        "type": 0,
        "location": {
            "lat": 22.004737,
            "lng": 100.784611
        },
        "ad_info": {
            "adcode": 532801,
            "province": "云南省",
            "city": "西双版纳傣族自治州",
            "district": "景洪市"
        }
    },
    {
        "id": "4027926293377154429",
        "title": "公共厕所",
        "address": "云南省西双版纳傣族自治州景洪市旅游巷与曼泐路交叉口正南方向186米左右",
        "tel": "",
        "category": "基础设施:公共设施:公共厕所",
        "type": 0,
        "location": {
            "lat": 22.010551,
            "lng": 100.816213
        },
        "ad_info": {
            "adcode": 532801,
            "province": "云南省",
            "city": "西双版纳傣族自治州",
            "district": "景洪市"
        }
    },
    {
        "id": "1718174078607051738",
        "title": "公共厕所",
        "address": "云南省西双版纳傣族自治州景洪市浩宇大道与观澜大道交叉口西南方向127米左右",
        "tel": "",
        "category": "基础设施:公共设施:公共厕所",
        "type": 0,
        "location": {
            "lat": 22.000706,
            "lng": 100.807658
        },
        "ad_info": {
            "adcode": 532801,
            "province": "云南省",
            "city": "西双版纳傣族自治州",
            "district": "景洪市"
        }
    },
    {
        "id": "14795786758835619589",
        "title": "公共厕所",
        "address": "云南省西双版纳傣族自治州景洪市勐泐大道与嘎兰中路交叉口东北方向116米左右",
        "tel": "",
        "category": "基础设施:公共设施:公共厕所",
        "type": 0,
        "location": {
            "lat": 22.020296,
            "lng": 100.794681
        },
        "ad_info": {
            "adcode": 532801,
            "province": "云南省",
            "city": "西双版纳傣族自治州",
            "district": "景洪市"
        }
    },
    {
        "id": "13366187690702451078",
        "title": "公共厕所",
        "address": "云南省西双版纳傣族自治州景洪市云南科盛康养产业发展有限公司西北侧170米",
        "tel": "",
        "category": "基础设施:公共设施:公共厕所",
        "type": 0,
        "location": {
            "lat": 21.99608,
            "lng": 100.821691
        },
        "ad_info": {
            "adcode": 532801,
            "province": "云南省",
            "city": "西双版纳傣族自治州",
            "district": "景洪市"
        }
    },
    {
        "id": "13975769585426036821",
        "title": "公共厕所",
        "address": "云南省西双版纳傣族自治州景洪市勐海路辅路与广电路交叉口西北240米",
        "tel": "",
        "category": "基础设施:公共设施:公共厕所",
        "type": 0,
        "location": {
            "lat": 21.992269,
            "lng": 100.784319
        },
        "ad_info": {
            "adcode": 532801,
            "province": "云南省",
            "city": "西双版纳傣族自治州",
            "district": "景洪市"
        }
    },
    {
        "id": "17812880045773119602",
        "title": "公共厕所",
        "address": "云南省西双版纳傣族自治州景洪市勐腊路与广电路交叉口西北方向223米左右",
        "tel": "",
        "category": "基础设施:公共设施:公共厕所",
        "type": 0,
        "location": {
            "lat": 21.999119,
            "lng": 100.786672
        },
        "ad_info": {
            "adcode": 532801,
            "province": "云南省",
            "city": "西双版纳傣族自治州",
            "district": "景洪市"
        }
    },
    {
        "id": "6184140648976570607",
        "title": "洗手间",
        "address": "云南省西双版纳傣族自治州景洪市万景大道与主题公园路交叉口西南方向180米左右",
        "tel": "",
        "category": "基础设施:公共设施:公共厕所",
        "type": 0,
        "location": {
            "lat": 22.023945,
            "lng": 100.746309
        },
        "ad_info": {
            "adcode": 532801,
            "province": "云南省",
            "city": "西双版纳傣族自治州",
            "district": "景洪市"
        }
    },
    {
        "id": "11755861896091527381",
        "title": "公共厕所",
        "address": "云南省西双版纳傣族自治州景洪市浩宇大道与观澜大道交叉口西南方向62米左右",
        "tel": "",
        "category": "基础设施:公共设施:公共厕所",
        "type": 0,
        "location": {
            "lat": 22.00114,
            "lng": 100.808093
        },
        "ad_info": {
            "adcode": 532801,
            "province": "云南省",
            "city": "西双版纳傣族自治州",
            "district": "景洪市"
        }
    },
    {
        "id": "4967906290461061651",
        "title": "公共厕所",
        "address": "云南省西双版纳傣族自治州勐腊县南腊路与平安路交叉口正西方向104米左右",
        "tel": "",
        "category": "基础设施:公共设施:公共厕所",
        "type": 0,
        "location": {
            "lat": 21.457421,
            "lng": 101.567764
        },
        "ad_info": {
            "adcode": 532823,
            "province": "云南省",
            "city": "西双版纳傣族自治州",
            "district": "勐腊县"
        }
    },
    {
        "id": "6987676357306901353",
        "title": "公共厕所",
        "address": "云南省西双版纳傣族自治州景洪市澜沧江路2号",
        "tel": "",
        "category": "基础设施:公共设施:公共厕所",
        "type": 0,
        "location": {
            "lat": 22.01284,
            "lng": 100.820557
        },
        "ad_info": {
            "adcode": 532801,
            "province": "云南省",
            "city": "西双版纳傣族自治州",
            "district": "景洪市"
        }
    },
    {
        "id": "378221172737978479",
        "title": "公共厕所",
        "address": "云南省西双版纳傣族自治州景洪市允大公路与景观大道交叉口东南方向91米左右",
        "tel": "",
        "category": "基础设施:公共设施:公共厕所",
        "type": 0,
        "location": {
            "lat": 21.707539,
            "lng": 100.744541
        },
        "ad_info": {
            "adcode": 532801,
            "province": "云南省",
            "city": "西双版纳傣族自治州",
            "district": "景洪市"
        }
    },
    {
        "id": "4191709845321203046",
        "title": "公共厕所",
        "address": "云南省西双版纳傣族自治州景洪市万景大道与棕榈路交叉口西南方向82米左右",
        "tel": "",
        "category": "基础设施:公共设施:公共厕所",
        "type": 0,
        "location": {
            "lat": 22.020175,
            "lng": 100.755018
        },
        "ad_info": {
            "adcode": 532801,
            "province": "云南省",
            "city": "西双版纳傣族自治州",
            "district": "景洪市"
        }
    },
    {
        "id": "15118334323757735282",
        "title": "公共厕所",
        "address": "云南省西双版纳傣族自治州景洪市万象大道与孔雀路交叉口正南方向194米左右",
        "tel": "",
        "category": "基础设施:公共设施:公共厕所",
        "type": 0,
        "location": {
            "lat": 22.00673,
            "lng": 100.81895
        },
        "ad_info": {
            "adcode": 532801,
            "province": "云南省",
            "city": "西双版纳傣族自治州",
            "district": "景洪市"
        }
    },
    {
        "id": "13986164441732916083",
        "title": "公共厕所",
        "address": "云南省西双版纳傣族自治州景洪市万景大道与棕榈路交叉口东北方向87米左右",
        "tel": "",
        "category": "基础设施:公共设施:公共厕所",
        "type": 0,
        "location": {
            "lat": 22.021317,
            "lng": 100.756128
        },
        "ad_info": {
            "adcode": 532801,
            "province": "云南省",
            "city": "西双版纳傣族自治州",
            "district": "景洪市"
        }
    },
    {
        "id": "9599825437190303506",
        "title": "公共厕所",
        "address": "云南省西双版纳傣族自治州景洪市嘎兰一巷与嘎兰南路交叉口正北方向112米左右",
        "tel": "",
        "category": "基础设施:公共设施:公共厕所",
        "type": 0,
        "location": {
            "lat": 22.0068,
            "lng": 100.801052
        },
        "ad_info": {
            "adcode": 532801,
            "province": "云南省",
            "city": "西双版纳傣族自治州",
            "district": "景洪市"
        }
    },
    {
        "id": "11975411158120350816",
        "title": "公共厕所",
        "address": "云南省西双版纳傣族自治州景洪市家园巷与赕塔路交叉口西北方向111米左右",
        "tel": "",
        "category": "基础设施:公共设施:公共厕所",
        "type": 0,
        "location": {
            "lat": 21.95232,
            "lng": 100.76602
        },
        "ad_info": {
            "adcode": 532801,
            "province": "云南省",
            "city": "西双版纳傣族自治州",
            "district": "景洪市"
        }
    },
    {
        "id": "2806746341367668262",
        "title": "公共厕所",
        "address": "云南省西双版纳傣族自治州景洪市Y024与景哈乡公路交叉口西南方向252米左右",
        "tel": "",
        "category": "基础设施:公共设施:公共厕所",
        "type": 0,
        "location": {
            "lat": 21.838316,
            "lng": 100.928595
        },
        "ad_info": {
            "adcode": 532801,
            "province": "云南省",
            "city": "西双版纳傣族自治州",
            "district": "景洪市"
        }
    },
    {
        "id": "4893521977921538396",
        "title": "公共厕所",
        "address": "云南省西双版纳傣族自治州景洪市江山巷与澜沧江路交叉口正东方向83米左右",
        "tel": "",
        "category": "基础设施:公共设施:公共厕所",
        "type": 0,
        "location": {
            "lat": 22.026669,
            "lng": 100.79692
        },
        "ad_info": {
            "adcode": 532801,
            "province": "云南省",
            "city": "西双版纳傣族自治州",
            "district": "景洪市"
        }
    },
    {
        "id": "2001566099744818679",
        "title": "公共厕所",
        "address": "云南省西双版纳傣族自治州景洪市宣慰大道160号",
        "tel": "",
        "category": "基础设施:公共设施:公共厕所",
        "type": 0,
        "location": {
            "lat": 22.002511,
            "lng": 100.782806
        },
        "ad_info": {
            "adcode": 532801,
            "province": "云南省",
            "city": "西双版纳傣族自治州",
            "district": "景洪市"
        }
    },
    {
        "id": "1259139031400937747",
        "title": "公共厕所",
        "address": "云南省西双版纳傣族自治州勐腊县东盟大道与紫薇路交叉口东南方向98米左右",
        "tel": "",
        "category": "基础设施:公共设施:公共厕所",
        "type": 0,
        "location": {
            "lat": 21.188906,
            "lng": 101.6911
        },
        "ad_info": {
            "adcode": 532823,
            "province": "云南省",
            "city": "西双版纳傣族自治州",
            "district": "勐腊县"
        }
    },
    {
        "id": "6310507675134760966",
        "title": "公共厕所",
        "address": "云南省西双版纳傣族自治州景洪市嘎兰北路与清泉路辅路交叉口正西方向1274米左右",
        "tel": "",
        "category": "基础设施:公共设施:公共厕所",
        "type": 0,
        "location": {
            "lat": 22.019325,
            "lng": 100.778699
        },
        "ad_info": {
            "adcode": 532801,
            "province": "云南省",
            "city": "西双版纳傣族自治州",
            "district": "景洪市"
        }
    },
    {
        "id": "11990798450490096184",
        "title": "公共厕所",
        "address": "云南省西双版纳傣族自治州景洪市孔雀大道与孔雀路交叉口正南方向196米左右",
        "tel": "",
        "category": "基础设施:公共设施:公共厕所",
        "type": 0,
        "location": {
            "lat": 22.00659,
            "lng": 100.82005
        },
        "ad_info": {
            "adcode": 532801,
            "province": "云南省",
            "city": "西双版纳傣族自治州",
            "district": "景洪市"
        }
    },
    {
        "id": "7881995934589934975",
        "title": "公共厕所",
        "address": "云南省西双版纳傣族自治州景洪市允北一路与嘎兰中路交叉口正西方向136米左右",
        "tel": "",
        "category": "基础设施:公共设施:公共厕所",
        "type": 0,
        "location": {
            "lat": 22.015182,
            "lng": 100.79708
        },
        "ad_info": {
            "adcode": 532801,
            "province": "云南省",
            "city": "西双版纳傣族自治州",
            "district": "景洪市"
        }
    },
    {
        "id": "14486984562401654210",
        "title": "公共厕所",
        "address": "云南省西双版纳傣族自治州景洪市金鹿巷与金鹿步行街交叉口正西方向64米左右",
        "tel": "",
        "category": "基础设施:公共设施:公共厕所",
        "type": 0,
        "location": {
            "lat": 22.002406,
            "lng": 100.79472
        },
        "ad_info": {
            "adcode": 532801,
            "province": "云南省",
            "city": "西双版纳傣族自治州",
            "district": "景洪市"
        }
    },
    {
        "id": "6150114157596215641",
        "title": "公共厕所",
        "address": "云南省西双版纳傣族自治州景洪市勐泐大道孔雀湖",
        "tel": "",
        "category": "基础设施:公共设施:公共厕所",
        "type": 0,
        "location": {
            "lat": 22.008104,
            "lng": 100.796958
        },
        "ad_info": {
            "adcode": 532801,
            "province": "云南省",
            "city": "西双版纳傣族自治州",
            "district": "景洪市"
        }
    },
    {
        "id": "7317896404108361097",
        "title": "公共厕所",
        "address": "云南省西双版纳傣族自治州景洪市勐泐大道辅路与金鹿东街交叉口东北方向87米左右",
        "tel": "",
        "category": "基础设施:公共设施:公共厕所",
        "type": 0,
        "location": {
            "lat": 22.003828,
            "lng": 100.797898
        },
        "ad_info": {
            "adcode": 532801,
            "province": "云南省",
            "city": "西双版纳傣族自治州",
            "district": "景洪市"
        }
    },
    {
        "id": "11292475862937043580",
        "title": "公共厕所",
        "address": "云南省西双版纳傣族自治州景洪市广场大道与滨江大道交叉口正北方向111米左右",
        "tel": "",
        "category": "基础设施:公共设施:公共厕所",
        "type": 0,
        "location": {
            "lat": 22.006824,
            "lng": 100.807756
        },
        "ad_info": {
            "adcode": 532801,
            "province": "云南省",
            "city": "西双版纳傣族自治州",
            "district": "景洪市"
        }
    },
    {
        "id": "13818040935077245672",
        "title": "公共厕所",
        "address": "云南省西双版纳傣族自治州景洪市机场公路与赕塔路交叉口西北方向52米左右",
        "tel": "",
        "category": "基础设施:公共设施:公共厕所",
        "type": 0,
        "location": {
            "lat": 21.950957,
            "lng": 100.767097
        },
        "ad_info": {
            "adcode": 532801,
            "province": "云南省",
            "city": "西双版纳傣族自治州",
            "district": "景洪市"
        }
    },
    {
        "id": "10465822084795575859",
        "title": "公共厕所",
        "address": "云南省西双版纳傣族自治州景洪市勐腊路与广电路交叉口西南方向135米左右",
        "tel": "",
        "category": "基础设施:公共设施:公共厕所",
        "type": 0,
        "location": {
            "lat": 21.996304,
            "lng": 100.787192
        },
        "ad_info": {
            "adcode": 532801,
            "province": "云南省",
            "city": "西双版纳傣族自治州",
            "district": "景洪市"
        }
    },
    {
        "id": "937535365661599830",
        "title": "公共厕所",
        "address": "云南省西双版纳傣族自治州景洪市公园大道与浩宇大道交叉口正南方向73米左右",
        "tel": "",
        "category": "基础设施:公共设施:公共厕所",
        "type": 0,
        "location": {
            "lat": 22.005578,
            "lng": 100.805325
        },
        "ad_info": {
            "adcode": 532801,
            "province": "云南省",
            "city": "西双版纳傣族自治州",
            "district": "景洪市"
        }
    },
    {
        "id": "16709367499119135230",
        "title": "公共厕所",
        "address": "云南省西双版纳傣族自治州景洪市勐泐大道39号莎湾国际3层",
        "tel": "",
        "category": "基础设施:公共设施:公共厕所",
        "type": 0,
        "location": {
            "lat": 22.004985,
            "lng": 100.796096
        },
        "ad_info": {
            "adcode": 532801,
            "province": "云南省",
            "city": "西双版纳傣族自治州",
            "district": "景洪市"
        }
    },
    {
        "id": "7628642827215228789",
        "title": "公共厕所",
        "address": "云南省西双版纳傣族自治州景洪市景德路与金鹿巷交叉口西南方向115米左右",
        "tel": "",
        "category": "基础设施:公共设施:公共厕所",
        "type": 0,
        "location": {
            "lat": 22.00175,
            "lng": 100.794417
        },
        "ad_info": {
            "adcode": 532801,
            "province": "云南省",
            "city": "西双版纳傣族自治州",
            "district": "景洪市"
        }
    },
    {
        "id": "18407459953094861674",
        "title": "公共厕所",
        "address": "云南省西双版纳傣族自治州景洪市宰勐东路与机场公路交叉口东南方向50米左右",
        "tel": "",
        "category": "基础设施:公共设施:公共厕所",
        "type": 0,
        "location": {
            "lat": 21.968307,
            "lng": 100.770521
        },
        "ad_info": {
            "adcode": 532801,
            "province": "云南省",
            "city": "西双版纳傣族自治州",
            "district": "景洪市"
        }
    },
    {
        "id": "2924052512785488469",
        "title": "公共厕所",
        "address": "云南省西双版纳傣族自治州景洪市新城西路与曼沙路交叉口正西方向465米左右",
        "tel": "",
        "category": "基础设施:公共设施:公共厕所",
        "type": 0,
        "location": {
            "lat": 22.031915,
            "lng": 100.74585
        },
        "ad_info": {
            "adcode": 532801,
            "province": "云南省",
            "city": "西双版纳傣族自治州",
            "district": "景洪市"
        }
    },
    {
        "id": "1094197920963359462",
        "title": "公共厕所",
        "address": "云南省西双版纳傣族自治州景洪市宣慰大道金沙滩东南侧约50米",
        "tel": "",
        "category": "基础设施:公共设施:公共厕所",
        "type": 0,
        "location": {
            "lat": 22.008795,
            "lng": 100.803582
        },
        "ad_info": {
            "adcode": 532801,
            "province": "云南省",
            "city": "西双版纳傣族自治州",
            "district": "景洪市"
        }
    },
    {
        "id": "7562913969352067760",
        "title": "公共厕所",
        "address": "云南省西双版纳傣族自治州景洪市勐遮路与勐龙路交叉口正北方向54米左右",
        "tel": "",
        "category": "基础设施:公共设施:公共厕所",
        "type": 0,
        "location": {
            "lat": 21.997118,
            "lng": 100.801527
        },
        "ad_info": {
            "adcode": 532801,
            "province": "云南省",
            "city": "西双版纳傣族自治州",
            "district": "景洪市"
        }
    },
    {
        "id": "5226048255512478975",
        "title": "公共厕所",
        "address": "云南省西双版纳傣族自治州景洪市允北一路与勐泐大道交叉口正北方向175米左右",
        "tel": "",
        "category": "基础设施:公共设施:公共厕所",
        "type": 0,
        "location": {
            "lat": 22.015835,
            "lng": 100.795064
        },
        "ad_info": {
            "adcode": 532801,
            "province": "云南省",
            "city": "西双版纳傣族自治州",
            "district": "景洪市"
        }
    },
    {
        "id": "2987945820447054884",
        "title": "公共厕所",
        "address": "云南省西双版纳傣族自治州景洪市勐泐大道与滨江大道交叉口东北方向42米左右",
        "tel": "",
        "category": "基础设施:公共设施:公共厕所",
        "type": 0,
        "location": {
            "lat": 22.0215,
            "lng": 100.792733
        },
        "ad_info": {
            "adcode": 532801,
            "province": "云南省",
            "city": "西双版纳傣族自治州",
            "district": "景洪市"
        }
    },
    {
        "id": "17470609514284660930",
        "title": "公共厕所",
        "address": "云南省西双版纳傣族自治州景洪市允北一路与勐泐大道交叉口东北方向73米左右",
        "tel": "",
        "category": "基础设施:公共设施:公共厕所",
        "type": 0,
        "location": {
            "lat": 22.014862,
            "lng": 100.795724
        },
        "ad_info": {
            "adcode": 532801,
            "province": "云南省",
            "city": "西双版纳傣族自治州",
            "district": "景洪市"
        }
    },
    {
        "id": "5383296099225352458",
        "title": "公共卫生间",
        "address": "云南省西双版纳傣族自治州景洪市宣慰大道77号",
        "tel": "",
        "category": "基础设施:公共设施:公共厕所",
        "type": 0,
        "location": {
            "lat": 22.007038,
            "lng": 100.794896
        },
        "ad_info": {
            "adcode": 532801,
            "province": "云南省",
            "city": "西双版纳傣族自治州",
            "district": "景洪市"
        }
    },
    {
        "id": "12626683698386459045",
        "title": "公共厕所",
        "address": "云南省西双版纳傣族自治州景洪市澜沧江路中国石化加油站",
        "tel": "",
        "category": "基础设施:公共设施:公共厕所",
        "type": 0,
        "location": {
            "lat": 22.019921,
            "lng": 100.813307
        },
        "ad_info": {
            "adcode": 532801,
            "province": "云南省",
            "city": "西双版纳傣族自治州",
            "district": "景洪市"
        }
    },
    {
        "id": "13103559471570089071",
        "title": "公共厕所",
        "address": "云南省西双版纳傣族自治州景洪市惠康路与曼沙路交叉口西南方向313米左右",
        "tel": "",
        "category": "基础设施:公共设施:公共厕所",
        "type": 0,
        "location": {
            "lat": 22.034557,
            "lng": 100.744167
        },
        "ad_info": {
            "adcode": 532801,
            "province": "云南省",
            "city": "西双版纳傣族自治州",
            "district": "景洪市"
        }
    },
    {
        "id": "11808256869734295401",
        "title": "公共厕所",
        "address": "云南省西双版纳傣族自治州景洪市允南一路与勐泐大道交叉口东南方向57米左右",
        "tel": "",
        "category": "基础设施:公共设施:公共厕所",
        "type": 0,
        "location": {
            "lat": 22.012731,
            "lng": 100.795528
        },
        "ad_info": {
            "adcode": 532801,
            "province": "云南省",
            "city": "西双版纳傣族自治州",
            "district": "景洪市"
        }
    },
    {
        "id": "3016957621075806763",
        "title": "公共厕所",
        "address": "云南省西双版纳傣族自治州景洪市景亮路与曼各路交叉口正南方向281米左右",
        "tel": "",
        "category": "基础设施:公共设施:公共厕所",
        "type": 0,
        "location": {
            "lat": 22.018973,
            "lng": 100.801243
        },
        "ad_info": {
            "adcode": 532801,
            "province": "云南省",
            "city": "西双版纳傣族自治州",
            "district": "景洪市"
        }
    },
    {
        "id": "16903098965821166824",
        "title": "公共厕所",
        "address": "云南省西双版纳傣族自治州勐腊县双拥路与青年路交叉口东南方向127米左右",
        "tel": "",
        "category": "基础设施:公共设施:公共厕所",
        "type": 0,
        "location": {
            "lat": 21.47683,
            "lng": 101.56584
        },
        "ad_info": {
            "adcode": 532823,
            "province": "云南省",
            "city": "西双版纳傣族自治州",
            "district": "勐腊县"
        }
    },
    {
        "id": "12399465192693227990",
        "title": "公共厕所",
        "address": "云南省西双版纳傣族自治州景洪市勐罕路73号",
        "tel": "",
        "category": "基础设施:公共设施:公共厕所",
        "type": 0,
        "location": {
            "lat": 21.849549,
            "lng": 100.926807
        },
        "ad_info": {
            "adcode": 532801,
            "province": "云南省",
            "city": "西双版纳傣族自治州",
            "district": "景洪市"
        }
    },
    {
        "id": "9030123629217316809",
        "title": "公共厕所",
        "address": "云南省西双版纳傣族自治州景洪市宣慰大道8号",
        "tel": "",
        "category": "基础设施:公共设施:公共厕所",
        "type": 0,
        "location": {
            "lat": 22.010735,
            "lng": 100.819701
        },
        "ad_info": {
            "adcode": 532801,
            "province": "云南省",
            "city": "西双版纳傣族自治州",
            "district": "景洪市"
        }
    },
    {
        "id": "13548474479083244418",
        "title": "公共厕所",
        "address": "云南省西双版纳傣族自治州景洪市西双版纳永利新能源应用有限公司西北侧110米",
        "tel": "",
        "category": "基础设施:公共设施:公共厕所",
        "type": 0,
        "location": {
            "lat": 22.005787,
            "lng": 100.737607
        },
        "ad_info": {
            "adcode": 532801,
            "province": "云南省",
            "city": "西双版纳傣族自治州",
            "district": "景洪市"
        }
    },
    {
        "id": "7309283451261791973",
        "title": "公共厕所",
        "address": "云南省西双版纳傣族自治州景洪市勐海路13号",
        "tel": "",
        "category": "基础设施:公共设施:公共厕所",
        "type": 0,
        "location": {
            "lat": 22.006139,
            "lng": 100.80436
        },
        "ad_info": {
            "adcode": 532801,
            "province": "云南省",
            "city": "西双版纳傣族自治州",
            "district": "景洪市"
        }
    },
    {
        "id": "1840993958463403069",
        "title": "公共厕所",
        "address": "云南省西双版纳傣族自治州景洪市勐泐大道与民航路交叉口正南方向169米左右",
        "tel": "",
        "category": "基础设施:公共设施:公共厕所",
        "type": 0,
        "location": {
            "lat": 22.008613,
            "lng": 100.795523
        },
        "ad_info": {
            "adcode": 532801,
            "province": "云南省",
            "city": "西双版纳傣族自治州",
            "district": "景洪市"
        }
    },
    {
        "id": "14487187287919028751",
        "title": "公共卫生间",
        "address": "云南省西双版纳傣族自治州景洪市勐泐大道西双版纳出入境检验检疫局",
        "tel": "",
        "category": "基础设施:公共设施:公共厕所",
        "type": 0,
        "location": {
            "lat": 21.99265,
            "lng": 100.799792
        },
        "ad_info": {
            "adcode": 532801,
            "province": "云南省",
            "city": "西双版纳傣族自治州",
            "district": "景洪市"
        }
    },
    {
        "id": "7649896284725569804",
        "title": "公共厕所",
        "address": "云南省西双版纳傣族自治州景洪市G214与宰勐西路交叉口正西方向1041米左右",
        "tel": "",
        "category": "基础设施:公共设施:公共厕所",
        "type": 0,
        "location": {
            "lat": 21.936501,
            "lng": 100.735596
        },
        "ad_info": {
            "adcode": 532801,
            "province": "云南省",
            "city": "西双版纳傣族自治州",
            "district": "景洪市"
        }
    },
    {
        "id": "1254761609147636083",
        "title": "公共厕所",
        "address": "云南省西双版纳傣族自治州勐腊县勐腊南路与纳西路交叉口东南方向179米左右",
        "tel": "",
        "category": "基础设施:公共设施:公共厕所",
        "type": 0,
        "location": {
            "lat": 21.468458,
            "lng": 101.568347
        },
        "ad_info": {
            "adcode": 532823,
            "province": "云南省",
            "city": "西双版纳傣族自治州",
            "district": "勐腊县"
        }
    },
    {
        "id": "10495498590154068921",
        "title": "公共厕所",
        "address": "云南省西双版纳傣族自治州景洪市景亮路与港口路交叉口西南方向298米左右",
        "tel": "",
        "category": "基础设施:公共设施:公共厕所",
        "type": 0,
        "location": {
            "lat": 22.01449,
            "lng": 100.8066
        },
        "ad_info": {
            "adcode": 532801,
            "province": "云南省",
            "city": "西双版纳傣族自治州",
            "district": "景洪市"
        }
    },
    {
        "id": "13905743721659262475",
        "title": "公共厕所",
        "address": "云南省西双版纳傣族自治州景洪市小街小学曼别完小西北侧90米",
        "tel": "",
        "category": "基础设施:公共设施:公共厕所",
        "type": 0,
        "location": {
            "lat": 21.658273,
            "lng": 100.740534
        },
        "ad_info": {
            "adcode": 532801,
            "province": "云南省",
            "city": "西双版纳傣族自治州",
            "district": "景洪市"
        }
    },
    {
        "id": "5348575905431098685",
        "title": "公共厕所",
        "address": "云南省西双版纳傣族自治州景洪市中国石化曼阁加油站",
        "tel": "",
        "category": "基础设施:公共设施:公共厕所",
        "type": 0,
        "location": {
            "lat": 22.026677,
            "lng": 100.798302
        },
        "ad_info": {
            "adcode": 532801,
            "province": "云南省",
            "city": "西双版纳傣族自治州",
            "district": "景洪市"
        }
    },
    {
        "id": "17449572250532502307",
        "title": "公共厕所",
        "address": "云南省西双版纳傣族自治州景洪市春雷巷与机场公路交叉口东南方向79米左右",
        "tel": "",
        "category": "基础设施:公共设施:公共厕所",
        "type": 0,
        "location": {
            "lat": 21.950331,
            "lng": 100.768398
        },
        "ad_info": {
            "adcode": 532801,
            "province": "云南省",
            "city": "西双版纳傣族自治州",
            "district": "景洪市"
        }
    },
    {
        "id": "18080995370237156851",
        "title": "公共厕所",
        "address": "云南省西双版纳傣族自治州景洪市G214与允大公路交叉口西北方向385米左右",
        "tel": "",
        "category": "基础设施:公共设施:公共厕所",
        "type": 0,
        "location": {
            "lat": 21.943399,
            "lng": 100.769549
        },
        "ad_info": {
            "adcode": 532801,
            "province": "云南省",
            "city": "西双版纳傣族自治州",
            "district": "景洪市"
        }
    },
    {
        "id": "4970943942750537866",
        "title": "公共厕所",
        "address": "云南省西双版纳傣族自治州景洪市观礼巷2号",
        "tel": "",
        "category": "基础设施:公共设施:公共厕所",
        "type": 0,
        "location": {
            "lat": 22.012955,
            "lng": 100.801525
        },
        "ad_info": {
            "adcode": 532801,
            "province": "云南省",
            "city": "西双版纳傣族自治州",
            "district": "景洪市"
        }
    },
    {
        "id": "15131042687688900964",
        "title": "景罕寨公共厕所",
        "address": "云南省西双版纳傣族自治州景洪市告庄西双景景罕寨10栋103号",
        "tel": "",
        "category": "基础设施:公共设施:公共厕所",
        "type": 0,
        "location": {
            "lat": 22.009636,
            "lng": 100.819162
        },
        "ad_info": {
            "adcode": 532801,
            "province": "云南省",
            "city": "西双版纳傣族自治州",
            "district": "景洪市"
        }
    },
    {
        "id": "1960310492546746704",
        "title": "公共厕所",
        "address": "云南省西双版纳傣族自治州勐海县嘎海路与班章大道交叉口东南方向87米左右",
        "tel": "",
        "category": "基础设施:公共设施:公共厕所",
        "type": 0,
        "location": {
            "lat": 21.957352,
            "lng": 100.443346
        },
        "ad_info": {
            "adcode": 532822,
            "province": "云南省",
            "city": "西双版纳傣族自治州",
            "district": "勐海县"
        }
    },
    {
        "id": "14730380122283732963",
        "title": "公共厕所",
        "address": "云南省西双版纳傣族自治州勐腊县勐腊正街与景岗街交叉口西南方向39米左右",
        "tel": "",
        "category": "基础设施:公共设施:公共厕所",
        "type": 0,
        "location": {
            "lat": 21.478917,
            "lng": 101.565684
        },
        "ad_info": {
            "adcode": 532823,
            "province": "云南省",
            "city": "西双版纳傣族自治州",
            "district": "勐腊县"
        }
    },
    {
        "id": "1920280442204913231",
        "title": "公共厕所",
        "address": "云南省西双版纳傣族自治州勐腊县农林街与迎宾路交叉口正南方向269米左右",
        "tel": "",
        "category": "基础设施:公共设施:公共厕所",
        "type": 0,
        "location": {
            "lat": 21.473498,
            "lng": 101.565178
        },
        "ad_info": {
            "adcode": 532823,
            "province": "云南省",
            "city": "西双版纳傣族自治州",
            "district": "勐腊县"
        }
    },
    {
        "id": "868239288211932037",
        "title": "公共厕所",
        "address": "云南省西双版纳傣族自治州景洪市G8511(昆磨高速)",
        "tel": "",
        "category": "基础设施:公共设施:公共厕所",
        "type": 0,
        "location": {
            "lat": 22.072245,
            "lng": 100.907834
        },
        "ad_info": {
            "adcode": 532801,
            "province": "云南省",
            "city": "西双版纳傣族自治州",
            "district": "景洪市"
        }
    },
    {
        "id": "14851069137247984478",
        "title": "公共厕所",
        "address": "云南省西双版纳傣族自治州勐腊县人民路与沙腊路交叉口正东方向154米左右",
        "tel": "",
        "category": "基础设施:公共设施:公共厕所",
        "type": 0,
        "location": {
            "lat": 21.935374,
            "lng": 101.250248
        },
        "ad_info": {
            "adcode": 532823,
            "province": "云南省",
            "city": "西双版纳傣族自治州",
            "district": "勐腊县"
        }
    },
    {
        "id": "2135138349682503316",
        "title": "公共厕所",
        "address": "云南省西双版纳傣族自治州景洪市028乡道附近",
        "tel": "",
        "category": "基础设施:公共设施:公共厕所",
        "type": 0,
        "location": {
            "lat": 21.995708,
            "lng": 100.674613
        },
        "ad_info": {
            "adcode": 532801,
            "province": "云南省",
            "city": "西双版纳傣族自治州",
            "district": "景洪市"
        }
    },
    {
        "id": "13080694078684177861",
        "title": "公共厕所",
        "address": "云南省西双版纳傣族自治州景洪市G214与允大公路交叉口西北方向343米左右",
        "tel": "",
        "category": "基础设施:公共设施:公共厕所",
        "type": 0,
        "location": {
            "lat": 21.943501,
            "lng": 100.770481
        },
        "ad_info": {
            "adcode": 532801,
            "province": "云南省",
            "city": "西双版纳傣族自治州",
            "district": "景洪市"
        }
    },
    {
        "id": "5152294815458303147",
        "title": "公共厕所",
        "address": "云南省西双版纳傣族自治州景洪市G213与昆磨高速交叉口西北方向443米左右",
        "tel": "",
        "category": "基础设施:公共设施:公共厕所",
        "type": 0,
        "location": {
            "lat": 22.184159,
            "lng": 100.869628
        },
        "ad_info": {
            "adcode": 532801,
            "province": "云南省",
            "city": "西双版纳傣族自治州",
            "district": "景洪市"
        }
    },
    {
        "id": "17772820822247796483",
        "title": "罗摩岛卫生间",
        "address": "云南省西双版纳傣族自治州景洪市孔雀大道与孔雀路交叉口正南方向543米左右",
        "tel": "",
        "category": "基础设施:公共设施:公共厕所",
        "type": 0,
        "location": {
            "lat": 22.003727,
            "lng": 100.82229
        },
        "ad_info": {
            "adcode": 532801,
            "province": "云南省",
            "city": "西双版纳傣族自治州",
            "district": "景洪市"
        }
    },
    {
        "id": "6088312128514116996",
        "title": "公共厕所",
        "address": "云南省西双版纳傣族自治州勐海县七彩大道与雨林大道交叉口东北方向89米左右",
        "tel": "",
        "category": "基础设施:公共设施:公共厕所",
        "type": 0,
        "location": {
            "lat": 21.956083,
            "lng": 100.438697
        },
        "ad_info": {
            "adcode": 532822,
            "province": "云南省",
            "city": "西双版纳傣族自治州",
            "district": "勐海县"
        }
    },
    {
        "id": "15467094949532132050",
        "title": "公共厕所",
        "address": "云南省西双版纳傣族自治州景洪市G213与昆磨高速交叉口正西方向480米左右",
        "tel": "",
        "category": "基础设施:公共设施:公共厕所",
        "type": 0,
        "location": {
            "lat": 22.183531,
            "lng": 100.868883
        },
        "ad_info": {
            "adcode": 532801,
            "province": "云南省",
            "city": "西双版纳傣族自治州",
            "district": "景洪市"
        }
    },
    {
        "id": "8040081947855673794",
        "title": "公共厕所",
        "address": "云南省西双版纳傣族自治州勐海县勐满振兴加油站东南侧50米",
        "tel": "",
        "category": "基础设施:公共设施:公共厕所",
        "type": 0,
        "location": {
            "lat": 22.17731,
            "lng": 100.129024
        },
        "ad_info": {
            "adcode": 532822,
            "province": "云南省",
            "city": "西双版纳傣族自治州",
            "district": "勐海县"
        }
    },
    {
        "id": "335534191207655507",
        "title": "公共厕所",
        "address": "云南省西双版纳傣族自治州景洪市勐打线与基勐路交叉口西北方向805米左右",
        "tel": "",
        "category": "基础设施:公共设施:公共厕所",
        "type": 0,
        "location": {
            "lat": 22.08936,
            "lng": 100.88573
        },
        "ad_info": {
            "adcode": 532801,
            "province": "云南省",
            "city": "西双版纳傣族自治州",
            "district": "景洪市"
        }
    },
    {
        "id": "14074938307210391881",
        "title": "二号公共厕所",
        "address": "云南省西双版纳傣族自治州景洪市勐海路12号",
        "tel": "",
        "category": "基础设施:公共设施:公共厕所",
        "type": 0,
        "location": {
            "lat": 21.99333,
            "lng": 100.80701
        },
        "ad_info": {
            "adcode": 532801,
            "province": "云南省",
            "city": "西双版纳傣族自治州",
            "district": "景洪市"
        }
    },
    {
        "id": "9924095179936649280",
        "title": "景洪市泼水广场公共厕所",
        "address": "云南省西双版纳傣族自治州景洪市浩宇大道与观澜大道交叉口西北方向128米左右",
        "tel": "",
        "category": "基础设施:公共设施:公共厕所",
        "type": 0,
        "location": {
            "lat": 22.001929,
            "lng": 100.807422
        },
        "ad_info": {
            "adcode": 532801,
            "province": "云南省",
            "city": "西双版纳傣族自治州",
            "district": "景洪市"
        }
    },
    {
        "id": "1452013024646706396",
        "title": "三号卫生间",
        "address": "云南省西双版纳傣族自治州景洪市景匡巷与曼听路交叉口西南方向304米左右",
        "tel": "",
        "category": "基础设施:公共设施:公共厕所",
        "type": 0,
        "location": {
            "lat": 21.99109,
            "lng": 100.80748
        },
        "ad_info": {
            "adcode": 532801,
            "province": "云南省",
            "city": "西双版纳傣族自治州",
            "district": "景洪市"
        }
    },
    {
        "id": "4322084988895183279",
        "title": "公共厕所",
        "address": "云南省西双版纳傣族自治州勐海县G214与Y070交叉口东南方向70米左右",
        "tel": "",
        "category": "基础设施:公共设施:公共厕所",
        "type": 0,
        "location": {
            "lat": 22.243265,
            "lng": 100.100983
        },
        "ad_info": {
            "adcode": 532822,
            "province": "云南省",
            "city": "西双版纳傣族自治州",
            "district": "勐海县"
        }
    },
    {
        "id": "5715001714340772214",
        "title": "公共厕所",
        "address": "云南省西双版纳傣族自治州勐腊县G213与S341交叉口西北方向264米左右",
        "tel": "",
        "category": "基础设施:公共设施:公共厕所",
        "type": 0,
        "location": {
            "lat": 21.656184,
            "lng": 101.376422
        },
        "ad_info": {
            "adcode": 532823,
            "province": "云南省",
            "city": "西双版纳傣族自治州",
            "district": "勐腊县"
        }
    },
    {
        "id": "927564989676983631",
        "title": "公共厕所",
        "address": "云南省西双版纳傣族自治州景洪市万象大道与孔雀路交叉口西南方向379米左右",
        "tel": "",
        "category": "基础设施:公共设施:公共厕所",
        "type": 0,
        "location": {
            "lat": 22.00525,
            "lng": 100.81809
        },
        "ad_info": {
            "adcode": 532801,
            "province": "云南省",
            "city": "西双版纳傣族自治州",
            "district": "景洪市"
        }
    },
    {
        "id": "9168223753603976310",
        "title": "公共厕所",
        "address": "云南省西双版纳傣族自治州景洪市傣泐金湾与清泉路交叉口东南方向129米左右",
        "tel": "",
        "category": "基础设施:公共设施:公共厕所",
        "type": 0,
        "location": {
            "lat": 22.024232,
            "lng": 100.79585
        },
        "ad_info": {
            "adcode": 532801,
            "province": "云南省",
            "city": "西双版纳傣族自治州",
            "district": "景洪市"
        }
    },
    {
        "id": "2835202293811793963",
        "title": "公共厕所",
        "address": "云南省西双版纳傣族自治州勐腊县G213与S341交叉口正北方向923米左右",
        "tel": "",
        "category": "基础设施:公共设施:公共厕所",
        "type": 0,
        "location": {
            "lat": 21.662329,
            "lng": 101.376565
        },
        "ad_info": {
            "adcode": 532823,
            "province": "云南省",
            "city": "西双版纳傣族自治州",
            "district": "勐腊县"
        }
    },
    {
        "id": "12294709792597472827",
        "title": "公共厕所",
        "address": "云南省西双版纳傣族自治州勐腊县Y009与亚非路交叉口西南方向832米左右",
        "tel": "",
        "category": "基础设施:公共设施:公共厕所",
        "type": 0,
        "location": {
            "lat": 21.920223,
            "lng": 101.234353
        },
        "ad_info": {
            "adcode": 532823,
            "province": "云南省",
            "city": "西双版纳傣族自治州",
            "district": "勐腊县"
        }
    },
    {
        "id": "15997777471932058995",
        "title": "西双版纳机场国内航站楼二层出发厅公共厕所-2",
        "address": "云南省西双版纳傣族自治州景洪市嘎洒镇西双版纳嘎洒国际机场国际候机楼",
        "tel": "0691-2159129",
        "category": "基础设施:公共设施:公共厕所",
        "type": 0,
        "location": {
            "lat": 21.97427,
            "lng": 100.768123
        },
        "ad_info": {
            "adcode": 532801,
            "province": "云南省",
            "city": "西双版纳傣族自治州",
            "district": "景洪市"
        }
    },
    {
        "id": "3687715993810369592",
        "title": "公共厕所",
        "address": "云南省西双版纳傣族自治州勐腊县X173与Y092交叉口西南方向1082米左右",
        "tel": "",
        "category": "基础设施:公共设施:公共厕所",
        "type": 0,
        "location": {
            "lat": 21.400144,
            "lng": 101.399141
        },
        "ad_info": {
            "adcode": 532823,
            "province": "云南省",
            "city": "西双版纳傣族自治州",
            "district": "勐腊县"
        }
    },
    {
        "id": "15974266612972410066",
        "title": "公共厕所",
        "address": "云南省西双版纳傣族自治州景洪市么龙路1号",
        "tel": "",
        "category": "基础设施:公共设施:公共厕所",
        "type": 0,
        "location": {
            "lat": 21.999143,
            "lng": 100.773384
        },
        "ad_info": {
            "adcode": 532801,
            "province": "云南省",
            "city": "西双版纳傣族自治州",
            "district": "景洪市"
        }
    },
    {
        "id": "11238873909880661306",
        "title": "公共厕所",
        "address": "云南省西双版纳傣族自治州勐海县214国道北150米",
        "tel": "",
        "category": "基础设施:公共设施:公共厕所",
        "type": 0,
        "location": {
            "lat": 21.974357,
            "lng": 100.549386
        },
        "ad_info": {
            "adcode": 532822,
            "province": "云南省",
            "city": "西双版纳傣族自治州",
            "district": "勐海县"
        }
    },
    {
        "id": "17850201440580158383",
        "title": "公共厕所",
        "address": "云南省西双版纳傣族自治州勐海县G214与G219交叉口正东方向1120米左右",
        "tel": "",
        "category": "基础设施:公共设施:公共厕所",
        "type": 0,
        "location": {
            "lat": 21.989931,
            "lng": 100.488364
        },
        "ad_info": {
            "adcode": 532822,
            "province": "云南省",
            "city": "西双版纳傣族自治州",
            "district": "勐海县"
        }
    },
    {
        "id": "5222069307696633839",
        "title": "公共厕所",
        "address": "云南省西双版纳傣族自治州勐海县嘎海路与班章大道交叉口西北方向82米左右",
        "tel": "",
        "category": "基础设施:公共设施:公共厕所",
        "type": 0,
        "location": {
            "lat": 21.958198,
            "lng": 100.44199
        },
        "ad_info": {
            "adcode": 532822,
            "province": "云南省",
            "city": "西双版纳傣族自治州",
            "district": "勐海县"
        }
    },
    {
        "id": "5884369902036394009",
        "title": "白象湖-公共厕所",
        "address": "云南省西双版纳傣族自治州景洪市供销街与民航路交叉口正西方向50米左右",
        "tel": "",
        "category": "基础设施:公共设施:公共厕所",
        "type": 0,
        "location": {
            "lat": 22.007823,
            "lng": 100.793174
        },
        "ad_info": {
            "adcode": 532801,
            "province": "云南省",
            "city": "西双版纳傣族自治州",
            "district": "景洪市"
        }
    },
    {
        "id": "16353884865898066912",
        "title": "公共厕所",
        "address": "云南省西双版纳傣族自治州景洪市万象大道与菩提大道交叉口正东方向132米左右",
        "tel": "",
        "category": "基础设施:公共设施:公共厕所",
        "type": 0,
        "location": {
            "lat": 22.00999,
            "lng": 100.82125
        },
        "ad_info": {
            "adcode": 532801,
            "province": "云南省",
            "city": "西双版纳傣族自治州",
            "district": "景洪市"
        }
    },
    {
        "id": "12252678883881422596",
        "title": "公共厕所",
        "address": "云南省西双版纳傣族自治州勐海县景管路与茶乡路交叉口正南方向37米左右",
        "tel": "",
        "category": "基础设施:公共设施:公共厕所",
        "type": 0,
        "location": {
            "lat": 21.958649,
            "lng": 100.445938
        },
        "ad_info": {
            "adcode": 532822,
            "province": "云南省",
            "city": "西双版纳傣族自治州",
            "district": "勐海县"
        }
    },
    {
        "id": "7008120142262515358",
        "title": "五号卫生间",
        "address": "云南省西双版纳傣族自治州景洪市勐海路与坝吉路交叉口东南方向350米左右",
        "tel": "",
        "category": "基础设施:公共设施:公共厕所",
        "type": 0,
        "location": {
            "lat": 21.98995,
            "lng": 100.80563
        },
        "ad_info": {
            "adcode": 532801,
            "province": "云南省",
            "city": "西双版纳傣族自治州",
            "district": "景洪市"
        }
    },
    {
        "id": "17305881176611479069",
        "title": "文科大酒店-洗手间",
        "address": "云南省西双版纳傣族自治州景洪市曼弄枫智源尚居105号",
        "tel": "",
        "category": "基础设施:公共设施:公共厕所",
        "type": 0,
        "location": {
            "lat": 21.970403,
            "lng": 100.791374
        },
        "ad_info": {
            "adcode": 532801,
            "province": "云南省",
            "city": "西双版纳傣族自治州",
            "district": "景洪市"
        }
    },
    {
        "id": "9861286619410401402",
        "title": "泼水广场北侧公共卫生间",
        "address": "云南省西双版纳傣族自治州景洪市Y058与滨江路交叉口正东方向1503米左右",
        "tel": "",
        "category": "基础设施:公共设施:公共厕所",
        "type": 0,
        "location": {
            "lat": 21.85025,
            "lng": 100.94848
        },
        "ad_info": {
            "adcode": 532801,
            "province": "云南省",
            "city": "西双版纳傣族自治州",
            "district": "景洪市"
        }
    },
    {
        "id": "12419998756949290641",
        "title": "藤蔑山加水站公共厕所",
        "address": "云南省西双版纳傣族自治州勐腊县藤蔑山加水站超市东侧",
        "tel": "",
        "category": "基础设施:公共设施:公共厕所",
        "type": 0,
        "location": {
            "lat": 21.780542,
            "lng": 101.345083
        },
        "ad_info": {
            "adcode": 532823,
            "province": "云南省",
            "city": "西双版纳傣族自治州",
            "district": "勐腊县"
        }
    },
    {
        "id": "13239297139483553722",
        "title": "西双版纳瑞纳国际会员酒店-洗手间",
        "address": "云南省西双版纳傣族自治州景洪市景德三巷与观礼巷交叉口西北方向39米左右",
        "tel": "",
        "category": "基础设施:公共设施:公共厕所",
        "type": 0,
        "location": {
            "lat": 22.010162,
            "lng": 100.80215
        },
        "ad_info": {
            "adcode": 532801,
            "province": "云南省",
            "city": "西双版纳傣族自治州",
            "district": "景洪市"
        }
    },
    {
        "id": "7823888174708016287",
        "title": "小勐养服务区第一公共厕所",
        "address": "云南省西双版纳傣族自治州景洪市X821与Y013交叉口正东方向1314米左右",
        "tel": "",
        "category": "基础设施:公共设施:公共厕所",
        "type": 0,
        "location": {
            "lat": 22.082013,
            "lng": 100.90465
        },
        "ad_info": {
            "adcode": 532801,
            "province": "云南省",
            "city": "西双版纳傣族自治州",
            "district": "景洪市"
        }
    },
    {
        "id": "10657823477754269420",
        "title": "鬼城卫生间",
        "address": "云南省西双版纳傣族自治州景洪市万景大道与龙栋大道交叉口西北方向285米左右",
        "tel": "",
        "category": "基础设施:公共设施:公共厕所",
        "type": 0,
        "location": {
            "lat": 22.02576,
            "lng": 100.7419
        },
        "ad_info": {
            "adcode": 532801,
            "province": "云南省",
            "city": "西双版纳傣族自治州",
            "district": "景洪市"
        }
    },
    {
        "id": "15134096572875354169",
        "title": "菜阳河服务区公共厕所",
        "address": "云南省西双版纳傣族自治州景洪市菜阳河服务区",
        "tel": "",
        "category": "基础设施:公共设施:公共厕所",
        "type": 0,
        "location": {
            "lat": 22.01712,
            "lng": 100.966394
        },
        "ad_info": {
            "adcode": 532801,
            "province": "云南省",
            "city": "西双版纳傣族自治州",
            "district": "景洪市"
        }
    },
    {
        "id": "12690820622799277674",
        "title": "小勐养服务区第二公共厕所",
        "address": "云南省西双版纳傣族自治州景洪市中国石油勐养第一加油站",
        "tel": "",
        "category": "基础设施:公共设施:公共厕所",
        "type": 0,
        "location": {
            "lat": 22.083082,
            "lng": 100.903883
        },
        "ad_info": {
            "adcode": 532801,
            "province": "云南省",
            "city": "西双版纳傣族自治州",
            "district": "景洪市"
        }
    },
    {
        "id": "9756302099209381556",
        "title": "大剧院卫生间",
        "address": "云南省西双版纳傣族自治州勐海县和谐路与幸福路交叉口西南方向412米左右",
        "tel": "",
        "category": "基础设施:公共设施:公共厕所",
        "type": 0,
        "location": {
            "lat": 21.67573,
            "lng": 100.0391
        },
        "ad_info": {
            "adcode": 532822,
            "province": "云南省",
            "city": "西双版纳傣族自治州",
            "district": "勐海县"
        }
    },
    {
        "id": "13349046433865886028",
        "title": "勐腊服务区公共厕所",
        "address": "云南省西双版纳傣族自治州勐腊县勐腊北立交与昆磨高速交叉口正南方向1503米左右",
        "tel": "",
        "category": "基础设施:公共设施:公共厕所",
        "type": 0,
        "location": {
            "lat": 21.446815,
            "lng": 101.531341
        },
        "ad_info": {
            "adcode": 532823,
            "province": "云南省",
            "city": "西双版纳傣族自治州",
            "district": "勐腊县"
        }
    },
    {
        "id": "3146362426899057844",
        "title": "老办公楼1楼卫生间",
        "address": "云南省西双版纳傣族自治州勐腊县滨江路与雨林路交叉口东南方向732米左右",
        "tel": "",
        "category": "基础设施:公共设施:公共厕所",
        "type": 0,
        "location": {
            "lat": 21.926484,
            "lng": 101.256751
        },
        "ad_info": {
            "adcode": 532823,
            "province": "云南省",
            "city": "西双版纳傣族自治州",
            "district": "勐腊县"
        }
    },
    {
        "id": "4033053838547706156",
        "title": "菜阳河服务区公共厕所",
        "address": "云南省西双版纳傣族自治州景洪市小磨公路辅道",
        "tel": "",
        "category": "基础设施:公共设施:公共厕所",
        "type": 0,
        "location": {
            "lat": 22.016483,
            "lng": 100.9651
        },
        "ad_info": {
            "adcode": 532801,
            "province": "云南省",
            "city": "西双版纳傣族自治州",
            "district": "景洪市"
        }
    },
    {
        "id": "1391777884432031217",
        "title": "小勐养服务区公共厕所",
        "address": "云南省西双版纳傣族自治州景洪市小勐养服务区",
        "tel": "",
        "category": "基础设施:公共设施:公共厕所",
        "type": 0,
        "location": {
            "lat": 22.081713,
            "lng": 100.902511
        },
        "ad_info": {
            "adcode": 532801,
            "province": "云南省",
            "city": "西双版纳傣族自治州",
            "district": "景洪市"
        }
    },
    {
        "id": "17212683087054527402",
        "title": "公共厕所",
        "address": "云南省西双版纳傣族自治州勐海县勐海记忆非遗文化村西南侧50米",
        "tel": "",
        "category": "基础设施:公共设施:公共厕所",
        "type": 0,
        "location": {
            "lat": 21.976323,
            "lng": 100.466496
        },
        "ad_info": {
            "adcode": 532822,
            "province": "云南省",
            "city": "西双版纳傣族自治州",
            "district": "勐海县"
        }
    },
    {
        "id": "13865148790687662832",
        "title": "勐海服务区公共厕所",
        "address": "云南省西双版纳傣族自治州勐海县勐海服务区与G8512景打高速交叉口东260米",
        "tel": "",
        "category": "基础设施:公共设施:公共厕所",
        "type": 0,
        "location": {
            "lat": 21.942776,
            "lng": 100.469067
        },
        "ad_info": {
            "adcode": 532822,
            "province": "云南省",
            "city": "西双版纳傣族自治州",
            "district": "勐海县"
        }
    },
    {
        "id": "7800376864734559730",
        "title": "3A级旅游卫生间(5号)",
        "address": "云南省西双版纳傣族自治州勐海县G214与G219交叉口东南方向1396米左右",
        "tel": "",
        "category": "基础设施:公共设施:公共厕所",
        "type": 0,
        "location": {
            "lat": 21.96839,
            "lng": 100.469044
        },
        "ad_info": {
            "adcode": 532822,
            "province": "云南省",
            "city": "西双版纳傣族自治州",
            "district": "勐海县"
        }
    },
    {
        "id": "12804225466515033785",
        "title": "勐海服务区公共厕所",
        "address": "云南省西双版纳傣族自治州勐海县勐海服务区与G8512景打高速交叉口东北380米",
        "tel": "",
        "category": "基础设施:公共设施:公共厕所",
        "type": 0,
        "location": {
            "lat": 21.94472,
            "lng": 100.469706
        },
        "ad_info": {
            "adcode": 532822,
            "province": "云南省",
            "city": "西双版纳傣族自治州",
            "district": "勐海县"
        }
    },
    {
        "id": "17334781821112041618",
        "title": "云顶餐厅负一层卫生间",
        "address": "云南省西双版纳傣族自治州勐海县G214与G219交叉口东南方向1334米左右",
        "tel": "",
        "category": "基础设施:公共设施:公共厕所",
        "type": 0,
        "location": {
            "lat": 21.969036,
            "lng": 100.468999
        },
        "ad_info": {
            "adcode": 532822,
            "province": "云南省",
            "city": "西双版纳傣族自治州",
            "district": "勐海县"
        }
    },
    {
        "id": "2177951581578126204",
        "title": "田园综合体2号公共厕所",
        "address": "云南省西双版纳傣族自治州勐海县勐景来景区北部",
        "tel": "",
        "category": "基础设施:公共设施:公共厕所",
        "type": 0,
        "location": {
            "lat": 21.7026,
            "lng": 100.08379
        },
        "ad_info": {
            "adcode": 532822,
            "province": "云南省",
            "city": "西双版纳傣族自治州",
            "district": "勐海县"
        }
    },
    {
        "id": "3064718697084349445",
        "title": "酒吧街卫生间",
        "address": "云南省西双版纳傣族自治州景洪市万景大道13号",
        "tel": "",
        "category": "基础设施:公共设施:其它公共设施",
        "type": 0,
        "location": {
            "lat": 22.010787,
            "lng": 100.762983
        },
        "ad_info": {
            "adcode": 532801,
            "province": "云南省",
            "city": "西双版纳傣族自治州",
            "district": "景洪市"
        }
    },
    {
        "id": "3091904917667973741",
        "title": "公共厕所",
        "address": "云南省西双版纳傣族自治州景洪市勐打线与基勐路交叉口西北方向866米左右",
        "tel": "",
        "category": "基础设施:公共设施:公共厕所",
        "type": 0,
        "location": {
            "lat": 22.090276,
            "lng": 100.885742
        },
        "ad_info": {
            "adcode": 532801,
            "province": "云南省",
            "city": "西双版纳傣族自治州",
            "district": "景洪市"
        }
    },
    {
        "id": "14386559458747976204",
        "title": "公共厕所",
        "address": "云南省西双版纳傣族自治州勐腊县Y009与亚非路交叉口正西方向1074米左右",
        "tel": "",
        "category": "基础设施:公共设施:公共厕所",
        "type": 0,
        "location": {
            "lat": 21.921557,
            "lng": 101.231274
        },
        "ad_info": {
            "adcode": 532823,
            "province": "云南省",
            "city": "西双版纳傣族自治州",
            "district": "勐腊县"
        }
    },
    {
        "id": "15368550572350523050",
        "title": "公共厕所",
        "address": "云南省西双版纳傣族自治州勐海县勐海黎明医院东北侧160米",
        "tel": "",
        "category": "基础设施:公共设施:公共厕所",
        "type": 0,
        "location": {
            "lat": 21.997801,
            "lng": 100.266083
        },
        "ad_info": {
            "adcode": 532822,
            "province": "云南省",
            "city": "西双版纳傣族自治州",
            "district": "勐海县"
        }
    },
    {
        "id": "14529562617814563790",
        "title": "公共厕所",
        "address": "云南省西双版纳傣族自治州景洪市嘎兰中路与洪建巷交叉口正东方向128米左右",
        "tel": "",
        "category": "基础设施:公共设施:公共厕所",
        "type": 0,
        "location": {
            "lat": 22.014304,
            "lng": 100.800429
        },
        "ad_info": {
            "adcode": 532801,
            "province": "云南省",
            "city": "西双版纳傣族自治州",
            "district": "景洪市"
        }
    },
    {
        "id": "11599169435989847045",
        "title": "公共厕所",
        "address": "云南省西双版纳傣族自治州景洪市文兴路与警民巷交叉口西北方向115米左右",
        "tel": "",
        "category": "基础设施:公共设施:公共厕所",
        "type": 0,
        "location": {
            "lat": 22.504389,
            "lng": 101.058183
        },
        "ad_info": {
            "adcode": 532801,
            "province": "云南省",
            "city": "西双版纳傣族自治州",
            "district": "景洪市"
        }
    },
    {
        "id": "2637556313526677563",
        "title": "西双版纳语霖纳舍-公用洗手间",
        "address": "云南省西双版纳傣族自治州景洪市万象大道与宣慰大道辅路交叉口正南方向96米左右",
        "tel": "",
        "category": "基础设施:公共设施:公共厕所",
        "type": 0,
        "location": {
            "lat": 22.010376,
            "lng": 100.821116
        },
        "ad_info": {
            "adcode": 532801,
            "province": "云南省",
            "city": "西双版纳傣族自治州",
            "district": "景洪市"
        }
    },
    {
        "id": "7841004014288811717",
        "title": "公共厕所",
        "address": "云南省西双版纳傣族自治州景洪市么龙路18号",
        "tel": "",
        "category": "基础设施:公共设施:公共厕所",
        "type": 0,
        "location": {
            "lat": 22.004252,
            "lng": 100.764418
        },
        "ad_info": {
            "adcode": 532801,
            "province": "云南省",
            "city": "西双版纳傣族自治州",
            "district": "景洪市"
        }
    },
    {
        "id": "16338311151054416634",
        "title": "公共厕所",
        "address": "云南省西双版纳傣族自治州景洪市勐海路17号",
        "tel": "",
        "category": "基础设施:公共设施:公共厕所",
        "type": 0,
        "location": {
            "lat": 22.005633,
            "lng": 100.803815
        },
        "ad_info": {
            "adcode": 532801,
            "province": "云南省",
            "city": "西双版纳傣族自治州",
            "district": "景洪市"
        }
    },
    {
        "id": "10623403785509684244",
        "title": "榕树卫生间",
        "address": "云南省西双版纳傣族自治州景洪市万景大道与龙栋大道交叉口西北方向212米左右",
        "tel": "",
        "category": "基础设施:公共设施:公共厕所",
        "type": 0,
        "location": {
            "lat": 22.02508,
            "lng": 100.7423
        },
        "ad_info": {
            "adcode": 532801,
            "province": "云南省",
            "city": "西双版纳傣族自治州",
            "district": "景洪市"
        }
    },
    {
        "id": "17437280179616465968",
        "title": "曼听公园公共厕所",
        "address": "云南省西双版纳傣族自治州景洪市景匡巷与曼听路交叉口正西方向74米左右",
        "tel": "",
        "category": "基础设施:公共设施:公共厕所",
        "type": 0,
        "location": {
            "lat": 21.993553,
            "lng": 100.808554
        },
        "ad_info": {
            "adcode": 532801,
            "province": "云南省",
            "city": "西双版纳傣族自治州",
            "district": "景洪市"
        }
    },
    {
        "id": "218429245501952934",
        "title": "勐远服务区公共厕所",
        "address": "云南省西双版纳傣族自治州勐腊县勐关高速与昆磨高速交叉口东北方向616米左右",
        "tel": "",
        "category": "基础设施:公共设施:公共厕所",
        "type": 0,
        "location": {
            "lat": 21.697348,
            "lng": 101.377364
        },
        "ad_info": {
            "adcode": 532823,
            "province": "云南省",
            "city": "西双版纳傣族自治州",
            "district": "勐腊县"
        }
    },
    {
        "id": "7993861753379863698",
        "title": "公共厕所",
        "address": "云南省西双版纳傣族自治州勐腊县勐腊新城西50米",
        "tel": "",
        "category": "基础设施:公共设施:公共厕所",
        "type": 0,
        "location": {
            "lat": 21.464191,
            "lng": 101.567705
        },
        "ad_info": {
            "adcode": 532823,
            "province": "云南省",
            "city": "西双版纳傣族自治州",
            "district": "勐腊县"
        }
    },
    {
        "id": "1569307501120014019",
        "title": "大渡岗服务区第二公共厕所",
        "address": "云南省西双版纳傣族自治州景洪市大渡岗服务区",
        "tel": "",
        "category": "基础设施:公共设施:公共厕所",
        "type": 0,
        "location": {
            "lat": 22.358746,
            "lng": 100.999236
        },
        "ad_info": {
            "adcode": 532801,
            "province": "云南省",
            "city": "西双版纳傣族自治州",
            "district": "景洪市"
        }
    },
    {
        "id": "16059277103655038468",
        "title": "公共厕所",
        "address": "云南省西双版纳傣族自治州景洪市G219与Y097交叉口西南方向180米左右",
        "tel": "",
        "category": "基础设施:公共设施:公共厕所",
        "type": 0,
        "location": {
            "lat": 21.891473,
            "lng": 100.989686
        },
        "ad_info": {
            "adcode": 532801,
            "province": "云南省",
            "city": "西双版纳傣族自治州",
            "district": "景洪市"
        }
    },
    {
        "id": "38489510816514182",
        "title": "公共厕所",
        "address": "云南省西双版纳傣族自治州勐海县景管路26号",
        "tel": "",
        "category": "基础设施:公共设施:公共厕所",
        "type": 0,
        "location": {
            "lat": 21.957711,
            "lng": 100.449604
        },
        "ad_info": {
            "adcode": 532822,
            "province": "云南省",
            "city": "西双版纳傣族自治州",
            "district": "勐海县"
        }
    },
    {
        "id": "10426314289614903855",
        "title": "小龙哈服务区公共厕所",
        "address": "云南省西双版纳傣族自治州勐腊县小磨高速与昆磨高速交叉口西南方向129米左右",
        "tel": "",
        "category": "基础设施:公共设施:公共厕所",
        "type": 0,
        "location": {
            "lat": 21.354098,
            "lng": 101.686701
        },
        "ad_info": {
            "adcode": 532823,
            "province": "云南省",
            "city": "西双版纳傣族自治州",
            "district": "勐腊县"
        }
    },
    {
        "id": "9532658406092858709",
        "title": "大渡岗服务区第二公共厕所",
        "address": "云南省西双版纳傣族自治州景洪市G8511昆磨高速与大渡岗服务区交叉口东北120米",
        "tel": "",
        "category": "基础设施:公共设施:公共厕所",
        "type": 0,
        "location": {
            "lat": 22.362095,
            "lng": 101.001049
        },
        "ad_info": {
            "adcode": 532801,
            "province": "云南省",
            "city": "西双版纳傣族自治州",
            "district": "景洪市"
        }
    },
    {
        "id": "11630817132141938029",
        "title": "无障碍公共厕所",
        "address": "云南省西双版纳傣族自治州景洪市勐泐大道与工艺品街交叉口正东方向82米左右",
        "tel": "",
        "category": "基础设施:公共设施:公共厕所",
        "type": 0,
        "location": {
            "lat": 22.011541,
            "lng": 100.795907
        },
        "ad_info": {
            "adcode": 532801,
            "province": "云南省",
            "city": "西双版纳傣族自治州",
            "district": "景洪市"
        }
    },
    {
        "id": "16933589469229529660",
        "title": "公共厕所",
        "address": "云南省西双版纳傣族自治州勐海县佛双路与双拥路交叉口东北方向63米左右",
        "tel": "",
        "category": "基础设施:公共设施:公共厕所",
        "type": 0,
        "location": {
            "lat": 21.951856,
            "lng": 100.441415
        },
        "ad_info": {
            "adcode": 532822,
            "province": "云南省",
            "city": "西双版纳傣族自治州",
            "district": "勐海县"
        }
    },
    {
        "id": "15817988480690607311",
        "title": "景真寨厕所",
        "address": "云南省西双版纳傣族自治州景洪市勐罕路5号",
        "tel": "",
        "category": "基础设施:公共设施:公共厕所",
        "type": 0,
        "location": {
            "lat": 22.00692,
            "lng": 100.82633
        },
        "ad_info": {
            "adcode": 532801,
            "province": "云南省",
            "city": "西双版纳傣族自治州",
            "district": "景洪市"
        }
    },
    {
        "id": "2483642800353033291",
        "title": "公共厕所",
        "address": "云南省西双版纳傣族自治州勐海县S320与勐板线交叉口西南方向957米左右",
        "tel": "",
        "category": "基础设施:公共设施:公共厕所",
        "type": 0,
        "location": {
            "lat": 21.745354,
            "lng": 100.204054
        },
        "ad_info": {
            "adcode": 532822,
            "province": "云南省",
            "city": "西双版纳傣族自治州",
            "district": "勐海县"
        }
    },
    {
        "id": "7217088869303809986",
        "title": "公共厕所",
        "address": "云南省西双版纳傣族自治州景洪市嘎兰中路与曼允巷交叉口正东方向99米左右",
        "tel": "",
        "category": "基础设施:公共设施:公共厕所",
        "type": 0,
        "location": {
            "lat": 22.012715,
            "lng": 100.800634
        },
        "ad_info": {
            "adcode": 532801,
            "province": "云南省",
            "city": "西双版纳傣族自治州",
            "district": "景洪市"
        }
    },
    {
        "id": "495410698442079706",
        "title": "普文加油站公共厕所",
        "address": "云南省西双版纳傣族自治州景洪市普文服务区",
        "tel": "",
        "category": "基础设施:公共设施:公共厕所",
        "type": 0,
        "location": {
            "lat": 22.44548,
            "lng": 101.06285
        },
        "ad_info": {
            "adcode": 532801,
            "province": "云南省",
            "city": "西双版纳傣族自治州",
            "district": "景洪市"
        }
    },
    {
        "id": "454130595023926271",
        "title": "公共厕所",
        "address": "云南省西双版纳傣族自治州景洪市G214与允大公路交叉口东南方向1401米左右",
        "tel": "",
        "category": "基础设施:公共设施:公共厕所",
        "type": 0,
        "location": {
            "lat": 21.929655,
            "lng": 100.778541
        },
        "ad_info": {
            "adcode": 532801,
            "province": "云南省",
            "city": "西双版纳傣族自治州",
            "district": "景洪市"
        }
    },
    {
        "id": "15160007688576810484",
        "title": "公共厕所",
        "address": "云南省西双版纳傣族自治州景洪市滨江大道金沙滩",
        "tel": "",
        "category": "基础设施:公共设施:公共厕所",
        "type": 0,
        "location": {
            "lat": 22.010161,
            "lng": 100.803392
        },
        "ad_info": {
            "adcode": 532801,
            "province": "云南省",
            "city": "西双版纳傣族自治州",
            "district": "景洪市"
        }
    },
    {
        "id": "5857377070404025500",
        "title": "公共厕所",
        "address": "云南省西双版纳傣族自治州景洪市G213与景讷公路交叉口东北方向1629米左右",
        "tel": "",
        "category": "基础设施:公共设施:公共厕所",
        "type": 0,
        "location": {
            "lat": 22.261,
            "lng": 100.904543
        },
        "ad_info": {
            "adcode": 532801,
            "province": "云南省",
            "city": "西双版纳傣族自治州",
            "district": "景洪市"
        }
    },
    {
        "id": "8834323074320960512",
        "title": "西双版纳勐泐大佛寺-金盆洗手",
        "address": "云南省西双版纳傣族自治州景洪市勐泐大佛寺内",
        "tel": "0691-8998555",
        "category": "基础设施:公共设施:公共厕所",
        "type": 0,
        "location": {
            "lat": 21.95853,
            "lng": 100.80911
        },
        "ad_info": {
            "adcode": 532801,
            "province": "云南省",
            "city": "西双版纳傣族自治州",
            "district": "景洪市"
        }
    },
    {
        "id": "453527319676195966",
        "title": "公共厕所",
        "address": "云南省西双版纳傣族自治州景洪市浩宇大道东方酒店(西双版纳店)南侧约40米在二楼啦",
        "tel": "",
        "category": "基础设施:公共设施:公共厕所",
        "type": 0,
        "location": {
            "lat": 22.004407,
            "lng": 100.807464
        },
        "ad_info": {
            "adcode": 532801,
            "province": "云南省",
            "city": "西双版纳傣族自治州",
            "district": "景洪市"
        }
    },
    {
        "id": "8955885307765671575",
        "title": "勐仑服务区洗手台",
        "address": "云南省西双版纳傣族自治州勐腊县Y009与亚非路交叉口正西方向951米左右",
        "tel": "",
        "category": "基础设施:公共设施:公共厕所",
        "type": 0,
        "location": {
            "lat": 21.9224,
            "lng": 101.232292
        },
        "ad_info": {
            "adcode": 532823,
            "province": "云南省",
            "city": "西双版纳傣族自治州",
            "district": "勐腊县"
        }
    },
    {
        "id": "5858436407850783957",
        "title": "傣秀剧场洗手间",
        "address": "云南省西双版纳傣族自治州景洪市万景大道与清泉路交叉口正北方向307米左右",
        "tel": "",
        "category": "基础设施:公共设施:公共厕所",
        "type": 0,
        "location": {
            "lat": 22.011582,
            "lng": 100.764128
        },
        "ad_info": {
            "adcode": 532801,
            "province": "云南省",
            "city": "西双版纳傣族自治州",
            "district": "景洪市"
        }
    },
    {
        "id": "13004600404225114628",
        "title": "勐海加水站公共厕所",
        "address": "云南省西双版纳傣族自治州勐海县勐海加水站南30米",
        "tel": "",
        "category": "基础设施:公共设施:公共厕所",
        "type": 0,
        "location": {
            "lat": 21.973609,
            "lng": 100.557832
        },
        "ad_info": {
            "adcode": 532822,
            "province": "云南省",
            "city": "西双版纳傣族自治州",
            "district": "勐海县"
        }
    },
    {
        "id": "837100659703386723",
        "title": "景洪服务区公共厕所",
        "address": "云南省西双版纳傣族自治州景洪市景洪服务区与G8512景打高速交叉口西北480米",
        "tel": "",
        "category": "基础设施:公共设施:公共厕所",
        "type": 0,
        "location": {
            "lat": 22.038133,
            "lng": 100.758087
        },
        "ad_info": {
            "adcode": 532801,
            "province": "云南省",
            "city": "西双版纳傣族自治州",
            "district": "景洪市"
        }
    },
    {
        "id": "7151223662908571953",
        "title": "公共厕所",
        "address": "云南省西双版纳傣族自治州勐海县布朗山汽车客运站",
        "tel": "",
        "category": "基础设施:公共设施:公共厕所",
        "type": 0,
        "location": {
            "lat": 21.583854,
            "lng": 100.420034
        },
        "ad_info": {
            "adcode": 532822,
            "province": "云南省",
            "city": "西双版纳傣族自治州",
            "district": "勐海县"
        }
    },
    {
        "id": "13824379787301644679",
        "title": "2号厕所",
        "address": "云南省西双版纳傣族自治州勐海县G214与G219交叉口正东方向204米左右",
        "tel": "",
        "category": "基础设施:公共设施:公共厕所",
        "type": 0,
        "location": {
            "lat": 21.97958,
            "lng": 100.463651
        },
        "ad_info": {
            "adcode": 532822,
            "province": "云南省",
            "city": "西双版纳傣族自治州",
            "district": "勐海县"
        }
    },
    {
        "id": "16465392873413571975",
        "title": "加水停车场公共厕所",
        "address": "云南省西双版纳傣族自治州景洪市加水停车场与G8511昆磨高速交叉口西北40米",
        "tel": "",
        "category": "基础设施:公共设施:公共厕所",
        "type": 0,
        "location": {
            "lat": 22.42807,
            "lng": 101.000642
        },
        "ad_info": {
            "adcode": 532801,
            "province": "云南省",
            "city": "西双版纳傣族自治州",
            "district": "景洪市"
        }
    },
    {
        "id": "3781307127719793970",
        "title": "公共厕所",
        "address": "云南省西双版纳傣族自治州景洪市213国道东50米",
        "tel": "",
        "category": "基础设施:公共设施:公共厕所",
        "type": 0,
        "location": {
            "lat": 22.459904,
            "lng": 101.075241
        },
        "ad_info": {
            "adcode": 532801,
            "province": "云南省",
            "city": "西双版纳傣族自治州",
            "district": "景洪市"
        }
    },
    {
        "id": "18318630790067365928",
        "title": "冰雪卫生间",
        "address": "云南省西双版纳傣族自治州景洪市主题公园路与雨林路交叉口东南方向417米左右",
        "tel": "",
        "category": "基础设施:公共设施:公共厕所",
        "type": 0,
        "location": {
            "lat": 22.02875,
            "lng": 100.74033
        },
        "ad_info": {
            "adcode": 532801,
            "province": "云南省",
            "city": "西双版纳傣族自治州",
            "district": "景洪市"
        }
    },
    {
        "id": "3723110549528725510",
        "title": "公共厕所",
        "address": "云南省西双版纳傣族自治州景洪市景德路与民航路交叉口西北方向83米左右",
        "tel": "",
        "category": "基础设施:公共设施:公共厕所",
        "type": 0,
        "location": {
            "lat": 22.00214,
            "lng": 100.792563
        },
        "ad_info": {
            "adcode": 532801,
            "province": "云南省",
            "city": "西双版纳傣族自治州",
            "district": "景洪市"
        }
    },
    {
        "id": "4823818726750916999",
        "title": "公共厕所",
        "address": "云南省西双版纳傣族自治州景洪市G219与党员示范路交叉口正东方向1076米左右",
        "tel": "",
        "category": "基础设施:公共设施:公共厕所",
        "type": 0,
        "location": {
            "lat": 21.911503,
            "lng": 101.110942
        },
        "ad_info": {
            "adcode": 532801,
            "province": "云南省",
            "city": "西双版纳傣族自治州",
            "district": "景洪市"
        }
    },
    {
        "id": "2848086938490116423",
        "title": "公共厕所",
        "address": "云南省西双版纳傣族自治州勐海县佛双路与班章大道交叉口正北方向152米左右",
        "tel": "",
        "category": "基础设施:公共设施:公共厕所",
        "type": 0,
        "location": {
            "lat": 21.952642,
            "lng": 100.440034
        },
        "ad_info": {
            "adcode": 532822,
            "province": "云南省",
            "city": "西双版纳傣族自治州",
            "district": "勐海县"
        }
    },
    {
        "id": "16272412363887509037",
        "title": "景洪服务区公共厕所",
        "address": "云南省西双版纳傣族自治州景洪市景洪服务区与G8512景打高速交叉口西北440米",
        "tel": "",
        "category": "基础设施:公共设施:公共厕所",
        "type": 0,
        "location": {
            "lat": 22.036708,
            "lng": 100.756505
        },
        "ad_info": {
            "adcode": 532801,
            "province": "云南省",
            "city": "西双版纳傣族自治州",
            "district": "景洪市"
        }
    },
    {
        "id": "3838537461849657717",
        "title": "西双版纳告庄语霖天堂精品客栈-洗手间",
        "address": "云南省西双版纳傣族自治州景洪市万象大道与宣慰大道辅路交叉口正南方向96米左右",
        "tel": "",
        "category": "基础设施:公共设施:公共厕所",
        "type": 0,
        "location": {
            "lat": 22.010376,
            "lng": 100.821117
        },
        "ad_info": {
            "adcode": 532801,
            "province": "云南省",
            "city": "西双版纳傣族自治州",
            "district": "景洪市"
        }
    },
    {
        "id": "6344636341987790016",
        "title": "公共厕所",
        "address": "云南省西双版纳傣族自治州景洪市宣慰大道与花卉园路交叉口正北方向308米左右",
        "tel": "",
        "category": "基础设施:公共设施:公共厕所",
        "type": 0,
        "location": {
            "lat": 22.007489,
            "lng": 100.785332
        },
        "ad_info": {
            "adcode": 532801,
            "province": "云南省",
            "city": "西双版纳傣族自治州",
            "district": "景洪市"
        }
    },
    {
        "id": "5453684503243245846",
        "title": "洗手台",
        "address": "云南省西双版纳傣族自治州景洪市春欢巷与曼听路交叉口西南方向8米左右",
        "tel": "",
        "category": "基础设施:公共设施:公共厕所",
        "type": 0,
        "location": {
            "lat": 21.994239,
            "lng": 100.807716
        },
        "ad_info": {
            "adcode": 532801,
            "province": "云南省",
            "city": "西双版纳傣族自治州",
            "district": "景洪市"
        }
    },
    {
        "id": "4377778023591185191",
        "title": "公共厕所",
        "address": "云南省西双版纳傣族自治州勐海县景管路与雨林大道交叉口西北方向122米左右",
        "tel": "",
        "category": "基础设施:公共设施:公共厕所",
        "type": 0,
        "location": {
            "lat": 21.961648,
            "lng": 100.440345
        },
        "ad_info": {
            "adcode": 532822,
            "province": "云南省",
            "city": "西双版纳傣族自治州",
            "district": "勐海县"
        }
    },
    {
        "id": "14122968599948688971",
        "title": "湄公河快艇码头公共卫生间",
        "address": "云南省西双版纳傣族自治州景洪市Y058与滨江路交叉口正东方向1571米左右",
        "tel": "",
        "category": "基础设施:公共设施:公共厕所",
        "type": 0,
        "location": {
            "lat": 21.84555,
            "lng": 100.94877
        },
        "ad_info": {
            "adcode": 532801,
            "province": "云南省",
            "city": "西双版纳傣族自治州",
            "district": "景洪市"
        }
    },
    {
        "id": "3262539160963564074",
        "title": "公共厕所",
        "address": "云南省西双版纳傣族自治州勐海县S320与曼广龙交叉口正北方向388米左右",
        "tel": "",
        "category": "基础设施:公共设施:公共厕所",
        "type": 0,
        "location": {
            "lat": 21.821265,
            "lng": 100.38287
        },
        "ad_info": {
            "adcode": 532822,
            "province": "云南省",
            "city": "西双版纳傣族自治州",
            "district": "勐海县"
        }
    },
    {
        "id": "17226864886273563069",
        "title": "龙舟广场公共厕所",
        "address": "云南省西双版纳傣族自治州景洪市龙舟广场(东侧)",
        "tel": "",
        "category": "基础设施:公共设施:公共厕所",
        "type": 0,
        "location": {
            "lat": 21.999818,
            "lng": 100.813756
        },
        "ad_info": {
            "adcode": 532801,
            "province": "云南省",
            "city": "西双版纳傣族自治州",
            "district": "景洪市"
        }
    },
    {
        "id": "11726259532742946748",
        "title": "公共厕所",
        "address": "云南省西双版纳傣族自治州景洪市小磨公路辅道",
        "tel": "",
        "category": "基础设施:公共设施:公共厕所",
        "type": 0,
        "location": {
            "lat": 22.016208,
            "lng": 100.964606
        },
        "ad_info": {
            "adcode": 532801,
            "province": "云南省",
            "city": "西双版纳傣族自治州",
            "district": "景洪市"
        }
    },
    {
        "id": "1432249663167969952",
        "title": "公共厕所",
        "address": "云南省西双版纳傣族自治州勐海县景管路与茶乡路交叉口西南方向60米左右",
        "tel": "",
        "category": "基础设施:公共设施:公共厕所",
        "type": 0,
        "location": {
            "lat": 21.958615,
            "lng": 100.445232
        },
        "ad_info": {
            "adcode": 532822,
            "province": "云南省",
            "city": "西双版纳傣族自治州",
            "district": "勐海县"
        }
    },
    {
        "id": "249852836977459796",
        "title": "公共厕所",
        "address": "云南省西双版纳傣族自治州景洪市勐泐大道与景德路交叉口西北方向69米左右",
        "tel": "",
        "category": "基础设施:公共设施:公共厕所",
        "type": 0,
        "location": {
            "lat": 22.004233,
            "lng": 100.796641
        },
        "ad_info": {
            "adcode": 532801,
            "province": "云南省",
            "city": "西双版纳傣族自治州",
            "district": "景洪市"
        }
    },
    {
        "id": "9621794954081537476",
        "title": "公共厕所",
        "address": "云南省西双版纳傣族自治州景洪市允大公路与小街交叉口正北方向1064米左右",
        "tel": "",
        "category": "基础设施:公共设施:公共厕所",
        "type": 0,
        "location": {
            "lat": 21.681887,
            "lng": 100.728081
        },
        "ad_info": {
            "adcode": 532801,
            "province": "云南省",
            "city": "西双版纳傣族自治州",
            "district": "景洪市"
        }
    },
    {
        "id": "14346900331671727478",
        "title": "公共厕所",
        "address": "云南省西双版纳傣族自治州景洪市澜沧江路21号",
        "tel": "",
        "category": "基础设施:公共设施:公共厕所",
        "type": 0,
        "location": {
            "lat": 22.024782,
            "lng": 100.805742
        },
        "ad_info": {
            "adcode": 532801,
            "province": "云南省",
            "city": "西双版纳傣族自治州",
            "district": "景洪市"
        }
    },
    {
        "id": "7171492397534737602",
        "title": "景洪工业园区第2居民组公共厕所",
        "address": "云南省西双版纳傣族自治州景洪市景洪工业园区第2居民组",
        "tel": "",
        "category": "基础设施:公共设施:公共厕所",
        "type": 0,
        "location": {
            "lat": 22.035503,
            "lng": 100.744644
        },
        "ad_info": {
            "adcode": 532801,
            "province": "云南省",
            "city": "西双版纳傣族自治州",
            "district": "景洪市"
        }
    },
    {
        "id": "17812132928424416287",
        "title": "公共厕所",
        "address": "云南省西双版纳傣族自治州景洪市滨江大道12号亭",
        "tel": "",
        "category": "基础设施:公共设施:公共厕所",
        "type": 0,
        "location": {
            "lat": 22.006414,
            "lng": 100.81892
        },
        "ad_info": {
            "adcode": 532801,
            "province": "云南省",
            "city": "西双版纳傣族自治州",
            "district": "景洪市"
        }
    },
    {
        "id": "9957005113259054711",
        "title": "小龙哈服务区公共厕所",
        "address": "云南省西双版纳傣族自治州勐腊县G8511昆磨高速与小龙哈服务区交叉口东北240米",
        "tel": "",
        "category": "基础设施:公共设施:公共厕所",
        "type": 0,
        "location": {
            "lat": 21.352781,
            "lng": 101.690138
        },
        "ad_info": {
            "adcode": 532823,
            "province": "云南省",
            "city": "西双版纳傣族自治州",
            "district": "勐腊县"
        }
    },
    {
        "id": "18182040609068674944",
        "title": "公共厕所",
        "address": "云南省西双版纳傣族自治州景洪市孔雀大道孔雀餐厅",
        "tel": "",
        "category": "基础设施:公共设施:公共厕所",
        "type": 0,
        "location": {
            "lat": 22.005463,
            "lng": 100.823352
        },
        "ad_info": {
            "adcode": 532801,
            "province": "云南省",
            "city": "西双版纳傣族自治州",
            "district": "景洪市"
        }
    },
    {
        "id": "12890623813106315880",
        "title": "洗手间",
        "address": "云南省西双版纳傣族自治州景洪市站前广场下沉雨林拐角处",
        "tel": "",
        "category": "基础设施:公共设施:公共厕所",
        "type": 0,
        "location": {
            "lat": 21.983836,
            "lng": 100.773987
        },
        "ad_info": {
            "adcode": 532801,
            "province": "云南省",
            "city": "西双版纳傣族自治州",
            "district": "景洪市"
        }
    },
    {
        "id": "10565902846574117012",
        "title": "国投会展大酒店-洗手间",
        "address": "云南省西双版纳傣族自治州景洪市勐泐大道曼弄枫国际会议展览中心",
        "tel": "",
        "category": "基础设施:公共设施:公共厕所",
        "type": 0,
        "location": {
            "lat": 21.977077,
            "lng": 100.807157
        },
        "ad_info": {
            "adcode": 532801,
            "province": "云南省",
            "city": "西双版纳傣族自治州",
            "district": "景洪市"
        }
    },
    {
        "id": "11801125005158913833",
        "title": "公共卫生间",
        "address": "云南省西双版纳傣族自治州景洪市G213基诺乡公路",
        "tel": "",
        "category": "基础设施:公共设施:公共厕所",
        "type": 0,
        "location": {
            "lat": 22.041015,
            "lng": 101.00035
        },
        "ad_info": {
            "adcode": 532801,
            "province": "云南省",
            "city": "西双版纳傣族自治州",
            "district": "景洪市"
        }
    },
    {
        "id": "10258271750302694649",
        "title": "幸福家园",
        "address": "云南省西双版纳傣族自治州勐腊县景岗街与曼它拉路交叉口正西方向52米左右",
        "tel": "",
        "category": "基础设施:公共设施:公共厕所",
        "type": 0,
        "location": {
            "lat": 21.480564,
            "lng": 101.565861
        },
        "ad_info": {
            "adcode": 532823,
            "province": "云南省",
            "city": "西双版纳傣族自治州",
            "district": "勐腊县"
        }
    },
    {
        "id": "9139124766236052763",
        "title": "公共厕所",
        "address": "云南省西双版纳傣族自治州景洪市宰勐东路与机场公路交叉口正南方向274米左右",
        "tel": "",
        "category": "基础设施:公共设施:公共厕所",
        "type": 0,
        "location": {
            "lat": 21.966187,
            "lng": 100.770657
        },
        "ad_info": {
            "adcode": 532801,
            "province": "云南省",
            "city": "西双版纳傣族自治州",
            "district": "景洪市"
        }
    },
    {
        "id": "2673765392514927521",
        "title": "公共厕所",
        "address": "云南省西双版纳傣族自治州勐海县景兴路与曼兴路交叉口正北方向160米左右",
        "tel": "",
        "category": "基础设施:公共设施:公共厕所",
        "type": 0,
        "location": {
            "lat": 21.975202,
            "lng": 100.450435
        },
        "ad_info": {
            "adcode": 532822,
            "province": "云南省",
            "city": "西双版纳傣族自治州",
            "district": "勐海县"
        }
    },
    {
        "id": "12423154412666490680",
        "title": "公共厕所",
        "address": "云南省西双版纳傣族自治州景洪市观澜大道龙舟广场29栋",
        "tel": "",
        "category": "基础设施:公共设施:公共厕所",
        "type": 0,
        "location": {
            "lat": 22.001249,
            "lng": 100.811155
        },
        "ad_info": {
            "adcode": 532801,
            "province": "云南省",
            "city": "西双版纳傣族自治州",
            "district": "景洪市"
        }
    },
    {
        "id": "6358741690771278629",
        "title": "公共厕所",
        "address": "云南省西双版纳傣族自治州勐海县佛双路与勐混路交叉口正西方向87米左右",
        "tel": "",
        "category": "基础设施:公共设施:公共厕所",
        "type": 0,
        "location": {
            "lat": 21.954211,
            "lng": 100.446171
        },
        "ad_info": {
            "adcode": 532822,
            "province": "云南省",
            "city": "西双版纳傣族自治州",
            "district": "勐海县"
        }
    },
    {
        "id": "1163000480707887473",
        "title": "公共厕所(YN-XS-0418)",
        "address": "云南省西双版纳傣族自治州勐海县勐海涵舍民宿西南侧200米",
        "tel": "",
        "category": "基础设施:公共设施:公共厕所",
        "type": 0,
        "location": {
            "lat": 21.970993,
            "lng": 100.465814
        },
        "ad_info": {
            "adcode": 532822,
            "province": "云南省",
            "city": "西双版纳傣族自治州",
            "district": "勐海县"
        }
    },
    {
        "id": "10902763873254298889",
        "title": "勐仑服务区公共厕所",
        "address": "云南省西双版纳傣族自治州勐腊县Y009与亚非路交叉口正西方向916米左右",
        "tel": "",
        "category": "基础设施:公共设施:公共厕所",
        "type": 0,
        "location": {
            "lat": 21.922511,
            "lng": 101.232612
        },
        "ad_info": {
            "adcode": 532823,
            "province": "云南省",
            "city": "西双版纳傣族自治州",
            "district": "勐腊县"
        }
    },
    {
        "id": "9371500683149882483",
        "title": "公共厕所",
        "address": "云南省西双版纳傣族自治州景洪市么龙路与勐海路交叉口东北方向196米左右",
        "tel": "",
        "category": "基础设施:公共设施:公共厕所",
        "type": 0,
        "location": {
            "lat": 21.999313,
            "lng": 100.779762
        },
        "ad_info": {
            "adcode": 532801,
            "province": "云南省",
            "city": "西双版纳傣族自治州",
            "district": "景洪市"
        }
    },
    {
        "id": "11193326355387805355",
        "title": "公共厕所",
        "address": "云南省西双版纳傣族自治州景洪市G219与Y059交叉口正南方向275米左右",
        "tel": "",
        "category": "基础设施:公共设施:公共厕所",
        "type": 0,
        "location": {
            "lat": 21.891219,
            "lng": 100.995269
        },
        "ad_info": {
            "adcode": 532801,
            "province": "云南省",
            "city": "西双版纳傣族自治州",
            "district": "景洪市"
        }
    },
    {
        "id": "3927351632711935087",
        "title": "公共厕所",
        "address": "云南省西双版纳傣族自治州勐海县学府路与景养路交叉口正西方向102米左右",
        "tel": "",
        "category": "基础设施:公共设施:公共厕所",
        "type": 0,
        "location": {
            "lat": 21.954168,
            "lng": 100.448929
        },
        "ad_info": {
            "adcode": 532822,
            "province": "云南省",
            "city": "西双版纳傣族自治州",
            "district": "勐海县"
        }
    },
    {
        "id": "16858146073770649631",
        "title": "旅游厕所",
        "address": "云南省西双版纳傣族自治州勐海县布朗山乡卫生院核酸采样点东侧230米",
        "tel": "",
        "category": "基础设施:公共设施:公共厕所",
        "type": 0,
        "location": {
            "lat": 21.583307,
            "lng": 100.420151
        },
        "ad_info": {
            "adcode": 532822,
            "province": "云南省",
            "city": "西双版纳傣族自治州",
            "district": "勐海县"
        }
    },
    {
        "id": "13369584803141615359",
        "title": "公共厕所",
        "address": "云南省西双版纳傣族自治州景洪市热作所工会图书室东北侧210米",
        "tel": "",
        "category": "基础设施:公共设施:公共厕所",
        "type": 0,
        "location": {
            "lat": 22.008605,
            "lng": 100.785688
        },
        "ad_info": {
            "adcode": 532801,
            "province": "云南省",
            "city": "西双版纳傣族自治州",
            "district": "景洪市"
        }
    },
    {
        "id": "15315806875036050687",
        "title": "公共卫生间",
        "address": "云南省西双版纳傣族自治州景洪市勐海路辅路与坝吉路交叉口东北240米",
        "tel": "",
        "category": "基础设施:公共设施:公共厕所",
        "type": 0,
        "location": {
            "lat": 21.992937,
            "lng": 100.804954
        },
        "ad_info": {
            "adcode": 532801,
            "province": "云南省",
            "city": "西双版纳傣族自治州",
            "district": "景洪市"
        }
    },
    {
        "id": "15392753378139046027",
        "title": "总台卫生间",
        "address": "云南省西双版纳傣族自治州勐海县S288与XK22交叉口东北方向923米左右",
        "tel": "",
        "category": "基础设施:公共设施:公共厕所",
        "type": 0,
        "location": {
            "lat": 21.98703,
            "lng": 100.43207
        },
        "ad_info": {
            "adcode": 532822,
            "province": "云南省",
            "city": "西双版纳傣族自治州",
            "district": "勐海县"
        }
    },
    {
        "id": "426631963037231480",
        "title": "公共厕所",
        "address": "云南省西双版纳傣族自治州景洪市广场大道与浩宇大道交叉口西南方向133米左右",
        "tel": "",
        "category": "基础设施:公共设施:公共厕所",
        "type": 0,
        "location": {
            "lat": 22.004066,
            "lng": 100.806392
        },
        "ad_info": {
            "adcode": 532801,
            "province": "云南省",
            "city": "西双版纳傣族自治州",
            "district": "景洪市"
        }
    },
    {
        "id": "3110146271980803116",
        "title": "公共厕所",
        "address": "云南省西双版纳傣族自治州勐腊县",
        "tel": "",
        "category": "基础设施:公共设施:公共厕所",
        "type": 0,
        "location": {
            "lat": 21.740422,
            "lng": 101.679561
        },
        "ad_info": {
            "adcode": 532823,
            "province": "云南省",
            "city": "西双版纳傣族自治州",
            "district": "勐腊县"
        }
    },
    {
        "id": "12271207649309316098",
        "title": "公共厕所",
        "address": "云南省西双版纳傣族自治州景洪市傣泐金湾街区B9栋",
        "tel": "",
        "category": "基础设施:公共设施:公共厕所",
        "type": 0,
        "location": {
            "lat": 22.021074,
            "lng": 100.799713
        },
        "ad_info": {
            "adcode": 532801,
            "province": "云南省",
            "city": "西双版纳傣族自治州",
            "district": "景洪市"
        }
    },
    {
        "id": "2885027885076577636",
        "title": "公共厕所",
        "address": "云南省西双版纳傣族自治州勐腊县鑫福混泥土销售有限公司北侧200米",
        "tel": "",
        "category": "基础设施:公共设施:公共厕所",
        "type": 0,
        "location": {
            "lat": 21.510036,
            "lng": 101.59794
        },
        "ad_info": {
            "adcode": 532823,
            "province": "云南省",
            "city": "西双版纳傣族自治州",
            "district": "勐腊县"
        }
    },
    {
        "id": "14978823617142494204",
        "title": "公共厕所",
        "address": "云南省西双版纳傣族自治州景洪市勐泐大道与西利盟路交叉口西北方向149米左右",
        "tel": "",
        "category": "基础设施:公共设施:公共厕所",
        "type": 0,
        "location": {
            "lat": 21.968859,
            "lng": 100.804152
        },
        "ad_info": {
            "adcode": 532801,
            "province": "云南省",
            "city": "西双版纳傣族自治州",
            "district": "景洪市"
        }
    },
    {
        "id": "6653535306890911820",
        "title": "公共厕所",
        "address": "云南省西双版纳傣族自治州景洪市公园大道与勐海路交叉口西北方向180米左右",
        "tel": "",
        "category": "基础设施:公共设施:公共厕所",
        "type": 0,
        "location": {
            "lat": 22.006506,
            "lng": 100.802593
        },
        "ad_info": {
            "adcode": 532801,
            "province": "云南省",
            "city": "西双版纳傣族自治州",
            "district": "景洪市"
        }
    },
    {
        "id": "3714712300246588089",
        "title": "公共厕所",
        "address": "云南省西双版纳傣族自治州景洪市滨江大道与勐海路辅路交叉口东北20米",
        "tel": "",
        "category": "基础设施:公共设施:公共厕所",
        "type": 0,
        "location": {
            "lat": 22.009001,
            "lng": 100.805146
        },
        "ad_info": {
            "adcode": 532801,
            "province": "云南省",
            "city": "西双版纳傣族自治州",
            "district": "景洪市"
        }
    },
    {
        "id": "16294630982877953600",
        "title": "公共厕所",
        "address": "云南省西双版纳傣族自治州勐腊县G219与沙腊路交叉口正东方向41米左右",
        "tel": "",
        "category": "基础设施:公共设施:公共厕所",
        "type": 0,
        "location": {
            "lat": 21.935998,
            "lng": 101.247822
        },
        "ad_info": {
            "adcode": 532823,
            "province": "云南省",
            "city": "西双版纳傣族自治州",
            "district": "勐腊县"
        }
    },
    {
        "id": "2673765392514927521",
        "title": "公共厕所",
        "address": "云南省西双版纳傣族自治州勐海县景兴路与曼兴路交叉口正北方向160米左右",
        "tel": "",
        "category": "基础设施:公共设施:公共厕所",
        "type": 0,
        "location": {
            "lat": 21.975202,
            "lng": 100.450435
        },
        "ad_info": {
            "adcode": 532822,
            "province": "云南省",
            "city": "西双版纳傣族自治州",
            "district": "勐海县"
        }
    },
    {
        "id": "12423154412666490680",
        "title": "公共厕所",
        "address": "云南省西双版纳傣族自治州景洪市观澜大道龙舟广场29栋",
        "tel": "",
        "category": "基础设施:公共设施:公共厕所",
        "type": 0,
        "location": {
            "lat": 22.001249,
            "lng": 100.811155
        },
        "ad_info": {
            "adcode": 532801,
            "province": "云南省",
            "city": "西双版纳傣族自治州",
            "district": "景洪市"
        }
    },
    {
        "id": "6358741690771278629",
        "title": "公共厕所",
        "address": "云南省西双版纳傣族自治州勐海县佛双路与勐混路交叉口正西方向87米左右",
        "tel": "",
        "category": "基础设施:公共设施:公共厕所",
        "type": 0,
        "location": {
            "lat": 21.954211,
            "lng": 100.446171
        },
        "ad_info": {
            "adcode": 532822,
            "province": "云南省",
            "city": "西双版纳傣族自治州",
            "district": "勐海县"
        }
    },
    {
        "id": "1163000480707887473",
        "title": "公共厕所(YN-XS-0418)",
        "address": "云南省西双版纳傣族自治州勐海县勐海涵舍民宿西南侧200米",
        "tel": "",
        "category": "基础设施:公共设施:公共厕所",
        "type": 0,
        "location": {
            "lat": 21.970993,
            "lng": 100.465814
        },
        "ad_info": {
            "adcode": 532822,
            "province": "云南省",
            "city": "西双版纳傣族自治州",
            "district": "勐海县"
        }
    },
    {
        "id": "10902763873254298889",
        "title": "勐仑服务区公共厕所",
        "address": "云南省西双版纳傣族自治州勐腊县Y009与亚非路交叉口正西方向916米左右",
        "tel": "",
        "category": "基础设施:公共设施:公共厕所",
        "type": 0,
        "location": {
            "lat": 21.922511,
            "lng": 101.232612
        },
        "ad_info": {
            "adcode": 532823,
            "province": "云南省",
            "city": "西双版纳傣族自治州",
            "district": "勐腊县"
        }
    },
    {
        "id": "9371500683149882483",
        "title": "公共厕所",
        "address": "云南省西双版纳傣族自治州景洪市么龙路与勐海路交叉口东北方向196米左右",
        "tel": "",
        "category": "基础设施:公共设施:公共厕所",
        "type": 0,
        "location": {
            "lat": 21.999313,
            "lng": 100.779762
        },
        "ad_info": {
            "adcode": 532801,
            "province": "云南省",
            "city": "西双版纳傣族自治州",
            "district": "景洪市"
        }
    },
    {
        "id": "11193326355387805355",
        "title": "公共厕所",
        "address": "云南省西双版纳傣族自治州景洪市G219与Y059交叉口正南方向275米左右",
        "tel": "",
        "category": "基础设施:公共设施:公共厕所",
        "type": 0,
        "location": {
            "lat": 21.891219,
            "lng": 100.995269
        },
        "ad_info": {
            "adcode": 532801,
            "province": "云南省",
            "city": "西双版纳傣族自治州",
            "district": "景洪市"
        }
    },
    {
        "id": "3927351632711935087",
        "title": "公共厕所",
        "address": "云南省西双版纳傣族自治州勐海县学府路与景养路交叉口正西方向102米左右",
        "tel": "",
        "category": "基础设施:公共设施:公共厕所",
        "type": 0,
        "location": {
            "lat": 21.954168,
            "lng": 100.448929
        },
        "ad_info": {
            "adcode": 532822,
            "province": "云南省",
            "city": "西双版纳傣族自治州",
            "district": "勐海县"
        }
    },
    {
        "id": "16858146073770649631",
        "title": "旅游厕所",
        "address": "云南省西双版纳傣族自治州勐海县布朗山乡卫生院核酸采样点东侧230米",
        "tel": "",
        "category": "基础设施:公共设施:公共厕所",
        "type": 0,
        "location": {
            "lat": 21.583307,
            "lng": 100.420151
        },
        "ad_info": {
            "adcode": 532822,
            "province": "云南省",
            "city": "西双版纳傣族自治州",
            "district": "勐海县"
        }
    },
    {
        "id": "13369584803141615359",
        "title": "公共厕所",
        "address": "云南省西双版纳傣族自治州景洪市热作所工会图书室东北侧210米",
        "tel": "",
        "category": "基础设施:公共设施:公共厕所",
        "type": 0,
        "location": {
            "lat": 22.008605,
            "lng": 100.785688
        },
        "ad_info": {
            "adcode": 532801,
            "province": "云南省",
            "city": "西双版纳傣族自治州",
            "district": "景洪市"
        }
    },
    {
        "id": "15315806875036050687",
        "title": "公共卫生间",
        "address": "云南省西双版纳傣族自治州景洪市勐海路辅路与坝吉路交叉口东北240米",
        "tel": "",
        "category": "基础设施:公共设施:公共厕所",
        "type": 0,
        "location": {
            "lat": 21.992937,
            "lng": 100.804954
        },
        "ad_info": {
            "adcode": 532801,
            "province": "云南省",
            "city": "西双版纳傣族自治州",
            "district": "景洪市"
        }
    },
    {
        "id": "15392753378139046027",
        "title": "总台卫生间",
        "address": "云南省西双版纳傣族自治州勐海县S288与XK22交叉口东北方向923米左右",
        "tel": "",
        "category": "基础设施:公共设施:公共厕所",
        "type": 0,
        "location": {
            "lat": 21.98703,
            "lng": 100.43207
        },
        "ad_info": {
            "adcode": 532822,
            "province": "云南省",
            "city": "西双版纳傣族自治州",
            "district": "勐海县"
        }
    },
    {
        "id": "426631963037231480",
        "title": "公共厕所",
        "address": "云南省西双版纳傣族自治州景洪市广场大道与浩宇大道交叉口西南方向133米左右",
        "tel": "",
        "category": "基础设施:公共设施:公共厕所",
        "type": 0,
        "location": {
            "lat": 22.004066,
            "lng": 100.806392
        },
        "ad_info": {
            "adcode": 532801,
            "province": "云南省",
            "city": "西双版纳傣族自治州",
            "district": "景洪市"
        }
    },
    {
        "id": "3110146271980803116",
        "title": "公共厕所",
        "address": "云南省西双版纳傣族自治州勐腊县",
        "tel": "",
        "category": "基础设施:公共设施:公共厕所",
        "type": 0,
        "location": {
            "lat": 21.740422,
            "lng": 101.679561
        },
        "ad_info": {
            "adcode": 532823,
            "province": "云南省",
            "city": "西双版纳傣族自治州",
            "district": "勐腊县"
        }
    },
    {
        "id": "12271207649309316098",
        "title": "公共厕所",
        "address": "云南省西双版纳傣族自治州景洪市傣泐金湾街区B9栋",
        "tel": "",
        "category": "基础设施:公共设施:公共厕所",
        "type": 0,
        "location": {
            "lat": 22.021074,
            "lng": 100.799713
        },
        "ad_info": {
            "adcode": 532801,
            "province": "云南省",
            "city": "西双版纳傣族自治州",
            "district": "景洪市"
        }
    },
    {
        "id": "2885027885076577636",
        "title": "公共厕所",
        "address": "云南省西双版纳傣族自治州勐腊县鑫福混泥土销售有限公司北侧200米",
        "tel": "",
        "category": "基础设施:公共设施:公共厕所",
        "type": 0,
        "location": {
            "lat": 21.510036,
            "lng": 101.59794
        },
        "ad_info": {
            "adcode": 532823,
            "province": "云南省",
            "city": "西双版纳傣族自治州",
            "district": "勐腊县"
        }
    },
    {
        "id": "14978823617142494204",
        "title": "公共厕所",
        "address": "云南省西双版纳傣族自治州景洪市勐泐大道与西利盟路交叉口西北方向149米左右",
        "tel": "",
        "category": "基础设施:公共设施:公共厕所",
        "type": 0,
        "location": {
            "lat": 21.968859,
            "lng": 100.804152
        },
        "ad_info": {
            "adcode": 532801,
            "province": "云南省",
            "city": "西双版纳傣族自治州",
            "district": "景洪市"
        }
    },
    {
        "id": "6653535306890911820",
        "title": "公共厕所",
        "address": "云南省西双版纳傣族自治州景洪市公园大道与勐海路交叉口西北方向180米左右",
        "tel": "",
        "category": "基础设施:公共设施:公共厕所",
        "type": 0,
        "location": {
            "lat": 22.006506,
            "lng": 100.802593
        },
        "ad_info": {
            "adcode": 532801,
            "province": "云南省",
            "city": "西双版纳傣族自治州",
            "district": "景洪市"
        }
    },
    {
        "id": "3714712300246588089",
        "title": "公共厕所",
        "address": "云南省西双版纳傣族自治州景洪市滨江大道与勐海路辅路交叉口东北20米",
        "tel": "",
        "category": "基础设施:公共设施:公共厕所",
        "type": 0,
        "location": {
            "lat": 22.009001,
            "lng": 100.805146
        },
        "ad_info": {
            "adcode": 532801,
            "province": "云南省",
            "city": "西双版纳傣族自治州",
            "district": "景洪市"
        }
    },
    {
        "id": "16294630982877953600",
        "title": "公共厕所",
        "address": "云南省西双版纳傣族自治州勐腊县G219与沙腊路交叉口正东方向41米左右",
        "tel": "",
        "category": "基础设施:公共设施:公共厕所",
        "type": 0,
        "location": {
            "lat": 21.935998,
            "lng": 101.247822
        },
        "ad_info": {
            "adcode": 532823,
            "province": "云南省",
            "city": "西双版纳傣族自治州",
            "district": "勐腊县"
        }
    },
    {
        "id": "2673765392514927521",
        "title": "公共厕所",
        "address": "云南省西双版纳傣族自治州勐海县景兴路与曼兴路交叉口正北方向160米左右",
        "tel": "",
        "category": "基础设施:公共设施:公共厕所",
        "type": 0,
        "location": {
            "lat": 21.975202,
            "lng": 100.450435
        },
        "ad_info": {
            "adcode": 532822,
            "province": "云南省",
            "city": "西双版纳傣族自治州",
            "district": "勐海县"
        }
    },
    {
        "id": "12423154412666490680",
        "title": "公共厕所",
        "address": "云南省西双版纳傣族自治州景洪市观澜大道龙舟广场29栋",
        "tel": "",
        "category": "基础设施:公共设施:公共厕所",
        "type": 0,
        "location": {
            "lat": 22.001249,
            "lng": 100.811155
        },
        "ad_info": {
            "adcode": 532801,
            "province": "云南省",
            "city": "西双版纳傣族自治州",
            "district": "景洪市"
        }
    },
    {
        "id": "6358741690771278629",
        "title": "公共厕所",
        "address": "云南省西双版纳傣族自治州勐海县佛双路与勐混路交叉口正西方向87米左右",
        "tel": "",
        "category": "基础设施:公共设施:公共厕所",
        "type": 0,
        "location": {
            "lat": 21.954211,
            "lng": 100.446171
        },
        "ad_info": {
            "adcode": 532822,
            "province": "云南省",
            "city": "西双版纳傣族自治州",
            "district": "勐海县"
        }
    },
    {
        "id": "1163000480707887473",
        "title": "公共厕所(YN-XS-0418)",
        "address": "云南省西双版纳傣族自治州勐海县勐海涵舍民宿西南侧200米",
        "tel": "",
        "category": "基础设施:公共设施:公共厕所",
        "type": 0,
        "location": {
            "lat": 21.970993,
            "lng": 100.465814
        },
        "ad_info": {
            "adcode": 532822,
            "province": "云南省",
            "city": "西双版纳傣族自治州",
            "district": "勐海县"
        }
    },
    {
        "id": "10902763873254298889",
        "title": "勐仑服务区公共厕所",
        "address": "云南省西双版纳傣族自治州勐腊县Y009与亚非路交叉口正西方向916米左右",
        "tel": "",
        "category": "基础设施:公共设施:公共厕所",
        "type": 0,
        "location": {
            "lat": 21.922511,
            "lng": 101.232612
        },
        "ad_info": {
            "adcode": 532823,
            "province": "云南省",
            "city": "西双版纳傣族自治州",
            "district": "勐腊县"
        }
    },
    {
        "id": "9371500683149882483",
        "title": "公共厕所",
        "address": "云南省西双版纳傣族自治州景洪市么龙路与勐海路交叉口东北方向196米左右",
        "tel": "",
        "category": "基础设施:公共设施:公共厕所",
        "type": 0,
        "location": {
            "lat": 21.999313,
            "lng": 100.779762
        },
        "ad_info": {
            "adcode": 532801,
            "province": "云南省",
            "city": "西双版纳傣族自治州",
            "district": "景洪市"
        }
    },
    {
        "id": "11193326355387805355",
        "title": "公共厕所",
        "address": "云南省西双版纳傣族自治州景洪市G219与Y059交叉口正南方向275米左右",
        "tel": "",
        "category": "基础设施:公共设施:公共厕所",
        "type": 0,
        "location": {
            "lat": 21.891219,
            "lng": 100.995269
        },
        "ad_info": {
            "adcode": 532801,
            "province": "云南省",
            "city": "西双版纳傣族自治州",
            "district": "景洪市"
        }
    },
    {
        "id": "3927351632711935087",
        "title": "公共厕所",
        "address": "云南省西双版纳傣族自治州勐海县学府路与景养路交叉口正西方向102米左右",
        "tel": "",
        "category": "基础设施:公共设施:公共厕所",
        "type": 0,
        "location": {
            "lat": 21.954168,
            "lng": 100.448929
        },
        "ad_info": {
            "adcode": 532822,
            "province": "云南省",
            "city": "西双版纳傣族自治州",
            "district": "勐海县"
        }
    },
    {
        "id": "16858146073770649631",
        "title": "旅游厕所",
        "address": "云南省西双版纳傣族自治州勐海县布朗山乡卫生院核酸采样点东侧230米",
        "tel": "",
        "category": "基础设施:公共设施:公共厕所",
        "type": 0,
        "location": {
            "lat": 21.583307,
            "lng": 100.420151
        },
        "ad_info": {
            "adcode": 532822,
            "province": "云南省",
            "city": "西双版纳傣族自治州",
            "district": "勐海县"
        }
    },
    {
        "id": "13369584803141615359",
        "title": "公共厕所",
        "address": "云南省西双版纳傣族自治州景洪市热作所工会图书室东北侧210米",
        "tel": "",
        "category": "基础设施:公共设施:公共厕所",
        "type": 0,
        "location": {
            "lat": 22.008605,
            "lng": 100.785688
        },
        "ad_info": {
            "adcode": 532801,
            "province": "云南省",
            "city": "西双版纳傣族自治州",
            "district": "景洪市"
        }
    },
    {
        "id": "15315806875036050687",
        "title": "公共卫生间",
        "address": "云南省西双版纳傣族自治州景洪市勐海路辅路与坝吉路交叉口东北240米",
        "tel": "",
        "category": "基础设施:公共设施:公共厕所",
        "type": 0,
        "location": {
            "lat": 21.992937,
            "lng": 100.804954
        },
        "ad_info": {
            "adcode": 532801,
            "province": "云南省",
            "city": "西双版纳傣族自治州",
            "district": "景洪市"
        }
    },
    {
        "id": "15392753378139046027",
        "title": "总台卫生间",
        "address": "云南省西双版纳傣族自治州勐海县S288与XK22交叉口东北方向923米左右",
        "tel": "",
        "category": "基础设施:公共设施:公共厕所",
        "type": 0,
        "location": {
            "lat": 21.98703,
            "lng": 100.43207
        },
        "ad_info": {
            "adcode": 532822,
            "province": "云南省",
            "city": "西双版纳傣族自治州",
            "district": "勐海县"
        }
    },
    {
        "id": "426631963037231480",
        "title": "公共厕所",
        "address": "云南省西双版纳傣族自治州景洪市广场大道与浩宇大道交叉口西南方向133米左右",
        "tel": "",
        "category": "基础设施:公共设施:公共厕所",
        "type": 0,
        "location": {
            "lat": 22.004066,
            "lng": 100.806392
        },
        "ad_info": {
            "adcode": 532801,
            "province": "云南省",
            "city": "西双版纳傣族自治州",
            "district": "景洪市"
        }
    },
    {
        "id": "3110146271980803116",
        "title": "公共厕所",
        "address": "云南省西双版纳傣族自治州勐腊县",
        "tel": "",
        "category": "基础设施:公共设施:公共厕所",
        "type": 0,
        "location": {
            "lat": 21.740422,
            "lng": 101.679561
        },
        "ad_info": {
            "adcode": 532823,
            "province": "云南省",
            "city": "西双版纳傣族自治州",
            "district": "勐腊县"
        }
    },
    {
        "id": "12271207649309316098",
        "title": "公共厕所",
        "address": "云南省西双版纳傣族自治州景洪市傣泐金湾街区B9栋",
        "tel": "",
        "category": "基础设施:公共设施:公共厕所",
        "type": 0,
        "location": {
            "lat": 22.021074,
            "lng": 100.799713
        },
        "ad_info": {
            "adcode": 532801,
            "province": "云南省",
            "city": "西双版纳傣族自治州",
            "district": "景洪市"
        }
    },
    {
        "id": "2885027885076577636",
        "title": "公共厕所",
        "address": "云南省西双版纳傣族自治州勐腊县鑫福混泥土销售有限公司北侧200米",
        "tel": "",
        "category": "基础设施:公共设施:公共厕所",
        "type": 0,
        "location": {
            "lat": 21.510036,
            "lng": 101.59794
        },
        "ad_info": {
            "adcode": 532823,
            "province": "云南省",
            "city": "西双版纳傣族自治州",
            "district": "勐腊县"
        }
    },
    {
        "id": "14978823617142494204",
        "title": "公共厕所",
        "address": "云南省西双版纳傣族自治州景洪市勐泐大道与西利盟路交叉口西北方向149米左右",
        "tel": "",
        "category": "基础设施:公共设施:公共厕所",
        "type": 0,
        "location": {
            "lat": 21.968859,
            "lng": 100.804152
        },
        "ad_info": {
            "adcode": 532801,
            "province": "云南省",
            "city": "西双版纳傣族自治州",
            "district": "景洪市"
        }
    },
    {
        "id": "6653535306890911820",
        "title": "公共厕所",
        "address": "云南省西双版纳傣族自治州景洪市公园大道与勐海路交叉口西北方向180米左右",
        "tel": "",
        "category": "基础设施:公共设施:公共厕所",
        "type": 0,
        "location": {
            "lat": 22.006506,
            "lng": 100.802593
        },
        "ad_info": {
            "adcode": 532801,
            "province": "云南省",
            "city": "西双版纳傣族自治州",
            "district": "景洪市"
        }
    },
    {
        "id": "3714712300246588089",
        "title": "公共厕所",
        "address": "云南省西双版纳傣族自治州景洪市滨江大道与勐海路辅路交叉口东北20米",
        "tel": "",
        "category": "基础设施:公共设施:公共厕所",
        "type": 0,
        "location": {
            "lat": 22.009001,
            "lng": 100.805146
        },
        "ad_info": {
            "adcode": 532801,
            "province": "云南省",
            "city": "西双版纳傣族自治州",
            "district": "景洪市"
        }
    },
    {
        "id": "16294630982877953600",
        "title": "公共厕所",
        "address": "云南省西双版纳傣族自治州勐腊县G219与沙腊路交叉口正东方向41米左右",
        "tel": "",
        "category": "基础设施:公共设施:公共厕所",
        "type": 0,
        "location": {
            "lat": 21.935998,
            "lng": 101.247822
        },
        "ad_info": {
            "adcode": 532823,
            "province": "云南省",
            "city": "西双版纳傣族自治州",
            "district": "勐腊县"
        }
    }
]