[
    {
        "id": "18000079648287087745",
        "title": "公共厕所",
        "address": "河南省许昌市魏都区青梅路与龙兴路交叉口正北方向124米左右",
        "tel": "",
        "category": "基础设施:公共设施:公共厕所",
        "type": 0,
        "location": {
            "lat": 34.048361,
            "lng": 113.848376
        },
        "ad_info": {
            "adcode": 411002,
            "province": "河南省",
            "city": "许昌市",
            "district": "魏都区"
        }
    },
    {
        "id": "2510927427937088507",
        "title": "公共厕所",
        "address": "河南省许昌市魏都区府后街曹丞相府(西北角)",
        "tel": "",
        "category": "基础设施:公共设施:公共厕所",
        "type": 0,
        "location": {
            "lat": 34.032311,
            "lng": 113.826801
        },
        "ad_info": {
            "adcode": 411002,
            "province": "河南省",
            "city": "许昌市",
            "district": "魏都区"
        }
    },
    {
        "id": "5728231451432875956",
        "title": "公共厕所",
        "address": "河南省许昌市魏都区竹林路许昌科技广场(东南角)",
        "tel": "",
        "category": "基础设施:公共设施:公共厕所",
        "type": 0,
        "location": {
            "lat": 34.048465,
            "lng": 113.851362
        },
        "ad_info": {
            "adcode": 411002,
            "province": "河南省",
            "city": "许昌市",
            "district": "魏都区"
        }
    },
    {
        "id": "7631527680311455485",
        "title": "公共厕所",
        "address": "河南省许昌市魏都区古槐街与豫园中街交叉口西北方向12米左右",
        "tel": "",
        "category": "基础设施:公共设施:公共厕所",
        "type": 0,
        "location": {
            "lat": 34.023976,
            "lng": 113.824681
        },
        "ad_info": {
            "adcode": 411002,
            "province": "河南省",
            "city": "许昌市",
            "district": "魏都区"
        }
    },
    {
        "id": "8797601265663520821",
        "title": "公共厕所",
        "address": "河南省许昌市魏都区学院北路许昌学院",
        "tel": "",
        "category": "基础设施:公共设施:公共厕所",
        "type": 0,
        "location": {
            "lat": 34.042058,
            "lng": 113.864204
        },
        "ad_info": {
            "adcode": 411002,
            "province": "河南省",
            "city": "许昌市",
            "district": "魏都区"
        }
    },
    {
        "id": "18097532688102260053",
        "title": "公共厕所",
        "address": "河南省许昌市魏都区三八路与六一路交叉口东南方向29米左右",
        "tel": "",
        "category": "基础设施:公共设施:公共厕所",
        "type": 0,
        "location": {
            "lat": 34.014881,
            "lng": 113.834025
        },
        "ad_info": {
            "adcode": 411002,
            "province": "河南省",
            "city": "许昌市",
            "district": "魏都区"
        }
    },
    {
        "id": "8359716976622260087",
        "title": "公共厕所",
        "address": "河南省许昌市魏都区五一路与帝豪路交叉口正北方向93米左右",
        "tel": "",
        "category": "基础设施:公共设施:公共厕所",
        "type": 0,
        "location": {
            "lat": 34.026974,
            "lng": 113.809373
        },
        "ad_info": {
            "adcode": 411002,
            "province": "河南省",
            "city": "许昌市",
            "district": "魏都区"
        }
    },
    {
        "id": "10992416084948521303",
        "title": "公共厕所",
        "address": "河南省许昌市魏都区湖滨路与铁东街交叉口西北方向125米左右",
        "tel": "",
        "category": "基础设施:公共设施:公共厕所",
        "type": 0,
        "location": {
            "lat": 34.025722,
            "lng": 113.818822
        },
        "ad_info": {
            "adcode": 411002,
            "province": "河南省",
            "city": "许昌市",
            "district": "魏都区"
        }
    },
    {
        "id": "11046764179313166036",
        "title": "公共厕所",
        "address": "河南省许昌市魏都区七一路与察院西街交叉口正西方向53米左右",
        "tel": "",
        "category": "基础设施:公共设施:公共厕所",
        "type": 0,
        "location": {
            "lat": 34.019549,
            "lng": 113.82997
        },
        "ad_info": {
            "adcode": 411002,
            "province": "河南省",
            "city": "许昌市",
            "district": "魏都区"
        }
    },
    {
        "id": "6459496286522201562",
        "title": "公共厕所",
        "address": "河南省许昌市襄城县凤凰路与阿里山路交叉口西南方向174米左右",
        "tel": "",
        "category": "基础设施:公共设施:公共厕所",
        "type": 0,
        "location": {
            "lat": 33.85777,
            "lng": 113.499127
        },
        "ad_info": {
            "adcode": 411025,
            "province": "河南省",
            "city": "许昌市",
            "district": "襄城县"
        }
    },
    {
        "id": "13681237221696028519",
        "title": "公共厕所",
        "address": "河南省许昌市魏都区冯庄街与冯庄巷交叉口东120米",
        "tel": "",
        "category": "基础设施:公共设施:公共厕所",
        "type": 0,
        "location": {
            "lat": 34.014665,
            "lng": 113.824429
        },
        "ad_info": {
            "adcode": 411002,
            "province": "河南省",
            "city": "许昌市",
            "district": "魏都区"
        }
    },
    {
        "id": "264098536725272463",
        "title": "公共厕所",
        "address": "河南省许昌市魏都区建安大道与魏武大道中段交叉口西南方向124米左右",
        "tel": "",
        "category": "基础设施:公共设施:公共厕所",
        "type": 0,
        "location": {
            "lat": 34.035803,
            "lng": 113.875026
        },
        "ad_info": {
            "adcode": 411002,
            "province": "河南省",
            "city": "许昌市",
            "district": "魏都区"
        }
    },
    {
        "id": "7574205491342210804",
        "title": "公共厕所",
        "address": "河南省许昌市魏都区八一东路与钧都路交叉口正北方向90米左右",
        "tel": "",
        "category": "基础设施:公共设施:公共厕所",
        "type": 0,
        "location": {
            "lat": 34.041025,
            "lng": 113.872121
        },
        "ad_info": {
            "adcode": 411002,
            "province": "河南省",
            "city": "许昌市",
            "district": "魏都区"
        }
    },
    {
        "id": "6275255384998888402",
        "title": "公共厕所",
        "address": "河南省许昌市魏都区八一东路八龙游园",
        "tel": "",
        "category": "基础设施:公共设施:公共厕所",
        "type": 0,
        "location": {
            "lat": 34.039016,
            "lng": 113.838715
        },
        "ad_info": {
            "adcode": 411002,
            "province": "河南省",
            "city": "许昌市",
            "district": "魏都区"
        }
    },
    {
        "id": "6530085351395648828",
        "title": "公共厕所",
        "address": "河南省许昌市魏都区望园巷与议台路交叉口正北方向75米左右",
        "tel": "",
        "category": "基础设施:公共设施:公共厕所",
        "type": 0,
        "location": {
            "lat": 34.01728,
            "lng": 113.848852
        },
        "ad_info": {
            "adcode": 411002,
            "province": "河南省",
            "city": "许昌市",
            "district": "魏都区"
        }
    },
    {
        "id": "7834612559512462311",
        "title": "公共厕所",
        "address": "河南省许昌市魏都区思故台商业街1f-161",
        "tel": "",
        "category": "基础设施:公共设施:公共厕所",
        "type": 0,
        "location": {
            "lat": 34.014244,
            "lng": 113.829933
        },
        "ad_info": {
            "adcode": 411002,
            "province": "河南省",
            "city": "许昌市",
            "district": "魏都区"
        }
    },
    {
        "id": "14789069146418475843",
        "title": "公共厕所",
        "address": "河南省许昌市魏都区冯庄巷与冯庄街交叉口西南方向114米左右",
        "tel": "",
        "category": "基础设施:公共设施:公共厕所",
        "type": 0,
        "location": {
            "lat": 34.013784,
            "lng": 113.822771
        },
        "ad_info": {
            "adcode": 411002,
            "province": "河南省",
            "city": "许昌市",
            "district": "魏都区"
        }
    },
    {
        "id": "1070396796948581025",
        "title": "公共厕所",
        "address": "河南省许昌市魏都区樊沟街与许继大道交叉口正南方向148米左右",
        "tel": "",
        "category": "基础设施:公共设施:公共厕所",
        "type": 0,
        "location": {
            "lat": 34.02253,
            "lng": 113.812061
        },
        "ad_info": {
            "adcode": 411002,
            "province": "河南省",
            "city": "许昌市",
            "district": "魏都区"
        }
    },
    {
        "id": "12571169209646907390",
        "title": "公共厕所",
        "address": "河南省许昌市魏都区南后街与解放北路交叉口正东方向144米左右",
        "tel": "",
        "category": "基础设施:公共设施:公共厕所",
        "type": 0,
        "location": {
            "lat": 34.027291,
            "lng": 113.816715
        },
        "ad_info": {
            "adcode": 411002,
            "province": "河南省",
            "city": "许昌市",
            "district": "魏都区"
        }
    },
    {
        "id": "8537715211398311312",
        "title": "公共厕所",
        "address": "河南省许昌市禹州市友谊路禹州市实验学校",
        "tel": "",
        "category": "基础设施:公共设施:公共厕所",
        "type": 0,
        "location": {
            "lat": 34.1321,
            "lng": 113.49942
        },
        "ad_info": {
            "adcode": 411081,
            "province": "河南省",
            "city": "许昌市",
            "district": "禹州市"
        }
    },
    {
        "id": "10752885644848042615",
        "title": "公共厕所",
        "address": "河南省许昌市魏都区南顺河街与大同北巷交叉口东南方向62米左右",
        "tel": "",
        "category": "基础设施:公共设施:公共厕所",
        "type": 0,
        "location": {
            "lat": 34.02189,
            "lng": 113.824896
        },
        "ad_info": {
            "adcode": 411002,
            "province": "河南省",
            "city": "许昌市",
            "district": "魏都区"
        }
    },
    {
        "id": "272379499015936069",
        "title": "公共厕所",
        "address": "河南省许昌市禹州市禹州汽车站(菜园街西)",
        "tel": "",
        "category": "基础设施:公共设施:公共厕所",
        "type": 0,
        "location": {
            "lat": 34.146827,
            "lng": 113.47523
        },
        "ad_info": {
            "adcode": 411081,
            "province": "河南省",
            "city": "许昌市",
            "district": "禹州市"
        }
    },
    {
        "id": "10951031963787864049",
        "title": "公共厕所",
        "address": "河南省许昌市魏都区新兴东路与百花路交叉口东南方向55米左右",
        "tel": "",
        "category": "基础设施:公共设施:公共厕所",
        "type": 0,
        "location": {
            "lat": 34.011746,
            "lng": 113.857858
        },
        "ad_info": {
            "adcode": 411002,
            "province": "河南省",
            "city": "许昌市",
            "district": "魏都区"
        }
    },
    {
        "id": "10071603005349882382",
        "title": "公共厕所",
        "address": "河南省许昌市禹州市画圣路与药城路交叉口东南方向36米左右",
        "tel": "",
        "category": "基础设施:公共设施:公共厕所",
        "type": 0,
        "location": {
            "lat": 34.157157,
            "lng": 113.488719
        },
        "ad_info": {
            "adcode": 411081,
            "province": "河南省",
            "city": "许昌市",
            "district": "禹州市"
        }
    },
    {
        "id": "2890979189323002539",
        "title": "公共厕所",
        "address": "河南省许昌市魏都区健康巷与建安大道交叉口正东方向101米左右",
        "tel": "",
        "category": "基础设施:公共设施:公共厕所",
        "type": 0,
        "location": {
            "lat": 34.035033,
            "lng": 113.836579
        },
        "ad_info": {
            "adcode": 411002,
            "province": "河南省",
            "city": "许昌市",
            "district": "魏都区"
        }
    },
    {
        "id": "12214737038478125530",
        "title": "公共厕所",
        "address": "河南省许昌市魏都区樊沟南巷与樊沟街交叉口正南方向26米左右",
        "tel": "",
        "category": "基础设施:公共设施:公共厕所",
        "type": 0,
        "location": {
            "lat": 34.020799,
            "lng": 113.812068
        },
        "ad_info": {
            "adcode": 411002,
            "province": "河南省",
            "city": "许昌市",
            "district": "魏都区"
        }
    },
    {
        "id": "2868691752241440264",
        "title": "公共厕所",
        "address": "河南省许昌市长葛市建设路与育英路交叉口西南方向32米左右",
        "tel": "",
        "category": "基础设施:公共设施:公共厕所",
        "type": 0,
        "location": {
            "lat": 34.199151,
            "lng": 113.771818
        },
        "ad_info": {
            "adcode": 411082,
            "province": "河南省",
            "city": "许昌市",
            "district": "长葛市"
        }
    },
    {
        "id": "15734621529567034988",
        "title": "公共厕所",
        "address": "河南省许昌市魏都区劳动南路与华佗路交叉口正西方向121米左右",
        "tel": "",
        "category": "基础设施:公共设施:公共厕所",
        "type": 0,
        "location": {
            "lat": 34.030528,
            "lng": 113.819787
        },
        "ad_info": {
            "adcode": 411002,
            "province": "河南省",
            "city": "许昌市",
            "district": "魏都区"
        }
    },
    {
        "id": "14235304714973754460",
        "title": "公共厕所",
        "address": "河南省许昌市禹州市陈家坊街282号",
        "tel": "",
        "category": "基础设施:公共设施:公共厕所",
        "type": 0,
        "location": {
            "lat": 34.160151,
            "lng": 113.476897
        },
        "ad_info": {
            "adcode": 411081,
            "province": "河南省",
            "city": "许昌市",
            "district": "禹州市"
        }
    },
    {
        "id": "4156515399718240794",
        "title": "公共厕所",
        "address": "河南省许昌市魏都区张炉四巷与新兴东路交叉口正东方向148米左右",
        "tel": "",
        "category": "基础设施:公共设施:公共厕所",
        "type": 0,
        "location": {
            "lat": 34.011495,
            "lng": 113.852736
        },
        "ad_info": {
            "adcode": 411002,
            "province": "河南省",
            "city": "许昌市",
            "district": "魏都区"
        }
    },
    {
        "id": "1307834769202392414",
        "title": "公共厕所",
        "address": "河南省许昌市襄城县八七路与汝河路交叉口西南方向89米左右",
        "tel": "",
        "category": "基础设施:公共设施:公共厕所",
        "type": 0,
        "location": {
            "lat": 33.853785,
            "lng": 113.509606
        },
        "ad_info": {
            "adcode": 411025,
            "province": "河南省",
            "city": "许昌市",
            "district": "襄城县"
        }
    },
    {
        "id": "11908682928271696446",
        "title": "公共厕所",
        "address": "河南省许昌市魏都区1048巷与东顺河街交叉口正东方向87米左右",
        "tel": "",
        "category": "基础设施:公共设施:公共厕所",
        "type": 0,
        "location": {
            "lat": 34.024272,
            "lng": 113.835676
        },
        "ad_info": {
            "adcode": 411002,
            "province": "河南省",
            "city": "许昌市",
            "district": "魏都区"
        }
    },
    {
        "id": "6996596597638745599",
        "title": "公共厕所",
        "address": "河南省许昌市禹州市滨河大道(中段)与颍河大街交叉口东180米",
        "tel": "",
        "category": "基础设施:公共设施:公共厕所",
        "type": 0,
        "location": {
            "lat": 34.154226,
            "lng": 113.472313
        },
        "ad_info": {
            "adcode": 411081,
            "province": "河南省",
            "city": "许昌市",
            "district": "禹州市"
        }
    },
    {
        "id": "5722106561692020225",
        "title": "公共厕所",
        "address": "河南省许昌市魏都区七一路与南关大街交叉口西南100米",
        "tel": "",
        "category": "基础设施:公共设施:公共厕所",
        "type": 0,
        "location": {
            "lat": 34.019331,
            "lng": 113.825582
        },
        "ad_info": {
            "adcode": 411002,
            "province": "河南省",
            "city": "许昌市",
            "district": "魏都区"
        }
    },
    {
        "id": "6775527245830833587",
        "title": "公共厕所",
        "address": "河南省许昌市长葛市文明街与潩水路交叉口正南方向82米左右",
        "tel": "",
        "category": "基础设施:公共设施:公共厕所",
        "type": 0,
        "location": {
            "lat": 34.217372,
            "lng": 113.762735
        },
        "ad_info": {
            "adcode": 411082,
            "province": "河南省",
            "city": "许昌市",
            "district": "长葛市"
        }
    },
    {
        "id": "17428176481999560501",
        "title": "公共厕所",
        "address": "河南省许昌市长葛市劳动路与黄河路交叉口正北方向212米左右",
        "tel": "",
        "category": "基础设施:公共设施:公共厕所",
        "type": 0,
        "location": {
            "lat": 34.239026,
            "lng": 113.800758
        },
        "ad_info": {
            "adcode": 411082,
            "province": "河南省",
            "city": "许昌市",
            "district": "长葛市"
        }
    },
    {
        "id": "8847437882069856716",
        "title": "公共厕所",
        "address": "河南省许昌市魏都区魏文路与龙兴路交叉口正东方向79米左右",
        "tel": "",
        "category": "基础设施:公共设施:公共厕所",
        "type": 0,
        "location": {
            "lat": 34.047506,
            "lng": 113.855938
        },
        "ad_info": {
            "adcode": 411002,
            "province": "河南省",
            "city": "许昌市",
            "district": "魏都区"
        }
    },
    {
        "id": "16673933010482600693",
        "title": "公共厕所",
        "address": "河南省许昌市魏都区天宝东路与德星路交叉口正南方向179米左右",
        "tel": "",
        "category": "基础设施:公共设施:公共厕所",
        "type": 0,
        "location": {
            "lat": 34.045218,
            "lng": 113.862003
        },
        "ad_info": {
            "adcode": 411002,
            "province": "河南省",
            "city": "许昌市",
            "district": "魏都区"
        }
    },
    {
        "id": "2316089844392556431",
        "title": "公共厕所",
        "address": "河南省许昌市长葛市建设北路与视察路交叉口正北方向125米左右",
        "tel": "",
        "category": "基础设施:公共设施:公共厕所",
        "type": 0,
        "location": {
            "lat": 34.226725,
            "lng": 113.770491
        },
        "ad_info": {
            "adcode": 411082,
            "province": "河南省",
            "city": "许昌市",
            "district": "长葛市"
        }
    },
    {
        "id": "7919773853719015552",
        "title": "公共厕所",
        "address": "河南省许昌市襄城县幸福路与泰安路交叉口东北方向39米左右",
        "tel": "",
        "category": "基础设施:公共设施:公共厕所",
        "type": 0,
        "location": {
            "lat": 33.855164,
            "lng": 113.49192
        },
        "ad_info": {
            "adcode": 411025,
            "province": "河南省",
            "city": "许昌市",
            "district": "襄城县"
        }
    },
    {
        "id": "13412778251787376015",
        "title": "公共厕所",
        "address": "河南省许昌市长葛市东明路与铁东北路交叉口西南方向159米左右",
        "tel": "",
        "category": "基础设施:公共设施:公共厕所",
        "type": 0,
        "location": {
            "lat": 34.226425,
            "lng": 113.780041
        },
        "ad_info": {
            "adcode": 411082,
            "province": "河南省",
            "city": "许昌市",
            "district": "长葛市"
        }
    },
    {
        "id": "12092250040863260966",
        "title": "公共厕所",
        "address": "河南省许昌市魏都区礼贤路与陈庄街交叉口正南方向96米左右",
        "tel": "",
        "category": "基础设施:公共设施:公共厕所",
        "type": 0,
        "location": {
            "lat": 34.055434,
            "lng": 113.868568
        },
        "ad_info": {
            "adcode": 411002,
            "province": "河南省",
            "city": "许昌市",
            "district": "魏都区"
        }
    },
    {
        "id": "18168784819127237165",
        "title": "公共厕所",
        "address": "河南省许昌市长葛市人民南路与解放路交叉口东南方向112米左右",
        "tel": "",
        "category": "基础设施:公共设施:公共厕所",
        "type": 0,
        "location": {
            "lat": 34.209057,
            "lng": 113.778561
        },
        "ad_info": {
            "adcode": 411082,
            "province": "河南省",
            "city": "许昌市",
            "district": "长葛市"
        }
    },
    {
        "id": "1642994418482607029",
        "title": "公共厕所",
        "address": "河南省许昌市建安区芙蓉大道中央公园芙蓉广场(东侧)",
        "tel": "",
        "category": "基础设施:公共设施:公共厕所",
        "type": 0,
        "location": {
            "lat": 34.084848,
            "lng": 113.851525
        },
        "ad_info": {
            "adcode": 411003,
            "province": "河南省",
            "city": "许昌市",
            "district": "建安区"
        }
    },
    {
        "id": "1688643796356339020",
        "title": "公共厕所",
        "address": "河南省许昌市建安区瑞贝卡大道与经三路交叉口西南方向56米左右",
        "tel": "",
        "category": "基础设施:公共设施:公共厕所",
        "type": 0,
        "location": {
            "lat": 33.997035,
            "lng": 113.842979
        },
        "ad_info": {
            "adcode": 411003,
            "province": "河南省",
            "city": "许昌市",
            "district": "建安区"
        }
    },
    {
        "id": "4609312845863998246",
        "title": "公共厕所",
        "address": "河南省许昌市鄢陵县南大街与花都大道交叉口西北方向59米左右",
        "tel": "",
        "category": "基础设施:公共设施:公共厕所",
        "type": 0,
        "location": {
            "lat": 34.092996,
            "lng": 114.198581
        },
        "ad_info": {
            "adcode": 411024,
            "province": "河南省",
            "city": "许昌市",
            "district": "鄢陵县"
        }
    },
    {
        "id": "1454921638368358173",
        "title": "公共厕所",
        "address": "河南省许昌市禹州市钧州大街与通明寺东路交叉口南140米",
        "tel": "",
        "category": "基础设施:公共设施:公共厕所",
        "type": 0,
        "location": {
            "lat": 34.149942,
            "lng": 113.47394
        },
        "ad_info": {
            "adcode": 411081,
            "province": "河南省",
            "city": "许昌市",
            "district": "禹州市"
        }
    },
    {
        "id": "12360960682866190369",
        "title": "公共厕所",
        "address": "河南省许昌市魏都区北九曲街与古槐街交叉口正东方向69米左右",
        "tel": "",
        "category": "基础设施:公共设施:公共厕所",
        "type": 0,
        "location": {
            "lat": 34.026259,
            "lng": 113.825827
        },
        "ad_info": {
            "adcode": 411002,
            "province": "河南省",
            "city": "许昌市",
            "district": "魏都区"
        }
    },
    {
        "id": "9997153897861492257",
        "title": "公共厕所",
        "address": "河南省许昌市禹州市府东路夏禹公园(南侧)",
        "tel": "",
        "category": "基础设施:公共设施:公共厕所",
        "type": 0,
        "location": {
            "lat": 34.136098,
            "lng": 113.487407
        },
        "ad_info": {
            "adcode": 411081,
            "province": "河南省",
            "city": "许昌市",
            "district": "禹州市"
        }
    },
    {
        "id": "2502379442966766707",
        "title": "公共厕所",
        "address": "河南省许昌市魏都区学巷街与建设路交叉口西南方向27米左右",
        "tel": "",
        "category": "基础设施:公共设施:公共厕所",
        "type": 0,
        "location": {
            "lat": 34.021911,
            "lng": 113.827145
        },
        "ad_info": {
            "adcode": 411002,
            "province": "河南省",
            "city": "许昌市",
            "district": "魏都区"
        }
    },
    {
        "id": "14544235138287544452",
        "title": "公共厕所",
        "address": "河南省许昌市建安区延安路四海游园(东侧)",
        "tel": "",
        "category": "基础设施:公共设施:公共厕所",
        "type": 0,
        "location": {
            "lat": 33.990831,
            "lng": 113.798714
        },
        "ad_info": {
            "adcode": 411003,
            "province": "河南省",
            "city": "许昌市",
            "district": "建安区"
        }
    },
    {
        "id": "11142624236047847378",
        "title": "公共厕所",
        "address": "河南省许昌市魏都区塔东路与文峰东巷交叉口正北方向78米左右",
        "tel": "",
        "category": "基础设施:公共设施:公共厕所",
        "type": 0,
        "location": {
            "lat": 34.024267,
            "lng": 113.838988
        },
        "ad_info": {
            "adcode": 411002,
            "province": "河南省",
            "city": "许昌市",
            "district": "魏都区"
        }
    },
    {
        "id": "6548808826088406466",
        "title": "公共厕所",
        "address": "河南省许昌市魏都区东城街与学院北路交叉口正西方向126米左右",
        "tel": "",
        "category": "基础设施:公共设施:公共厕所",
        "type": 0,
        "location": {
            "lat": 34.016139,
            "lng": 113.866148
        },
        "ad_info": {
            "adcode": 411002,
            "province": "河南省",
            "city": "许昌市",
            "district": "魏都区"
        }
    },
    {
        "id": "15653966475532921682",
        "title": "公共厕所",
        "address": "河南省许昌市长葛市东明路与钟繇大道北段交叉口西北方向41米左右",
        "tel": "",
        "category": "基础设施:公共设施:公共厕所",
        "type": 0,
        "location": {
            "lat": 34.227882,
            "lng": 113.787637
        },
        "ad_info": {
            "adcode": 411082,
            "province": "河南省",
            "city": "许昌市",
            "district": "长葛市"
        }
    },
    {
        "id": "6351891613875984003",
        "title": "无障碍公共厕所",
        "address": "河南省许昌市禹州市商贸南9号街与商贸南街交叉口东南方向14米左右",
        "tel": "",
        "category": "基础设施:公共设施:公共厕所",
        "type": 0,
        "location": {
            "lat": 34.14695,
            "lng": 113.488867
        },
        "ad_info": {
            "adcode": 411081,
            "province": "河南省",
            "city": "许昌市",
            "district": "禹州市"
        }
    },
    {
        "id": "13900196730827484774",
        "title": "公共厕所",
        "address": "河南省许昌市建安区建安大道与承光路交叉口正东方向146米左右",
        "tel": "",
        "category": "基础设施:公共设施:公共厕所",
        "type": 0,
        "location": {
            "lat": 34.036821,
            "lng": 113.884018
        },
        "ad_info": {
            "adcode": 411003,
            "province": "河南省",
            "city": "许昌市",
            "district": "建安区"
        }
    },
    {
        "id": "8264353363552767213",
        "title": "公共厕所",
        "address": "河南省许昌市鄢陵县南大街与滨河路交叉口东北方向55米左右",
        "tel": "",
        "category": "基础设施:公共设施:公共厕所",
        "type": 0,
        "location": {
            "lat": 34.096022,
            "lng": 114.199197
        },
        "ad_info": {
            "adcode": 411024,
            "province": "河南省",
            "city": "许昌市",
            "district": "鄢陵县"
        }
    },
    {
        "id": "1710583037552105631",
        "title": "公共厕所",
        "address": "河南省许昌市禹州市行政北路禹州市中心医院",
        "tel": "",
        "category": "基础设施:公共设施:公共厕所",
        "type": 0,
        "location": {
            "lat": 34.138221,
            "lng": 113.499182
        },
        "ad_info": {
            "adcode": 411081,
            "province": "河南省",
            "city": "许昌市",
            "district": "禹州市"
        }
    },
    {
        "id": "3196758101662358701",
        "title": "公共厕所",
        "address": "河南省许昌市襄城县文昌路与阿里山路交叉口正西方向114米左右",
        "tel": "",
        "category": "基础设施:公共设施:公共厕所",
        "type": 0,
        "location": {
            "lat": 33.860981,
            "lng": 113.500137
        },
        "ad_info": {
            "adcode": 411025,
            "province": "河南省",
            "city": "许昌市",
            "district": "襄城县"
        }
    },
    {
        "id": "18395475813770544210",
        "title": "公共厕所",
        "address": "河南省许昌市魏都区东北前街与湖滨路交叉口正西方向100米左右",
        "tel": "",
        "category": "基础设施:公共设施:公共厕所",
        "type": 0,
        "location": {
            "lat": 34.028563,
            "lng": 113.817876
        },
        "ad_info": {
            "adcode": 411002,
            "province": "河南省",
            "city": "许昌市",
            "district": "魏都区"
        }
    },
    {
        "id": "17164981941803497390",
        "title": "公共厕所",
        "address": "河南省许昌市襄城县凤凰路与紫云大道交叉口西南方向89米左右",
        "tel": "",
        "category": "基础设施:公共设施:公共厕所",
        "type": 0,
        "location": {
            "lat": 33.856513,
            "lng": 113.507653
        },
        "ad_info": {
            "adcode": 411025,
            "province": "河南省",
            "city": "许昌市",
            "district": "襄城县"
        }
    },
    {
        "id": "10482501555263893881",
        "title": "公共厕所",
        "address": "河南省许昌市建安区建安大道与许州路北段交叉口西260米",
        "tel": "",
        "category": "基础设施:公共设施:公共厕所",
        "type": 0,
        "location": {
            "lat": 34.036731,
            "lng": 113.883385
        },
        "ad_info": {
            "adcode": 411003,
            "province": "河南省",
            "city": "许昌市",
            "district": "建安区"
        }
    },
    {
        "id": "2093707311864475956",
        "title": "公共厕所",
        "address": "河南省许昌市襄城县弘文路与紫云大道交叉口东南方向40米左右",
        "tel": "",
        "category": "基础设施:公共设施:公共厕所",
        "type": 0,
        "location": {
            "lat": 33.840329,
            "lng": 113.486085
        },
        "ad_info": {
            "adcode": 411025,
            "province": "河南省",
            "city": "许昌市",
            "district": "襄城县"
        }
    },
    {
        "id": "12705240390086138263",
        "title": "公共厕所",
        "address": "河南省许昌市禹州市创新路与祥云大道交叉口东北方向756米左右",
        "tel": "",
        "category": "基础设施:公共设施:公共厕所",
        "type": 0,
        "location": {
            "lat": 34.15568,
            "lng": 113.544318
        },
        "ad_info": {
            "adcode": 411081,
            "province": "河南省",
            "city": "许昌市",
            "district": "禹州市"
        }
    },
    {
        "id": "6021465348385012922",
        "title": "公共厕所",
        "address": "河南省许昌市襄城县幸福路与泰安路交叉口正东方向65米左右",
        "tel": "",
        "category": "基础设施:公共设施:公共厕所",
        "type": 0,
        "location": {
            "lat": 33.854953,
            "lng": 113.492395
        },
        "ad_info": {
            "adcode": 411025,
            "province": "河南省",
            "city": "许昌市",
            "district": "襄城县"
        }
    },
    {
        "id": "9387270563300607558",
        "title": "公共厕所",
        "address": "河南省许昌市长葛市长社东路与魏武北路交叉口西南方向79米左右",
        "tel": "",
        "category": "基础设施:公共设施:公共厕所",
        "type": 0,
        "location": {
            "lat": 34.225769,
            "lng": 113.818278
        },
        "ad_info": {
            "adcode": 411082,
            "province": "河南省",
            "city": "许昌市",
            "district": "长葛市"
        }
    },
    {
        "id": "13540431042726029114",
        "title": "公共厕所",
        "address": "河南省许昌市禹州市开元大道与琅城路交叉口正北方向101米左右",
        "tel": "",
        "category": "基础设施:公共设施:公共厕所",
        "type": 0,
        "location": {
            "lat": 34.130635,
            "lng": 113.55328
        },
        "ad_info": {
            "adcode": 411081,
            "province": "河南省",
            "city": "许昌市",
            "district": "禹州市"
        }
    },
    {
        "id": "585635459692701895",
        "title": "公共厕所",
        "address": "河南省许昌市魏都区学府街学府名苑",
        "tel": "",
        "category": "基础设施:公共设施:公共厕所",
        "type": 0,
        "location": {
            "lat": 34.042953,
            "lng": 113.848235
        },
        "ad_info": {
            "adcode": 411002,
            "province": "河南省",
            "city": "许昌市",
            "district": "魏都区"
        }
    },
    {
        "id": "612789007125898131",
        "title": "公共厕所",
        "address": "河南省许昌市魏都区东大街与文峰中路交叉口正南方向81米左右",
        "tel": "",
        "category": "基础设施:公共设施:公共厕所",
        "type": 0,
        "location": {
            "lat": 34.027578,
            "lng": 113.837883
        },
        "ad_info": {
            "adcode": 411002,
            "province": "河南省",
            "city": "许昌市",
            "district": "魏都区"
        }
    },
    {
        "id": "10264849767501150682",
        "title": "公共厕所",
        "address": "河南省许昌市鄢陵县梅里路与翠薇路交叉口正北方向302米左右",
        "tel": "",
        "category": "基础设施:公共设施:公共厕所",
        "type": 0,
        "location": {
            "lat": 34.111077,
            "lng": 114.182698
        },
        "ad_info": {
            "adcode": 411024,
            "province": "河南省",
            "city": "许昌市",
            "district": "鄢陵县"
        }
    },
    {
        "id": "6567029774245636026",
        "title": "公共厕所",
        "address": "河南省许昌市魏都区怡心街与毓秀路交叉口东北方向27米左右",
        "tel": "",
        "category": "基础设施:公共设施:公共厕所",
        "type": 0,
        "location": {
            "lat": 34.020088,
            "lng": 113.844531
        },
        "ad_info": {
            "adcode": 411002,
            "province": "河南省",
            "city": "许昌市",
            "district": "魏都区"
        }
    },
    {
        "id": "7655203866174915091",
        "title": "公共厕所",
        "address": "河南省许昌市魏都区凭心街与颍昌路交叉口东北方向30米左右",
        "tel": "",
        "category": "基础设施:公共设施:公共厕所",
        "type": 0,
        "location": {
            "lat": 34.017777,
            "lng": 113.824458
        },
        "ad_info": {
            "adcode": 411002,
            "province": "河南省",
            "city": "许昌市",
            "district": "魏都区"
        }
    },
    {
        "id": "14880781963790062740",
        "title": "公共厕所",
        "address": "河南省许昌市魏都区翠林北路与翠林南路交叉口西北方向69米左右",
        "tel": "",
        "category": "基础设施:公共设施:公共厕所",
        "type": 0,
        "location": {
            "lat": 34.02422,
            "lng": 113.84727
        },
        "ad_info": {
            "adcode": 411002,
            "province": "河南省",
            "city": "许昌市",
            "district": "魏都区"
        }
    },
    {
        "id": "15828648849076436763",
        "title": "公共厕所",
        "address": "河南省许昌市魏都区学府街三里桥小区",
        "tel": "",
        "category": "基础设施:公共设施:公共厕所",
        "type": 0,
        "location": {
            "lat": 34.043319,
            "lng": 113.854294
        },
        "ad_info": {
            "adcode": 411002,
            "province": "河南省",
            "city": "许昌市",
            "district": "魏都区"
        }
    },
    {
        "id": "2984711491182055396",
        "title": "公共厕所",
        "address": "河南省许昌市魏都区新东街与魏武大道中段交叉口西南方向113米左右",
        "tel": "",
        "category": "基础设施:公共设施:公共厕所",
        "type": 0,
        "location": {
            "lat": 34.027574,
            "lng": 113.876352
        },
        "ad_info": {
            "adcode": 411002,
            "province": "河南省",
            "city": "许昌市",
            "district": "魏都区"
        }
    },
    {
        "id": "5365009309135024898",
        "title": "公共厕所",
        "address": "河南省许昌市禹州市滨河大道149号",
        "tel": "",
        "category": "基础设施:公共设施:公共厕所",
        "type": 0,
        "location": {
            "lat": 34.151967,
            "lng": 113.471778
        },
        "ad_info": {
            "adcode": 411081,
            "province": "河南省",
            "city": "许昌市",
            "district": "禹州市"
        }
    },
    {
        "id": "10580485262117570511",
        "title": "公共厕所",
        "address": "河南省许昌市魏都区八一东路与德星路交叉口正北方向117米左右",
        "tel": "",
        "category": "基础设施:公共设施:公共厕所",
        "type": 0,
        "location": {
            "lat": 34.040884,
            "lng": 113.862557
        },
        "ad_info": {
            "adcode": 411002,
            "province": "河南省",
            "city": "许昌市",
            "district": "魏都区"
        }
    },
    {
        "id": "10978682904006087197",
        "title": "公共厕所",
        "address": "河南省许昌市魏都区塔湾街与文博路交叉口正东方向28米左右",
        "tel": "",
        "category": "基础设施:公共设施:公共厕所",
        "type": 0,
        "location": {
            "lat": 34.016591,
            "lng": 113.840719
        },
        "ad_info": {
            "adcode": 411002,
            "province": "河南省",
            "city": "许昌市",
            "district": "魏都区"
        }
    },
    {
        "id": "3324850766293984334",
        "title": "公共厕所",
        "address": "河南省许昌市魏都区万丰路与翠林北路交叉口东南方向24米左右",
        "tel": "",
        "category": "基础设施:公共设施:公共厕所",
        "type": 0,
        "location": {
            "lat": 34.043802,
            "lng": 113.836281
        },
        "ad_info": {
            "adcode": 411002,
            "province": "河南省",
            "city": "许昌市",
            "district": "魏都区"
        }
    },
    {
        "id": "65172425959170061",
        "title": "公共厕所",
        "address": "河南省许昌市魏都区白庙后街与解放北路交叉口东南方向35米左右",
        "tel": "",
        "category": "基础设施:公共设施:公共厕所",
        "type": 0,
        "location": {
            "lat": 34.014932,
            "lng": 113.817741
        },
        "ad_info": {
            "adcode": 411002,
            "province": "河南省",
            "city": "许昌市",
            "district": "魏都区"
        }
    },
    {
        "id": "9813625688983621235",
        "title": "公共厕所",
        "address": "河南省许昌市魏都区延安路与瑞祥路交叉口东南方向100米左右",
        "tel": "",
        "category": "基础设施:公共设施:公共厕所",
        "type": 0,
        "location": {
            "lat": 34.000578,
            "lng": 113.799596
        },
        "ad_info": {
            "adcode": 411002,
            "province": "河南省",
            "city": "许昌市",
            "district": "魏都区"
        }
    },
    {
        "id": "13648058381242798089",
        "title": "公共厕所",
        "address": "河南省许昌市魏都区新兴西路与解放南路交叉口正东方向158米左右",
        "tel": "",
        "category": "基础设施:公共设施:公共厕所",
        "type": 0,
        "location": {
            "lat": 34.011414,
            "lng": 113.819361
        },
        "ad_info": {
            "adcode": 411002,
            "province": "河南省",
            "city": "许昌市",
            "district": "魏都区"
        }
    },
    {
        "id": "16606917149524468383",
        "title": "公共厕所",
        "address": "河南省许昌市建安区聚贤街与魏文路交叉口正东方向156米左右",
        "tel": "",
        "category": "基础设施:公共设施:公共厕所",
        "type": 0,
        "location": {
            "lat": 34.114117,
            "lng": 113.842084
        },
        "ad_info": {
            "adcode": 411003,
            "province": "河南省",
            "city": "许昌市",
            "district": "建安区"
        }
    },
    {
        "id": "12606311185087594059",
        "title": "福港大酒店-洗手间",
        "address": "河南省许昌市魏都区兴业路与文德街交叉口正北方向177米左右",
        "tel": "",
        "category": "基础设施:公共设施:公共厕所",
        "type": 0,
        "location": {
            "lat": 34.039151,
            "lng": 113.860249
        },
        "ad_info": {
            "adcode": 411002,
            "province": "河南省",
            "city": "许昌市",
            "district": "魏都区"
        }
    },
    {
        "id": "13893150633919942480",
        "title": "公共厕所",
        "address": "河南省许昌市禹州市建设南路与辛庄路交叉口正北方向56米左右",
        "tel": "",
        "category": "基础设施:公共设施:公共厕所",
        "type": 0,
        "location": {
            "lat": 34.148237,
            "lng": 113.480138
        },
        "ad_info": {
            "adcode": 411081,
            "province": "河南省",
            "city": "许昌市",
            "district": "禹州市"
        }
    },
    {
        "id": "5105012385650060330",
        "title": "公共厕所",
        "address": "河南省许昌市魏都区光明一巷与吴庄巷交叉口正南方向103米左右",
        "tel": "",
        "category": "基础设施:公共设施:公共厕所",
        "type": 0,
        "location": {
            "lat": 34.021292,
            "lng": 113.807727
        },
        "ad_info": {
            "adcode": 411002,
            "province": "河南省",
            "city": "许昌市",
            "district": "魏都区"
        }
    },
    {
        "id": "6213163303028375133",
        "title": "北海公园公共厕所",
        "address": "河南省许昌市建安区聚贤街与莲苑路南段交叉口西南方向55米左右",
        "tel": "",
        "category": "基础设施:公共设施:公共厕所",
        "type": 0,
        "location": {
            "lat": 34.113448,
            "lng": 113.834725
        },
        "ad_info": {
            "adcode": 411003,
            "province": "河南省",
            "city": "许昌市",
            "district": "建安区"
        }
    },
    {
        "id": "18369445880974115442",
        "title": "公共厕所",
        "address": "河南省许昌市禹州市金坡公寓西侧160米",
        "tel": "",
        "category": "基础设施:公共设施:公共厕所",
        "type": 0,
        "location": {
            "lat": 34.135017,
            "lng": 113.476835
        },
        "ad_info": {
            "adcode": 411081,
            "province": "河南省",
            "city": "许昌市",
            "district": "禹州市"
        }
    },
    {
        "id": "5085023846563825184",
        "title": "公共厕所",
        "address": "河南省许昌市禹州市商贸南5号街与商贸南街交叉口东北方向13米左右",
        "tel": "",
        "category": "基础设施:公共设施:公共厕所",
        "type": 0,
        "location": {
            "lat": 34.147295,
            "lng": 113.487307
        },
        "ad_info": {
            "adcode": 411081,
            "province": "河南省",
            "city": "许昌市",
            "district": "禹州市"
        }
    },
    {
        "id": "15744548904496314937",
        "title": "公共厕所",
        "address": "河南省许昌市魏都区前进路与魏文路交叉口正北方向206米左右",
        "tel": "",
        "category": "基础设施:公共设施:公共厕所",
        "type": 0,
        "location": {
            "lat": 34.020745,
            "lng": 113.858234
        },
        "ad_info": {
            "adcode": 411002,
            "province": "河南省",
            "city": "许昌市",
            "district": "魏都区"
        }
    },
    {
        "id": "5445976327486649138",
        "title": "公共卫生间",
        "address": "河南省许昌市魏都区文博路与新兴东路交叉口正西方向107米左右",
        "tel": "",
        "category": "基础设施:公共设施:公共厕所",
        "type": 0,
        "location": {
            "lat": 34.011306,
            "lng": 113.839402
        },
        "ad_info": {
            "adcode": 411002,
            "province": "河南省",
            "city": "许昌市",
            "district": "魏都区"
        }
    },
    {
        "id": "16122349655698977619",
        "title": "公共厕所",
        "address": "河南省许昌市魏都区学院北路与青芳街交叉口东北方向61米左右",
        "tel": "",
        "category": "基础设施:公共设施:公共厕所",
        "type": 0,
        "location": {
            "lat": 34.02241,
            "lng": 113.86717
        },
        "ad_info": {
            "adcode": 411002,
            "province": "河南省",
            "city": "许昌市",
            "district": "魏都区"
        }
    },
    {
        "id": "11433728644186703005",
        "title": "公共厕所",
        "address": "河南省许昌市魏都区帝豪路与灞陵路交叉口正东方向34米左右",
        "tel": "",
        "category": "基础设施:公共设施:公共厕所",
        "type": 0,
        "location": {
            "lat": 34.028688,
            "lng": 113.791416
        },
        "ad_info": {
            "adcode": 411002,
            "province": "河南省",
            "city": "许昌市",
            "district": "魏都区"
        }
    },
    {
        "id": "3327250487871086768",
        "title": "公共厕所",
        "address": "河南省许昌市禹州市柏山路与禹王大道交叉口东南方向61米左右",
        "tel": "",
        "category": "基础设施:公共设施:公共厕所",
        "type": 0,
        "location": {
            "lat": 34.137844,
            "lng": 113.493343
        },
        "ad_info": {
            "adcode": 411081,
            "province": "河南省",
            "city": "许昌市",
            "district": "禹州市"
        }
    },
    {
        "id": "13386259706078026021",
        "title": "公共厕所",
        "address": "河南省许昌市禹州市滨河大道与禹王大道交叉口正南方向94米左右",
        "tel": "",
        "category": "基础设施:公共设施:公共厕所",
        "type": 0,
        "location": {
            "lat": 34.128616,
            "lng": 113.516163
        },
        "ad_info": {
            "adcode": 411081,
            "province": "河南省",
            "city": "许昌市",
            "district": "禹州市"
        }
    },
    {
        "id": "6460855519281765230",
        "title": "公共厕所",
        "address": "河南省许昌市禹州市商城路与育才路交叉口西北方向59米左右",
        "tel": "",
        "category": "基础设施:公共设施:公共厕所",
        "type": 0,
        "location": {
            "lat": 34.163671,
            "lng": 113.455495
        },
        "ad_info": {
            "adcode": 411081,
            "province": "河南省",
            "city": "许昌市",
            "district": "禹州市"
        }
    },
    {
        "id": "11447089110660711264",
        "title": "公共厕所",
        "address": "河南省许昌市长葛市建设南路与轻工路交叉口西南方向118米左右",
        "tel": "",
        "category": "基础设施:公共设施:公共厕所",
        "type": 0,
        "location": {
            "lat": 34.202079,
            "lng": 113.770944
        },
        "ad_info": {
            "adcode": 411082,
            "province": "河南省",
            "city": "许昌市",
            "district": "长葛市"
        }
    },
    {
        "id": "13549566205518865654",
        "title": "鹿鸣湖公共厕所",
        "address": "河南省许昌市建安区归心路与陈庄街交叉口正北方向249米左右",
        "tel": "",
        "category": "基础设施:公共设施:公共厕所",
        "type": 0,
        "location": {
            "lat": 34.058535,
            "lng": 113.86888
        },
        "ad_info": {
            "adcode": 411003,
            "province": "河南省",
            "city": "许昌市",
            "district": "建安区"
        }
    },
    {
        "id": "5604067711134679588",
        "title": "公共厕所",
        "address": "河南省许昌市建安区文峰北路与永宁街交叉口正东方向333米左右",
        "tel": "",
        "category": "基础设施:公共设施:公共厕所",
        "type": 0,
        "location": {
            "lat": 34.132606,
            "lng": 113.827705
        },
        "ad_info": {
            "adcode": 411003,
            "province": "河南省",
            "city": "许昌市",
            "district": "建安区"
        }
    },
    {
        "id": "2122271781775751299",
        "title": "无障碍公共厕所",
        "address": "河南省许昌市禹州市滨河大道(中段)与药城南七路交叉口南180米",
        "tel": "",
        "category": "基础设施:公共设施:公共厕所",
        "type": 0,
        "location": {
            "lat": 34.149765,
            "lng": 113.489944
        },
        "ad_info": {
            "adcode": 411081,
            "province": "河南省",
            "city": "许昌市",
            "district": "禹州市"
        }
    },
    {
        "id": "10577834308814793742",
        "title": "董妃墓公共厕所",
        "address": "河南省许昌市魏都区魏文路帝豪花园(学府街)",
        "tel": "",
        "category": "基础设施:公共设施:公共厕所",
        "type": 0,
        "location": {
            "lat": 34.04093,
            "lng": 113.8554
        },
        "ad_info": {
            "adcode": 411002,
            "province": "河南省",
            "city": "许昌市",
            "district": "魏都区"
        }
    },
    {
        "id": "13458199157466079303",
        "title": "公共厕所",
        "address": "河南省许昌市建安区瑞贝卡大道与文兴路交叉口东北角西北方向126米左右",
        "tel": "",
        "category": "基础设施:公共设施:公共厕所",
        "type": 0,
        "location": {
            "lat": 33.99824,
            "lng": 113.84666
        },
        "ad_info": {
            "adcode": 411003,
            "province": "河南省",
            "city": "许昌市",
            "district": "建安区"
        }
    },
    {
        "id": "15655009720900836749",
        "title": "公共厕所",
        "address": "河南省许昌市长葛市Y008与中兴路交叉口正北方向45米左右",
        "tel": "",
        "category": "基础设施:公共设施:公共厕所",
        "type": 0,
        "location": {
            "lat": 34.268715,
            "lng": 113.87365
        },
        "ad_info": {
            "adcode": 411082,
            "province": "河南省",
            "city": "许昌市",
            "district": "长葛市"
        }
    },
    {
        "id": "16480073286515148690",
        "title": "公共厕所",
        "address": "河南省许昌市长葛市机场路与长社中路交叉口西北方向31米左右",
        "tel": "",
        "category": "基础设施:公共设施:公共厕所",
        "type": 0,
        "location": {
            "lat": 34.223302,
            "lng": 113.784987
        },
        "ad_info": {
            "adcode": 411082,
            "province": "河南省",
            "city": "许昌市",
            "district": "长葛市"
        }
    },
    {
        "id": "5118272248706464950",
        "title": "秋湖湿地公园公共厕所",
        "address": "河南省许昌市建安区望湖路与染坊巷交叉口西北方向736米左右",
        "tel": "",
        "category": "基础设施:公共设施:公共厕所",
        "type": 0,
        "location": {
            "lat": 34.018232,
            "lng": 113.907155
        },
        "ad_info": {
            "adcode": 411003,
            "province": "河南省",
            "city": "许昌市",
            "district": "建安区"
        }
    },
    {
        "id": "1819143836345180911",
        "title": "公共厕所",
        "address": "河南省许昌市建安区兴昌路539号",
        "tel": "",
        "category": "基础设施:公共设施:公共厕所",
        "type": 0,
        "location": {
            "lat": 34.002281,
            "lng": 113.846916
        },
        "ad_info": {
            "adcode": 411003,
            "province": "河南省",
            "city": "许昌市",
            "district": "建安区"
        }
    },
    {
        "id": "14017984626501982704",
        "title": "许昌服务区公共厕所",
        "address": "河南省许昌市长葛市Y010与长生园路交叉口东南方向587米左右",
        "tel": "",
        "category": "基础设施:公共设施:公共厕所",
        "type": 0,
        "location": {
            "lat": 34.297493,
            "lng": 113.814267
        },
        "ad_info": {
            "adcode": 411082,
            "province": "河南省",
            "city": "许昌市",
            "district": "长葛市"
        }
    },
    {
        "id": "12551520503589295123",
        "title": "公共厕所",
        "address": "河南省许昌市长葛市中兴路与老新路交叉口正东方向91米左右",
        "tel": "",
        "category": "基础设施:公共设施:公共厕所",
        "type": 0,
        "location": {
            "lat": 34.277735,
            "lng": 113.874452
        },
        "ad_info": {
            "adcode": 411082,
            "province": "河南省",
            "city": "许昌市",
            "district": "长葛市"
        }
    },
    {
        "id": "16015559456506261877",
        "title": "许昌服务区公共厕所",
        "address": "河南省许昌市长葛市Y010与长生园路交叉口东南方向473米左右",
        "tel": "",
        "category": "基础设施:公共设施:公共厕所",
        "type": 0,
        "location": {
            "lat": 34.298199,
            "lng": 113.81333
        },
        "ad_info": {
            "adcode": 411082,
            "province": "河南省",
            "city": "许昌市",
            "district": "长葛市"
        }
    },
    {
        "id": "16822167795655543717",
        "title": "公共厕所",
        "address": "河南省许昌市建安区瑞贝卡大道与文兴路交叉口东北角正西方向165米左右",
        "tel": "",
        "category": "基础设施:公共设施:公共厕所",
        "type": 0,
        "location": {
            "lat": 33.99762,
            "lng": 113.846037
        },
        "ad_info": {
            "adcode": 411003,
            "province": "河南省",
            "city": "许昌市",
            "district": "建安区"
        }
    },
    {
        "id": "735563808526412323",
        "title": "禹州服务区公共厕所",
        "address": "河南省许昌市禹州市中心大街与夏半线交叉口正南方向647米左右",
        "tel": "",
        "category": "基础设施:公共设施:公共厕所",
        "type": 0,
        "location": {
            "lat": 34.204,
            "lng": 113.60771
        },
        "ad_info": {
            "adcode": 411081,
            "province": "河南省",
            "city": "许昌市",
            "district": "禹州市"
        }
    },
    {
        "id": "7152314573549785367",
        "title": "郭店停车区公共厕所",
        "address": "河南省许昌市建安区郭店停车区北50米",
        "tel": "",
        "category": "基础设施:公共设施:公共厕所",
        "type": 0,
        "location": {
            "lat": 34.101805,
            "lng": 113.653832
        },
        "ad_info": {
            "adcode": 411003,
            "province": "河南省",
            "city": "许昌市",
            "district": "建安区"
        }
    },
    {
        "id": "10368767593854538195",
        "title": "禹州西服务区公共厕所",
        "address": "河南省许昌市禹州市G1516盐洛高速与禹州西服务区交叉口西北420米",
        "tel": "",
        "category": "基础设施:公共设施:公共厕所",
        "type": 0,
        "location": {
            "lat": 34.246386,
            "lng": 113.411836
        },
        "ad_info": {
            "adcode": 411081,
            "province": "河南省",
            "city": "许昌市",
            "district": "禹州市"
        }
    },
    {
        "id": "13491225878063977949",
        "title": "禹州西服务区公共厕所",
        "address": "河南省许昌市禹州市中国石化禹州西服务区加油站西侧160米",
        "tel": "",
        "category": "基础设施:公共设施:公共厕所",
        "type": 0,
        "location": {
            "lat": 34.244605,
            "lng": 113.409687
        },
        "ad_info": {
            "adcode": 411081,
            "province": "河南省",
            "city": "许昌市",
            "district": "禹州市"
        }
    },
    {
        "id": "7906775054393918438",
        "title": "鄢陵南服务区公共厕所",
        "address": "河南省许昌市鄢陵县盐洛高速鄢陵南服务区",
        "tel": "",
        "category": "基础设施:公共设施:公共厕所",
        "type": 0,
        "location": {
            "lat": 33.986863,
            "lng": 114.30166
        },
        "ad_info": {
            "adcode": 411024,
            "province": "河南省",
            "city": "许昌市",
            "district": "鄢陵县"
        }
    },
    {
        "id": "17986394440744828475",
        "title": "鄢陵南服务区公共厕所",
        "address": "河南省许昌市鄢陵县盐洛高速鄢陵南服务区",
        "tel": "",
        "category": "基础设施:公共设施:公共厕所",
        "type": 0,
        "location": {
            "lat": 33.986184,
            "lng": 114.299558
        },
        "ad_info": {
            "adcode": 411024,
            "province": "河南省",
            "city": "许昌市",
            "district": "鄢陵县"
        }
    },
    {
        "id": "10564661964638804190",
        "title": "许昌南服务区第二公共厕所",
        "address": "河南省许昌市建安区纬十三街与纬十二街交叉口正西方向810米左右",
        "tel": "",
        "category": "基础设施:公共设施:公共厕所",
        "type": 0,
        "location": {
            "lat": 33.962696,
            "lng": 113.823398
        },
        "ad_info": {
            "adcode": 411003,
            "province": "河南省",
            "city": "许昌市",
            "district": "建安区"
        }
    },
    {
        "id": "3542271802259727480",
        "title": "公共厕所",
        "address": "河南省许昌市魏都区福田街与魏武大道中段交叉口东北方向79米左右",
        "tel": "",
        "category": "基础设施:公共设施:公共厕所",
        "type": 0,
        "location": {
            "lat": 34.034374,
            "lng": 113.87664
        },
        "ad_info": {
            "adcode": 411002,
            "province": "河南省",
            "city": "许昌市",
            "district": "魏都区"
        }
    },
    {
        "id": "7666015820502369626",
        "title": "公共厕所",
        "address": "河南省许昌市魏都区帝豪路与延安北路交叉口正东方向150米左右",
        "tel": "",
        "category": "基础设施:公共设施:公共厕所",
        "type": 0,
        "location": {
            "lat": 34.026842,
            "lng": 113.800717
        },
        "ad_info": {
            "adcode": 411002,
            "province": "河南省",
            "city": "许昌市",
            "district": "魏都区"
        }
    },
    {
        "id": "13324794284006447181",
        "title": "公共厕所",
        "address": "河南省许昌市禹州市解放路与钧都北路交叉口正西方向62米左右",
        "tel": "",
        "category": "基础设施:公共设施:公共厕所",
        "type": 0,
        "location": {
            "lat": 34.122296,
            "lng": 113.227873
        },
        "ad_info": {
            "adcode": 411081,
            "province": "河南省",
            "city": "许昌市",
            "district": "禹州市"
        }
    },
    {
        "id": "7123493126235273905",
        "title": "公共厕所",
        "address": "河南省许昌市鄢陵县人民路四季花城",
        "tel": "",
        "category": "基础设施:公共设施:公共厕所",
        "type": 0,
        "location": {
            "lat": 34.101881,
            "lng": 114.175185
        },
        "ad_info": {
            "adcode": 411024,
            "province": "河南省",
            "city": "许昌市",
            "district": "鄢陵县"
        }
    },
    {
        "id": "4691727232244324305",
        "title": "公共厕所(内部专用)",
        "address": "河南省许昌市襄城县百宁岗北侧120米",
        "tel": "",
        "category": "基础设施:公共设施:公共厕所",
        "type": 0,
        "location": {
            "lat": 33.720976,
            "lng": 113.621983
        },
        "ad_info": {
            "adcode": 411025,
            "province": "河南省",
            "city": "许昌市",
            "district": "襄城县"
        }
    },
    {
        "id": "12313602782173100670",
        "title": "公共厕所",
        "address": "河南省许昌市魏都区新兴东路与魏庄二巷交叉口西南方向49米左右",
        "tel": "",
        "category": "基础设施:公共设施:公共厕所",
        "type": 0,
        "location": {
            "lat": 34.011448,
            "lng": 113.846761
        },
        "ad_info": {
            "adcode": 411002,
            "province": "河南省",
            "city": "许昌市",
            "district": "魏都区"
        }
    },
    {
        "id": "16285522537727649759",
        "title": "公共厕所",
        "address": "河南省许昌市襄城县雷洞游客服务中心西侧190米",
        "tel": "",
        "category": "基础设施:公共设施:公共厕所",
        "type": 0,
        "location": {
            "lat": 33.788078,
            "lng": 113.413143
        },
        "ad_info": {
            "adcode": 411025,
            "province": "河南省",
            "city": "许昌市",
            "district": "襄城县"
        }
    },
    {
        "id": "9306018090640647202",
        "title": "公共厕所",
        "address": "河南省许昌市建安区解放路金盾佳苑",
        "tel": "",
        "category": "基础设施:公共设施:公共厕所",
        "type": 0,
        "location": {
            "lat": 33.999766,
            "lng": 113.816699
        },
        "ad_info": {
            "adcode": 411003,
            "province": "河南省",
            "city": "许昌市",
            "district": "建安区"
        }
    },
    {
        "id": "13416179047741535070",
        "title": "公共厕所",
        "address": "河南省许昌市建安区许州路北段辅路与龙兴路交叉口西南方向60米左右",
        "tel": "",
        "category": "基础设施:公共设施:公共厕所",
        "type": 0,
        "location": {
            "lat": 34.048753,
            "lng": 113.884252
        },
        "ad_info": {
            "adcode": 411003,
            "province": "河南省",
            "city": "许昌市",
            "district": "建安区"
        }
    },
    {
        "id": "3715215415349619663",
        "title": "公共厕所",
        "address": "河南省许昌市禹州市滨河大道与颍河大街交叉口西北方向51米左右",
        "tel": "",
        "category": "基础设施:公共设施:公共厕所",
        "type": 0,
        "location": {
            "lat": 34.154594,
            "lng": 113.469902
        },
        "ad_info": {
            "adcode": 411081,
            "province": "河南省",
            "city": "许昌市",
            "district": "禹州市"
        }
    },
    {
        "id": "8095424335052113652",
        "title": "公共厕所",
        "address": "河南省许昌市长葛市人民南路与八七路交叉口西南方向93米左右",
        "tel": "",
        "category": "基础设施:公共设施:公共厕所",
        "type": 0,
        "location": {
            "lat": 34.216307,
            "lng": 113.775361
        },
        "ad_info": {
            "adcode": 411082,
            "province": "河南省",
            "city": "许昌市",
            "district": "长葛市"
        }
    },
    {
        "id": "3799006158703850781",
        "title": "公共厕所",
        "address": "河南省许昌市长葛市人民北路与八一路交叉口西南方向32米左右",
        "tel": "",
        "category": "基础设施:公共设施:公共厕所",
        "type": 0,
        "location": {
            "lat": 34.228427,
            "lng": 113.774973
        },
        "ad_info": {
            "adcode": 411082,
            "province": "河南省",
            "city": "许昌市",
            "district": "长葛市"
        }
    },
    {
        "id": "17995805953305882998",
        "title": "公共厕所",
        "address": "河南省许昌市襄城县凤凰路光明苑",
        "tel": "",
        "category": "基础设施:公共设施:公共厕所",
        "type": 0,
        "location": {
            "lat": 33.858154,
            "lng": 113.50218
        },
        "ad_info": {
            "adcode": 411025,
            "province": "河南省",
            "city": "许昌市",
            "district": "襄城县"
        }
    },
    {
        "id": "11251705848671916532",
        "title": "公共厕所",
        "address": "河南省许昌市魏都区天宝东路瑞贝卡·家天下",
        "tel": "",
        "category": "基础设施:公共设施:公共厕所",
        "type": 0,
        "location": {
            "lat": 34.04658,
            "lng": 113.859357
        },
        "ad_info": {
            "adcode": 411002,
            "province": "河南省",
            "city": "许昌市",
            "district": "魏都区"
        }
    },
    {
        "id": "8618797854633570826",
        "title": "北海公园公共厕所",
        "address": "河南省许昌市建安区聚贤街与镜水路交叉口正东方向287米左右",
        "tel": "",
        "category": "基础设施:公共设施:公共厕所",
        "type": 0,
        "location": {
            "lat": 34.113441,
            "lng": 113.825001
        },
        "ad_info": {
            "adcode": 411003,
            "province": "河南省",
            "city": "许昌市",
            "district": "建安区"
        }
    },
    {
        "id": "17497106705287309465",
        "title": "公共厕所",
        "address": "河南省许昌市禹州市解放路与钧都北路交叉口东南方向122米左右",
        "tel": "",
        "category": "基础设施:公共设施:公共厕所",
        "type": 0,
        "location": {
            "lat": 34.121684,
            "lng": 113.22964
        },
        "ad_info": {
            "adcode": 411081,
            "province": "河南省",
            "city": "许昌市",
            "district": "禹州市"
        }
    },
    {
        "id": "7019597925990359580",
        "title": "公共厕所",
        "address": "河南省许昌市禹州市颍北大道与颍川路交叉口东南方向194米左右",
        "tel": "",
        "category": "基础设施:公共设施:公共厕所",
        "type": 0,
        "location": {
            "lat": 34.150751,
            "lng": 113.502602
        },
        "ad_info": {
            "adcode": 411081,
            "province": "河南省",
            "city": "许昌市",
            "district": "禹州市"
        }
    },
    {
        "id": "14478584088990052463",
        "title": "公共厕所",
        "address": "河南省许昌市魏都区百花北路与许都路交叉口东南方向158米左右",
        "tel": "",
        "category": "基础设施:公共设施:公共厕所",
        "type": 0,
        "location": {
            "lat": 34.028115,
            "lng": 113.847108
        },
        "ad_info": {
            "adcode": 411002,
            "province": "河南省",
            "city": "许昌市",
            "district": "魏都区"
        }
    },
    {
        "id": "5647358970160946757",
        "title": "公共厕所",
        "address": "河南省许昌市魏都区解放北路与许继大道交叉口东南方向237米左右",
        "tel": "",
        "category": "基础设施:公共设施:公共厕所",
        "type": 0,
        "location": {
            "lat": 34.022833,
            "lng": 113.817819
        },
        "ad_info": {
            "adcode": 411002,
            "province": "河南省",
            "city": "许昌市",
            "district": "魏都区"
        }
    },
    {
        "id": "1833910821998837984",
        "title": "公共厕所",
        "address": "河南省许昌市襄城县中心路与汝河路交叉口正南方向39米左右",
        "tel": "",
        "category": "基础设施:公共设施:公共厕所",
        "type": 0,
        "location": {
            "lat": 33.845483,
            "lng": 113.508038
        },
        "ad_info": {
            "adcode": 411025,
            "province": "河南省",
            "city": "许昌市",
            "district": "襄城县"
        }
    },
    {
        "id": "12836680242553921684",
        "title": "曹丞相府公共厕所",
        "address": "河南省许昌市魏都区府前街与新街交叉口正北方向39米左右",
        "tel": "",
        "category": "基础设施:公共设施:公共厕所",
        "type": 0,
        "location": {
            "lat": 34.030991,
            "lng": 113.828433
        },
        "ad_info": {
            "adcode": 411002,
            "province": "河南省",
            "city": "许昌市",
            "district": "魏都区"
        }
    },
    {
        "id": "1163691396189165171",
        "title": "公共厕所",
        "address": "河南省许昌市魏都区新兴西路与灞陵南路交叉口正南方向142米左右",
        "tel": "",
        "category": "基础设施:公共设施:公共厕所",
        "type": 0,
        "location": {
            "lat": 34.014443,
            "lng": 113.791462
        },
        "ad_info": {
            "adcode": 411002,
            "province": "河南省",
            "city": "许昌市",
            "district": "魏都区"
        }
    },
    {
        "id": "12380248215468148221",
        "title": "公共厕所",
        "address": "河南省许昌市魏都区七一路202号",
        "tel": "",
        "category": "基础设施:公共设施:公共厕所",
        "type": 0,
        "location": {
            "lat": 34.019445,
            "lng": 113.834495
        },
        "ad_info": {
            "adcode": 411002,
            "province": "河南省",
            "city": "许昌市",
            "district": "魏都区"
        }
    },
    {
        "id": "14733566068689314581",
        "title": "公共厕所",
        "address": "河南省许昌市魏都区丰产路与许由西路交叉口正北方向249米左右",
        "tel": "",
        "category": "基础设施:公共设施:公共厕所",
        "type": 0,
        "location": {
            "lat": 34.00606,
            "lng": 113.823235
        },
        "ad_info": {
            "adcode": 411002,
            "province": "河南省",
            "city": "许昌市",
            "district": "魏都区"
        }
    },
    {
        "id": "8565573469794195838",
        "title": "车饰界精洗间",
        "address": "河南省许昌市鄢陵县新庄南路与梅里路交叉口正北方向90米左右",
        "tel": "",
        "category": "基础设施:公共设施:公共厕所",
        "type": 0,
        "location": {
            "lat": 34.105582,
            "lng": 114.182
        },
        "ad_info": {
            "adcode": 411024,
            "province": "河南省",
            "city": "许昌市",
            "district": "鄢陵县"
        }
    },
    {
        "id": "1655925468571676318",
        "title": "公共厕所",
        "address": "河南省许昌市魏都区府前街西湖公园(东南角)",
        "tel": "",
        "category": "基础设施:公共设施:公共厕所",
        "type": 0,
        "location": {
            "lat": 34.031197,
            "lng": 113.822992
        },
        "ad_info": {
            "adcode": 411002,
            "province": "河南省",
            "city": "许昌市",
            "district": "魏都区"
        }
    },
    {
        "id": "8855567811245546385",
        "title": "公共厕所",
        "address": "河南省许昌市禹州市纺织巷与菜园街交叉口正北方向183米左右",
        "tel": "",
        "category": "基础设施:公共设施:公共厕所",
        "type": 0,
        "location": {
            "lat": 34.153609,
            "lng": 113.476417
        },
        "ad_info": {
            "adcode": 411081,
            "province": "河南省",
            "city": "许昌市",
            "district": "禹州市"
        }
    },
    {
        "id": "18192242861261845908",
        "title": "公共厕所",
        "address": "河南省许昌市鄢陵县朝阳街与翠柳路交叉口东南方向40米左右",
        "tel": "",
        "category": "基础设施:公共设施:公共厕所",
        "type": 0,
        "location": {
            "lat": 34.103816,
            "lng": 114.176652
        },
        "ad_info": {
            "adcode": 411024,
            "province": "河南省",
            "city": "许昌市",
            "district": "鄢陵县"
        }
    },
    {
        "id": "7102781893035842600",
        "title": "公共厕所",
        "address": "河南省许昌市长葛市建设路与文明街交叉口西南方向20米左右",
        "tel": "",
        "category": "基础设施:公共设施:公共厕所",
        "type": 0,
        "location": {
            "lat": 34.218658,
            "lng": 113.771098
        },
        "ad_info": {
            "adcode": 411082,
            "province": "河南省",
            "city": "许昌市",
            "district": "长葛市"
        }
    },
    {
        "id": "7876922035157499976",
        "title": "公共厕所",
        "address": "河南省许昌市禹州市创新路与祥云大道交叉口正北方向852米左右",
        "tel": "",
        "category": "基础设施:公共设施:公共厕所",
        "type": 0,
        "location": {
            "lat": 34.157153,
            "lng": 113.541784
        },
        "ad_info": {
            "adcode": 411081,
            "province": "河南省",
            "city": "许昌市",
            "district": "禹州市"
        }
    },
    {
        "id": "8502253139148056185",
        "title": "公共厕所",
        "address": "河南省许昌市魏都区潩河北路赵湾小区",
        "tel": "",
        "category": "基础设施:公共设施:公共厕所",
        "type": 0,
        "location": {
            "lat": 34.041627,
            "lng": 113.839882
        },
        "ad_info": {
            "adcode": 411002,
            "province": "河南省",
            "city": "许昌市",
            "district": "魏都区"
        }
    },
    {
        "id": "3230011219454218691",
        "title": "公共厕所",
        "address": "河南省许昌市魏都区青梅路与龙兴路交叉口东南方向28米左右",
        "tel": "",
        "category": "基础设施:公共设施:公共厕所",
        "type": 0,
        "location": {
            "lat": 34.047146,
            "lng": 113.848353
        },
        "ad_info": {
            "adcode": 411002,
            "province": "河南省",
            "city": "许昌市",
            "district": "魏都区"
        }
    },
    {
        "id": "4123249762474036870",
        "title": "公共厕所",
        "address": "河南省许昌市禹州市康复路禹州市人民医院",
        "tel": "",
        "category": "基础设施:公共设施:公共厕所",
        "type": 0,
        "location": {
            "lat": 34.15147,
            "lng": 113.51176
        },
        "ad_info": {
            "adcode": 411081,
            "province": "河南省",
            "city": "许昌市",
            "district": "禹州市"
        }
    },
    {
        "id": "17230140278956985555",
        "title": "公共厕所",
        "address": "河南省许昌市长葛市车站街17号",
        "tel": "",
        "category": "基础设施:公共设施:公共厕所",
        "type": 0,
        "location": {
            "lat": 34.213527,
            "lng": 113.778758
        },
        "ad_info": {
            "adcode": 411082,
            "province": "河南省",
            "city": "许昌市",
            "district": "长葛市"
        }
    },
    {
        "id": "10622026644410161799",
        "title": "公共厕所",
        "address": "河南省许昌市建安区学院北路与学院路交叉口正西方向115米左右",
        "tel": "",
        "category": "基础设施:公共设施:公共厕所",
        "type": 0,
        "location": {
            "lat": 34.080664,
            "lng": 113.860293
        },
        "ad_info": {
            "adcode": 411003,
            "province": "河南省",
            "city": "许昌市",
            "district": "建安区"
        }
    },
    {
        "id": "96007817379075373",
        "title": "公共厕所",
        "address": "河南省许昌市鄢陵县开源路与胜利街交叉口正北方向122米左右",
        "tel": "",
        "category": "基础设施:公共设施:公共厕所",
        "type": 0,
        "location": {
            "lat": 34.099128,
            "lng": 114.183049
        },
        "ad_info": {
            "adcode": 411024,
            "province": "河南省",
            "city": "许昌市",
            "district": "鄢陵县"
        }
    },
    {
        "id": "9595457107804363354",
        "title": "公共厕所",
        "address": "河南省许昌市长葛市解放路与钟繇大道中段交叉口西南方向97米左右",
        "tel": "",
        "category": "基础设施:公共设施:公共厕所",
        "type": 0,
        "location": {
            "lat": 34.209908,
            "lng": 113.787753
        },
        "ad_info": {
            "adcode": 411082,
            "province": "河南省",
            "city": "许昌市",
            "district": "长葛市"
        }
    },
    {
        "id": "2964698554935992478",
        "title": "公共厕所",
        "address": "河南省许昌市鄢陵县东大街与平等街交叉口西南方向15米左右",
        "tel": "",
        "category": "基础设施:公共设施:公共厕所",
        "type": 0,
        "location": {
            "lat": 34.102032,
            "lng": 114.202526
        },
        "ad_info": {
            "adcode": 411024,
            "province": "河南省",
            "city": "许昌市",
            "district": "鄢陵县"
        }
    },
    {
        "id": "1053461534954531971",
        "title": "公共厕所",
        "address": "河南省许昌市魏都区八龙路与建安大道辅路交叉口正西方向136米左右",
        "tel": "",
        "category": "基础设施:公共设施:公共厕所",
        "type": 0,
        "location": {
            "lat": 34.034624,
            "lng": 113.843759
        },
        "ad_info": {
            "adcode": 411002,
            "province": "河南省",
            "city": "许昌市",
            "district": "魏都区"
        }
    },
    {
        "id": "7562934547623673285",
        "title": "文峰塔公共厕所",
        "address": "河南省许昌市魏都区前进路与塔东路交叉口西南方向35米左右",
        "tel": "",
        "category": "基础设施:公共设施:公共厕所",
        "type": 0,
        "location": {
            "lat": 34.018211,
            "lng": 113.838314
        },
        "ad_info": {
            "adcode": 411002,
            "province": "河南省",
            "city": "许昌市",
            "district": "魏都区"
        }
    },
    {
        "id": "12514245908232206150",
        "title": "公共厕所",
        "address": "河南省许昌市魏都区天宝西路与百花北路交叉口西北方向67米左右",
        "tel": "",
        "category": "基础设施:公共设施:公共厕所",
        "type": 0,
        "location": {
            "lat": 34.046349,
            "lng": 113.836265
        },
        "ad_info": {
            "adcode": 411002,
            "province": "河南省",
            "city": "许昌市",
            "district": "魏都区"
        }
    },
    {
        "id": "11417667135059470738",
        "title": "公共厕所",
        "address": "河南省许昌市魏都区瑞和路与裴山庙街交叉口正东方向39米左右",
        "tel": "",
        "category": "基础设施:公共设施:公共厕所",
        "type": 0,
        "location": {
            "lat": 34.005454,
            "lng": 113.827791
        },
        "ad_info": {
            "adcode": 411002,
            "province": "河南省",
            "city": "许昌市",
            "district": "魏都区"
        }
    },
    {
        "id": "12909612344401075057",
        "title": "公共厕所",
        "address": "河南省许昌市魏都区竹林路中央公园芙蓉广场",
        "tel": "",
        "category": "基础设施:公共设施:公共厕所",
        "type": 0,
        "location": {
            "lat": 34.056842,
            "lng": 113.850807
        },
        "ad_info": {
            "adcode": 411002,
            "province": "河南省",
            "city": "许昌市",
            "district": "魏都区"
        }
    },
    {
        "id": "10062943520747196645",
        "title": "公共厕所",
        "address": "河南省许昌市魏都区魏文路怡景花城",
        "tel": "",
        "category": "基础设施:公共设施:公共厕所",
        "type": 0,
        "location": {
            "lat": 34.022791,
            "lng": 113.857454
        },
        "ad_info": {
            "adcode": 411002,
            "province": "河南省",
            "city": "许昌市",
            "district": "魏都区"
        }
    },
    {
        "id": "15046471634416985315",
        "title": "公共厕所",
        "address": "河南省许昌市魏都区新兴西路",
        "tel": "",
        "category": "基础设施:公共设施:公共厕所",
        "type": 0,
        "location": {
            "lat": 34.01053,
            "lng": 113.816091
        },
        "ad_info": {
            "adcode": 411002,
            "province": "河南省",
            "city": "许昌市",
            "district": "魏都区"
        }
    },
    {
        "id": "17037982396007246977",
        "title": "公共厕所",
        "address": "河南省许昌市魏都区文化街与榆柳街交叉口西北方向48米左右",
        "tel": "",
        "category": "基础设施:公共设施:公共厕所",
        "type": 0,
        "location": {
            "lat": 34.028527,
            "lng": 113.822245
        },
        "ad_info": {
            "adcode": 411002,
            "province": "河南省",
            "city": "许昌市",
            "district": "魏都区"
        }
    },
    {
        "id": "4605457094745446067",
        "title": "公共厕所",
        "address": "河南省许昌市长葛市文化路与新华路交叉口东北方向30米左右",
        "tel": "",
        "category": "基础设施:公共设施:公共厕所",
        "type": 0,
        "location": {
            "lat": 34.213662,
            "lng": 113.767466
        },
        "ad_info": {
            "adcode": 411082,
            "province": "河南省",
            "city": "许昌市",
            "district": "长葛市"
        }
    },
    {
        "id": "11941769302653890382",
        "title": "公共厕所",
        "address": "河南省许昌市禹州市商贸5号街",
        "tel": "",
        "category": "基础设施:公共设施:公共厕所",
        "type": 0,
        "location": {
            "lat": 34.150246,
            "lng": 113.488016
        },
        "ad_info": {
            "adcode": 411081,
            "province": "河南省",
            "city": "许昌市",
            "district": "禹州市"
        }
    },
    {
        "id": "2641348672068072000",
        "title": "公共厕所",
        "address": "河南省许昌市禹州市影院路178号南隔壁",
        "tel": "",
        "category": "基础设施:公共设施:公共厕所",
        "type": 0,
        "location": {
            "lat": 34.161359,
            "lng": 113.476037
        },
        "ad_info": {
            "adcode": 411081,
            "province": "河南省",
            "city": "许昌市",
            "district": "禹州市"
        }
    },
    {
        "id": "700460138716444858",
        "title": "公共厕所",
        "address": "河南省许昌市魏都区安居巷与延安北路交叉口东南方向35米左右",
        "tel": "",
        "category": "基础设施:公共设施:公共厕所",
        "type": 0,
        "location": {
            "lat": 34.016285,
            "lng": 113.799471
        },
        "ad_info": {
            "adcode": 411002,
            "province": "河南省",
            "city": "许昌市",
            "district": "魏都区"
        }
    },
    {
        "id": "15296465645207746351",
        "title": "公共厕所",
        "address": "河南省许昌市魏都区察院西街与引龙街交叉口西南方向35米左右",
        "tel": "",
        "category": "基础设施:公共设施:公共厕所",
        "type": 0,
        "location": {
            "lat": 34.025221,
            "lng": 113.82986
        },
        "ad_info": {
            "adcode": 411002,
            "province": "河南省",
            "city": "许昌市",
            "district": "魏都区"
        }
    },
    {
        "id": "3576117771880583731",
        "title": "无障碍公共厕所",
        "address": "河南省许昌市魏都区五一路与天宝西路交叉口正北方向317米左右",
        "tel": "",
        "category": "基础设施:公共设施:公共厕所",
        "type": 0,
        "location": {
            "lat": 34.048501,
            "lng": 113.80726
        },
        "ad_info": {
            "adcode": 411002,
            "province": "河南省",
            "city": "许昌市",
            "district": "魏都区"
        }
    },
    {
        "id": "8158821409157973537",
        "title": "公共厕所",
        "address": "河南省许昌市长葛市健康路与黄河路交叉口西北方向128米左右",
        "tel": "",
        "category": "基础设施:公共设施:公共厕所",
        "type": 0,
        "location": {
            "lat": 34.23689,
            "lng": 113.78294
        },
        "ad_info": {
            "adcode": 411082,
            "province": "河南省",
            "city": "许昌市",
            "district": "长葛市"
        }
    },
    {
        "id": "3357680809782869755",
        "title": "公共厕所",
        "address": "河南省许昌市禹州市画圣路与迎宾东路交叉口正南方向33米左右",
        "tel": "",
        "category": "基础设施:公共设施:公共厕所",
        "type": 0,
        "location": {
            "lat": 34.155298,
            "lng": 113.486694
        },
        "ad_info": {
            "adcode": 411081,
            "province": "河南省",
            "city": "许昌市",
            "district": "禹州市"
        }
    },
    {
        "id": "1400746541737363189",
        "title": "公共厕所",
        "address": "河南省许昌市魏都区农机试验鉴定推广站(运河街)",
        "tel": "",
        "category": "基础设施:公共设施:公共厕所",
        "type": 0,
        "location": {
            "lat": 34.008522,
            "lng": 113.838574
        },
        "ad_info": {
            "adcode": 411002,
            "province": "河南省",
            "city": "许昌市",
            "district": "魏都区"
        }
    },
    {
        "id": "2437205317823540386",
        "title": "公共厕所",
        "address": "河南省许昌市魏都区三里桥街许都公园(西南角)",
        "tel": "",
        "category": "基础设施:公共设施:公共厕所",
        "type": 0,
        "location": {
            "lat": 34.033341,
            "lng": 113.849685
        },
        "ad_info": {
            "adcode": 411002,
            "province": "河南省",
            "city": "许昌市",
            "district": "魏都区"
        }
    },
    {
        "id": "15392020078437392920",
        "title": "公共厕所",
        "address": "河南省许昌市长葛市劳动路与解放路交叉口西北方向98米左右",
        "tel": "",
        "category": "基础设施:公共设施:公共厕所",
        "type": 0,
        "location": {
            "lat": 34.216247,
            "lng": 113.801584
        },
        "ad_info": {
            "adcode": 411082,
            "province": "河南省",
            "city": "许昌市",
            "district": "长葛市"
        }
    },
    {
        "id": "8417226681372084200",
        "title": "公共厕所",
        "address": "河南省许昌市建安区新许路东27东南方向180米",
        "tel": "",
        "category": "基础设施:公共设施:公共厕所",
        "type": 0,
        "location": {
            "lat": 34.00466,
            "lng": 113.848433
        },
        "ad_info": {
            "adcode": 411003,
            "province": "河南省",
            "city": "许昌市",
            "district": "建安区"
        }
    },
    {
        "id": "16650128466140412544",
        "title": "公共厕所",
        "address": "河南省许昌市魏都区永昌东路辅路与青梅路交叉口东北120米",
        "tel": "",
        "category": "基础设施:公共设施:公共厕所",
        "type": 0,
        "location": {
            "lat": 34.06835,
            "lng": 113.848
        },
        "ad_info": {
            "adcode": 411002,
            "province": "河南省",
            "city": "许昌市",
            "district": "魏都区"
        }
    },
    {
        "id": "424576088917877470",
        "title": "公共厕所",
        "address": "河南省许昌市魏都区东顺河街与南顺河街交叉口东北方向32米左右",
        "tel": "",
        "category": "基础设施:公共设施:公共厕所",
        "type": 0,
        "location": {
            "lat": 34.021681,
            "lng": 113.834948
        },
        "ad_info": {
            "adcode": 411002,
            "province": "河南省",
            "city": "许昌市",
            "district": "魏都区"
        }
    },
    {
        "id": "5538786589223677258",
        "title": "鹿鸣湖公共厕所",
        "address": "河南省许昌市建安区鹿鸣湖体育公园(学院路东)",
        "tel": "",
        "category": "基础设施:公共设施:公共厕所",
        "type": 0,
        "location": {
            "lat": 34.06238,
            "lng": 113.864344
        },
        "ad_info": {
            "adcode": 411003,
            "province": "河南省",
            "city": "许昌市",
            "district": "建安区"
        }
    },
    {
        "id": "10865139001365617197",
        "title": "公共厕所",
        "address": "河南省许昌市建安区兴华路与阳光大道交叉口东南方向30米左右",
        "tel": "",
        "category": "基础设施:公共设施:公共厕所",
        "type": 0,
        "location": {
            "lat": 33.996801,
            "lng": 113.820577
        },
        "ad_info": {
            "adcode": 411003,
            "province": "河南省",
            "city": "许昌市",
            "district": "建安区"
        }
    },
    {
        "id": "1260658244757874150",
        "title": "公共厕所",
        "address": "河南省许昌市魏都区魏文路瑞贝卡新天下",
        "tel": "",
        "category": "基础设施:公共设施:公共厕所",
        "type": 0,
        "location": {
            "lat": 34.034109,
            "lng": 113.856836
        },
        "ad_info": {
            "adcode": 411002,
            "province": "河南省",
            "city": "许昌市",
            "district": "魏都区"
        }
    },
    {
        "id": "11750433923698939251",
        "title": "公共厕所",
        "address": "河南省许昌市建安区天宝路与许州路交叉口许昌东站B1地下通道内",
        "tel": "",
        "category": "基础设施:公共设施:公共厕所",
        "type": 0,
        "location": {
            "lat": 34.048367,
            "lng": 113.887509
        },
        "ad_info": {
            "adcode": 411003,
            "province": "河南省",
            "city": "许昌市",
            "district": "建安区"
        }
    },
    {
        "id": "6742535079287997912",
        "title": "公共厕所",
        "address": "河南省许昌市魏都区南关街道新兴西路鸿源小区南门",
        "tel": "",
        "category": "基础设施:公共设施:公共厕所",
        "type": 0,
        "location": {
            "lat": 34.01175,
            "lng": 113.830794
        },
        "ad_info": {
            "adcode": 411002,
            "province": "河南省",
            "city": "许昌市",
            "district": "魏都区"
        }
    },
    {
        "id": "7663046481668867647",
        "title": "公共厕所",
        "address": "河南省许昌市禹州市西大街与颍河大街交叉口正北方向62米左右",
        "tel": "",
        "category": "基础设施:公共设施:公共厕所",
        "type": 0,
        "location": {
            "lat": 34.1638,
            "lng": 113.47218
        },
        "ad_info": {
            "adcode": 411081,
            "province": "河南省",
            "city": "许昌市",
            "district": "禹州市"
        }
    },
    {
        "id": "16950333346886580620",
        "title": "公共厕所",
        "address": "河南省许昌市建安区地月駦言卂街与天竹街交叉口东南方向420米左右",
        "tel": "",
        "category": "基础设施:公共设施:公共厕所",
        "type": 0,
        "location": {
            "lat": 34.045029,
            "lng": 113.908969
        },
        "ad_info": {
            "adcode": 411003,
            "province": "河南省",
            "city": "许昌市",
            "district": "建安区"
        }
    },
    {
        "id": "17609736732528310644",
        "title": "公共厕所",
        "address": "河南省许昌市襄城县中心路与新华路交叉口西北方向124米左右",
        "tel": "",
        "category": "基础设施:公共设施:公共厕所",
        "type": 0,
        "location": {
            "lat": 33.849693,
            "lng": 113.488948
        },
        "ad_info": {
            "adcode": 411025,
            "province": "河南省",
            "city": "许昌市",
            "district": "襄城县"
        }
    },
    {
        "id": "11667495303417692440",
        "title": "公共厕所",
        "address": "河南省许昌市长葛市建设路与益民街交叉口西北方向16米左右",
        "tel": "",
        "category": "基础设施:公共设施:公共厕所",
        "type": 0,
        "location": {
            "lat": 34.220595,
            "lng": 113.77103
        },
        "ad_info": {
            "adcode": 411082,
            "province": "河南省",
            "city": "许昌市",
            "district": "长葛市"
        }
    },
    {
        "id": "13608402591849829430",
        "title": "公共厕所",
        "address": "河南省许昌市魏都区向阳北巷与向阳路交叉口正西方向124米左右",
        "tel": "",
        "category": "基础设施:公共设施:公共厕所",
        "type": 0,
        "location": {
            "lat": 34.021646,
            "lng": 113.802419
        },
        "ad_info": {
            "adcode": 411002,
            "province": "河南省",
            "city": "许昌市",
            "district": "魏都区"
        }
    },
    {
        "id": "7067946276135542222",
        "title": "公共厕所",
        "address": "河南省许昌市魏都区德星路与新兴东路交叉口西南方向27米左右",
        "tel": "",
        "category": "基础设施:公共设施:公共厕所",
        "type": 0,
        "location": {
            "lat": 34.012598,
            "lng": 113.866081
        },
        "ad_info": {
            "adcode": 411002,
            "province": "河南省",
            "city": "许昌市",
            "district": "魏都区"
        }
    },
    {
        "id": "13719645617890159414",
        "title": "双龙湖西公共厕所",
        "address": "河南省许昌市魏都区双河路与阳光大道交叉口正北方向141米左右",
        "tel": "",
        "category": "基础设施:公共设施:公共厕所",
        "type": 0,
        "location": {
            "lat": 33.998399,
            "lng": 113.795115
        },
        "ad_info": {
            "adcode": 411002,
            "province": "河南省",
            "city": "许昌市",
            "district": "魏都区"
        }
    },
    {
        "id": "6309944782045708866",
        "title": "公共厕所",
        "address": "河南省许昌市魏都区唐岗街与德星路交叉口正南方向79米左右",
        "tel": "",
        "category": "基础设施:公共设施:公共厕所",
        "type": 0,
        "location": {
            "lat": 34.022601,
            "lng": 113.865053
        },
        "ad_info": {
            "adcode": 411002,
            "province": "河南省",
            "city": "许昌市",
            "district": "魏都区"
        }
    },
    {
        "id": "3071563707209748261",
        "title": "公共厕所",
        "address": "河南省许昌市建安区瑞祥路与解放南路交叉口东南方向136米左右",
        "tel": "",
        "category": "基础设施:公共设施:公共厕所",
        "type": 0,
        "location": {
            "lat": 33.99958,
            "lng": 113.818121
        },
        "ad_info": {
            "adcode": 411003,
            "province": "河南省",
            "city": "许昌市",
            "district": "建安区"
        }
    },
    {
        "id": "6923406816443252471",
        "title": "公共厕所",
        "address": "河南省许昌市魏都区前进路与紫云路交叉口正西方向153米左右",
        "tel": "",
        "category": "基础设施:公共设施:公共厕所",
        "type": 0,
        "location": {
            "lat": 34.019723,
            "lng": 113.86882
        },
        "ad_info": {
            "adcode": 411002,
            "province": "河南省",
            "city": "许昌市",
            "district": "魏都区"
        }
    },
    {
        "id": "14252805025226629063",
        "title": "公共厕所",
        "address": "河南省许昌市魏都区八一西路与文化路交叉口正西方向146米左右",
        "tel": "",
        "category": "基础设施:公共设施:公共厕所",
        "type": 0,
        "location": {
            "lat": 34.038235,
            "lng": 113.824163
        },
        "ad_info": {
            "adcode": 411002,
            "province": "河南省",
            "city": "许昌市",
            "district": "魏都区"
        }
    },
    {
        "id": "4871314249786959471",
        "title": "公共厕所",
        "address": "河南省许昌市魏都区许由西路970号",
        "tel": "",
        "category": "基础设施:公共设施:公共厕所",
        "type": 0,
        "location": {
            "lat": 34.004196,
            "lng": 113.832321
        },
        "ad_info": {
            "adcode": 411002,
            "province": "河南省",
            "city": "许昌市",
            "district": "魏都区"
        }
    },
    {
        "id": "4514597702961211850",
        "title": "公共厕所",
        "address": "河南省许昌市魏都区建设路与文昌街交叉口正南方向95米左右",
        "tel": "",
        "category": "基础设施:公共设施:公共厕所",
        "type": 0,
        "location": {
            "lat": 34.020642,
            "lng": 113.833018
        },
        "ad_info": {
            "adcode": 411002,
            "province": "河南省",
            "city": "许昌市",
            "district": "魏都区"
        }
    },
    {
        "id": "14488975575408916333",
        "title": "公共厕所",
        "address": "河南省许昌市魏都区八一西路许昌高中",
        "tel": "",
        "category": "基础设施:公共设施:公共厕所",
        "type": 0,
        "location": {
            "lat": 34.038463,
            "lng": 113.828287
        },
        "ad_info": {
            "adcode": 411002,
            "province": "河南省",
            "city": "许昌市",
            "district": "魏都区"
        }
    },
    {
        "id": "8945532200416154327",
        "title": "公共厕所",
        "address": "河南省许昌市鄢陵县人民路与花博大道交叉口正东方向115米左右",
        "tel": "",
        "category": "基础设施:公共设施:公共厕所",
        "type": 0,
        "location": {
            "lat": 34.102016,
            "lng": 114.16285
        },
        "ad_info": {
            "adcode": 411024,
            "province": "河南省",
            "city": "许昌市",
            "district": "鄢陵县"
        }
    },
    {
        "id": "9706889078273112379",
        "title": "公共厕所",
        "address": "河南省许昌市魏都区延安南路万山绿都",
        "tel": "",
        "category": "基础设施:公共设施:公共厕所",
        "type": 0,
        "location": {
            "lat": 34.008527,
            "lng": 113.798721
        },
        "ad_info": {
            "adcode": 411002,
            "province": "河南省",
            "city": "许昌市",
            "district": "魏都区"
        }
    },
    {
        "id": "5329799331247784707",
        "title": "公共厕所",
        "address": "河南省许昌市禹州市滨河大道(东段)与颍川路交叉口西北120米",
        "tel": "",
        "category": "基础设施:公共设施:公共厕所",
        "type": 0,
        "location": {
            "lat": 34.149157,
            "lng": 113.499523
        },
        "ad_info": {
            "adcode": 411081,
            "province": "河南省",
            "city": "许昌市",
            "district": "禹州市"
        }
    },
    {
        "id": "9554468886978836224",
        "title": "公共厕所",
        "address": "河南省许昌市建安区农贸路与育新路交叉口西南方向15米左右",
        "tel": "",
        "category": "基础设施:公共设施:公共厕所",
        "type": 0,
        "location": {
            "lat": 34.004263,
            "lng": 113.841666
        },
        "ad_info": {
            "adcode": 411003,
            "province": "河南省",
            "city": "许昌市",
            "district": "建安区"
        }
    },
    {
        "id": "11750433923698939251",
        "title": "公共厕所",
        "address": "河南省许昌市建安区天宝路与许州路交叉口许昌东站B1地下通道内",
        "tel": "",
        "category": "基础设施:公共设施:公共厕所",
        "type": 0,
        "location": {
            "lat": 34.048367,
            "lng": 113.887509
        },
        "ad_info": {
            "adcode": 411003,
            "province": "河南省",
            "city": "许昌市",
            "district": "建安区"
        }
    },
    {
        "id": "6742535079287997912",
        "title": "公共厕所",
        "address": "河南省许昌市魏都区南关街道新兴西路鸿源小区南门",
        "tel": "",
        "category": "基础设施:公共设施:公共厕所",
        "type": 0,
        "location": {
            "lat": 34.01175,
            "lng": 113.830794
        },
        "ad_info": {
            "adcode": 411002,
            "province": "河南省",
            "city": "许昌市",
            "district": "魏都区"
        }
    },
    {
        "id": "7663046481668867647",
        "title": "公共厕所",
        "address": "河南省许昌市禹州市西大街与颍河大街交叉口正北方向62米左右",
        "tel": "",
        "category": "基础设施:公共设施:公共厕所",
        "type": 0,
        "location": {
            "lat": 34.1638,
            "lng": 113.47218
        },
        "ad_info": {
            "adcode": 411081,
            "province": "河南省",
            "city": "许昌市",
            "district": "禹州市"
        }
    },
    {
        "id": "16950333346886580620",
        "title": "公共厕所",
        "address": "河南省许昌市建安区地月駦言卂街与天竹街交叉口东南方向420米左右",
        "tel": "",
        "category": "基础设施:公共设施:公共厕所",
        "type": 0,
        "location": {
            "lat": 34.045029,
            "lng": 113.908969
        },
        "ad_info": {
            "adcode": 411003,
            "province": "河南省",
            "city": "许昌市",
            "district": "建安区"
        }
    },
    {
        "id": "17609736732528310644",
        "title": "公共厕所",
        "address": "河南省许昌市襄城县中心路与新华路交叉口西北方向124米左右",
        "tel": "",
        "category": "基础设施:公共设施:公共厕所",
        "type": 0,
        "location": {
            "lat": 33.849693,
            "lng": 113.488948
        },
        "ad_info": {
            "adcode": 411025,
            "province": "河南省",
            "city": "许昌市",
            "district": "襄城县"
        }
    },
    {
        "id": "11667495303417692440",
        "title": "公共厕所",
        "address": "河南省许昌市长葛市建设路与益民街交叉口西北方向16米左右",
        "tel": "",
        "category": "基础设施:公共设施:公共厕所",
        "type": 0,
        "location": {
            "lat": 34.220595,
            "lng": 113.77103
        },
        "ad_info": {
            "adcode": 411082,
            "province": "河南省",
            "city": "许昌市",
            "district": "长葛市"
        }
    },
    {
        "id": "13608402591849829430",
        "title": "公共厕所",
        "address": "河南省许昌市魏都区向阳北巷与向阳路交叉口正西方向124米左右",
        "tel": "",
        "category": "基础设施:公共设施:公共厕所",
        "type": 0,
        "location": {
            "lat": 34.021646,
            "lng": 113.802419
        },
        "ad_info": {
            "adcode": 411002,
            "province": "河南省",
            "city": "许昌市",
            "district": "魏都区"
        }
    },
    {
        "id": "7067946276135542222",
        "title": "公共厕所",
        "address": "河南省许昌市魏都区德星路与新兴东路交叉口西南方向27米左右",
        "tel": "",
        "category": "基础设施:公共设施:公共厕所",
        "type": 0,
        "location": {
            "lat": 34.012598,
            "lng": 113.866081
        },
        "ad_info": {
            "adcode": 411002,
            "province": "河南省",
            "city": "许昌市",
            "district": "魏都区"
        }
    },
    {
        "id": "13719645617890159414",
        "title": "双龙湖西公共厕所",
        "address": "河南省许昌市魏都区双河路与阳光大道交叉口正北方向141米左右",
        "tel": "",
        "category": "基础设施:公共设施:公共厕所",
        "type": 0,
        "location": {
            "lat": 33.998399,
            "lng": 113.795115
        },
        "ad_info": {
            "adcode": 411002,
            "province": "河南省",
            "city": "许昌市",
            "district": "魏都区"
        }
    },
    {
        "id": "6309944782045708866",
        "title": "公共厕所",
        "address": "河南省许昌市魏都区唐岗街与德星路交叉口正南方向79米左右",
        "tel": "",
        "category": "基础设施:公共设施:公共厕所",
        "type": 0,
        "location": {
            "lat": 34.022601,
            "lng": 113.865053
        },
        "ad_info": {
            "adcode": 411002,
            "province": "河南省",
            "city": "许昌市",
            "district": "魏都区"
        }
    },
    {
        "id": "3071563707209748261",
        "title": "公共厕所",
        "address": "河南省许昌市建安区瑞祥路与解放南路交叉口东南方向136米左右",
        "tel": "",
        "category": "基础设施:公共设施:公共厕所",
        "type": 0,
        "location": {
            "lat": 33.99958,
            "lng": 113.818121
        },
        "ad_info": {
            "adcode": 411003,
            "province": "河南省",
            "city": "许昌市",
            "district": "建安区"
        }
    },
    {
        "id": "6923406816443252471",
        "title": "公共厕所",
        "address": "河南省许昌市魏都区前进路与紫云路交叉口正西方向153米左右",
        "tel": "",
        "category": "基础设施:公共设施:公共厕所",
        "type": 0,
        "location": {
            "lat": 34.019723,
            "lng": 113.86882
        },
        "ad_info": {
            "adcode": 411002,
            "province": "河南省",
            "city": "许昌市",
            "district": "魏都区"
        }
    },
    {
        "id": "14252805025226629063",
        "title": "公共厕所",
        "address": "河南省许昌市魏都区八一西路与文化路交叉口正西方向146米左右",
        "tel": "",
        "category": "基础设施:公共设施:公共厕所",
        "type": 0,
        "location": {
            "lat": 34.038235,
            "lng": 113.824163
        },
        "ad_info": {
            "adcode": 411002,
            "province": "河南省",
            "city": "许昌市",
            "district": "魏都区"
        }
    },
    {
        "id": "4871314249786959471",
        "title": "公共厕所",
        "address": "河南省许昌市魏都区许由西路970号",
        "tel": "",
        "category": "基础设施:公共设施:公共厕所",
        "type": 0,
        "location": {
            "lat": 34.004196,
            "lng": 113.832321
        },
        "ad_info": {
            "adcode": 411002,
            "province": "河南省",
            "city": "许昌市",
            "district": "魏都区"
        }
    },
    {
        "id": "4514597702961211850",
        "title": "公共厕所",
        "address": "河南省许昌市魏都区建设路与文昌街交叉口正南方向95米左右",
        "tel": "",
        "category": "基础设施:公共设施:公共厕所",
        "type": 0,
        "location": {
            "lat": 34.020642,
            "lng": 113.833018
        },
        "ad_info": {
            "adcode": 411002,
            "province": "河南省",
            "city": "许昌市",
            "district": "魏都区"
        }
    },
    {
        "id": "14488975575408916333",
        "title": "公共厕所",
        "address": "河南省许昌市魏都区八一西路许昌高中",
        "tel": "",
        "category": "基础设施:公共设施:公共厕所",
        "type": 0,
        "location": {
            "lat": 34.038463,
            "lng": 113.828287
        },
        "ad_info": {
            "adcode": 411002,
            "province": "河南省",
            "city": "许昌市",
            "district": "魏都区"
        }
    },
    {
        "id": "8945532200416154327",
        "title": "公共厕所",
        "address": "河南省许昌市鄢陵县人民路与花博大道交叉口正东方向115米左右",
        "tel": "",
        "category": "基础设施:公共设施:公共厕所",
        "type": 0,
        "location": {
            "lat": 34.102016,
            "lng": 114.16285
        },
        "ad_info": {
            "adcode": 411024,
            "province": "河南省",
            "city": "许昌市",
            "district": "鄢陵县"
        }
    },
    {
        "id": "9706889078273112379",
        "title": "公共厕所",
        "address": "河南省许昌市魏都区延安南路万山绿都",
        "tel": "",
        "category": "基础设施:公共设施:公共厕所",
        "type": 0,
        "location": {
            "lat": 34.008527,
            "lng": 113.798721
        },
        "ad_info": {
            "adcode": 411002,
            "province": "河南省",
            "city": "许昌市",
            "district": "魏都区"
        }
    },
    {
        "id": "5329799331247784707",
        "title": "公共厕所",
        "address": "河南省许昌市禹州市滨河大道(东段)与颍川路交叉口西北120米",
        "tel": "",
        "category": "基础设施:公共设施:公共厕所",
        "type": 0,
        "location": {
            "lat": 34.149157,
            "lng": 113.499523
        },
        "ad_info": {
            "adcode": 411081,
            "province": "河南省",
            "city": "许昌市",
            "district": "禹州市"
        }
    },
    {
        "id": "9554468886978836224",
        "title": "公共厕所",
        "address": "河南省许昌市建安区农贸路与育新路交叉口西南方向15米左右",
        "tel": "",
        "category": "基础设施:公共设施:公共厕所",
        "type": 0,
        "location": {
            "lat": 34.004263,
            "lng": 113.841666
        },
        "ad_info": {
            "adcode": 411003,
            "province": "河南省",
            "city": "许昌市",
            "district": "建安区"
        }
    },
    {
        "id": "11750433923698939251",
        "title": "公共厕所",
        "address": "河南省许昌市建安区天宝路与许州路交叉口许昌东站B1地下通道内",
        "tel": "",
        "category": "基础设施:公共设施:公共厕所",
        "type": 0,
        "location": {
            "lat": 34.048367,
            "lng": 113.887509
        },
        "ad_info": {
            "adcode": 411003,
            "province": "河南省",
            "city": "许昌市",
            "district": "建安区"
        }
    },
    {
        "id": "6742535079287997912",
        "title": "公共厕所",
        "address": "河南省许昌市魏都区南关街道新兴西路鸿源小区南门",
        "tel": "",
        "category": "基础设施:公共设施:公共厕所",
        "type": 0,
        "location": {
            "lat": 34.01175,
            "lng": 113.830794
        },
        "ad_info": {
            "adcode": 411002,
            "province": "河南省",
            "city": "许昌市",
            "district": "魏都区"
        }
    },
    {
        "id": "7663046481668867647",
        "title": "公共厕所",
        "address": "河南省许昌市禹州市西大街与颍河大街交叉口正北方向62米左右",
        "tel": "",
        "category": "基础设施:公共设施:公共厕所",
        "type": 0,
        "location": {
            "lat": 34.1638,
            "lng": 113.47218
        },
        "ad_info": {
            "adcode": 411081,
            "province": "河南省",
            "city": "许昌市",
            "district": "禹州市"
        }
    },
    {
        "id": "16950333346886580620",
        "title": "公共厕所",
        "address": "河南省许昌市建安区地月駦言卂街与天竹街交叉口东南方向420米左右",
        "tel": "",
        "category": "基础设施:公共设施:公共厕所",
        "type": 0,
        "location": {
            "lat": 34.045029,
            "lng": 113.908969
        },
        "ad_info": {
            "adcode": 411003,
            "province": "河南省",
            "city": "许昌市",
            "district": "建安区"
        }
    },
    {
        "id": "17609736732528310644",
        "title": "公共厕所",
        "address": "河南省许昌市襄城县中心路与新华路交叉口西北方向124米左右",
        "tel": "",
        "category": "基础设施:公共设施:公共厕所",
        "type": 0,
        "location": {
            "lat": 33.849693,
            "lng": 113.488948
        },
        "ad_info": {
            "adcode": 411025,
            "province": "河南省",
            "city": "许昌市",
            "district": "襄城县"
        }
    },