[
    {
        "id": "8297457132865517457",
        "title": "公共厕所",
        "address": "广西壮族自治区贵港市桂平市桂贵路与西山路交叉口西南方向51米左右",
        "tel": "",
        "category": "基础设施:公共设施:公共厕所",
        "type": 0,
        "location": {
            "lat": 23.354454,
            "lng": 110.063665
        },
        "ad_info": {
            "adcode": 450881,
            "province": "广西壮族自治区",
            "city": "贵港市",
            "district": "桂平市"
        }
    },
    {
        "id": "14657304569652205999",
        "title": "公共厕所",
        "address": "广西壮族自治区贵港市桂平市兴桂路与郁江路交叉口正西方向145米左右",
        "tel": "",
        "category": "基础设施:公共设施:公共厕所",
        "type": 0,
        "location": {
            "lat": 23.369632,
            "lng": 110.076835
        },
        "ad_info": {
            "adcode": 450881,
            "province": "广西壮族自治区",
            "city": "贵港市",
            "district": "桂平市"
        }
    },
    {
        "id": "9734447900997693866",
        "title": "公共厕所",
        "address": "广西壮族自治区贵港市桂平市兴宁街368号",
        "tel": "",
        "category": "基础设施:公共设施:公共厕所",
        "type": 0,
        "location": {
            "lat": 23.387659,
            "lng": 110.077395
        },
        "ad_info": {
            "adcode": 450881,
            "province": "广西壮族自治区",
            "city": "贵港市",
            "district": "桂平市"
        }
    },
    {
        "id": "11184847530202723023",
        "title": "公共厕所",
        "address": "广西壮族自治区贵港市桂平市桂贵路与糖厂街交叉口正东方向59米左右",
        "tel": "",
        "category": "基础设施:公共设施:公共厕所",
        "type": 0,
        "location": {
            "lat": 23.367615,
            "lng": 110.071251
        },
        "ad_info": {
            "adcode": 450881,
            "province": "广西壮族自治区",
            "city": "贵港市",
            "district": "桂平市"
        }
    },
    {
        "id": "8822632319621858221",
        "title": "公共厕所",
        "address": "广西壮族自治区贵港市港北区金港大道228号",
        "tel": "",
        "category": "基础设施:公共设施:公共厕所",
        "type": 0,
        "location": {
            "lat": 23.103682,
            "lng": 109.61268
        },
        "ad_info": {
            "adcode": 450802,
            "province": "广西壮族自治区",
            "city": "贵港市",
            "district": "港北区"
        }
    },
    {
        "id": "17592276374831405248",
        "title": "公共厕所",
        "address": "广西壮族自治区贵港市桂平市桂南路与桂贵路交叉口正南方向62米左右",
        "tel": "",
        "category": "基础设施:公共设施:公共厕所",
        "type": 0,
        "location": {
            "lat": 23.364208,
            "lng": 110.069867
        },
        "ad_info": {
            "adcode": 450881,
            "province": "广西壮族自治区",
            "city": "贵港市",
            "district": "桂平市"
        }
    },
    {
        "id": "11666671257624632962",
        "title": "公共厕所",
        "address": "广西壮族自治区贵港市桂平市太平天国运动文化街与浔高街交叉口西北方向155米左右",
        "tel": "",
        "category": "基础设施:公共设施:公共厕所",
        "type": 0,
        "location": {
            "lat": 23.402976,
            "lng": 110.073951
        },
        "ad_info": {
            "adcode": 450881,
            "province": "广西壮族自治区",
            "city": "贵港市",
            "district": "桂平市"
        }
    },
    {
        "id": "7828704210001342271",
        "title": "公共厕所",
        "address": "广西壮族自治区贵港市桂平市",
        "tel": "",
        "category": "基础设施:公共设施:公共厕所",
        "type": 0,
        "location": {
            "lat": 23.445334,
            "lng": 110.033774
        },
        "ad_info": {
            "adcode": 450881,
            "province": "广西壮族自治区",
            "city": "贵港市",
            "district": "桂平市"
        }
    },
    {
        "id": "7019179176289222371",
        "title": "公共厕所",
        "address": "广西壮族自治区贵港市桂平市凤翔街与桂贵路交叉口东南方向52米左右",
        "tel": "",
        "category": "基础设施:公共设施:公共厕所",
        "type": 0,
        "location": {
            "lat": 23.3668,
            "lng": 110.070861
        },
        "ad_info": {
            "adcode": 450881,
            "province": "广西壮族自治区",
            "city": "贵港市",
            "district": "桂平市"
        }
    },
    {
        "id": "14325422430216330907",
        "title": "公共厕所",
        "address": "广西壮族自治区贵港市港北区汽车西站",
        "tel": "",
        "category": "基础设施:公共设施:公共厕所",
        "type": 0,
        "location": {
            "lat": 23.099827,
            "lng": 109.585072
        },
        "ad_info": {
            "adcode": 450802,
            "province": "广西壮族自治区",
            "city": "贵港市",
            "district": "港北区"
        }
    },
    {
        "id": "7757205750827900599",
        "title": "公共厕所",
        "address": "广西壮族自治区贵港市桂平市太平天国运动文化街与浔高街交叉口正南方向331米左右",
        "tel": "",
        "category": "基础设施:公共设施:公共厕所",
        "type": 0,
        "location": {
            "lat": 23.39889,
            "lng": 110.075014
        },
        "ad_info": {
            "adcode": 450881,
            "province": "广西壮族自治区",
            "city": "贵港市",
            "district": "桂平市"
        }
    },
    {
        "id": "8006390822324772383",
        "title": "公共厕所",
        "address": "广西壮族自治区贵港市港北区建设路与解放路交叉口东北方向24米左右",
        "tel": "",
        "category": "基础设施:公共设施:公共厕所",
        "type": 0,
        "location": {
            "lat": 23.090317,
            "lng": 109.608265
        },
        "ad_info": {
            "adcode": 450802,
            "province": "广西壮族自治区",
            "city": "贵港市",
            "district": "港北区"
        }
    },
    {
        "id": "411582100536333348",
        "title": "公共厕所",
        "address": "广西壮族自治区贵港市港北区桂林路与民主路交叉口西南方向285米左右",
        "tel": "",
        "category": "基础设施:公共设施:公共厕所",
        "type": 0,
        "location": {
            "lat": 23.118307,
            "lng": 109.59995
        },
        "ad_info": {
            "adcode": 450802,
            "province": "广西壮族自治区",
            "city": "贵港市",
            "district": "港北区"
        }
    },
    {
        "id": "3124301405046560102",
        "title": "公共厕所",
        "address": "广西壮族自治区贵港市港北区金港大道与金田路交叉口正东方向82米左右",
        "tel": "",
        "category": "基础设施:公共设施:公共厕所",
        "type": 0,
        "location": {
            "lat": 23.105003,
            "lng": 109.591232
        },
        "ad_info": {
            "adcode": 450802,
            "province": "广西壮族自治区",
            "city": "贵港市",
            "district": "港北区"
        }
    },
    {
        "id": "7000606809029768769",
        "title": "公共厕所",
        "address": "广西壮族自治区贵港市港北区民主路与港宝街交叉口东南方向110米左右",
        "tel": "",
        "category": "基础设施:公共设施:公共厕所",
        "type": 0,
        "location": {
            "lat": 23.104675,
            "lng": 109.602138
        },
        "ad_info": {
            "adcode": 450802,
            "province": "广西壮族自治区",
            "city": "贵港市",
            "district": "港北区"
        }
    },
    {
        "id": "6345254362615845418",
        "title": "公共厕所",
        "address": "广西壮族自治区贵港市港北区中山路与凤凰西街交叉口正南方向124米左右",
        "tel": "",
        "category": "基础设施:公共设施:公共厕所",
        "type": 0,
        "location": {
            "lat": 23.091431,
            "lng": 109.599987
        },
        "ad_info": {
            "adcode": 450802,
            "province": "广西壮族自治区",
            "city": "贵港市",
            "district": "港北区"
        }
    },
    {
        "id": "3903654026507623408",
        "title": "公共厕所",
        "address": "广西壮族自治区贵港市桂平市站前东路与站前南路交叉口西南方向242米左右",
        "tel": "",
        "category": "基础设施:公共设施:公共厕所",
        "type": 0,
        "location": {
            "lat": 23.316257,
            "lng": 110.116589
        },
        "ad_info": {
            "adcode": 450881,
            "province": "广西壮族自治区",
            "city": "贵港市",
            "district": "桂平市"
        }
    },
    {
        "id": "10991391949404292511",
        "title": "公共厕所",
        "address": "广西壮族自治区贵港市桂平市S206与人民西路交叉口正西方向26米左右",
        "tel": "",
        "category": "基础设施:公共设施:公共厕所",
        "type": 0,
        "location": {
            "lat": 23.411471,
            "lng": 110.078091
        },
        "ad_info": {
            "adcode": 450881,
            "province": "广西壮族自治区",
            "city": "贵港市",
            "district": "桂平市"
        }
    },
    {
        "id": "4913843503585329338",
        "title": "公共厕所",
        "address": "广西壮族自治区贵港市桂平市站前东路与站前南路交叉口西南方向77米左右",
        "tel": "",
        "category": "基础设施:公共设施:公共厕所",
        "type": 0,
        "location": {
            "lat": 23.317436,
            "lng": 110.117607
        },
        "ad_info": {
            "adcode": 450881,
            "province": "广西壮族自治区",
            "city": "贵港市",
            "district": "桂平市"
        }
    },
    {
        "id": "10151671118350684278",
        "title": "公共厕所",
        "address": "广西壮族自治区贵港市港北区金港大道981号",
        "tel": "",
        "category": "基础设施:公共设施:公共厕所",
        "type": 0,
        "location": {
            "lat": 23.103954,
            "lng": 109.574683
        },
        "ad_info": {
            "adcode": 450802,
            "province": "广西壮族自治区",
            "city": "贵港市",
            "district": "港北区"
        }
    },
    {
        "id": "15874287693627622700",
        "title": "公共厕所",
        "address": "广西壮族自治区贵港市桂平市易捷便利店(马皮加油站)北侧",
        "tel": "",
        "category": "基础设施:公共设施:公共厕所",
        "type": 0,
        "location": {
            "lat": 23.456121,
            "lng": 110.244365
        },
        "ad_info": {
            "adcode": 450881,
            "province": "广西壮族自治区",
            "city": "贵港市",
            "district": "桂平市"
        }
    },
    {
        "id": "16537109624494433583",
        "title": "公共厕所",
        "address": "广西壮族自治区贵港市港北区凤凰一街与建设路交叉口东南方向48米左右",
        "tel": "",
        "category": "基础设施:公共设施:公共厕所",
        "type": 0,
        "location": {
            "lat": 23.089996,
            "lng": 109.603826
        },
        "ad_info": {
            "adcode": 450802,
            "province": "广西壮族自治区",
            "city": "贵港市",
            "district": "港北区"
        }
    },
    {
        "id": "4680304443048789641",
        "title": "公共厕所",
        "address": "广西壮族自治区贵港市港北区建设路与建设路商业街交叉口东南方向33米左右",
        "tel": "",
        "category": "基础设施:公共设施:公共厕所",
        "type": 0,
        "location": {
            "lat": 23.089645,
            "lng": 109.6125
        },
        "ad_info": {
            "adcode": 450802,
            "province": "广西壮族自治区",
            "city": "贵港市",
            "district": "港北区"
        }
    },
    {
        "id": "447830340107880923",
        "title": "公共厕所",
        "address": "广西壮族自治区贵港市平南县朝阳大道与步行街交叉口东北方向163米左右",
        "tel": "",
        "category": "基础设施:公共设施:公共厕所",
        "type": 0,
        "location": {
            "lat": 23.545395,
            "lng": 110.39746
        },
        "ad_info": {
            "adcode": 450821,
            "province": "广西壮族自治区",
            "city": "贵港市",
            "district": "平南县"
        }
    },
    {
        "id": "15306675856645901894",
        "title": "公共厕所",
        "address": "广西壮族自治区贵港市桂平市",
        "tel": "",
        "category": "基础设施:公共设施:公共厕所",
        "type": 0,
        "location": {
            "lat": 23.646591,
            "lng": 110.134165
        },
        "ad_info": {
            "adcode": 450881,
            "province": "广西壮族自治区",
            "city": "贵港市",
            "district": "桂平市"
        }
    },
    {
        "id": "4007425997146069294",
        "title": "公共厕所",
        "address": "广西壮族自治区贵港市港北区中山路与江北大道交叉口正北方向178米左右",
        "tel": "",
        "category": "基础设施:公共设施:公共厕所",
        "type": 0,
        "location": {
            "lat": 23.096217,
            "lng": 109.598244
        },
        "ad_info": {
            "adcode": 450802,
            "province": "广西壮族自治区",
            "city": "贵港市",
            "district": "港北区"
        }
    },
    {
        "id": "6917955693058154508",
        "title": "公共厕所",
        "address": "广西壮族自治区贵港市港北区平安路与西江园路交叉口东南方向65米左右",
        "tel": "",
        "category": "基础设施:公共设施:公共厕所",
        "type": 0,
        "location": {
            "lat": 23.103381,
            "lng": 109.557152
        },
        "ad_info": {
            "adcode": 450802,
            "province": "广西壮族自治区",
            "city": "贵港市",
            "district": "港北区"
        }
    },
    {
        "id": "15513010787455721846",
        "title": "公共厕所",
        "address": "广西壮族自治区贵港市桂平市G358与新兴街交叉口西南方向258米左右",
        "tel": "",
        "category": "基础设施:公共设施:公共厕所",
        "type": 0,
        "location": {
            "lat": 23.452593,
            "lng": 110.165447
        },
        "ad_info": {
            "adcode": 450881,
            "province": "广西壮族自治区",
            "city": "贵港市",
            "district": "桂平市"
        }
    },
    {
        "id": "9259479069952456484",
        "title": "公共厕所",
        "address": "广西壮族自治区贵港市港北区育才街与西江园路交叉口东北方向171米左右",
        "tel": "",
        "category": "基础设施:公共设施:公共厕所",
        "type": 0,
        "location": {
            "lat": 23.09109,
            "lng": 109.56101
        },
        "ad_info": {
            "adcode": 450802,
            "province": "广西壮族自治区",
            "city": "贵港市",
            "district": "港北区"
        }
    },
    {
        "id": "9085193461373620314",
        "title": "公共厕所",
        "address": "广西壮族自治区贵港市港北区北苑街与民主路交叉口正西方向141米左右",
        "tel": "",
        "category": "基础设施:公共设施:公共厕所",
        "type": 0,
        "location": {
            "lat": 23.108637,
            "lng": 109.600203
        },
        "ad_info": {
            "adcode": 450802,
            "province": "广西壮族自治区",
            "city": "贵港市",
            "district": "港北区"
        }
    },
    {
        "id": "18153884011554217444",
        "title": "公共厕所",
        "address": "广西壮族自治区贵港市港北区布山大道南侧支路与爱民路交叉口东北方向134米左右",
        "tel": "",
        "category": "基础设施:公共设施:公共厕所",
        "type": 0,
        "location": {
            "lat": 23.112451,
            "lng": 109.590018
        },
        "ad_info": {
            "adcode": 450802,
            "province": "广西壮族自治区",
            "city": "贵港市",
            "district": "港北区"
        }
    },
    {
        "id": "5754157406187473931",
        "title": "公共厕所",
        "address": "广西壮族自治区贵港市港北区仙衣路辅路与荷中路交叉口东北方向16米左右",
        "tel": "",
        "category": "基础设施:公共设施:公共厕所",
        "type": 0,
        "location": {
            "lat": 23.11822,
            "lng": 109.582975
        },
        "ad_info": {
            "adcode": 450802,
            "province": "广西壮族自治区",
            "city": "贵港市",
            "district": "港北区"
        }
    },
    {
        "id": "2564122777555511262",
        "title": "公共厕所",
        "address": "广西壮族自治区贵港市平南县乌江路与八达街交叉口东南方向32米左右",
        "tel": "",
        "category": "基础设施:公共设施:公共厕所",
        "type": 0,
        "location": {
            "lat": 23.544298,
            "lng": 110.390747
        },
        "ad_info": {
            "adcode": 450821,
            "province": "广西壮族自治区",
            "city": "贵港市",
            "district": "平南县"
        }
    },
    {
        "id": "14482209361255358870",
        "title": "公共厕所",
        "address": "广西壮族自治区贵港市港北区中山路与新北一巷交叉口东南方向51米左右",
        "tel": "",
        "category": "基础设施:公共设施:公共厕所",
        "type": 0,
        "location": {
            "lat": 23.126874,
            "lng": 109.596484
        },
        "ad_info": {
            "adcode": 450802,
            "province": "广西壮族自治区",
            "city": "贵港市",
            "district": "港北区"
        }
    },
    {
        "id": "5680094676449733391",
        "title": "公共厕所",
        "address": "广西壮族自治区贵港市港北区中山路与北苑街交叉口西南方向64米左右",
        "tel": "",
        "category": "基础设施:公共设施:公共厕所",
        "type": 0,
        "location": {
            "lat": 23.109513,
            "lng": 109.595816
        },
        "ad_info": {
            "adcode": 450802,
            "province": "广西壮族自治区",
            "city": "贵港市",
            "district": "港北区"
        }
    },
    {
        "id": "1382399598850954581",
        "title": "公共厕所",
        "address": "广西壮族自治区贵港市港北区北苑街与金田路交叉口西南方向127米左右",
        "tel": "",
        "category": "基础设施:公共设施:公共厕所",
        "type": 0,
        "location": {
            "lat": 23.107718,
            "lng": 109.590931
        },
        "ad_info": {
            "adcode": 450802,
            "province": "广西壮族自治区",
            "city": "贵港市",
            "district": "港北区"
        }
    },
    {
        "id": "13780072613184923818",
        "title": "公共厕所",
        "address": "广西壮族自治区贵港市港北区江北大道中国石化加油站(城西站)",
        "tel": "",
        "category": "基础设施:公共设施:公共厕所",
        "type": 0,
        "location": {
            "lat": 23.095835,
            "lng": 109.589654
        },
        "ad_info": {
            "adcode": 450802,
            "province": "广西壮族自治区",
            "city": "贵港市",
            "district": "港北区"
        }
    },
    {
        "id": "826071481259239921",
        "title": "公共厕所",
        "address": "广西壮族自治区贵港市港北区圣湖小区八十五巷与拥军一路交叉口正西方向54米左右",
        "tel": "",
        "category": "基础设施:公共设施:公共厕所",
        "type": 0,
        "location": {
            "lat": 23.105608,
            "lng": 109.605507
        },
        "ad_info": {
            "adcode": 450802,
            "province": "广西壮族自治区",
            "city": "贵港市",
            "district": "港北区"
        }
    },
    {
        "id": "9298311437159579261",
        "title": "公共厕所",
        "address": "广西壮族自治区贵港市港北区中山路与桂林路辅路交叉口正南方向139米左右",
        "tel": "",
        "category": "基础设施:公共设施:公共厕所",
        "type": 0,
        "location": {
            "lat": 23.11865,
            "lng": 109.596117
        },
        "ad_info": {
            "adcode": 450802,
            "province": "广西壮族自治区",
            "city": "贵港市",
            "district": "港北区"
        }
    },
    {
        "id": "2347591887997934122",
        "title": "公共厕所",
        "address": "广西壮族自治区贵港市港北区怡港路与荷城路交叉口正北方向186米左右",
        "tel": "",
        "category": "基础设施:公共设施:公共厕所",
        "type": 0,
        "location": {
            "lat": 23.112282,
            "lng": 109.563967
        },
        "ad_info": {
            "adcode": 450802,
            "province": "广西壮族自治区",
            "city": "贵港市",
            "district": "港北区"
        }
    },
    {
        "id": "427201615557382915",
        "title": "公共厕所",
        "address": "广西壮族自治区贵港市港北区仙衣路与规划路交叉口正北方向279米左右",
        "tel": "",
        "category": "基础设施:公共设施:公共厕所",
        "type": 0,
        "location": {
            "lat": 23.10377,
            "lng": 109.58299
        },
        "ad_info": {
            "adcode": 450802,
            "province": "广西壮族自治区",
            "city": "贵港市",
            "district": "港北区"
        }
    },
    {
        "id": "15288335159690772380",
        "title": "公共厕所",
        "address": "广西壮族自治区贵港市港北区南斗路与进港公路交叉口正南方向82米左右",
        "tel": "",
        "category": "基础设施:公共设施:公共厕所",
        "type": 0,
        "location": {
            "lat": 23.078808,
            "lng": 109.634161
        },
        "ad_info": {
            "adcode": 450802,
            "province": "广西壮族自治区",
            "city": "贵港市",
            "district": "港北区"
        }
    },
    {
        "id": "15023588947684602628",
        "title": "公共厕所",
        "address": "广西壮族自治区贵港市港北区G358与XA37交叉口东北方向1463米左右",
        "tel": "",
        "category": "基础设施:公共设施:公共厕所",
        "type": 0,
        "location": {
            "lat": 23.185553,
            "lng": 109.744419
        },
        "ad_info": {
            "adcode": 450802,
            "province": "广西壮族自治区",
            "city": "贵港市",
            "district": "港北区"
        }
    },
    {
        "id": "8093209697988589490",
        "title": "公共厕所",
        "address": "广西壮族自治区贵港市港北区中山路与新华路交叉口东南方向159米左右",
        "tel": "",
        "category": "基础设施:公共设施:公共厕所",
        "type": 0,
        "location": {
            "lat": 23.098371,
            "lng": 109.598226
        },
        "ad_info": {
            "adcode": 450802,
            "province": "广西壮族自治区",
            "city": "贵港市",
            "district": "港北区"
        }
    },
    {
        "id": "14246733578874272851",
        "title": "公共厕所",
        "address": "广西壮族自治区贵港市港北区仙衣路与桂林路交叉口正西方向107米左右",
        "tel": "",
        "category": "基础设施:公共设施:公共厕所",
        "type": 0,
        "location": {
            "lat": 23.120226,
            "lng": 109.581519
        },
        "ad_info": {
            "adcode": 450802,
            "province": "广西壮族自治区",
            "city": "贵港市",
            "district": "港北区"
        }
    },
    {
        "id": "11932104835932958105",
        "title": "公共厕所",
        "address": "广西壮族自治区贵港市港北区贵港站",
        "tel": "",
        "category": "基础设施:公共设施:公共厕所",
        "type": 0,
        "location": {
            "lat": 23.101027,
            "lng": 109.613054
        },
        "ad_info": {
            "adcode": 450802,
            "province": "广西壮族自治区",
            "city": "贵港市",
            "district": "港北区"
        }
    },
    {
        "id": "10215787588672446663",
        "title": "公共厕所",
        "address": "广西壮族自治区贵港市港北区X834与金港大道交叉口正南方向51米左右",
        "tel": "",
        "category": "基础设施:公共设施:公共厕所",
        "type": 0,
        "location": {
            "lat": 23.119829,
            "lng": 109.65443
        },
        "ad_info": {
            "adcode": 450802,
            "province": "广西壮族自治区",
            "city": "贵港市",
            "district": "港北区"
        }
    },
    {
        "id": "11083580349566493345",
        "title": "公共厕所",
        "address": "广西壮族自治区贵港市港北区怡港路与荷城路交叉口正北方向153米左右",
        "tel": "",
        "category": "基础设施:公共设施:公共厕所",
        "type": 0,
        "location": {
            "lat": 23.111993,
            "lng": 109.564016
        },
        "ad_info": {
            "adcode": 450802,
            "province": "广西壮族自治区",
            "city": "贵港市",
            "district": "港北区"
        }
    },
    {
        "id": "10626516920307080621",
        "title": "公共厕所",
        "address": "广西壮族自治区贵港市港北区中山路与新华路交叉口东南方向263米左右",
        "tel": "",
        "category": "基础设施:公共设施:公共厕所",
        "type": 0,
        "location": {
            "lat": 23.097796,
            "lng": 109.59914
        },
        "ad_info": {
            "adcode": 450802,
            "province": "广西壮族自治区",
            "city": "贵港市",
            "district": "港北区"
        }
    },
    {
        "id": "4168008587758557255",
        "title": "公共厕所",
        "address": "广西壮族自治区贵港市港北区八一路与金港大道辅路交叉口西南方向103米左右",
        "tel": "",
        "category": "基础设施:公共设施:公共厕所",
        "type": 0,
        "location": {
            "lat": 23.105343,
            "lng": 109.618797
        },
        "ad_info": {
            "adcode": 450802,
            "province": "广西壮族自治区",
            "city": "贵港市",
            "district": "港北区"
        }
    },
    {
        "id": "14848819866993886562",
        "title": "公共厕所",
        "address": "广西壮族自治区贵港市港北区汽贸城东路与金港大道交叉口西北方向275米左右",
        "tel": "",
        "category": "基础设施:公共设施:公共厕所",
        "type": 0,
        "location": {
            "lat": 23.111902,
            "lng": 109.541494
        },
        "ad_info": {
            "adcode": 450802,
            "province": "广西壮族自治区",
            "city": "贵港市",
            "district": "港北区"
        }
    },
    {
        "id": "10275484714222664742",
        "title": "公共厕所",
        "address": "广西壮族自治区贵港市港北区贵港妇幼东北侧120米",
        "tel": "",
        "category": "基础设施:公共设施:公共厕所",
        "type": 0,
        "location": {
            "lat": 23.093334,
            "lng": 109.567873
        },
        "ad_info": {
            "adcode": 450802,
            "province": "广西壮族自治区",
            "city": "贵港市",
            "district": "港北区"
        }
    },
    {
        "id": "5359073352242104384",
        "title": "公共厕所",
        "address": "广西壮族自治区贵港市桂平市上股街与西街交叉口正西方向140米左右",
        "tel": "",
        "category": "基础设施:公共设施:公共厕所",
        "type": 0,
        "location": {
            "lat": 23.39063,
            "lng": 110.080365
        },
        "ad_info": {
            "adcode": 450881,
            "province": "广西壮族自治区",
            "city": "贵港市",
            "district": "桂平市"
        }
    },
    {
        "id": "10046138089789096852",
        "title": "公共厕所",
        "address": "广西壮族自治区贵港市港北区盛世荷城幼儿园西侧100米",
        "tel": "",
        "category": "基础设施:公共设施:公共厕所",
        "type": 0,
        "location": {
            "lat": 23.099783,
            "lng": 109.568455
        },
        "ad_info": {
            "adcode": 450802,
            "province": "广西壮族自治区",
            "city": "贵港市",
            "district": "港北区"
        }
    },
    {
        "id": "10415551383102137410",
        "title": "公共厕所",
        "address": "广西壮族自治区贵港市港北区和平路与江北大道交叉口东北方向198米左右",
        "tel": "",
        "category": "基础设施:公共设施:公共厕所",
        "type": 0,
        "location": {
            "lat": 23.098989,
            "lng": 109.614578
        },
        "ad_info": {
            "adcode": 450802,
            "province": "广西壮族自治区",
            "city": "贵港市",
            "district": "港北区"
        }
    },
    {
        "id": "16181235062015775969",
        "title": "公共厕所",
        "address": "广西壮族自治区贵港市港北区迎宾大道辅路与金港大道南侧支路交叉口正南方向110米左右",
        "tel": "",
        "category": "基础设施:公共设施:公共厕所",
        "type": 0,
        "location": {
            "lat": 23.099419,
            "lng": 109.568246
        },
        "ad_info": {
            "adcode": 450802,
            "province": "广西壮族自治区",
            "city": "贵港市",
            "district": "港北区"
        }
    },
    {
        "id": "14308160035206152924",
        "title": "公共厕所",
        "address": "广西壮族自治区贵港市港北区仙衣路与新华路交叉口正北方向25米左右",
        "tel": "",
        "category": "基础设施:公共设施:公共厕所",
        "type": 0,
        "location": {
            "lat": 23.100346,
            "lng": 109.584094
        },
        "ad_info": {
            "adcode": 450802,
            "province": "广西壮族自治区",
            "city": "贵港市",
            "district": "港北区"
        }
    },
    {
        "id": "14302071406020022113",
        "title": "公共厕所",
        "address": "广西壮族自治区贵港市港北区东湖西街18-1-2号",
        "tel": "",
        "category": "基础设施:公共设施:公共厕所",
        "type": 0,
        "location": {
            "lat": 23.09488,
            "lng": 109.616162
        },
        "ad_info": {
            "adcode": 450802,
            "province": "广西壮族自治区",
            "city": "贵港市",
            "district": "港北区"
        }
    },
    {
        "id": "3728581833571823627",
        "title": "沙岗公共厕所",
        "address": "广西壮族自治区贵港市桂平市新岗街与桂贵路交叉口东南方向90米左右",
        "tel": "",
        "category": "基础设施:公共设施:公共厕所",
        "type": 0,
        "location": {
            "lat": 23.38459,
            "lng": 110.074348
        },
        "ad_info": {
            "adcode": 450881,
            "province": "广西壮族自治区",
            "city": "贵港市",
            "district": "桂平市"
        }
    },
    {
        "id": "15521286003890888727",
        "title": "公共厕所",
        "address": "广西壮族自治区贵港市平南县桂花路与贺岗大道交叉口东北方向81米左右",
        "tel": "",
        "category": "基础设施:公共设施:公共厕所",
        "type": 0,
        "location": {
            "lat": 23.382801,
            "lng": 110.509608
        },
        "ad_info": {
            "adcode": 450821,
            "province": "广西壮族自治区",
            "city": "贵港市",
            "district": "平南县"
        }
    },
    {
        "id": "3392339347103950588",
        "title": "公共厕所",
        "address": "广西壮族自治区贵港市港北区金港大道与金田路交叉口正东方向107米左右",
        "tel": "",
        "category": "基础设施:公共设施:公共厕所",
        "type": 0,
        "location": {
            "lat": 23.104595,
            "lng": 109.591514
        },
        "ad_info": {
            "adcode": 450802,
            "province": "广西壮族自治区",
            "city": "贵港市",
            "district": "港北区"
        }
    },
    {
        "id": "7975271232521498700",
        "title": "公共厕所",
        "address": "广西壮族自治区贵港市港北区兴贵路与平安路交叉口西北方向582米左右",
        "tel": "",
        "category": "基础设施:公共设施:公共厕所",
        "type": 0,
        "location": {
            "lat": 23.111177,
            "lng": 109.553571
        },
        "ad_info": {
            "adcode": 450802,
            "province": "广西壮族自治区",
            "city": "贵港市",
            "district": "港北区"
        }
    },
    {
        "id": "8639903448873871356",
        "title": "公共厕所",
        "address": "广西壮族自治区贵港市港北区358国道与383县道交叉口西南400米",
        "tel": "",
        "category": "基础设施:公共设施:公共厕所",
        "type": 0,
        "location": {
            "lat": 23.307994,
            "lng": 109.802388
        },
        "ad_info": {
            "adcode": 450802,
            "province": "广西壮族自治区",
            "city": "贵港市",
            "district": "港北区"
        }
    },
    {
        "id": "13939595474119148649",
        "title": "公共厕所",
        "address": "广西壮族自治区贵港市覃塘区樟木乡336县道新陈村路段路北附近",
        "tel": "",
        "category": "基础设施:公共设施:公共厕所",
        "type": 0,
        "location": {
            "lat": 23.326017,
            "lng": 109.351592
        },
        "ad_info": {
            "adcode": 450804,
            "province": "广西壮族自治区",
            "city": "贵港市",
            "district": "覃塘区"
        }
    },
    {
        "id": "3774747163454453013",
        "title": "公共厕所",
        "address": "广西壮族自治区贵港市港北区北环路与金港大道交叉口西南方向794米左右",
        "tel": "",
        "category": "基础设施:公共设施:公共厕所",
        "type": 0,
        "location": {
            "lat": 23.133287,
            "lng": 109.670908
        },
        "ad_info": {
            "adcode": 450802,
            "province": "广西壮族自治区",
            "city": "贵港市",
            "district": "港北区"
        }
    },
    {
        "id": "767185469480896905",
        "title": "公共厕所",
        "address": "广西壮族自治区贵港市覃塘区G209与建福大道交叉口西南方向437米左右",
        "tel": "",
        "category": "基础设施:公共设施:公共厕所",
        "type": 0,
        "location": {
            "lat": 23.287686,
            "lng": 109.465584
        },
        "ad_info": {
            "adcode": 450804,
            "province": "广西壮族自治区",
            "city": "贵港市",
            "district": "覃塘区"
        }
    },
    {
        "id": "1730770605837232892",
        "title": "公共厕所",
        "address": "广西壮族自治区贵港市港北区中山路与北苑街交叉口正东方向149米左右",
        "tel": "",
        "category": "基础设施:公共设施:公共厕所",
        "type": 0,
        "location": {
            "lat": 23.109835,
            "lng": 109.597766
        },
        "ad_info": {
            "adcode": 450802,
            "province": "广西壮族自治区",
            "city": "贵港市",
            "district": "港北区"
        }
    },
    {
        "id": "10730567362516903780",
        "title": "公共卫生间",
        "address": "广西壮族自治区贵港市港北区旧营建路与旧营建路东二巷交叉口正西方向162米左右",
        "tel": "",
        "category": "基础设施:公共设施:公共厕所",
        "type": 0,
        "location": {
            "lat": 23.1016,
            "lng": 109.615231
        },
        "ad_info": {
            "adcode": 450802,
            "province": "广西壮族自治区",
            "city": "贵港市",
            "district": "港北区"
        }
    },
    {
        "id": "16472623752025994697",
        "title": "公共厕所",
        "address": "广西壮族自治区贵港市平南县S304与瑞雁大道交叉口正南方向183米左右",
        "tel": "",
        "category": "基础设施:公共设施:公共厕所",
        "type": 0,
        "location": {
            "lat": 23.543503,
            "lng": 110.414314
        },
        "ad_info": {
            "adcode": 450821,
            "province": "广西壮族自治区",
            "city": "贵港市",
            "district": "平南县"
        }
    },
    {
        "id": "16305604229929017109",
        "title": "公共厕所",
        "address": "广西壮族自治区贵港市平南县小历街与朝阳大道交叉口正南方向32米左右",
        "tel": "",
        "category": "基础设施:公共设施:公共厕所",
        "type": 0,
        "location": {
            "lat": 23.526691,
            "lng": 110.41561
        },
        "ad_info": {
            "adcode": 450821,
            "province": "广西壮族自治区",
            "city": "贵港市",
            "district": "平南县"
        }
    },
    {
        "id": "3607664069149579225",
        "title": "公共厕所",
        "address": "广西壮族自治区贵港市港北区贵港北山泉休闲谷北侧100米",
        "tel": "",
        "category": "基础设施:公共设施:公共厕所",
        "type": 0,
        "location": {
            "lat": 23.138733,
            "lng": 109.5536
        },
        "ad_info": {
            "adcode": 450802,
            "province": "广西壮族自治区",
            "city": "贵港市",
            "district": "港北区"
        }
    },
    {
        "id": "16648248720582652684",
        "title": "公共厕所",
        "address": "广西壮族自治区贵港市港北区共青路与金港大道交叉口东北方向84米左右",
        "tel": "",
        "category": "基础设施:公共设施:公共厕所",
        "type": 0,
        "location": {
            "lat": 23.116771,
            "lng": 109.519709
        },
        "ad_info": {
            "adcode": 450802,
            "province": "广西壮族自治区",
            "city": "贵港市",
            "district": "港北区"
        }
    },
    {
        "id": "13198126123579543552",
        "title": "公共厕所",
        "address": "广西壮族自治区贵港市平南县S304与XA55交叉口正东方向1459米左右",
        "tel": "",
        "category": "基础设施:公共设施:公共厕所",
        "type": 0,
        "location": {
            "lat": 23.58698,
            "lng": 110.285683
        },
        "ad_info": {
            "adcode": 450821,
            "province": "广西壮族自治区",
            "city": "贵港市",
            "district": "平南县"
        }
    },
    {
        "id": "4412763412994304941",
        "title": "公共厕所",
        "address": "广西壮族自治区贵港市平南县二环大道与朝北路交叉口正东方向612米左右",
        "tel": "",
        "category": "基础设施:公共设施:公共厕所",
        "type": 0,
        "location": {
            "lat": 23.555417,
            "lng": 110.384296
        },
        "ad_info": {
            "adcode": 450821,
            "province": "广西壮族自治区",
            "city": "贵港市",
            "district": "平南县"
        }
    },
    {
        "id": "3199009729197011060",
        "title": "公共厕所",
        "address": "广西壮族自治区贵港市港北区G358与XA37交叉口东北方向1487米左右",
        "tel": "",
        "category": "基础设施:公共设施:公共厕所",
        "type": 0,
        "location": {
            "lat": 23.185206,
            "lng": 109.744881
        },
        "ad_info": {
            "adcode": 450802,
            "province": "广西壮族自治区",
            "city": "贵港市",
            "district": "港北区"
        }
    },
    {
        "id": "1771892509316161456",
        "title": "公共厕所",
        "address": "广西壮族自治区贵港市港北区中山北路35号",
        "tel": "",
        "category": "基础设施:公共设施:公共厕所",
        "type": 0,
        "location": {
            "lat": 23.112745,
            "lng": 109.596625
        },
        "ad_info": {
            "adcode": 450802,
            "province": "广西壮族自治区",
            "city": "贵港市",
            "district": "港北区"
        }
    },
    {
        "id": "6484587678967668032",
        "title": "公共厕所",
        "address": "广西壮族自治区贵港市港北区林场一路与金港大道交叉口正东方向675米左右",
        "tel": "",
        "category": "基础设施:公共设施:公共厕所",
        "type": 0,
        "location": {
            "lat": 23.119807,
            "lng": 109.483459
        },
        "ad_info": {
            "adcode": 450802,
            "province": "广西壮族自治区",
            "city": "贵港市",
            "district": "港北区"
        }
    },
    {
        "id": "5663458740134174740",
        "title": "公共厕所",
        "address": "广西壮族自治区贵港市覃塘区迎宾大道辅路与215乡道交叉口北180米",
        "tel": "",
        "category": "基础设施:公共设施:公共厕所",
        "type": 0,
        "location": {
            "lat": 22.95537,
            "lng": 109.54161
        },
        "ad_info": {
            "adcode": 450804,
            "province": "广西壮族自治区",
            "city": "贵港市",
            "district": "覃塘区"
        }
    },
    {
        "id": "13325335211171141025",
        "title": "公共厕所",
        "address": "广西壮族自治区贵港市覃塘区文昌路与规划路交叉口正东方向461米左右",
        "tel": "",
        "category": "基础设施:公共设施:公共厕所",
        "type": 0,
        "location": {
            "lat": 23.120837,
            "lng": 109.461543
        },
        "ad_info": {
            "adcode": 450804,
            "province": "广西壮族自治区",
            "city": "贵港市",
            "district": "覃塘区"
        }
    },
    {
        "id": "685065093605218838",
        "title": "公共厕所",
        "address": "广西壮族自治区贵港市平南县G358与永发路交叉口正北方向203米左右",
        "tel": "",
        "category": "基础设施:公共设施:公共厕所",
        "type": 0,
        "location": {
            "lat": 23.365397,
            "lng": 110.504838
        },
        "ad_info": {
            "adcode": 450821,
            "province": "广西壮族自治区",
            "city": "贵港市",
            "district": "平南县"
        }
    },
    {
        "id": "16101070165160124039",
        "title": "唐人街洗手间",
        "address": "广西壮族自治区贵港市港北区中山路与建设路交叉口北150米唐人街购物广场",
        "tel": "",
        "category": "基础设施:公共设施:公共厕所",
        "type": 0,
        "location": {
            "lat": 23.091426,
            "lng": 109.60028
        },
        "ad_info": {
            "adcode": 450802,
            "province": "广西壮族自治区",
            "city": "贵港市",
            "district": "港北区"
        }
    },
    {
        "id": "4507049983975779836",
        "title": "公共厕所(佛子旅游度假区)",
        "address": "广西壮族自治区贵港市平南县平南佛子岭旅游康养度假区南侧70米",
        "tel": "",
        "category": "基础设施:公共设施:公共厕所",
        "type": 0,
        "location": {
            "lat": 23.619997,
            "lng": 110.461219
        },
        "ad_info": {
            "adcode": 450821,
            "province": "广西壮族自治区",
            "city": "贵港市",
            "district": "平南县"
        }
    },
    {
        "id": "2232056797420729794",
        "title": "公共厕所",
        "address": "广西壮族自治区贵港市平南县广场东路与广场西路交叉口西南方向238米左右",
        "tel": "",
        "category": "基础设施:公共设施:公共厕所",
        "type": 0,
        "location": {
            "lat": 23.418684,
            "lng": 110.431307
        },
        "ad_info": {
            "adcode": 450821,
            "province": "广西壮族自治区",
            "city": "贵港市",
            "district": "平南县"
        }
    },
    {
        "id": "4554895730067664452",
        "title": "公共厕所",
        "address": "广西壮族自治区贵港市平南县君澜宾馆西南侧60米",
        "tel": "",
        "category": "基础设施:公共设施:公共厕所",
        "type": 0,
        "location": {
            "lat": 23.411197,
            "lng": 110.40957
        },
        "ad_info": {
            "adcode": 450821,
            "province": "广西壮族自治区",
            "city": "贵港市",
            "district": "平南县"
        }
    },
    {
        "id": "4697541659346670435",
        "title": "公共厕所",
        "address": "广西壮族自治区贵港市平南县健康齿科连锁南侧50米",
        "tel": "",
        "category": "基础设施:公共设施:公共厕所",
        "type": 0,
        "location": {
            "lat": 23.556782,
            "lng": 110.38788
        },
        "ad_info": {
            "adcode": 450821,
            "province": "广西壮族自治区",
            "city": "贵港市",
            "district": "平南县"
        }
    },
    {
        "id": "11764421262381142274",
        "title": "公共厕所",
        "address": "广西壮族自治区贵港市平南县莫国华卫生室西侧80米",
        "tel": "",
        "category": "基础设施:公共设施:公共厕所",
        "type": 0,
        "location": {
            "lat": 23.417569,
            "lng": 110.380501
        },
        "ad_info": {
            "adcode": 450821,
            "province": "广西壮族自治区",
            "city": "贵港市",
            "district": "平南县"
        }
    },
    {
        "id": "4838025851706293070",
        "title": "公共厕所",
        "address": "广西壮族自治区贵港市覃塘区工业三路与林场一路交叉口正南方向139米左右",
        "tel": "",
        "category": "基础设施:公共设施:公共厕所",
        "type": 0,
        "location": {
            "lat": 23.110098,
            "lng": 109.476948
        },
        "ad_info": {
            "adcode": 450804,
            "province": "广西壮族自治区",
            "city": "贵港市",
            "district": "覃塘区"
        }
    },
    {
        "id": "7588279240132596197",
        "title": "公共厕所",
        "address": "广西壮族自治区贵港市覃塘区建设北路与振兴路交叉口正西方向58米左右",
        "tel": "",
        "category": "基础设施:公共设施:公共厕所",
        "type": 0,
        "location": {
            "lat": 23.132504,
            "lng": 109.416875
        },
        "ad_info": {
            "adcode": 450804,
            "province": "广西壮族自治区",
            "city": "贵港市",
            "district": "覃塘区"
        }
    },
    {
        "id": "1915022894599878949",
        "title": "公共厕所",
        "address": "广西壮族自治区贵港市平南县东方路与龚州大道交叉口正西方向99米左右",
        "tel": "",
        "category": "基础设施:公共设施:公共厕所",
        "type": 0,
        "location": {
            "lat": 23.536564,
            "lng": 110.419692
        },
        "ad_info": {
            "adcode": 450821,
            "province": "广西壮族自治区",
            "city": "贵港市",
            "district": "平南县"
        }
    },
    {
        "id": "15896827264389196663",
        "title": "公共厕所",
        "address": "广西壮族自治区贵港市平南县朝阳大道与环城路交叉口西北方向60米左右",
        "tel": "",
        "category": "基础设施:公共设施:公共厕所",
        "type": 0,
        "location": {
            "lat": 23.531423,
            "lng": 110.404959
        },
        "ad_info": {
            "adcode": 450821,
            "province": "广西壮族自治区",
            "city": "贵港市",
            "district": "平南县"
        }
    },
    {
        "id": "1975083609118212326",
        "title": "公共厕所",
        "address": "广西壮族自治区贵港市覃塘区G358与XA50交叉口正东方向127米左右",
        "tel": "",
        "category": "基础设施:公共设施:公共厕所",
        "type": 0,
        "location": {
            "lat": 23.133668,
            "lng": 109.356509
        },
        "ad_info": {
            "adcode": 450804,
            "province": "广西壮族自治区",
            "city": "贵港市",
            "district": "覃塘区"
        }
    },
    {
        "id": "16153784610000706539",
        "title": "金田服务区公共厕所",
        "address": "广西壮族自治区贵港市桂平市金田服务区与S52平那高速出口交叉口西南240米",
        "tel": "",
        "category": "基础设施:公共设施:公共厕所",
        "type": 0,
        "location": {
            "lat": 23.611898,
            "lng": 110.125939
        },
        "ad_info": {
            "adcode": 450881,
            "province": "广西壮族自治区",
            "city": "贵港市",
            "district": "桂平市"
        }
    },
    {
        "id": "10967593819929611471",
        "title": "新世纪广场公共厕所",
        "address": "广西壮族自治区贵港市港北区中山北路4号",
        "tel": "",
        "category": "基础设施:公共设施:公共厕所",
        "type": 0,
        "location": {
            "lat": 23.106499,
            "lng": 109.597345
        },
        "ad_info": {
            "adcode": 450802,
            "province": "广西壮族自治区",
            "city": "贵港市",
            "district": "港北区"
        }
    },
    {
        "id": "3853944808220346762",
        "title": "移动厕所",
        "address": "广西壮族自治区贵港市平南县城东街与江北大道交叉口东南方向188米左右",
        "tel": "",
        "category": "基础设施:公共设施:公共厕所",
        "type": 0,
        "location": {
            "lat": 23.5302,
            "lng": 110.40285
        },
        "ad_info": {
            "adcode": 450821,
            "province": "广西壮族自治区",
            "city": "贵港市",
            "district": "平南县"
        }
    },
    {
        "id": "4552691688714839119",
        "title": "公共厕所",
        "address": "广西壮族自治区贵港市平南县二环大道与瑞雁大道交叉口东北方向105米左右",
        "tel": "",
        "category": "基础设施:公共设施:公共厕所",
        "type": 0,
        "location": {
            "lat": 23.5371,
            "lng": 110.409885
        },
        "ad_info": {
            "adcode": 450821,
            "province": "广西壮族自治区",
            "city": "贵港市",
            "district": "平南县"
        }
    },
    {
        "id": "2836458306061914697",
        "title": "公共厕所",
        "address": "广西壮族自治区贵港市港北区仙衣路与新华路交叉口正南方向33米左右",
        "tel": "",
        "category": "基础设施:公共设施:公共厕所",
        "type": 0,
        "location": {
            "lat": 23.098371,
            "lng": 109.584181
        },
        "ad_info": {
            "adcode": 450802,
            "province": "广西壮族自治区",
            "city": "贵港市",
            "district": "港北区"
        }
    },
    {
        "id": "6083162962687269602",
        "title": "公共厕所",
        "address": "广西壮族自治区贵港市港北区东达街与育才街交叉口正南方向77米左右",
        "tel": "",
        "category": "基础设施:公共设施:公共厕所",
        "type": 0,
        "location": {
            "lat": 23.08915,
            "lng": 109.558173
        },
        "ad_info": {
            "adcode": 450802,
            "province": "广西壮族自治区",
            "city": "贵港市",
            "district": "港北区"
        }
    },
    {
        "id": "17183392359545153098",
        "title": "公共厕所",
        "address": "广西壮族自治区贵港市港南区南江路与廉石路交叉口正西方向170米左右",
        "tel": "",
        "category": "基础设施:公共设施:公共厕所",
        "type": 0,
        "location": {
            "lat": 23.075764,
            "lng": 109.608034
        },
        "ad_info": {
            "adcode": 450803,
            "province": "广西壮族自治区",
            "city": "贵港市",
            "district": "港南区"
        }
    },
    {
        "id": "11194069143374498783",
        "title": "公共厕所",
        "address": "广西壮族自治区贵港市港北区金港大道861号",
        "tel": "",
        "category": "基础设施:公共设施:公共厕所",
        "type": 0,
        "location": {
            "lat": 23.103547,
            "lng": 109.596851
        },
        "ad_info": {
            "adcode": 450802,
            "province": "广西壮族自治区",
            "city": "贵港市",
            "district": "港北区"
        }
    },
    {
        "id": "17799615263021852173",
        "title": "桂平服务区公共厕所",
        "address": "广西壮族自治区贵港市桂平市苍硕高速桂平服务区",
        "tel": "",
        "category": "基础设施:公共设施:公共厕所",
        "type": 0,
        "location": {
            "lat": 23.309422,
            "lng": 109.922884
        },
        "ad_info": {
            "adcode": 450881,
            "province": "广西壮族自治区",
            "city": "贵港市",
            "district": "桂平市"
        }
    },
    {
        "id": "15284218559024574049",
        "title": "公共厕所",
        "address": "广西壮族自治区贵港市港北区金港大道家和居(国际)建材家居广场",
        "tel": "",
        "category": "基础设施:公共设施:公共厕所",
        "type": 0,
        "location": {
            "lat": 23.104572,
            "lng": 109.577624
        },
        "ad_info": {
            "adcode": 450802,
            "province": "广西壮族自治区",
            "city": "贵港市",
            "district": "港北区"
        }
    },
    {
        "id": "1861515144902711379",
        "title": "贵港服务区公共厕所",
        "address": "广西壮族自治区贵港市覃塘区广昆高速与贵港互通交叉口正东方向1968米左右",
        "tel": "",
        "category": "基础设施:公共设施:公共厕所",
        "type": 0,
        "location": {
            "lat": 22.896815,
            "lng": 109.543963
        },
        "ad_info": {
            "adcode": 450804,
            "province": "广西壮族自治区",
            "city": "贵港市",
            "district": "覃塘区"
        }
    },
    {
        "id": "12161463126819330687",
        "title": "公共厕所",
        "address": "广西壮族自治区贵港市港北区中山路与金港大道辅路交叉口东60米",
        "tel": "",
        "category": "基础设施:公共设施:公共厕所",
        "type": 0,
        "location": {
            "lat": 23.105306,
            "lng": 109.597344
        },
        "ad_info": {
            "adcode": 450802,
            "province": "广西壮族自治区",
            "city": "贵港市",
            "district": "港北区"
        }
    },
    {
        "id": "16085271445815502397",
        "title": "贵港服务区公共厕所",
        "address": "广西壮族自治区贵港市覃塘区广昆高速与贵港互通交叉口正东方向1815米左右",
        "tel": "",
        "category": "基础设施:公共设施:公共厕所",
        "type": 0,
        "location": {
            "lat": 22.894901,
            "lng": 109.5424
        },
        "ad_info": {
            "adcode": 450804,
            "province": "广西壮族自治区",
            "city": "贵港市",
            "district": "覃塘区"
        }
    },
    {
        "id": "12308779305089410058",
        "title": "专业通厕所",
        "address": "广西壮族自治区贵港市平南县古龙街与商业大道交叉口西南方向170米左右",
        "tel": "18074889639",
        "category": "基础设施:公共设施:公共厕所",
        "type": 0,
        "location": {
            "lat": 23.554012,
            "lng": 110.391466
        },
        "ad_info": {
            "adcode": 450821,
            "province": "广西壮族自治区",
            "city": "贵港市",
            "district": "平南县"
        }
    },
    {
        "id": "13584720616610019689",
        "title": "平南服务区公共厕所",
        "address": "广西壮族自治区贵港市平南县平南服务区与S40梧硕高速交叉口东360米",
        "tel": "",
        "category": "基础设施:公共设施:公共厕所",
        "type": 0,
        "location": {
            "lat": 23.371286,
            "lng": 110.385951
        },
        "ad_info": {
            "adcode": 450821,
            "province": "广西壮族自治区",
            "city": "贵港市",
            "district": "平南县"
        }
    },
    {
        "id": "3746850546174285023",
        "title": "公共厕所",
        "address": "广西壮族自治区贵港市港南区建政路与江南大道交叉口正南方向38米左右",
        "tel": "",
        "category": "基础设施:公共设施:公共厕所",
        "type": 0,
        "location": {
            "lat": 23.065765,
            "lng": 109.606502
        },
        "ad_info": {
            "adcode": 450803,
            "province": "广西壮族自治区",
            "city": "贵港市",
            "district": "港南区"
        }
    },
    {
        "id": "16803530879390842402",
        "title": "公共厕所",
        "address": "广西壮族自治区贵港市港北区壹百百货西侧",
        "tel": "",
        "category": "基础设施:公共设施:公共厕所",
        "type": 0,
        "location": {
            "lat": 23.098294,
            "lng": 109.627317
        },
        "ad_info": {
            "adcode": 450802,
            "province": "广西壮族自治区",
            "city": "贵港市",
            "district": "港北区"
        }
    },
    {
        "id": "11499431904892315510",
        "title": "男洗手间(梦之岛购物广场)",
        "address": "广西壮族自治区贵港市港北区建设中路182号梦之岛购物广场F3层",
        "tel": "",
        "category": "基础设施:公共设施:公共厕所",
        "type": 0,
        "location": {
            "lat": 23.091788,
            "lng": 109.601692
        },
        "ad_info": {
            "adcode": 450802,
            "province": "广西壮族自治区",
            "city": "贵港市",
            "district": "港北区"
        }
    },
    {
        "id": "10171082518338524095",
        "title": "公共厕所",
        "address": "广西壮族自治区贵港市港南区中山路与江南大道交叉口东北方向283米左右",
        "tel": "",
        "category": "基础设施:公共设施:公共厕所",
        "type": 0,
        "location": {
            "lat": 23.068889,
            "lng": 109.616698
        },
        "ad_info": {
            "adcode": 450803,
            "province": "广西壮族自治区",
            "city": "贵港市",
            "district": "港南区"
        }
    },
    {
        "id": "3417884340489513648",
        "title": "公共厕所",
        "address": "广西壮族自治区贵港市平南县二环大道与朝北路交叉口正东方向444米左右",
        "tel": "",
        "category": "基础设施:公共设施:公共厕所",
        "type": 0,
        "location": {
            "lat": 23.55465,
            "lng": 110.382412
        },
        "ad_info": {
            "adcode": 450821,
            "province": "广西壮族自治区",
            "city": "贵港市",
            "district": "平南县"
        }
    },
    {
        "id": "16654429177227300849",
        "title": "老鸭山庄-公共厕所",
        "address": "广西壮族自治区贵港市港北区Y021与金港大道交叉口正北方向272米左右",
        "tel": "",
        "category": "基础设施:公共设施:公共厕所",
        "type": 0,
        "location": {
            "lat": 23.118491,
            "lng": 109.52418
        },
        "ad_info": {
            "adcode": 450802,
            "province": "广西壮族自治区",
            "city": "贵港市",
            "district": "港北区"
        }
    },
    {
        "id": "4607327151237329103",
        "title": "平南服务区公共厕所",
        "address": "广西壮族自治区贵港市平南县S40苍硕高速附近",
        "tel": "",
        "category": "基础设施:公共设施:公共厕所",
        "type": 0,
        "location": {
            "lat": 23.369239,
            "lng": 110.386145
        },
        "ad_info": {
            "adcode": 450821,
            "province": "广西壮族自治区",
            "city": "贵港市",
            "district": "平南县"
        }
    },
    {
        "id": "4145633093573357348",
        "title": "平南北服务区公共厕所",
        "address": "广西壮族自治区贵港市平南县中国石化广西交投平南北服务区加油站西侧120米",
        "tel": "",
        "category": "基础设施:公共设施:公共厕所",
        "type": 0,
        "location": {
            "lat": 23.622044,
            "lng": 110.406313
        },
        "ad_info": {
            "adcode": 450821,
            "province": "广西壮族自治区",
            "city": "贵港市",
            "district": "平南县"
        }
    },
    {
        "id": "111901650615694123",
        "title": "南山动物园公共厕所",
        "address": "广西壮族自治区贵港市港南区南山路与南环路交叉口正北方向745米左右",
        "tel": "",
        "category": "基础设施:公共设施:公共厕所",
        "type": 0,
        "location": {
            "lat": 23.053562,
            "lng": 109.616814
        },
        "ad_info": {
            "adcode": 450803,
            "province": "广西壮族自治区",
            "city": "贵港市",
            "district": "港南区"
        }
    },
    {
        "id": "9458553608852142502",
        "title": "平南北服务区公共厕所",
        "address": "广西壮族自治区贵港市平南县中国石化广西交投平南北服务区加油站东侧130米",
        "tel": "",
        "category": "基础设施:公共设施:公共厕所",
        "type": 0,
        "location": {
            "lat": 23.624143,
            "lng": 110.406877
        },
        "ad_info": {
            "adcode": 450821,
            "province": "广西壮族自治区",
            "city": "贵港市",
            "district": "平南县"
        }
    },
    {
        "id": "1740826708270139",
        "title": "公共厕所",
        "address": "广西壮族自治区贵港市港南区江南大道161号",
        "tel": "",
        "category": "基础设施:公共设施:公共厕所",
        "type": 0,
        "location": {
            "lat": 23.067726,
            "lng": 109.613464
        },
        "ad_info": {
            "adcode": 450803,
            "province": "广西壮族自治区",
            "city": "贵港市",
            "district": "港南区"
        }
    },
    {
        "id": "8027956053977398161",
        "title": "贵港南服务区公共厕所",
        "address": "广西壮族自治区贵港市港南区G7212柳北高速附近",
        "tel": "",
        "category": "基础设施:公共设施:公共厕所",
        "type": 0,
        "location": {
            "lat": 23.043069,
            "lng": 109.766301
        },
        "ad_info": {
            "adcode": 450803,
            "province": "广西壮族自治区",
            "city": "贵港市",
            "district": "港南区"
        }
    },
    {
        "id": "6917347487599425720",
        "title": "贵港南服务区公共厕所",
        "address": "广西壮族自治区贵港市港南区G7212柳北高速附近",
        "tel": "",
        "category": "基础设施:公共设施:公共厕所",
        "type": 0,
        "location": {
            "lat": 23.044358,
            "lng": 109.764627
        },
        "ad_info": {
            "adcode": 450803,
            "province": "广西壮族自治区",
            "city": "贵港市",
            "district": "港南区"
        }
    },
    {
        "id": "8160308243776074858",
        "title": "石龙南停车区公共厕所",
        "address": "广西壮族自治区贵港市桂平市石龙南停车区西北侧",
        "tel": "",
        "category": "基础设施:公共设施:公共厕所",
        "type": 0,
        "location": {
            "lat": 23.23763,
            "lng": 109.842271
        },
        "ad_info": {
            "adcode": 450881,
            "province": "广西壮族自治区",
            "city": "贵港市",
            "district": "桂平市"
        }
    },
    {
        "id": "4172916220172301993",
        "title": "石龙南停车区厕所",
        "address": "广西壮族自治区贵港市桂平市石龙南停车区东侧",
        "tel": "",
        "category": "基础设施:公共设施:公共厕所",
        "type": 0,
        "location": {
            "lat": 23.236254,
            "lng": 109.843657
        },
        "ad_info": {
            "adcode": 450881,
            "province": "广西壮族自治区",
            "city": "贵港市",
            "district": "桂平市"
        }
    },
    {
        "id": "2744597316123149132",
        "title": "无障碍公共厕所",
        "address": "广西壮族自治区贵港市港北区兴贵路与迎宾大道交叉口西南方向473米左右",
        "tel": "",
        "category": "基础设施:公共设施:公共厕所",
        "type": 0,
        "location": {
            "lat": 23.104109,
            "lng": 109.564494
        },
        "ad_info": {
            "adcode": 450802,
            "province": "广西壮族自治区",
            "city": "贵港市",
            "district": "港北区"
        }
    },
    {
        "id": "15566312086522286700",
        "title": "公共厕所",
        "address": "广西壮族自治区贵港市港南区工业二路与江南大道交叉口正西方向140米左右",
        "tel": "",
        "category": "基础设施:公共设施:公共厕所",
        "type": 0,
        "location": {
            "lat": 23.0394,
            "lng": 109.672274
        },
        "ad_info": {
            "adcode": 450803,
            "province": "广西壮族自治区",
            "city": "贵港市",
            "district": "港南区"
        }
    },
    {
        "id": "3007824949379371622",
        "title": "公共厕所",
        "address": "广西壮族自治区贵港市覃塘区",
        "tel": "",
        "category": "基础设施:公共设施:公共厕所",
        "type": 0,
        "location": {
            "lat": 23.018428,
            "lng": 109.392072
        },
        "ad_info": {
            "adcode": 450804,
            "province": "广西壮族自治区",
            "city": "贵港市",
            "district": "覃塘区"
        }
    },
    {
        "id": "12037160161754086179",
        "title": "公共厕所",
        "address": "广西壮族自治区贵港市平南县广场东路与广场西路交叉口正南方向199米左右",
        "tel": "",
        "category": "基础设施:公共设施:公共厕所",
        "type": 0,
        "location": {
            "lat": 23.418511,
            "lng": 110.432342
        },
        "ad_info": {
            "adcode": 450821,
            "province": "广西壮族自治区",
            "city": "贵港市",
            "district": "平南县"
        }
    },
    {
        "id": "15114161790754474284",
        "title": "男洗手间(梦之岛购物广场)",
        "address": "广西壮族自治区贵港市港北区建设中路182号梦之岛购物广场F1层",
        "tel": "",
        "category": "基础设施:公共设施:公共厕所",
        "type": 0,
        "location": {
            "lat": 23.091788,
            "lng": 109.601692
        },
        "ad_info": {
            "adcode": 450802,
            "province": "广西壮族自治区",
            "city": "贵港市",
            "district": "港北区"
        }
    },
    {
        "id": "16113133695556406154",
        "title": "公共厕所",
        "address": "广西壮族自治区贵港市平南县光明街与龚州大道交叉口东南方向169米左右",
        "tel": "",
        "category": "基础设施:公共设施:公共厕所",
        "type": 0,
        "location": {
            "lat": 23.542262,
            "lng": 110.410345
        },
        "ad_info": {
            "adcode": 450821,
            "province": "广西壮族自治区",
            "city": "贵港市",
            "district": "平南县"
        }
    },
    {
        "id": "1716021190070667285",
        "title": "公共厕所",
        "address": "广西壮族自治区贵港市港北区桂林路南侧支路与民生路交叉口西100米",
        "tel": "",
        "category": "基础设施:公共设施:公共厕所",
        "type": 0,
        "location": {
            "lat": 23.117817,
            "lng": 109.585408
        },
        "ad_info": {
            "adcode": 450802,
            "province": "广西壮族自治区",
            "city": "贵港市",
            "district": "港北区"
        }
    },
    {
        "id": "35570059884092547",
        "title": "公共厕所",
        "address": "广西壮族自治区贵港市港北区登龙桥路与金港大道交叉口正西方向223米左右",
        "tel": "",
        "category": "基础设施:公共设施:公共厕所",
        "type": 0,
        "location": {
            "lat": 23.105691,
            "lng": 109.6333
        },
        "ad_info": {
            "adcode": 450802,
            "province": "广西壮族自治区",
            "city": "贵港市",
            "district": "港北区"
        }
    },
    {
        "id": "6584242486448442443",
        "title": "盘王服务区公共厕所",
        "address": "广西壮族自治区贵港市平南县中国石油广西交投盘王服务区加油站西侧160米",
        "tel": "",
        "category": "基础设施:公共设施:公共厕所",
        "type": 0,
        "location": {
            "lat": 23.81774,
            "lng": 110.113472
        },
        "ad_info": {
            "adcode": 450821,
            "province": "广西壮族自治区",
            "city": "贵港市",
            "district": "平南县"
        }
    },
    {
        "id": "1583376213225857227",
        "title": "公共厕所",
        "address": "广西壮族自治区贵港市平南县大成中心小学北侧210米",
        "tel": "",
        "category": "基础设施:公共设施:公共厕所",
        "type": 0,
        "location": {
            "lat": 23.475612,
            "lng": 110.461887
        },
        "ad_info": {
            "adcode": 450821,
            "province": "广西壮族自治区",
            "city": "贵港市",
            "district": "平南县"
        }
    },
    {
        "id": "11592265057760537724",
        "title": "公共厕所",
        "address": "广西壮族自治区贵港市港北区北华街与荷城路辅路交叉口东南方向86米左右",
        "tel": "",
        "category": "基础设施:公共设施:公共厕所",
        "type": 0,
        "location": {
            "lat": 23.110025,
            "lng": 109.573908
        },
        "ad_info": {
            "adcode": 450802,
            "province": "广西壮族自治区",
            "city": "贵港市",
            "district": "港北区"
        }
    },
    {
        "id": "6647261412065086752",
        "title": "洗手间",
        "address": "广西壮族自治区贵港市平南县广场东路与广场西路交叉口正南方向73米左右",
        "tel": "",
        "category": "基础设施:公共设施:公共厕所",
        "type": 0,
        "location": {
            "lat": 23.419558,
            "lng": 110.432926
        },
        "ad_info": {
            "adcode": 450821,
            "province": "广西壮族自治区",
            "city": "贵港市",
            "district": "平南县"
        }
    },
    {
        "id": "134796801565010171",
        "title": "公共厕所",
        "address": "广西壮族自治区贵港市平南县G358与永发路交叉口正南方向109米左右",
        "tel": "",
        "category": "基础设施:公共设施:公共厕所",
        "type": 0,
        "location": {
            "lat": 23.362646,
            "lng": 110.504256
        },
        "ad_info": {
            "adcode": 450821,
            "province": "广西壮族自治区",
            "city": "贵港市",
            "district": "平南县"
        }
    },
    {
        "id": "15566466233922214622",
        "title": "公共厕所",
        "address": "广西壮族自治区贵港市港南区中山路与江南大道交叉口正北方向92米左右",
        "tel": "",
        "category": "基础设施:公共设施:公共厕所",
        "type": 0,
        "location": {
            "lat": 23.068583,
            "lng": 109.614237
        },
        "ad_info": {
            "adcode": 450803,
            "province": "广西壮族自治区",
            "city": "贵港市",
            "district": "港南区"
        }
    },
    {
        "id": "3659083597857348063",
        "title": "公共厕所",
        "address": "广西壮族自治区贵港市桂平市二维士多店北侧210米",
        "tel": "",
        "category": "基础设施:公共设施:公共厕所",
        "type": 0,
        "location": {
            "lat": 23.599562,
            "lng": 110.086331
        },
        "ad_info": {
            "adcode": 450881,
            "province": "广西壮族自治区",
            "city": "贵港市",
            "district": "桂平市"
        }
    },
    {
        "id": "7749013779708741507",
        "title": "贵港北服务区公共厕所",
        "address": "广西壮族自治区贵港市港北区S40苍硕高速与贵港北服务区交叉口东北500米",
        "tel": "",
        "category": "基础设施:公共设施:公共厕所",
        "type": 0,
        "location": {
            "lat": 23.199216,
            "lng": 109.676334
        },
        "ad_info": {
            "adcode": 450802,
            "province": "广西壮族自治区",
            "city": "贵港市",
            "district": "港北区"
        }
    },
    {
        "id": "17025882771171957392",
        "title": "女洗手间(梦之岛购物广场)",
        "address": "广西壮族自治区贵港市港北区建设中路182号梦之岛购物广场F3层",
        "tel": "",
        "category": "基础设施:公共设施:公共厕所",
        "type": 0,
        "location": {
            "lat": 23.091751,
            "lng": 109.601707
        },
        "ad_info": {
            "adcode": 450802,
            "province": "广西壮族自治区",
            "city": "贵港市",
            "district": "港北区"
        }
    },
    {
        "id": "7787916405273828938",
        "title": "公共厕所",
        "address": "广西壮族自治区贵港市港北区布山路贵港文华国际大酒店",
        "tel": "",
        "category": "基础设施:公共设施:公共厕所",
        "type": 0,
        "location": {
            "lat": 23.114575,
            "lng": 109.598499
        },
        "ad_info": {
            "adcode": 450802,
            "province": "广西壮族自治区",
            "city": "贵港市",
            "district": "港北区"
        }
    },
    {
        "id": "16755706910185491709",
        "title": "公共厕所",
        "address": "广西壮族自治区贵港市平南县G241与X346交叉口正西方向1517米左右",
        "tel": "",
        "category": "基础设施:公共设施:公共厕所",
        "type": 0,
        "location": {
            "lat": 23.064258,
            "lng": 110.416839
        },
        "ad_info": {
            "adcode": 450821,
            "province": "广西壮族自治区",
            "city": "贵港市",
            "district": "平南县"
        }
    },
    {
        "id": "7177715183479669215",
        "title": "贵港北服务区公共厕所",
        "address": "广西壮族自治区贵港市港北区S40苍硕高速与贵港北服务区交叉口东400米",
        "tel": "",
        "category": "基础设施:公共设施:公共厕所",
        "type": 0,
        "location": {
            "lat": 23.19679,
            "lng": 109.677035
        },
        "ad_info": {
            "adcode": 450802,
            "province": "广西壮族自治区",
            "city": "贵港市",
            "district": "港北区"
        }
    },
    {
        "id": "12107887017249218046",
        "title": "公共厕所",
        "address": "广西壮族自治区贵港市覃塘区文昌路与金港大道交叉口西北方向107米左右",
        "tel": "",
        "category": "基础设施:公共设施:公共厕所",
        "type": 0,
        "location": {
            "lat": 23.124256,
            "lng": 109.456682
        },
        "ad_info": {
            "adcode": 450804,
            "province": "广西壮族自治区",
            "city": "贵港市",
            "district": "覃塘区"
        }
    },
    {
        "id": "3846245955671827474",
        "title": "公共厕所",
        "address": "广西壮族自治区贵港市港南区S209与江南路交叉口正北方向213米左右",
        "tel": "",
        "category": "基础设施:公共设施:公共厕所",
        "type": 0,
        "location": {
            "lat": 22.950708,
            "lng": 109.771075
        },
        "ad_info": {
            "adcode": 450803,
            "province": "广西壮族自治区",
            "city": "贵港市",
            "district": "港南区"
        }
    },
    {
        "id": "6551490943196525802",
        "title": "公共厕所",
        "address": "广西壮族自治区贵港市港北区新华路与迎宾大道交叉口正西方向53米左右",
        "tel": "",
        "category": "基础设施:公共设施:公共厕所",
        "type": 0,
        "location": {
            "lat": 23.097225,
            "lng": 109.567713
        },
        "ad_info": {
            "adcode": 450802,
            "province": "广西壮族自治区",
            "city": "贵港市",
            "district": "港北区"
        }
    },
    {
        "id": "17569564135759194718",
        "title": "公共厕所",
        "address": "广西壮族自治区贵港市平南县",
        "tel": "",
        "category": "基础设施:公共设施:公共厕所",
        "type": 0,
        "location": {
            "lat": 23.24455,
            "lng": 110.619172
        },
        "ad_info": {
            "adcode": 450821,
            "province": "广西壮族自治区",
            "city": "贵港市",
            "district": "平南县"
        }
    },
    {
        "id": "1436604883747097756",
        "title": "公共厕所",
        "address": "广西壮族自治区贵港市港南区木格镇良坡村北一茶厂",
        "tel": "",
        "category": "基础设施:公共设施:公共厕所",
        "type": 0,
        "location": {
            "lat": 22.807769,
            "lng": 109.654324
        },
        "ad_info": {
            "adcode": 450803,
            "province": "广西壮族自治区",
            "city": "贵港市",
            "district": "港南区"
        }
    },
    {
        "id": "12935553785849982963",
        "title": "公共厕所",
        "address": "广西壮族自治区贵港市港北区平安路与西江园路交叉口西北方向290米左右",
        "tel": "",
        "category": "基础设施:公共设施:公共厕所",
        "type": 0,
        "location": {
            "lat": 23.104693,
            "lng": 109.553984
        },
        "ad_info": {
            "adcode": 450802,
            "province": "广西壮族自治区",
            "city": "贵港市",
            "district": "港北区"
        }
    },
    {
        "id": "14501292321194159109",
        "title": "公共厕所",
        "address": "广西壮族自治区贵港市港北区园区路贵港市体育中心",
        "tel": "",
        "category": "基础设施:公共设施:公共厕所",
        "type": 0,
        "location": {
            "lat": 23.112771,
            "lng": 109.562841
        },
        "ad_info": {
            "adcode": 450802,
            "province": "广西壮族自治区",
            "city": "贵港市",
            "district": "港北区"
        }
    },
    {
        "id": "2577329959847338981",
        "title": "公共厕所",
        "address": "广西壮族自治区贵港市桂平市上股街与五甲街交叉口西北方向114米左右",
        "tel": "",
        "category": "基础设施:公共设施:公共厕所",
        "type": 0,
        "location": {
            "lat": 23.39218,
            "lng": 110.081145
        },
        "ad_info": {
            "adcode": 450881,
            "province": "广西壮族自治区",
            "city": "贵港市",
            "district": "桂平市"
        }
    },
    {
        "id": "442877328384599497",
        "title": "女洗手间(梦之岛购物广场)",
        "address": "广西壮族自治区贵港市港北区建设中路182号梦之岛购物广场F4层",
        "tel": "",
        "category": "基础设施:公共设施:公共厕所",
        "type": 0,
        "location": {
            "lat": 23.091751,
            "lng": 109.601707
        },
        "ad_info": {
            "adcode": 450802,
            "province": "广西壮族自治区",
            "city": "贵港市",
            "district": "港北区"
        }
    },
    {
        "id": "17077121252187241561",
        "title": "公共厕所",
        "address": "广西壮族自治区贵港市覃塘区中国石化广西贵港覃塘三里加油站西南侧100米",
        "tel": "",
        "category": "基础设施:公共设施:公共厕所",
        "type": 0,
        "location": {
            "lat": 23.063118,
            "lng": 109.401428
        },
        "ad_info": {
            "adcode": 450804,
            "province": "广西壮族自治区",
            "city": "贵港市",
            "district": "覃塘区"
        }
    },
    {
        "id": "14356685265836183792",
        "title": "公共厕所",
        "address": "广西壮族自治区贵港市平南县得寨生态园旺山泉水游泳池西北侧50米",
        "tel": "",
        "category": "基础设施:公共设施:公共厕所",
        "type": 0,
        "location": {
            "lat": 23.623055,
            "lng": 110.450568
        },
        "ad_info": {
            "adcode": 450821,
            "province": "广西壮族自治区",
            "city": "贵港市",
            "district": "平南县"
        }
    },
    {
        "id": "9537651683855786430",
        "title": "公共厕所",
        "address": "广西壮族自治区贵港市港北区桂林路与民生路交叉口西南方向56米左右",
        "tel": "",
        "category": "基础设施:公共设施:公共厕所",
        "type": 0,
        "location": {
            "lat": 23.120003,
            "lng": 109.585888
        },
        "ad_info": {
            "adcode": 450802,
            "province": "广西壮族自治区",
            "city": "贵港市",
            "district": "港北区"
        }
    },
    {
        "id": "12463151667053573889",
        "title": "公共厕所",
        "address": "广西壮族自治区贵港市桂平市348县道与西山路辅路交叉口西南60米",
        "tel": "",
        "category": "基础设施:公共设施:公共厕所",
        "type": 0,
        "location": {
            "lat": 23.382352,
            "lng": 110.063066
        },
        "ad_info": {
            "adcode": 450881,
            "province": "广西壮族自治区",
            "city": "贵港市",
            "district": "桂平市"
        }
    },
    {
        "id": "17454291100875568128",
        "title": "公共厕所",
        "address": "广西壮族自治区贵港市港南区中山路与江南大道交叉口东南方向112米左右",
        "tel": "",
        "category": "基础设施:公共设施:公共厕所",
        "type": 0,
        "location": {
            "lat": 23.06683,
            "lng": 109.614691
        },
        "ad_info": {
            "adcode": 450803,
            "province": "广西壮族自治区",
            "city": "贵港市",
            "district": "港南区"
        }
    },
    {
        "id": "5871844573289230185",
        "title": "公共厕所",
        "address": "广西壮族自治区贵港市覃塘区S310与迎宾大道辅路交叉口正南方向658米左右",
        "tel": "",
        "category": "基础设施:公共设施:公共厕所",
        "type": 0,
        "location": {
            "lat": 23.015467,
            "lng": 109.549004
        },
        "ad_info": {
            "adcode": 450804,
            "province": "广西壮族自治区",
            "city": "贵港市",
            "district": "覃塘区"
        }
    },
    {
        "id": "9650307716563214691",
        "title": "公共厕所",
        "address": "广西壮族自治区贵港市港北区布山大道与金田路交叉口正南方向104米左右",
        "tel": "",
        "category": "基础设施:公共设施:公共厕所",
        "type": 0,
        "location": {
            "lat": 23.114565,
            "lng": 109.592082
        },
        "ad_info": {
            "adcode": 450802,
            "province": "广西壮族自治区",
            "city": "贵港市",
            "district": "港北区"
        }
    },
    {
        "id": "5733288265210226525",
        "title": "公共厕所",
        "address": "广西壮族自治区贵港市平南县思旺镇花石村垌美屯垌美生态乐园游泳池边",
        "tel": "",
        "category": "基础设施:公共设施:公共厕所",
        "type": 0,
        "location": {
            "lat": 23.696983,
            "lng": 110.275026
        },
        "ad_info": {
            "adcode": 450821,
            "province": "广西壮族自治区",
            "city": "贵港市",
            "district": "平南县"
        }
    },
    {
        "id": "14579338084834783962",
        "title": "公共厕所",
        "address": "广西壮族自治区贵港市桂平市县府街与浔高街交叉口东南方向54米左右",
        "tel": "",
        "category": "基础设施:公共设施:公共厕所",
        "type": 0,
        "location": {
            "lat": 23.395374,
            "lng": 110.075738
        },
        "ad_info": {
            "adcode": 450881,
            "province": "广西壮族自治区",
            "city": "贵港市",
            "district": "桂平市"
        }
    },
    {
        "id": "10735012901446484166",
        "title": "公共厕所",
        "address": "广西壮族自治区贵港市覃塘区东来木业北侧130米",
        "tel": "",
        "category": "基础设施:公共设施:公共厕所",
        "type": 0,
        "location": {
            "lat": 23.098942,
            "lng": 109.414398
        },
        "ad_info": {
            "adcode": 450804,
            "province": "广西壮族自治区",
            "city": "贵港市",
            "district": "覃塘区"
        }
    },
    {
        "id": "12216793134131507193",
        "title": "公共厕所",
        "address": "广西壮族自治区贵港市港南区港南路与青松二巷交叉口正南方向34米左右",
        "tel": "",
        "category": "基础设施:公共设施:公共厕所",
        "type": 0,
        "location": {
            "lat": 23.066389,
            "lng": 109.605245
        },
        "ad_info": {
            "adcode": 450803,
            "province": "广西壮族自治区",
            "city": "贵港市",
            "district": "港南区"
        }
    },
    {
        "id": "7383682226884527942",
        "title": "公共厕所",
        "address": "广西壮族自治区贵港市平南县S204与S304交叉口正西方向267米左右",
        "tel": "",
        "category": "基础设施:公共设施:公共厕所",
        "type": 0,
        "location": {
            "lat": 23.571042,
            "lng": 110.362465
        },
        "ad_info": {
            "adcode": 450821,
            "province": "广西壮族自治区",
            "city": "贵港市",
            "district": "平南县"
        }
    },
    {
        "id": "16917235316182857248",
        "title": "公共厕所",
        "address": "广西壮族自治区贵港市桂平市S206与工业大道交叉口正南方向442米左右",
        "tel": "",
        "category": "基础设施:公共设施:公共厕所",
        "type": 0,
        "location": {
            "lat": 23.324481,
            "lng": 110.091696
        },
        "ad_info": {
            "adcode": 450881,
            "province": "广西壮族自治区",
            "city": "贵港市",
            "district": "桂平市"
        }
    },
    {
        "id": "13039799693066142416",
        "title": "公共厕所",
        "address": "广西壮族自治区贵港市覃塘区G209与Y211交叉口西北方向41米左右",
        "tel": "",
        "category": "基础设施:公共设施:公共厕所",
        "type": 0,
        "location": {
            "lat": 23.238102,
            "lng": 109.411212
        },
        "ad_info": {
            "adcode": 450804,
            "province": "广西壮族自治区",
            "city": "贵港市",
            "district": "覃塘区"
        }
    },
    {
        "id": "2368709650845165351",
        "title": "公共厕所",
        "address": "广西壮族自治区贵港市平南县古龙街与红洲街交叉口正西方向152米左右",
        "tel": "",
        "category": "基础设施:公共设施:公共厕所",
        "type": 0,
        "location": {
            "lat": 23.553775,
            "lng": 110.393765
        },
        "ad_info": {
            "adcode": 450821,
            "province": "广西壮族自治区",
            "city": "贵港市",
            "district": "平南县"
        }
    },
    {
        "id": "11456682093845492062",
        "title": "公共厕所",
        "address": "广西壮族自治区贵港市港南区爱民路与青山路交叉口西北方向323米左右",
        "tel": "",
        "category": "基础设施:公共设施:公共厕所",
        "type": 0,
        "location": {
            "lat": 22.963015,
            "lng": 109.751886
        },
        "ad_info": {
            "adcode": 450803,
            "province": "广西壮族自治区",
            "city": "贵港市",
            "district": "港南区"
        }
    },
    {
        "id": "6048132865146996026",
        "title": "卫生间",
        "address": "广西壮族自治区贵港市港北区中山北路12号梦之岛百货F1",
        "tel": "",
        "category": "基础设施:公共设施:公共厕所",
        "type": 0,
        "location": {
            "lat": 23.108184,
            "lng": 109.596821
        },
        "ad_info": {
            "adcode": 450802,
            "province": "广西壮族自治区",
            "city": "贵港市",
            "district": "港北区"
        }
    },
    {
        "id": "437372171152030780",
        "title": "盘王服务区公共厕所",
        "address": "广西壮族自治区贵港市平南县中国石油广西交投盘王服务区加油站东侧120米",
        "tel": "",
        "category": "基础设施:公共设施:公共厕所",
        "type": 0,
        "location": {
            "lat": 23.817112,
            "lng": 110.118411
        },
        "ad_info": {
            "adcode": 450821,
            "province": "广西壮族自治区",
            "city": "贵港市",
            "district": "平南县"
        }
    },
    {
        "id": "8292510930366114430",
        "title": "公共厕所",
        "address": "广西壮族自治区贵港市港北区城西立交桥与金港大道交叉口正东方向284米左右",
        "tel": "",
        "category": "基础设施:公共设施:公共厕所",
        "type": 0,
        "location": {
            "lat": 23.108194,
            "lng": 109.551688
        },
        "ad_info": {
            "adcode": 450802,
            "province": "广西壮族自治区",
            "city": "贵港市",
            "district": "港北区"
        }
    },
    {
        "id": "4088803441070753277",
        "title": "公共厕所",
        "address": "广西壮族自治区贵港市港北区金港大道欧景蓝湾",
        "tel": "",
        "category": "基础设施:公共设施:公共厕所",
        "type": 0,
        "location": {
            "lat": 23.104294,
            "lng": 109.56913
        },
        "ad_info": {
            "adcode": 450802,
            "province": "广西壮族自治区",
            "city": "贵港市",
            "district": "港北区"
        }
    },
    {
        "id": "2120355835793234043",
        "title": "公共厕所",
        "address": "广西壮族自治区贵港市港北区和平路与新华路交叉口西南方向121米左右",
        "tel": "",
        "category": "基础设施:公共设施:公共厕所",
        "type": 0,
        "location": {
            "lat": 23.102417,
            "lng": 109.614138
        },
        "ad_info": {
            "adcode": 450802,
            "province": "广西壮族自治区",
            "city": "贵港市",
            "district": "港北区"
        }
    },
    {
        "id": "3615922432271515939",
        "title": "公共厕所",
        "address": "广西壮族自治区贵港市港北区西环路辅路与迎宾大道辅路交叉口西北方向261米左右",
        "tel": "",
        "category": "基础设施:公共设施:公共厕所",
        "type": 0,
        "location": {
            "lat": 23.065875,
            "lng": 109.559664
        },
        "ad_info": {
            "adcode": 450802,
            "province": "广西壮族自治区",
            "city": "贵港市",
            "district": "港北区"
        }
    },
    {
        "id": "790594654274989105",
        "title": "卫生间",
        "address": "广西壮族自治区贵港市港北区中山北路12号梦之岛百货B1",
        "tel": "",
        "category": "基础设施:公共设施:公共厕所",
        "type": 0,
        "location": {
            "lat": 23.108158,
            "lng": 109.596783
        },
        "ad_info": {
            "adcode": 450802,
            "province": "广西壮族自治区",
            "city": "贵港市",
            "district": "港北区"
        }
    },
    {
        "id": "2351282323250096449",
        "title": "公共卫生间",
        "address": "广西壮族自治区贵港市覃塘区兴中街与兴和街交叉口正西方向50米左右",
        "tel": "",
        "category": "基础设施:公共设施:公共厕所",
        "type": 0,
        "location": {
            "lat": 23.133294,
            "lng": 109.408792
        },
        "ad_info": {
            "adcode": 450804,
            "province": "广西壮族自治区",
            "city": "贵港市",
            "district": "覃塘区"
        }
    },
    {
        "id": "18364752849650834359",
        "title": "公共厕所",
        "address": "广西壮族自治区贵港市港北区共青路与金港大道交叉口正北方向74米左右",
        "tel": "",
        "category": "基础设施:公共设施:公共厕所",
        "type": 0,
        "location": {
            "lat": 23.117129,
            "lng": 109.518896
        },
        "ad_info": {
            "adcode": 450802,
            "province": "广西壮族自治区",
            "city": "贵港市",
            "district": "港北区"
        }
    },
    {
        "id": "1459579219645786628",
        "title": "公共厕所",
        "address": "广西壮族自治区贵港市桂平市S206与Y305交叉口正西方向975米左右",
        "tel": "",
        "category": "基础设施:公共设施:公共厕所",
        "type": 0,
        "location": {
            "lat": 23.466999,
            "lng": 110.069473
        },
        "ad_info": {
            "adcode": 450881,
            "province": "广西壮族自治区",
            "city": "贵港市",
            "district": "桂平市"
        }
    },
    {
        "id": "11723072305848220187",
        "title": "女洗手间(梦之岛购物广场)",
        "address": "广西壮族自治区贵港市港北区建设中路182号梦之岛购物广场F2层",
        "tel": "",
        "category": "基础设施:公共设施:公共厕所",
        "type": 0,
        "location": {
            "lat": 23.091687,
            "lng": 109.601247
        },
        "ad_info": {
            "adcode": 450802,
            "province": "广西壮族自治区",
            "city": "贵港市",
            "district": "港北区"
        }
    },
    {
        "id": "10604618986009742270",
        "title": "公共厕所",
        "address": "广西壮族自治区贵港市港北区迎宾大道辅路与金港大道南侧支路交叉口西北方向559米左右",
        "tel": "",
        "category": "基础设施:公共设施:公共厕所",
        "type": 0,
        "location": {
            "lat": 23.103364,
            "lng": 109.5637
        },
        "ad_info": {
            "adcode": 450802,
            "province": "广西壮族自治区",
            "city": "贵港市",
            "district": "港北区"
        }
    },
    {
        "id": "2345825275012278301",
        "title": "公共厕所",
        "address": "广西壮族自治区贵港市平南县高铁站村级集体经济产业园西侧150米",
        "tel": "",
        "category": "基础设施:公共设施:公共厕所",
        "type": 0,
        "location": {
            "lat": 23.418478,
            "lng": 110.431458
        },
        "ad_info": {
            "adcode": 450821,
            "province": "广西壮族自治区",
            "city": "贵港市",
            "district": "平南县"
        }
    },
    {
        "id": "3831017622051051787",
        "title": "公共厕所",
        "address": "广西壮族自治区贵港市桂平市金田博物馆旅游厕所",
        "tel": "",
        "category": "基础设施:公共设施:公共厕所",
        "type": 0,
        "location": {
            "lat": 23.578982,
            "lng": 110.086203
        },
        "ad_info": {
            "adcode": 450881,
            "province": "广西壮族自治区",
            "city": "贵港市",
            "district": "桂平市"
        }
    },
    {
        "id": "4569738796040242103",
        "title": "公共厕所",
        "address": "广西壮族自治区贵港市平南县瑞雁大道与龚州大道交叉口正西方向66米左右",
        "tel": "",
        "category": "基础设施:公共设施:公共厕所",
        "type": 0,
        "location": {
            "lat": 23.541324,
            "lng": 110.411582
        },
        "ad_info": {
            "adcode": 450821,
            "province": "广西壮族自治区",
            "city": "贵港市",
            "district": "平南县"
        }
    },
    {
        "id": "4347320865263218812",
        "title": "公共厕所",
        "address": "广西壮族自治区贵港市平南县兴平路与城东街交叉口东北方向175米左右",
        "tel": "",
        "category": "基础设施:公共设施:公共厕所",
        "type": 0,
        "location": {
            "lat": 23.533596,
            "lng": 110.404205
        },
        "ad_info": {
            "adcode": 450821,
            "province": "广西壮族自治区",
            "city": "贵港市",
            "district": "平南县"
        }
    },
    {
        "id": "9948029712448716840",
        "title": "公共厕所",
        "address": "广西壮族自治区贵港市港南区中山路与江南大道交叉口西北方向397米左右",
        "tel": "",
        "category": "基础设施:公共设施:公共厕所",
        "type": 0,
        "location": {
            "lat": 23.070916,
            "lng": 109.61239
        },
        "ad_info": {
            "adcode": 450803,
            "province": "广西壮族自治区",
            "city": "贵港市",
            "district": "港南区"
        }
    },
    {
        "id": "10837146695266708215",
        "title": "公共厕所",
        "address": "广西壮族自治区贵港市港北区平安路与西江园路交叉口正东方向412米左右",
        "tel": "",
        "category": "基础设施:公共设施:公共厕所",
        "type": 0,
        "location": {
            "lat": 23.10408,
            "lng": 109.560591
        },
        "ad_info": {
            "adcode": 450802,
            "province": "广西壮族自治区",
            "city": "贵港市",
            "district": "港北区"
        }
    },
    {
        "id": "5116594440875351740",
        "title": "公共厕所",
        "address": "广西壮族自治区贵港市港北区广汇大厦西南侧120米",
        "tel": "",
        "category": "基础设施:公共设施:公共厕所",
        "type": 0,
        "location": {
            "lat": 23.094639,
            "lng": 109.613048
        },
        "ad_info": {
            "adcode": 450802,
            "province": "广西壮族自治区",
            "city": "贵港市",
            "district": "港北区"
        }
    },
    {
        "id": "1117689654935893273",
        "title": "公共厕所",
        "address": "广西壮族自治区贵港市港北区G358与Y020交叉口正东方向918米左右",
        "tel": "",
        "category": "基础设施:公共设施:公共厕所",
        "type": 0,
        "location": {
            "lat": 23.150304,
            "lng": 109.696182
        },
        "ad_info": {
            "adcode": 450802,
            "province": "广西壮族自治区",
            "city": "贵港市",
            "district": "港北区"
        }
    },
    {
        "id": "71714949343043900",
        "title": "公共厕所",
        "address": "广西壮族自治区贵港市覃塘区锦绣乡村九凌湖南侧230米",
        "tel": "",
        "category": "基础设施:公共设施:公共厕所",
        "type": 0,
        "location": {
            "lat": 22.957693,
            "lng": 109.470144
        },
        "ad_info": {
            "adcode": 450804,
            "province": "广西壮族自治区",
            "city": "贵港市",
            "district": "覃塘区"
        }
    },
    {
        "id": "12735124929996500527",
        "title": "公共厕所",
        "address": "广西壮族自治区贵港市平南县广场东路与广场西路交叉口正南方向204米左右",
        "tel": "",
        "category": "基础设施:公共设施:公共厕所",
        "type": 0,
        "location": {
            "lat": 23.418377,
            "lng": 110.432913
        },
        "ad_info": {
            "adcode": 450821,
            "province": "广西壮族自治区",
            "city": "贵港市",
            "district": "平南县"
        }
    },
    {
        "id": "16778031498150694994",
        "title": "公共厕所",
        "address": "广西壮族自治区贵港市港北区城市怡景西北侧200米",
        "tel": "",
        "category": "基础设施:公共设施:公共厕所",
        "type": 0,
        "location": {
            "lat": 23.107281,
            "lng": 109.561194
        },
        "ad_info": {
            "adcode": 450802,
            "province": "广西壮族自治区",
            "city": "贵港市",
            "district": "港北区"
        }
    },
    {
        "id": "12500349513548698462",
        "title": "公共厕所",
        "address": "广西壮族自治区贵港市平南县朝阳陈三轮胎店西北侧260米",
        "tel": "",
        "category": "基础设施:公共设施:公共厕所",
        "type": 0,
        "location": {
            "lat": 23.334951,
            "lng": 110.527518
        },
        "ad_info": {
            "adcode": 450821,
            "province": "广西壮族自治区",
            "city": "贵港市",
            "district": "平南县"
        }
    },
    {
        "id": "10826593434286805203",
        "title": "女洗手间(梦之岛购物广场)",
        "address": "广西壮族自治区贵港市港北区建设中路182号梦之岛购物广场F1层",
        "tel": "",
        "category": "基础设施:公共设施:公共厕所",
        "type": 0,
        "location": {
            "lat": 23.091752,
            "lng": 109.601707
        },
        "ad_info": {
            "adcode": 450802,
            "province": "广西壮族自治区",
            "city": "贵港市",
            "district": "港北区"
        }
    },
    {
        "id": "7505211562648738137",
        "title": "公共厕所",
        "address": "广西壮族自治区贵港市平南县X349与迎宾大道交叉口正北方向477米左右",
        "tel": "",
        "category": "基础设施:公共设施:公共厕所",
        "type": 0,
        "location": {
            "lat": 23.491225,
            "lng": 110.397824
        },
        "ad_info": {
            "adcode": 450821,
            "province": "广西壮族自治区",
            "city": "贵港市",
            "district": "平南县"
        }
    },
    {
        "id": "428940885857771056",
        "title": "公共厕所",
        "address": "广西壮族自治区贵港市港北区布山大道与布山路辅路交叉口西北方向110米左右",
        "tel": "",
        "category": "基础设施:公共设施:公共厕所",
        "type": 0,
        "location": {
            "lat": 23.116161,
            "lng": 109.600318
        },
        "ad_info": {
            "adcode": 450802,
            "province": "广西壮族自治区",
            "city": "贵港市",
            "district": "港北区"
        }
    },
    {
        "id": "17472276232502891267",
        "title": "公共厕所",
        "address": "广西壮族自治区贵港市港南区中山路与南山路交叉口正北方向265米左右",
        "tel": "",
        "category": "基础设施:公共设施:公共厕所",
        "type": 0,
        "location": {
            "lat": 23.062515,
            "lng": 109.614465
        },
        "ad_info": {
            "adcode": 450803,
            "province": "广西壮族自治区",
            "city": "贵港市",
            "district": "港南区"
        }
    },
    {
        "id": "13097011945431607084",
        "title": "公共厕所",
        "address": "广西壮族自治区贵港市桂平市站前北路与站前西路交叉口正南方向240米左右",
        "tel": "",
        "category": "基础设施:公共设施:公共厕所",
        "type": 0,
        "location": {
            "lat": 23.316021,
            "lng": 110.115628
        },
        "ad_info": {
            "adcode": 450881,
            "province": "广西壮族自治区",
            "city": "贵港市",
            "district": "桂平市"
        }
    },
    {
        "id": "7816878117733910713",
        "title": "公共厕所",
        "address": "广西壮族自治区贵港市桂平市G358与X356交叉口东南方向332米左右",
        "tel": "",
        "category": "基础设施:公共设施:公共厕所",
        "type": 0,
        "location": {
            "lat": 23.321991,
            "lng": 109.998586
        },
        "ad_info": {
            "adcode": 450881,
            "province": "广西壮族自治区",
            "city": "贵港市",
            "district": "桂平市"
        }
    },
    {
        "id": "12607526276677032949",
        "title": "无障碍公共厕所",
        "address": "广西壮族自治区贵港市港北区登龙桥路与金港大道交叉口正西方向305米左右",
        "tel": "",
        "category": "基础设施:公共设施:公共厕所",
        "type": 0,
        "location": {
            "lat": 23.105066,
            "lng": 109.632569
        },
        "ad_info": {
            "adcode": 450802,
            "province": "广西壮族自治区",
            "city": "贵港市",
            "district": "港北区"
        }
    },
    {
        "id": "9377831796910413191",
        "title": "桂平服务区公共厕所",
        "address": "广西壮族自治区贵港市桂平市S40苍硕高速附近",
        "tel": "",
        "category": "基础设施:公共设施:公共厕所",
        "type": 0,
        "location": {
            "lat": 23.307623,
            "lng": 109.921886
        },
        "ad_info": {
            "adcode": 450881,
            "province": "广西壮族自治区",
            "city": "贵港市",
            "district": "桂平市"
        }
    },
    {
        "id": "8439934823685417669",
        "title": "公共厕所",
        "address": "广西壮族自治区贵港市港北区广场中路与新华路交叉口东南方向130米左右",
        "tel": "",
        "category": "基础设施:公共设施:公共厕所",
        "type": 0,
        "location": {
            "lat": 23.102337,
            "lng": 109.612028
        },
        "ad_info": {
            "adcode": 450802,
            "province": "广西壮族自治区",
            "city": "贵港市",
            "district": "港北区"
        }
    },
    {
        "id": "18282842050242155030",
        "title": "公共厕所",
        "address": "广西壮族自治区贵港市平南县中等职业技术学校西北侧230米",
        "tel": "",
        "category": "基础设施:公共设施:公共厕所",
        "type": 0,
        "location": {
            "lat": 23.5253,
            "lng": 110.3894
        },
        "ad_info": {
            "adcode": 450821,
            "province": "广西壮族自治区",
            "city": "贵港市",
            "district": "平南县"
        }
    }
]