[
    {
        "id": "16662658229420019611",
        "title": "公共厕所",
        "address": "贵州省贵阳市花溪区珠江路与盘江西路交叉口东南方向204米左右",
        "tel": "",
        "category": "基础设施:公共设施:公共厕所",
        "type": 0,
        "location": {
            "lat": 26.518885,
            "lng": 106.712161
        },
        "ad_info": {
            "adcode": 520111,
            "province": "贵州省",
            "city": "贵阳市",
            "district": "花溪区"
        }
    },
    {
        "id": "12219807843246804914",
        "title": "公共厕所",
        "address": "贵州省贵阳市云岩区宝山北路133号锦江之星酒店1层",
        "tel": "",
        "category": "基础设施:公共设施:公共厕所",
        "type": 0,
        "location": {
            "lat": 26.58352,
            "lng": 106.722758
        },
        "ad_info": {
            "adcode": 520103,
            "province": "贵州省",
            "city": "贵阳市",
            "district": "云岩区"
        }
    },
    {
        "id": "16425503075534762169",
        "title": "公共厕所",
        "address": "贵州省贵阳市南明区小车河路贵阳花果园-T2区",
        "tel": "",
        "category": "基础设施:公共设施:公共厕所",
        "type": 0,
        "location": {
            "lat": 26.563751,
            "lng": 106.67204
        },
        "ad_info": {
            "adcode": 520102,
            "province": "贵州省",
            "city": "贵阳市",
            "district": "南明区"
        }
    },
    {
        "id": "9438955526537584922",
        "title": "公共厕所",
        "address": "贵州省贵阳市花溪区珠江路与盘江西路交叉口正东方向109米左右",
        "tel": "",
        "category": "基础设施:公共设施:公共厕所",
        "type": 0,
        "location": {
            "lat": 26.520521,
            "lng": 106.711991
        },
        "ad_info": {
            "adcode": 520111,
            "province": "贵州省",
            "city": "贵阳市",
            "district": "花溪区"
        }
    },
    {
        "id": "15769652623134888234",
        "title": "公共厕所",
        "address": "贵州省贵阳市观山湖区西二环与金工立交交叉口东北方向553米左右",
        "tel": "",
        "category": "基础设施:公共设施:公共厕所",
        "type": 0,
        "location": {
            "lat": 26.619963,
            "lng": 106.674132
        },
        "ad_info": {
            "adcode": 520115,
            "province": "贵州省",
            "city": "贵阳市",
            "district": "观山湖区"
        }
    },
    {
        "id": "6343265831916751913",
        "title": "公共厕所",
        "address": "贵州省贵阳市观山湖区贵阳北站地铁站A口西100米",
        "tel": "",
        "category": "基础设施:公共设施:公共厕所",
        "type": 0,
        "location": {
            "lat": 26.619404,
            "lng": 106.675132
        },
        "ad_info": {
            "adcode": 520115,
            "province": "贵州省",
            "city": "贵阳市",
            "district": "观山湖区"
        }
    },
    {
        "id": "14943384425583805897",
        "title": "公共厕所",
        "address": "贵州省贵阳市花溪区万宜广场b1楼",
        "tel": "",
        "category": "基础设施:公共设施:公共厕所",
        "type": 0,
        "location": {
            "lat": 26.43295,
            "lng": 106.678364
        },
        "ad_info": {
            "adcode": 520111,
            "province": "贵州省",
            "city": "贵阳市",
            "district": "花溪区"
        }
    },
    {
        "id": "1904166415812986531",
        "title": "公共厕所",
        "address": "贵州省贵阳市南明区人民大道(北段)与法院街交叉口东南方向69米左右",
        "tel": "",
        "category": "基础设施:公共设施:公共厕所",
        "type": 0,
        "location": {
            "lat": 26.576311,
            "lng": 106.710304
        },
        "ad_info": {
            "adcode": 520102,
            "province": "贵州省",
            "city": "贵阳市",
            "district": "南明区"
        }
    },
    {
        "id": "7170620703674180447",
        "title": "公共厕所(贵阳站)",
        "address": "贵州省贵阳市南明区遵义路1号贵阳站F3",
        "tel": "",
        "category": "基础设施:公共设施:公共厕所",
        "type": 0,
        "location": {
            "lat": 26.557258,
            "lng": 106.702471
        },
        "ad_info": {
            "adcode": 520102,
            "province": "贵州省",
            "city": "贵阳市",
            "district": "南明区"
        }
    },
    {
        "id": "8716692683815423289",
        "title": "公共厕所",
        "address": "贵州省贵阳市云岩区大营路与新添大道南段交叉口正北方向152米左右",
        "tel": "",
        "category": "基础设施:公共设施:公共厕所",
        "type": 0,
        "location": {
            "lat": 26.604176,
            "lng": 106.722154
        },
        "ad_info": {
            "adcode": 520103,
            "province": "贵州省",
            "city": "贵阳市",
            "district": "云岩区"
        }
    },
    {
        "id": "10281783319320720296",
        "title": "公共厕所",
        "address": "贵州省贵阳市南明区翠微巷2",
        "tel": "",
        "category": "基础设施:公共设施:公共厕所",
        "type": 0,
        "location": {
            "lat": 26.570218,
            "lng": 106.717894
        },
        "ad_info": {
            "adcode": 520102,
            "province": "贵州省",
            "city": "贵阳市",
            "district": "南明区"
        }
    },
    {
        "id": "5798327089925764162",
        "title": "公共厕所",
        "address": "贵州省贵阳市观山湖区观和街与观悦街交叉口西北方向80米左右",
        "tel": "",
        "category": "基础设施:公共设施:公共厕所",
        "type": 0,
        "location": {
            "lat": 26.658675,
            "lng": 106.628896
        },
        "ad_info": {
            "adcode": 520115,
            "province": "贵州省",
            "city": "贵阳市",
            "district": "观山湖区"
        }
    },
    {
        "id": "8364868263277104995",
        "title": "公共厕所",
        "address": "贵州省贵阳市南明区中山南路与花果园商业步行街交叉口东北方向67米左右",
        "tel": "",
        "category": "基础设施:公共设施:公共厕所",
        "type": 0,
        "location": {
            "lat": 26.567466,
            "lng": 106.686562
        },
        "ad_info": {
            "adcode": 520102,
            "province": "贵州省",
            "city": "贵阳市",
            "district": "南明区"
        }
    },
    {
        "id": "18429929783130048013",
        "title": "公共厕所",
        "address": "贵州省贵阳市观山湖区观山西路阅山湖湿地公园内",
        "tel": "",
        "category": "基础设施:公共设施:公共厕所",
        "type": 0,
        "location": {
            "lat": 26.634268,
            "lng": 106.608936
        },
        "ad_info": {
            "adcode": 520115,
            "province": "贵州省",
            "city": "贵阳市",
            "district": "观山湖区"
        }
    },
    {
        "id": "16234327756539322507",
        "title": "公共厕所",
        "address": "贵州省贵阳市南明区花果园大街与都会大道交叉口正北方向218米左右",
        "tel": "",
        "category": "基础设施:公共设施:公共厕所",
        "type": 0,
        "location": {
            "lat": 26.558338,
            "lng": 106.682753
        },
        "ad_info": {
            "adcode": 520102,
            "province": "贵州省",
            "city": "贵阳市",
            "district": "南明区"
        }
    },
    {
        "id": "11851350220986745570",
        "title": "公共厕所",
        "address": "贵州省贵阳市南明区公园中路与都会大道交叉口东北方向267米左右",
        "tel": "",
        "category": "基础设施:公共设施:公共厕所",
        "type": 0,
        "location": {
            "lat": 26.55879,
            "lng": 106.68152
        },
        "ad_info": {
            "adcode": 520102,
            "province": "贵州省",
            "city": "贵阳市",
            "district": "南明区"
        }
    },
    {
        "id": "2524521381732658364",
        "title": "公共厕所",
        "address": "贵州省贵阳市南明区花果园大街119花果园C区19栋",
        "tel": "",
        "category": "基础设施:公共设施:公共厕所",
        "type": 0,
        "location": {
            "lat": 26.56305,
            "lng": 106.68808
        },
        "ad_info": {
            "adcode": 520102,
            "province": "贵州省",
            "city": "贵阳市",
            "district": "南明区"
        }
    },
    {
        "id": "5889859767340480778",
        "title": "公共厕所",
        "address": "贵州省贵阳市观山湖区白龙洞路龙盛苑",
        "tel": "",
        "category": "基础设施:公共设施:公共厕所",
        "type": 0,
        "location": {
            "lat": 26.602628,
            "lng": 106.629891
        },
        "ad_info": {
            "adcode": 520115,
            "province": "贵州省",
            "city": "贵阳市",
            "district": "观山湖区"
        }
    },
    {
        "id": "13865313005698467999",
        "title": "公共厕所",
        "address": "贵州省贵阳市南明区中山南路与花果园商业步行街交叉口正西方向108米左右",
        "tel": "",
        "category": "基础设施:公共设施:公共厕所",
        "type": 0,
        "location": {
            "lat": 26.566854,
            "lng": 106.685072
        },
        "ad_info": {
            "adcode": 520102,
            "province": "贵州省",
            "city": "贵阳市",
            "district": "南明区"
        }
    },
    {
        "id": "13733203354954109683",
        "title": "公共厕所",
        "address": "贵州省贵阳市云岩区枣山路与北京西路辅路交叉口东南80米",
        "tel": "",
        "category": "基础设施:公共设施:公共厕所",
        "type": 0,
        "location": {
            "lat": 26.587162,
            "lng": 106.6977
        },
        "ad_info": {
            "adcode": 520103,
            "province": "贵州省",
            "city": "贵阳市",
            "district": "云岩区"
        }
    },
    {
        "id": "12927032003332717662",
        "title": "公共厕所",
        "address": "贵州省贵阳市云岩区中坝路与圣泉路交叉口东南方向21米左右",
        "tel": "",
        "category": "基础设施:公共设施:公共厕所",
        "type": 0,
        "location": {
            "lat": 26.585796,
            "lng": 106.670838
        },
        "ad_info": {
            "adcode": 520103,
            "province": "贵州省",
            "city": "贵阳市",
            "district": "云岩区"
        }
    },
    {
        "id": "3959483984727185756",
        "title": "公共厕所",
        "address": "贵州省贵阳市观山湖区云潭南路与惠源路交叉口正东方向269米左右",
        "tel": "",
        "category": "基础设施:公共设施:公共厕所",
        "type": 0,
        "location": {
            "lat": 26.60101,
            "lng": 106.611433
        },
        "ad_info": {
            "adcode": 520115,
            "province": "贵州省",
            "city": "贵阳市",
            "district": "观山湖区"
        }
    },
    {
        "id": "15880321680915481094",
        "title": "公共厕所",
        "address": "贵州省贵阳市南明区遵义路318号贵州体育馆内",
        "tel": "",
        "category": "基础设施:公共设施:公共厕所",
        "type": 0,
        "location": {
            "lat": 26.5606,
            "lng": 106.70424
        },
        "ad_info": {
            "adcode": 520102,
            "province": "贵州省",
            "city": "贵阳市",
            "district": "南明区"
        }
    },
    {
        "id": "9278389891338374436",
        "title": "公共厕所",
        "address": "贵州省贵阳市云岩区永兴巷与瑞金北路交叉口正西方向40米左右",
        "tel": "",
        "category": "基础设施:公共设施:公共厕所",
        "type": 0,
        "location": {
            "lat": 26.590456,
            "lng": 106.702994
        },
        "ad_info": {
            "adcode": 520103,
            "province": "贵州省",
            "city": "贵阳市",
            "district": "云岩区"
        }
    },
    {
        "id": "16932220601347758753",
        "title": "公共厕所",
        "address": "贵州省贵阳市云岩区三桥中路与林泉路交叉口正东方向64米左右",
        "tel": "",
        "category": "基础设施:公共设施:公共厕所",
        "type": 0,
        "location": {
            "lat": 26.581889,
            "lng": 106.670523
        },
        "ad_info": {
            "adcode": 520103,
            "province": "贵州省",
            "city": "贵阳市",
            "district": "云岩区"
        }
    },
    {
        "id": "6096352084230298480",
        "title": "公共厕所",
        "address": "贵州省贵阳市南明区瑞金南路与遵义路交叉口东北方向82米左右",
        "tel": "",
        "category": "基础设施:公共设施:公共厕所",
        "type": 0,
        "location": {
            "lat": 26.568109,
            "lng": 106.71159
        },
        "ad_info": {
            "adcode": 520102,
            "province": "贵州省",
            "city": "贵阳市",
            "district": "南明区"
        }
    },
    {
        "id": "2996971152341627433",
        "title": "公共厕所",
        "address": "贵州省贵阳市南明区松花南路与花果园商业步行街交叉口正南方向88米左右",
        "tel": "",
        "category": "基础设施:公共设施:公共厕所",
        "type": 0,
        "location": {
            "lat": 26.569511,
            "lng": 106.6886
        },
        "ad_info": {
            "adcode": 520102,
            "province": "贵州省",
            "city": "贵阳市",
            "district": "南明区"
        }
    },
    {
        "id": "11474856071867097534",
        "title": "公共厕所",
        "address": "贵州省贵阳市云岩区友谊路140号",
        "tel": "",
        "category": "基础设施:公共设施:公共厕所",
        "type": 0,
        "location": {
            "lat": 26.588241,
            "lng": 106.716783
        },
        "ad_info": {
            "adcode": 520103,
            "province": "贵州省",
            "city": "贵阳市",
            "district": "云岩区"
        }
    },
    {
        "id": "10028078264577879672",
        "title": "公共厕所",
        "address": "贵州省贵阳市花溪区贵州大学西校区西区二号学生公寓",
        "tel": "",
        "category": "基础设施:公共设施:公共厕所",
        "type": 0,
        "location": {
            "lat": 26.442131,
            "lng": 106.656249
        },
        "ad_info": {
            "adcode": 520111,
            "province": "贵州省",
            "city": "贵阳市",
            "district": "花溪区"
        }
    },
    {
        "id": "12100259738731068462",
        "title": "公共厕所",
        "address": "贵州省贵阳市云岩区普陀路与陕西路交叉口西北方向103米左右",
        "tel": "",
        "category": "基础设施:公共设施:公共厕所",
        "type": 0,
        "location": {
            "lat": 26.590995,
            "lng": 106.712712
        },
        "ad_info": {
            "adcode": 520103,
            "province": "贵州省",
            "city": "贵阳市",
            "district": "云岩区"
        }
    },
    {
        "id": "9624186770512407959",
        "title": "公共厕所",
        "address": "贵州省贵阳市南明区解放路100号鸿通城购物中心B1",
        "tel": "",
        "category": "基础设施:公共设施:公共厕所",
        "type": 0,
        "location": {
            "lat": 26.557218,
            "lng": 106.708017
        },
        "ad_info": {
            "adcode": 520102,
            "province": "贵州省",
            "city": "贵阳市",
            "district": "南明区"
        }
    },
    {
        "id": "16180874627211211306",
        "title": "公共厕所",
        "address": "贵州省贵阳市云岩区旭东路与螺蛳山路交叉口东南方向189米左右",
        "tel": "",
        "category": "基础设施:公共设施:公共厕所",
        "type": 0,
        "location": {
            "lat": 26.585251,
            "lng": 106.724799
        },
        "ad_info": {
            "adcode": 520103,
            "province": "贵州省",
            "city": "贵阳市",
            "district": "云岩区"
        }
    },
    {
        "id": "8447760500981606550",
        "title": "公共厕所(国贸·时代购物公园)",
        "address": "贵州省贵阳市观山湖区北京西路20号国贸时代购物公园F2",
        "tel": "",
        "category": "基础设施:公共设施:公共厕所",
        "type": 0,
        "location": {
            "lat": 26.600706,
            "lng": 106.623783
        },
        "ad_info": {
            "adcode": 520115,
            "province": "贵州省",
            "city": "贵阳市",
            "district": "观山湖区"
        }
    },
    {
        "id": "3280973588321887434",
        "title": "公共厕所",
        "address": "贵州省贵阳市云岩区尚礼路与水东路交叉口东北方向249米左右",
        "tel": "",
        "category": "基础设施:公共设施:公共厕所",
        "type": 0,
        "location": {
            "lat": 26.602692,
            "lng": 106.762316
        },
        "ad_info": {
            "adcode": 520103,
            "province": "贵州省",
            "city": "贵阳市",
            "district": "云岩区"
        }
    },
    {
        "id": "8916334467768470892",
        "title": "公共厕所",
        "address": "贵州省贵阳市观山湖区通宝路与金朱东路交叉口正南方向85米左右",
        "tel": "",
        "category": "基础设施:公共设施:公共厕所",
        "type": 0,
        "location": {
            "lat": 26.651015,
            "lng": 106.645953
        },
        "ad_info": {
            "adcode": 520115,
            "province": "贵州省",
            "city": "贵阳市",
            "district": "观山湖区"
        }
    },
    {
        "id": "3965123523038873749",
        "title": "公共厕所",
        "address": "贵州省贵阳市南明区中山中路与延安南路交叉口正东方向168米左右",
        "tel": "",
        "category": "基础设施:公共设施:公共厕所",
        "type": 0,
        "location": {
            "lat": 26.565463,
            "lng": 106.678827
        },
        "ad_info": {
            "adcode": 520102,
            "province": "贵州省",
            "city": "贵阳市",
            "district": "南明区"
        }
    },
    {
        "id": "11625383098654914661",
        "title": "公共厕所",
        "address": "贵州省贵阳市观山湖区云潭南路与石林东路交叉口东北方向125米左右",
        "tel": "",
        "category": "基础设施:公共设施:公共厕所",
        "type": 0,
        "location": {
            "lat": 26.612286,
            "lng": 106.606516
        },
        "ad_info": {
            "adcode": 520115,
            "province": "贵州省",
            "city": "贵阳市",
            "district": "观山湖区"
        }
    },
    {
        "id": "16870073543169286855",
        "title": "公共厕所",
        "address": "贵州省贵阳市观山湖区会展北路与林城东路交叉口正北方向102米左右",
        "tel": "",
        "category": "基础设施:公共设施:公共厕所",
        "type": 0,
        "location": {
            "lat": 26.646731,
            "lng": 106.643751
        },
        "ad_info": {
            "adcode": 520115,
            "province": "贵州省",
            "city": "贵阳市",
            "district": "观山湖区"
        }
    },
    {
        "id": "2840506085918408640",
        "title": "公共厕所",
        "address": "贵州省贵阳市观山湖区宏阳路与阳关大道交叉口东南方向135米左右",
        "tel": "",
        "category": "基础设施:公共设施:公共厕所",
        "type": 0,
        "location": {
            "lat": 26.624753,
            "lng": 106.66703
        },
        "ad_info": {
            "adcode": 520115,
            "province": "贵州省",
            "city": "贵阳市",
            "district": "观山湖区"
        }
    },
    {
        "id": "10889535981805155357",
        "title": "公共厕所",
        "address": "贵州省贵阳市观山湖区廷南路与通元街交叉口西北方向63米左右",
        "tel": "",
        "category": "基础设施:公共设施:公共厕所",
        "type": 0,
        "location": {
            "lat": 26.649514,
            "lng": 106.645656
        },
        "ad_info": {
            "adcode": 520115,
            "province": "贵州省",
            "city": "贵阳市",
            "district": "观山湖区"
        }
    },
    {
        "id": "11706850477485839821",
        "title": "公共厕所",
        "address": "贵州省贵阳市云岩区红石街32号",
        "tel": "",
        "category": "基础设施:公共设施:公共厕所",
        "type": 0,
        "location": {
            "lat": 26.58298,
            "lng": 106.71332
        },
        "ad_info": {
            "adcode": 520103,
            "province": "贵州省",
            "city": "贵阳市",
            "district": "云岩区"
        }
    },
    {
        "id": "18322365302466497625",
        "title": "公共厕所",
        "address": "贵州省贵阳市观山湖区富阳街与新阳街交叉口正东方向283米左右",
        "tel": "",
        "category": "基础设施:公共设施:公共厕所",
        "type": 0,
        "location": {
            "lat": 26.622656,
            "lng": 106.671313
        },
        "ad_info": {
            "adcode": 520115,
            "province": "贵州省",
            "city": "贵阳市",
            "district": "观山湖区"
        }
    },
    {
        "id": "12973339982782624666",
        "title": "公共厕所",
        "address": "贵州省贵阳市云岩区金谷街11号",
        "tel": "",
        "category": "基础设施:公共设施:公共厕所",
        "type": 0,
        "location": {
            "lat": 26.576634,
            "lng": 106.69637
        },
        "ad_info": {
            "adcode": 520103,
            "province": "贵州省",
            "city": "贵阳市",
            "district": "云岩区"
        }
    },
    {
        "id": "9579366300091134948",
        "title": "公共厕所",
        "address": "贵州省贵阳市南明区都司高架桥路辅路与科学路交叉口东南80米",
        "tel": "",
        "category": "基础设施:公共设施:公共厕所",
        "type": 0,
        "location": {
            "lat": 26.573411,
            "lng": 106.714041
        },
        "ad_info": {
            "adcode": 520102,
            "province": "贵州省",
            "city": "贵阳市",
            "district": "南明区"
        }
    },
    {
        "id": "2697340438588621387",
        "title": "公共厕所",
        "address": "贵州省贵阳市观山湖区石龙路与龙泉苑街交叉口东南方向217米左右",
        "tel": "",
        "category": "基础设施:公共设施:公共厕所",
        "type": 0,
        "location": {
            "lat": 26.605752,
            "lng": 106.635668
        },
        "ad_info": {
            "adcode": 520115,
            "province": "贵州省",
            "city": "贵阳市",
            "district": "观山湖区"
        }
    },
    {
        "id": "13680742336454190313",
        "title": "公共厕所",
        "address": "贵州省贵阳市南明区二七路与二七路小吃街交叉口西南方向63米左右",
        "tel": "",
        "category": "基础设施:公共设施:公共厕所",
        "type": 0,
        "location": {
            "lat": 26.555695,
            "lng": 106.706073
        },
        "ad_info": {
            "adcode": 520102,
            "province": "贵州省",
            "city": "贵阳市",
            "district": "南明区"
        }
    },
    {
        "id": "8579911368013379706",
        "title": "公共厕所",
        "address": "贵州省贵阳市花溪区花溪国家城市湿地公园高车巷",
        "tel": "",
        "category": "基础设施:公共设施:公共厕所",
        "type": 0,
        "location": {
            "lat": 26.441136,
            "lng": 106.679335
        },
        "ad_info": {
            "adcode": 520111,
            "province": "贵州省",
            "city": "贵阳市",
            "district": "花溪区"
        }
    },
    {
        "id": "14375673106308751181",
        "title": "公共厕所",
        "address": "贵州省贵阳市观山湖区观悦街与金阳北路交叉口西北方向113米左右",
        "tel": "",
        "category": "基础设施:公共设施:公共厕所",
        "type": 0,
        "location": {
            "lat": 26.65874,
            "lng": 106.6237
        },
        "ad_info": {
            "adcode": 520115,
            "province": "贵州省",
            "city": "贵阳市",
            "district": "观山湖区"
        }
    },
    {
        "id": "10890298965542466111",
        "title": "公共厕所",
        "address": "贵州省贵阳市南明区中山东路与市东路交叉口西南方向88米左右",
        "tel": "",
        "category": "基础设施:公共设施:公共厕所",
        "type": 0,
        "location": {
            "lat": 26.577471,
            "lng": 106.720504
        },
        "ad_info": {
            "adcode": 520102,
            "province": "贵州省",
            "city": "贵阳市",
            "district": "南明区"
        }
    },
    {
        "id": "487753444251312761",
        "title": "公共厕所",
        "address": "贵州省贵阳市观山湖区数博大道长岭南路与都匀路交叉口正北方向209米左右",
        "tel": "",
        "category": "基础设施:公共设施:公共厕所",
        "type": 0,
        "location": {
            "lat": 26.618351,
            "lng": 106.645901
        },
        "ad_info": {
            "adcode": 520115,
            "province": "贵州省",
            "city": "贵阳市",
            "district": "观山湖区"
        }
    },
    {
        "id": "13081931005607888605",
        "title": "公共厕所",
        "address": "贵州省贵阳市南明区新村路与望城路交叉口西南方向199米左右",
        "tel": "",
        "category": "基础设施:公共设施:公共厕所",
        "type": 0,
        "location": {
            "lat": 26.54449,
            "lng": 106.707619
        },
        "ad_info": {
            "adcode": 520102,
            "province": "贵州省",
            "city": "贵阳市",
            "district": "南明区"
        }
    },
    {
        "id": "9014013428760501905",
        "title": "公共厕所",
        "address": "贵州省贵阳市观山湖区北大资源梦想城6地块第6-A01栋1单元3层东南方向150米",
        "tel": "",
        "category": "基础设施:公共设施:公共厕所",
        "type": 0,
        "location": {
            "lat": 26.623355,
            "lng": 106.666726
        },
        "ad_info": {
            "adcode": 520115,
            "province": "贵州省",
            "city": "贵阳市",
            "district": "观山湖区"
        }
    },
    {
        "id": "13172422997353497677",
        "title": "公共厕所",
        "address": "贵州省贵阳市南明区中华南路与六洞街交叉口正西方向112米左右",
        "tel": "",
        "category": "基础设施:公共设施:公共厕所",
        "type": 0,
        "location": {
            "lat": 26.571754,
            "lng": 106.71315
        },
        "ad_info": {
            "adcode": 520102,
            "province": "贵州省",
            "city": "贵阳市",
            "district": "南明区"
        }
    },
    {
        "id": "11592861148270317430",
        "title": "公共厕所",
        "address": "贵州省贵阳市南明区市南路与石岭街交叉口正北方向116米左右",
        "tel": "",
        "category": "基础设施:公共设施:公共厕所",
        "type": 0,
        "location": {
            "lat": 26.565152,
            "lng": 106.720019
        },
        "ad_info": {
            "adcode": 520102,
            "province": "贵州省",
            "city": "贵阳市",
            "district": "南明区"
        }
    },
    {
        "id": "1966352337843526449",
        "title": "公共厕所",
        "address": "贵州省贵阳市南明区汉湘街与皂井巷交叉口东南方向31米左右",
        "tel": "",
        "category": "基础设施:公共设施:公共厕所",
        "type": 0,
        "location": {
            "lat": 26.576468,
            "lng": 106.714369
        },
        "ad_info": {
            "adcode": 520102,
            "province": "贵州省",
            "city": "贵阳市",
            "district": "南明区"
        }
    },
    {
        "id": "1002981404655912674",
        "title": "公共厕所",
        "address": "贵州省贵阳市云岩区光明桂花园东侧190米",
        "tel": "",
        "category": "基础设施:公共设施:公共厕所",
        "type": 0,
        "location": {
            "lat": 26.596823,
            "lng": 106.656946
        },
        "ad_info": {
            "adcode": 520103,
            "province": "贵州省",
            "city": "贵阳市",
            "district": "云岩区"
        }
    },
    {
        "id": "7787886442845268272",
        "title": "公共厕所",
        "address": "贵州省贵阳市云岩区长冲巷万江小区",
        "tel": "",
        "category": "基础设施:公共设施:公共厕所",
        "type": 0,
        "location": {
            "lat": 26.608983,
            "lng": 106.722289
        },
        "ad_info": {
            "adcode": 520103,
            "province": "贵州省",
            "city": "贵阳市",
            "district": "云岩区"
        }
    },
    {
        "id": "15752858973485270814",
        "title": "公共厕所",
        "address": "贵州省贵阳市云岩区万江路与银通街交叉口正北方向153米左右",
        "tel": "",
        "category": "基础设施:公共设施:公共厕所",
        "type": 0,
        "location": {
            "lat": 26.610038,
            "lng": 106.719562
        },
        "ad_info": {
            "adcode": 520103,
            "province": "贵州省",
            "city": "贵阳市",
            "district": "云岩区"
        }
    },
    {
        "id": "9360000990298709013",
        "title": "公共厕所",
        "address": "贵州省贵阳市花溪区蟠龙巷45号",
        "tel": "",
        "category": "基础设施:公共设施:公共厕所",
        "type": 0,
        "location": {
            "lat": 26.435723,
            "lng": 106.674192
        },
        "ad_info": {
            "adcode": 520111,
            "province": "贵州省",
            "city": "贵阳市",
            "district": "花溪区"
        }
    },
    {
        "id": "15768905154238592937",
        "title": "公共厕所",
        "address": "贵州省贵阳市南明区松山南路与松花南路交叉口正西方向56米左右",
        "tel": "",
        "category": "基础设施:公共设施:公共厕所",
        "type": 0,
        "location": {
            "lat": 26.57063,
            "lng": 106.687793
        },
        "ad_info": {
            "adcode": 520102,
            "province": "贵州省",
            "city": "贵阳市",
            "district": "南明区"
        }
    },
    {
        "id": "1884611362188788798",
        "title": "公共厕所",
        "address": "贵州省贵阳市云岩区黄山冲路与新添大道南段交叉口西北方向70米",
        "tel": "",
        "category": "基础设施:公共设施:公共厕所",
        "type": 0,
        "location": {
            "lat": 26.612122,
            "lng": 106.728969
        },
        "ad_info": {
            "adcode": 520103,
            "province": "贵州省",
            "city": "贵阳市",
            "district": "云岩区"
        }
    },
    {
        "id": "7545525768149422791",
        "title": "公共厕所",
        "address": "贵州省贵阳市云岩区新添大道南段与贵乌北路交叉口正东方向85米左右",
        "tel": "",
        "category": "基础设施:公共设施:公共厕所",
        "type": 0,
        "location": {
            "lat": 26.599318,
            "lng": 106.719325
        },
        "ad_info": {
            "adcode": 520103,
            "province": "贵州省",
            "city": "贵阳市",
            "district": "云岩区"
        }
    },
    {
        "id": "15737875855317528885",
        "title": "公共厕所",
        "address": "贵州省贵阳市观山湖区长岭南路高科一号",
        "tel": "",
        "category": "基础设施:公共设施:公共厕所",
        "type": 0,
        "location": {
            "lat": 26.619984,
            "lng": 106.645525
        },
        "ad_info": {
            "adcode": 520115,
            "province": "贵州省",
            "city": "贵阳市",
            "district": "观山湖区"
        }
    },
    {
        "id": "5570897358850445028",
        "title": "公共厕所",
        "address": "贵州省贵阳市南明区崇义南路与崇义路交叉口西南方向510米左右",
        "tel": "",
        "category": "基础设施:公共设施:公共厕所",
        "type": 0,
        "location": {
            "lat": 26.582087,
            "lng": 106.758864
        },
        "ad_info": {
            "adcode": 520102,
            "province": "贵州省",
            "city": "贵阳市",
            "district": "南明区"
        }
    },
    {
        "id": "395665905508662143",
        "title": "公共厕所管理房",
        "address": "贵州省贵阳市花溪区珠江路与长江路交叉口西南方向89米左右",
        "tel": "",
        "category": "基础设施:公共设施:公共厕所",
        "type": 0,
        "location": {
            "lat": 26.522237,
            "lng": 106.710709
        },
        "ad_info": {
            "adcode": 520111,
            "province": "贵州省",
            "city": "贵阳市",
            "district": "花溪区"
        }
    },
    {
        "id": "8343230536759348866",
        "title": "免费公共厕所",
        "address": "贵州省贵阳市花溪区清水江路与黄河路交叉口东南方向88米左右",
        "tel": "",
        "category": "基础设施:公共设施:公共厕所",
        "type": 0,
        "location": {
            "lat": 26.512317,
            "lng": 106.699987
        },
        "ad_info": {
            "adcode": 520111,
            "province": "贵州省",
            "city": "贵阳市",
            "district": "花溪区"
        }
    },
    {
        "id": "9337319920144453360",
        "title": "公共厕所",
        "address": "贵州省贵阳市花溪区清华路与花阁路交叉口正东方向15米左右",
        "tel": "",
        "category": "基础设施:公共设施:公共厕所",
        "type": 0,
        "location": {
            "lat": 26.434392,
            "lng": 106.677425
        },
        "ad_info": {
            "adcode": 520111,
            "province": "贵州省",
            "city": "贵阳市",
            "district": "花溪区"
        }
    },
    {
        "id": "16390902467208776052",
        "title": "共享公共厕所",
        "address": "贵州省贵阳市观山湖区林城东路与石标路交叉口正北方向202米左右",
        "tel": "",
        "category": "基础设施:公共设施:公共厕所",
        "type": 0,
        "location": {
            "lat": 26.647045,
            "lng": 106.634932
        },
        "ad_info": {
            "adcode": 520115,
            "province": "贵州省",
            "city": "贵阳市",
            "district": "观山湖区"
        }
    },
    {
        "id": "13010506006130498046",
        "title": "公共厕所",
        "address": "贵州省贵阳市花溪区花明街与花阁路交叉口西北方向24米左右",
        "tel": "",
        "category": "基础设施:公共设施:公共厕所",
        "type": 0,
        "location": {
            "lat": 26.431594,
            "lng": 106.676965
        },
        "ad_info": {
            "adcode": 520111,
            "province": "贵州省",
            "city": "贵阳市",
            "district": "花溪区"
        }
    },
    {
        "id": "17109894365676084719",
        "title": "公共厕所",
        "address": "贵州省贵阳市花溪区花明街与青叶西街交叉口西北方向26米左右",
        "tel": "",
        "category": "基础设施:公共设施:公共厕所",
        "type": 0,
        "location": {
            "lat": 26.431512,
            "lng": 106.676522
        },
        "ad_info": {
            "adcode": 520111,
            "province": "贵州省",
            "city": "贵阳市",
            "district": "花溪区"
        }
    },
    {
        "id": "11631619033077898374",
        "title": "公共厕所",
        "address": "贵州省贵阳市云岩区中环路东段与新添立交交叉口正西方向373米左右",
        "tel": "",
        "category": "基础设施:公共设施:公共厕所",
        "type": 0,
        "location": {
            "lat": 26.620624,
            "lng": 106.734435
        },
        "ad_info": {
            "adcode": 520103,
            "province": "贵州省",
            "city": "贵阳市",
            "district": "云岩区"
        }
    },
    {
        "id": "11982975837121269077",
        "title": "公共厕所",
        "address": "贵州省贵阳市清镇市云岭中路144号附1号东南方向10米",
        "tel": "",
        "category": "基础设施:公共设施:公共厕所",
        "type": 0,
        "location": {
            "lat": 26.560146,
            "lng": 106.468591
        },
        "ad_info": {
            "adcode": 520181,
            "province": "贵州省",
            "city": "贵阳市",
            "district": "清镇市"
        }
    },
    {
        "id": "5998962343515333132",
        "title": "公共厕所",
        "address": "贵州省贵阳市云岩区沙井街与龙井路交叉口正北方向81米左右",
        "tel": "",
        "category": "基础设施:公共设施:公共厕所",
        "type": 0,
        "location": {
            "lat": 26.583226,
            "lng": 106.711461
        },
        "ad_info": {
            "adcode": 520103,
            "province": "贵州省",
            "city": "贵阳市",
            "district": "云岩区"
        }
    },
    {
        "id": "9394845174960106282",
        "title": "公共厕所",
        "address": "贵州省贵阳市花溪区大寨村安置房477",
        "tel": "",
        "category": "基础设施:公共设施:公共厕所",
        "type": 0,
        "location": {
            "lat": 26.41885,
            "lng": 106.6594
        },
        "ad_info": {
            "adcode": 520111,
            "province": "贵州省",
            "city": "贵阳市",
            "district": "花溪区"
        }
    },
    {
        "id": "10864607495084145058",
        "title": "免费公共厕所",
        "address": "贵州省贵阳市清镇市建国南路与建国路交叉口正南方向43米左右",
        "tel": "",
        "category": "基础设施:公共设施:公共厕所",
        "type": 0,
        "location": {
            "lat": 26.552586,
            "lng": 106.465956
        },
        "ad_info": {
            "adcode": 520181,
            "province": "贵州省",
            "city": "贵阳市",
            "district": "清镇市"
        }
    },
    {
        "id": "17107083445758084021",
        "title": "公共厕所",
        "address": "贵州省贵阳市云岩区雅河西路与龙潭路交叉口正东方向93米左右",
        "tel": "",
        "category": "基础设施:公共设施:公共厕所",
        "type": 0,
        "location": {
            "lat": 26.558612,
            "lng": 106.653806
        },
        "ad_info": {
            "adcode": 520103,
            "province": "贵州省",
            "city": "贵阳市",
            "district": "云岩区"
        }
    },
    {
        "id": "16687337315369539203",
        "title": "公共厕所",
        "address": "贵州省贵阳市白云区艳山红社区卫生服务中心西侧110米",
        "tel": "",
        "category": "基础设施:公共设施:公共厕所",
        "type": 0,
        "location": {
            "lat": 26.67572,
            "lng": 106.648378
        },
        "ad_info": {
            "adcode": 520113,
            "province": "贵州省",
            "city": "贵阳市",
            "district": "白云区"
        }
    },
    {
        "id": "15007230353270279824",
        "title": "公共厕所",
        "address": "贵州省贵阳市云岩区中山东路与正山街交叉口正北方向53米左右",
        "tel": "",
        "category": "基础设施:公共设施:公共厕所",
        "type": 0,
        "location": {
            "lat": 26.57779,
            "lng": 106.714338
        },
        "ad_info": {
            "adcode": 520103,
            "province": "贵州省",
            "city": "贵阳市",
            "district": "云岩区"
        }
    },
    {
        "id": "1824671724166165112",
        "title": "公共厕所",
        "address": "贵州省贵阳市花溪区贵筑路42号",
        "tel": "",
        "category": "基础设施:公共设施:公共厕所",
        "type": 0,
        "location": {
            "lat": 26.4298,
            "lng": 106.675149
        },
        "ad_info": {
            "adcode": 520111,
            "province": "贵州省",
            "city": "贵阳市",
            "district": "花溪区"
        }
    },
    {
        "id": "14482678844234969542",
        "title": "花果园湿地公园公共厕所",
        "address": "贵州省贵阳市南明区花果园湿地公园(东侧)",
        "tel": "",
        "category": "基础设施:公共设施:公共厕所",
        "type": 0,
        "location": {
            "lat": 26.566996,
            "lng": 106.689454
        },
        "ad_info": {
            "adcode": 520102,
            "province": "贵州省",
            "city": "贵阳市",
            "district": "南明区"
        }
    },
    {
        "id": "17229631687566035585",
        "title": "公共厕所",
        "address": "贵州省贵阳市云岩区尚礼路与水东路交叉口正东方向152米左右",
        "tel": "",
        "category": "基础设施:公共设施:公共厕所",
        "type": 0,
        "location": {
            "lat": 26.600845,
            "lng": 106.762128
        },
        "ad_info": {
            "adcode": 520103,
            "province": "贵州省",
            "city": "贵阳市",
            "district": "云岩区"
        }
    },
    {
        "id": "18061761628402732690",
        "title": "公共厕所",
        "address": "贵州省贵阳市南明区达高路博泰花园南侧约40米F1",
        "tel": "",
        "category": "基础设施:公共设施:公共厕所",
        "type": 0,
        "location": {
            "lat": 26.556582,
            "lng": 106.704086
        },
        "ad_info": {
            "adcode": 520102,
            "province": "贵州省",
            "city": "贵阳市",
            "district": "南明区"
        }
    },
    {
        "id": "367211086147138456",
        "title": "公共厕所",
        "address": "贵州省贵阳市云岩区福田巷嘉城苑",
        "tel": "",
        "category": "基础设施:公共设施:公共厕所",
        "type": 0,
        "location": {
            "lat": 26.58443,
            "lng": 106.70899
        },
        "ad_info": {
            "adcode": 520103,
            "province": "贵州省",
            "city": "贵阳市",
            "district": "云岩区"
        }
    },
    {
        "id": "11829885045458741704",
        "title": "公共厕所",
        "address": "贵州省贵阳市云岩区北新区路电子大楼",
        "tel": "",
        "category": "基础设施:公共设施:公共厕所",
        "type": 0,
        "location": {
            "lat": 26.589306,
            "lng": 106.700523
        },
        "ad_info": {
            "adcode": 520103,
            "province": "贵州省",
            "city": "贵阳市",
            "district": "云岩区"
        }
    },
    {
        "id": "14676269168286277716",
        "title": "公共厕所",
        "address": "贵州省贵阳市云岩区弯弓街与电台街交叉口东南方向51米左右",
        "tel": "",
        "category": "基础设施:公共设施:公共厕所",
        "type": 0,
        "location": {
            "lat": 26.578974,
            "lng": 106.718836
        },
        "ad_info": {
            "adcode": 520103,
            "province": "贵州省",
            "city": "贵阳市",
            "district": "云岩区"
        }
    },
    {
        "id": "4629383946281244539",
        "title": "公共厕所",
        "address": "贵州省贵阳市云岩区大营坡常青路6号云岩区黔灵医院",
        "tel": "",
        "category": "基础设施:公共设施:公共厕所",
        "type": 0,
        "location": {
            "lat": 26.602328,
            "lng": 106.725419
        },
        "ad_info": {
            "adcode": 520103,
            "province": "贵州省",
            "city": "贵阳市",
            "district": "云岩区"
        }
    },
    {
        "id": "1172828966089617711",
        "title": "私家公共厕所",
        "address": "贵州省贵阳市白云区小店街与菱镁街交叉口正东方向24米左右",
        "tel": "",
        "category": "基础设施:公共设施:公共厕所",
        "type": 0,
        "location": {
            "lat": 26.685666,
            "lng": 106.655222
        },
        "ad_info": {
            "adcode": 520113,
            "province": "贵州省",
            "city": "贵阳市",
            "district": "白云区"
        }
    },
    {
        "id": "2982017266926937760",
        "title": "公共厕所",
        "address": "贵州省贵阳市南明区机场路1号贵阳龙洞堡国际机场2号航站楼1_2层",
        "tel": "",
        "category": "基础设施:公共设施:公共厕所",
        "type": 0,
        "location": {
            "lat": 26.54326,
            "lng": 106.80039
        },
        "ad_info": {
            "adcode": 520102,
            "province": "贵州省",
            "city": "贵阳市",
            "district": "南明区"
        }
    },
    {
        "id": "16786360974861552398",
        "title": "公共厕所",
        "address": "贵州省贵阳市云岩区幼育巷与贵乌中路交叉口东南方向34米左右",
        "tel": "",
        "category": "基础设施:公共设施:公共厕所",
        "type": 0,
        "location": {
            "lat": 26.597051,
            "lng": 106.717808
        },
        "ad_info": {
            "adcode": 520103,
            "province": "贵州省",
            "city": "贵阳市",
            "district": "云岩区"
        }
    },
    {
        "id": "746198808441731589",
        "title": "公共厕所",
        "address": "贵州省贵阳市云岩区北京路贵州医科大学附属医院",
        "tel": "",
        "category": "基础设施:公共设施:公共厕所",
        "type": 0,
        "location": {
            "lat": 26.595201,
            "lng": 106.712869
        },
        "ad_info": {
            "adcode": 520103,
            "province": "贵州省",
            "city": "贵阳市",
            "district": "云岩区"
        }
    },
    {
        "id": "9348758166195446904",
        "title": "公共厕所",
        "address": "贵州省贵阳市云岩区文昌北路232A",
        "tel": "",
        "category": "基础设施:公共设施:公共厕所",
        "type": 0,
        "location": {
            "lat": 26.585373,
            "lng": 106.718391
        },
        "ad_info": {
            "adcode": 520103,
            "province": "贵州省",
            "city": "贵阳市",
            "district": "云岩区"
        }
    },
    {
        "id": "9732066082928161389",
        "title": "工人医院公共厕所",
        "address": "贵州省贵阳市南明区解放西路127号",
        "tel": "",
        "category": "基础设施:公共设施:公共厕所",
        "type": 0,
        "location": {
            "lat": 26.56215,
            "lng": 106.693984
        },
        "ad_info": {
            "adcode": 520102,
            "province": "贵州省",
            "city": "贵阳市",
            "district": "南明区"
        }
    },
    {
        "id": "10679395335646500489",
        "title": "公共厕所",
        "address": "贵州省贵阳市云岩区三桥中路与三桥南路交叉口正东方向38米左右",
        "tel": "",
        "category": "基础设施:公共设施:公共厕所",
        "type": 0,
        "location": {
            "lat": 26.581176,
            "lng": 106.668149
        },
        "ad_info": {
            "adcode": 520103,
            "province": "贵州省",
            "city": "贵阳市",
            "district": "云岩区"
        }
    },
    {
        "id": "16095893096822382650",
        "title": "公共厕所",
        "address": "贵州省贵阳市清镇市星云路与民强路交叉口西南方向118米左右",
        "tel": "",
        "category": "基础设施:公共设施:公共厕所",
        "type": 0,
        "location": {
            "lat": 26.55,
            "lng": 106.463036
        },
        "ad_info": {
            "adcode": 520181,
            "province": "贵州省",
            "city": "贵阳市",
            "district": "清镇市"
        }
    },
    {
        "id": "2900997931862210871",
        "title": "河滨公园公共厕所",
        "address": "贵州省贵阳市南明区瑞金南路31号",
        "tel": "",
        "category": "基础设施:公共设施:公共厕所",
        "type": 0,
        "location": {
            "lat": 26.5677,
            "lng": 106.704918
        },
        "ad_info": {
            "adcode": 520102,
            "province": "贵州省",
            "city": "贵阳市",
            "district": "南明区"
        }
    },
    {
        "id": "494206894451741218",
        "title": "公共厕所",
        "address": "贵州省贵阳市观山湖区合肥路与龙锦路交叉口西北方向79米左右",
        "tel": "",
        "category": "基础设施:公共设施:公共厕所",
        "type": 0,
        "location": {
            "lat": 26.600515,
            "lng": 106.640499
        },
        "ad_info": {
            "adcode": 520115,
            "province": "贵州省",
            "city": "贵阳市",
            "district": "观山湖区"
        }
    },
    {
        "id": "18373359067623187650",
        "title": "公共厕所",
        "address": "贵州省贵阳市观山湖区福建路与龙锦路交叉口正北方向25米左右",
        "tel": "",
        "category": "基础设施:公共设施:公共厕所",
        "type": 0,
        "location": {
            "lat": 26.608633,
            "lng": 106.643415
        },
        "ad_info": {
            "adcode": 520115,
            "province": "贵州省",
            "city": "贵阳市",
            "district": "观山湖区"
        }
    },
    {
        "id": "6044389121940989537",
        "title": "公共厕所",
        "address": "贵州省贵阳市南明区凤凰路与花溪大道北段交叉口正东方向42米左右",
        "tel": "",
        "category": "基础设施:公共设施:公共厕所",
        "type": 0,
        "location": {
            "lat": 26.548977,
            "lng": 106.689228
        },
        "ad_info": {
            "adcode": 520102,
            "province": "贵州省",
            "city": "贵阳市",
            "district": "南明区"
        }
    },
    {
        "id": "12830976438571223739",
        "title": "公共厕所",
        "address": "贵州省贵阳市观山湖区下坝山路与铜仁路交叉口西北方向39米左右",
        "tel": "",
        "category": "基础设施:公共设施:公共厕所",
        "type": 0,
        "location": {
            "lat": 26.613718,
            "lng": 106.653269
        },
        "ad_info": {
            "adcode": 520115,
            "province": "贵州省",
            "city": "贵阳市",
            "district": "观山湖区"
        }
    },
    {
        "id": "15976329363936837372",
        "title": "恒辉农贸市场移动公共厕所",
        "address": "贵州省贵阳市云岩区北京西路与百花大道交叉口西北方向126米左右",
        "tel": "",
        "category": "基础设施:公共设施:公共厕所",
        "type": 0,
        "location": {
            "lat": 26.596778,
            "lng": 106.631057
        },
        "ad_info": {
            "adcode": 520103,
            "province": "贵州省",
            "city": "贵阳市",
            "district": "云岩区"
        }
    },
    {
        "id": "14936652242994842195",
        "title": "贵遵加油站公共厕所",
        "address": "贵州省贵阳市观山湖区贵遵服务区与贵遵高速交叉口东50米",
        "tel": "",
        "category": "基础设施:公共设施:公共厕所",
        "type": 0,
        "location": {
            "lat": 26.599403,
            "lng": 106.663808
        },
        "ad_info": {
            "adcode": 520115,
            "province": "贵州省",
            "city": "贵阳市",
            "district": "观山湖区"
        }
    },
    {
        "id": "1242163309882170560",
        "title": "公共厕所",
        "address": "贵州省贵阳市南明区花果园后街与花果园街交叉口西北方向81米左右",
        "tel": "",
        "category": "基础设施:公共设施:公共厕所",
        "type": 0,
        "location": {
            "lat": 26.570303,
            "lng": 106.69451
        },
        "ad_info": {
            "adcode": 520102,
            "province": "贵州省",
            "city": "贵阳市",
            "district": "南明区"
        }
    },
    {
        "id": "10642313650467638853",
        "title": "公共厕所",
        "address": "贵州省贵阳市观山湖区云潭北路与云潭南路交叉口正南方向255米左右",
        "tel": "",
        "category": "基础设施:公共设施:公共厕所",
        "type": 0,
        "location": {
            "lat": 26.631717,
            "lng": 106.610289
        },
        "ad_info": {
            "adcode": 520115,
            "province": "贵州省",
            "city": "贵阳市",
            "district": "观山湖区"
        }
    },
    {
        "id": "766828931126581339",
        "title": "公共厕所",
        "address": "贵州省贵阳市观山湖区石龙西路与石龙路交叉口正南方向75米左右",
        "tel": "",
        "category": "基础设施:公共设施:公共厕所",
        "type": 0,
        "location": {
            "lat": 26.602764,
            "lng": 106.63319
        },
        "ad_info": {
            "adcode": 520115,
            "province": "贵州省",
            "city": "贵阳市",
            "district": "观山湖区"
        }
    },
    {
        "id": "9262899770799006703",
        "title": "公共厕所",
        "address": "贵州省贵阳市修文县人民南路与翠屏商业步行街交叉口西南方向30米左右",
        "tel": "",
        "category": "基础设施:公共设施:公共厕所",
        "type": 0,
        "location": {
            "lat": 26.838531,
            "lng": 106.595807
        },
        "ad_info": {
            "adcode": 520123,
            "province": "贵州省",
            "city": "贵阳市",
            "district": "修文县"
        }
    },
    {
        "id": "11791295617097624807",
        "title": "服务区公共厕所",
        "address": "贵州省贵阳市云岩区东北绕城高速公路温泉服务区加油2站",
        "tel": "",
        "category": "基础设施:公共设施:公共厕所",
        "type": 0,
        "location": {
            "lat": 26.595661,
            "lng": 106.769484
        },
        "ad_info": {
            "adcode": 520103,
            "province": "贵州省",
            "city": "贵阳市",
            "district": "云岩区"
        }
    },
    {
        "id": "6135509379559739537",
        "title": "免费公共厕所",
        "address": "贵州省贵阳市云岩区公园西路与飞山横街交叉口东南方向28米左右",
        "tel": "",
        "category": "基础设施:公共设施:公共厕所",
        "type": 0,
        "location": {
            "lat": 26.578393,
            "lng": 106.708334
        },
        "ad_info": {
            "adcode": 520103,
            "province": "贵州省",
            "city": "贵阳市",
            "district": "云岩区"
        }
    },
    {
        "id": "10800905687621756882",
        "title": "免费公共厕所",
        "address": "贵州省贵阳市花溪区长江路与黔江路交叉口东南方向61米左右",
        "tel": "",
        "category": "基础设施:公共设施:公共厕所",
        "type": 0,
        "location": {
            "lat": 26.522184,
            "lng": 106.705646
        },
        "ad_info": {
            "adcode": 520111,
            "province": "贵州省",
            "city": "贵阳市",
            "district": "花溪区"
        }
    },
    {
        "id": "16592464785320347255",
        "title": "摆门服务区公共厕所",
        "address": "贵州省贵阳市花溪区S01贵阳南环高速与花溪服务区交叉口西80米",
        "tel": "",
        "category": "基础设施:公共设施:公共厕所",
        "type": 0,
        "location": {
            "lat": 26.414648,
            "lng": 106.595745
        },
        "ad_info": {
            "adcode": 520111,
            "province": "贵州省",
            "city": "贵阳市",
            "district": "花溪区"
        }
    },
    {
        "id": "5973938812535159788",
        "title": "服务区公共厕所",
        "address": "贵州省贵阳市观山湖区观山湖区服务区与贵遵高速交叉口东北100米",
        "tel": "",
        "category": "基础设施:公共设施:公共厕所",
        "type": 0,
        "location": {
            "lat": 26.608143,
            "lng": 106.664593
        },
        "ad_info": {
            "adcode": 520115,
            "province": "贵州省",
            "city": "贵阳市",
            "district": "观山湖区"
        }
    },
    {
        "id": "12488888692326173443",
        "title": "龙洞堡服务区第一公共厕所",
        "address": "贵州省贵阳市南明区顺通路与骏通路交叉口西北方向283米左右",
        "tel": "",
        "category": "基础设施:公共设施:公共厕所",
        "type": 0,
        "location": {
            "lat": 26.507922,
            "lng": 106.798568
        },
        "ad_info": {
            "adcode": 520102,
            "province": "贵州省",
            "city": "贵阳市",
            "district": "南明区"
        }
    },
    {
        "id": "12071382939743718108",
        "title": "服务区公共厕所",
        "address": "贵州省贵阳市观山湖区感恩路与贵遵路交叉口正北方向296米左右",
        "tel": "",
        "category": "基础设施:公共设施:公共厕所",
        "type": 0,
        "location": {
            "lat": 26.609464,
            "lng": 106.664063
        },
        "ad_info": {
            "adcode": 520115,
            "province": "贵州省",
            "city": "贵阳市",
            "district": "观山湖区"
        }
    },
    {
        "id": "12368549984370889987",
        "title": "无障碍公共厕所",
        "address": "贵州省贵阳市云岩区贵乌社区服务中心贵乌社区服务中心大营路217号",
        "tel": "",
        "category": "基础设施:公共设施:公共厕所",
        "type": 0,
        "location": {
            "lat": 26.602123,
            "lng": 106.721709
        },
        "ad_info": {
            "adcode": 520103,
            "province": "贵州省",
            "city": "贵阳市",
            "district": "云岩区"
        }
    },
    {
        "id": "1031637367101899165",
        "title": "步行街公共厕所",
        "address": "贵州省贵阳市白云区澳马商业步行街与长安商业步行街交叉口西北方向20米",
        "tel": "",
        "category": "基础设施:公共设施:公共厕所",
        "type": 0,
        "location": {
            "lat": 26.678103,
            "lng": 106.634891
        },
        "ad_info": {
            "adcode": 520113,
            "province": "贵州省",
            "city": "贵阳市",
            "district": "白云区"
        }
    },
    {
        "id": "13892538363913027938",
        "title": "朝阳路公共厕所",
        "address": "贵州省贵阳市白云区同心西路与朝阳路交叉口正北方向103米左右",
        "tel": "",
        "category": "基础设施:公共设施:公共厕所",
        "type": 0,
        "location": {
            "lat": 26.683296,
            "lng": 106.633581
        },
        "ad_info": {
            "adcode": 520113,
            "province": "贵州省",
            "city": "贵阳市",
            "district": "白云区"
        }
    },
    {
        "id": "12337689456059802100",
        "title": "艳山红公共厕所",
        "address": "贵州省贵阳市白云区艳山路77号",
        "tel": "",
        "category": "基础设施:公共设施:公共厕所",
        "type": 0,
        "location": {
            "lat": 26.675882,
            "lng": 106.635181
        },
        "ad_info": {
            "adcode": 520113,
            "province": "贵州省",
            "city": "贵阳市",
            "district": "白云区"
        }
    },
    {
        "id": "10570321869186758852",
        "title": "加油站公共厕所",
        "address": "贵州省贵阳市白云区G75兰海高速与服务区交叉口东北100米",
        "tel": "",
        "category": "基础设施:公共设施:公共厕所",
        "type": 0,
        "location": {
            "lat": 26.712969,
            "lng": 106.694662
        },
        "ad_info": {
            "adcode": 520113,
            "province": "贵州省",
            "city": "贵阳市",
            "district": "白云区"
        }
    },
    {
        "id": "2380019623441996501",
        "title": "久长服务区第二公共厕所",
        "address": "贵州省贵阳市修文县G75兰海高速与久长服务区交叉口东南180米",
        "tel": "",
        "category": "基础设施:公共设施:公共厕所",
        "type": 0,
        "location": {
            "lat": 26.895186,
            "lng": 106.700334
        },
        "ad_info": {
            "adcode": 520123,
            "province": "贵州省",
            "city": "贵阳市",
            "district": "修文县"
        }
    },
    {
        "id": "3144722387901337135",
        "title": "久长服务区第二公共厕所",
        "address": "贵州省贵阳市修文县乌长高速与兰海高速交叉口正北方向1053米左右",
        "tel": "",
        "category": "基础设施:公共设施:公共厕所",
        "type": 0,
        "location": {
            "lat": 26.895275,
            "lng": 106.698697
        },
        "ad_info": {
            "adcode": 520123,
            "province": "贵州省",
            "city": "贵阳市",
            "district": "修文县"
        }
    },
    {
        "id": "4441663678561721688",
        "title": "公共厕所",
        "address": "贵州省贵阳市花溪区花溪大学城正东方向170米",
        "tel": "",
        "category": "基础设施:公共设施:公共厕所",
        "type": 0,
        "location": {
            "lat": 26.38811,
            "lng": 106.63181
        },
        "ad_info": {
            "adcode": 520111,
            "province": "贵州省",
            "city": "贵阳市",
            "district": "花溪区"
        }
    },
    {
        "id": "17750744708051689975",
        "title": "公共厕所",
        "address": "贵州省贵阳市白云区大兴路与文华路交叉口正西方向88米左右",
        "tel": "",
        "category": "基础设施:公共设施:公共厕所",
        "type": 0,
        "location": {
            "lat": 26.71158,
            "lng": 106.622193
        },
        "ad_info": {
            "adcode": 520113,
            "province": "贵州省",
            "city": "贵阳市",
            "district": "白云区"
        }
    },
    {
        "id": "768367000006413870",
        "title": "公共厕所",
        "address": "贵州省贵阳市南明区文昌南路33号亨特城市广场B1",
        "tel": "",
        "category": "基础设施:公共设施:公共厕所",
        "type": 0,
        "location": {
            "lat": 26.576705,
            "lng": 106.719774
        },
        "ad_info": {
            "adcode": 520102,
            "province": "贵州省",
            "city": "贵阳市",
            "district": "南明区"
        }
    },
    {
        "id": "156740561091554453",
        "title": "公共厕所",
        "address": "贵州省贵阳市清镇市同乐路与金盆路交叉口东北方向114米左右",
        "tel": "",
        "category": "基础设施:公共设施:公共厕所",
        "type": 0,
        "location": {
            "lat": 26.55745,
            "lng": 106.47443
        },
        "ad_info": {
            "adcode": 520181,
            "province": "贵州省",
            "city": "贵阳市",
            "district": "清镇市"
        }
    },
    {
        "id": "14457759812119958529",
        "title": "公共厕所",
        "address": "贵州省贵阳市乌当区北衙路与新添大道北段交叉口西南方向152米左右",
        "tel": "",
        "category": "基础设施:公共设施:公共厕所",
        "type": 0,
        "location": {
            "lat": 26.629822,
            "lng": 106.765878
        },
        "ad_info": {
            "adcode": 520112,
            "province": "贵州省",
            "city": "贵阳市",
            "district": "乌当区"
        }
    },
    {
        "id": "4100404398502588201",
        "title": "公共厕所",
        "address": "贵州省贵阳市云岩区一环辅路与思贤路交叉口西北方向113米左右",
        "tel": "",
        "category": "基础设施:公共设施:公共厕所",
        "type": 0,
        "location": {
            "lat": 26.586331,
            "lng": 106.72047
        },
        "ad_info": {
            "adcode": 520103,
            "province": "贵州省",
            "city": "贵阳市",
            "district": "云岩区"
        }
    },
    {
        "id": "9397062454170766218",
        "title": "公共厕所",
        "address": "贵州省贵阳市南明区龙腾路贵阳砂之船奥特莱斯",
        "tel": "",
        "category": "基础设施:公共设施:公共厕所",
        "type": 0,
        "location": {
            "lat": 26.540581,
            "lng": 106.779908
        },
        "ad_info": {
            "adcode": 520102,
            "province": "贵州省",
            "city": "贵阳市",
            "district": "南明区"
        }
    },
    {
        "id": "9229605198380902048",
        "title": "公共厕所",
        "address": "贵州省贵阳市云岩区麻冲路与黄山冲路交叉口正南方向42米左右",
        "tel": "",
        "category": "基础设施:公共设施:公共厕所",
        "type": 0,
        "location": {
            "lat": 26.61318,
            "lng": 106.710453
        },
        "ad_info": {
            "adcode": 520103,
            "province": "贵州省",
            "city": "贵阳市",
            "district": "云岩区"
        }
    },
    {
        "id": "3139044985531552974",
        "title": "贵州喀斯特酒店-洗手间",
        "address": "贵州省贵阳市南明区瑞金南路25号(贵州省电视台院内)遵义路口进入酒店",
        "tel": "",
        "category": "基础设施:公共设施:公共厕所",
        "type": 0,
        "location": {
            "lat": 26.566619,
            "lng": 106.711614
        },
        "ad_info": {
            "adcode": 520102,
            "province": "贵州省",
            "city": "贵阳市",
            "district": "南明区"
        }
    },
    {
        "id": "15282436097196298674",
        "title": "洗手间",
        "address": "贵州省贵阳市南明区小车河路贵阳花果园R区-南区",
        "tel": "",
        "category": "基础设施:公共设施:公共厕所",
        "type": 0,
        "location": {
            "lat": 26.554908,
            "lng": 106.668207
        },
        "ad_info": {
            "adcode": 520102,
            "province": "贵州省",
            "city": "贵阳市",
            "district": "南明区"
        }
    },
    {
        "id": "16193261171910699041",
        "title": "公共厕所",
        "address": "贵州省贵阳市云岩区延安中路与金沙街交叉口东南方向71米左右",
        "tel": "",
        "category": "基础设施:公共设施:公共厕所",
        "type": 0,
        "location": {
            "lat": 26.582511,
            "lng": 106.70904
        },
        "ad_info": {
            "adcode": 520103,
            "province": "贵州省",
            "city": "贵阳市",
            "district": "云岩区"
        }
    },
    {
        "id": "11256971655163211202",
        "title": "公共厕所",
        "address": "贵州省贵阳市观山湖区宏阳路与阳关大道交叉口正西方向386米左右",
        "tel": "",
        "category": "基础设施:公共设施:公共厕所",
        "type": 0,
        "location": {
            "lat": 26.625622,
            "lng": 106.661948
        },
        "ad_info": {
            "adcode": 520115,
            "province": "贵州省",
            "city": "贵阳市",
            "district": "观山湖区"
        }
    },
    {
        "id": "2801130805376129350",
        "title": "公共厕所",
        "address": "贵州省贵阳市乌当区洪济路与观溪北路交叉口西南方向118米左右",
        "tel": "",
        "category": "基础设施:公共设施:公共厕所",
        "type": 0,
        "location": {
            "lat": 26.634154,
            "lng": 106.764441
        },
        "ad_info": {
            "adcode": 520112,
            "province": "贵州省",
            "city": "贵阳市",
            "district": "乌当区"
        }
    },
    {
        "id": "17483798233330096122",
        "title": "公共厕所",
        "address": "贵州省贵阳市白云区诚信路与龙井路交叉口东南方向180米左右",
        "tel": "",
        "category": "基础设施:公共设施:公共厕所",
        "type": 0,
        "location": {
            "lat": 26.668532,
            "lng": 106.620022
        },
        "ad_info": {
            "adcode": 520113,
            "province": "贵州省",
            "city": "贵阳市",
            "district": "白云区"
        }
    },
    {
        "id": "17578354610970418076",
        "title": "公共厕所",
        "address": "贵州省贵阳市观山湖区同城南路310号",
        "tel": "",
        "category": "基础设施:公共设施:公共厕所",
        "type": 0,
        "location": {
            "lat": 26.634426,
            "lng": 106.654786
        },
        "ad_info": {
            "adcode": 520115,
            "province": "贵州省",
            "city": "贵阳市",
            "district": "观山湖区"
        }
    },
    {
        "id": "17552116913651727988",
        "title": "公共厕所",
        "address": "贵州省贵阳市乌当区广场东路与新添大道北段交叉口西南方向53米左右",
        "tel": "",
        "category": "基础设施:公共设施:公共厕所",
        "type": 0,
        "location": {
            "lat": 26.642469,
            "lng": 106.776613
        },
        "ad_info": {
            "adcode": 520112,
            "province": "贵州省",
            "city": "贵阳市",
            "district": "乌当区"
        }
    },
    {
        "id": "6550390200147793938",
        "title": "公共厕所",
        "address": "贵州省贵阳市云岩区中华北路与沙河街交叉口东南方向92米左右",
        "tel": "",
        "category": "基础设施:公共设施:公共厕所",
        "type": 0,
        "location": {
            "lat": 26.591923,
            "lng": 106.711543
        },
        "ad_info": {
            "adcode": 520103,
            "province": "贵州省",
            "city": "贵阳市",
            "district": "云岩区"
        }
    },
    {
        "id": "3931993355855526520",
        "title": "公共厕所",
        "address": "贵州省贵阳市云岩区巫峰路与旭东路交叉口东北方向89米左右",
        "tel": "",
        "category": "基础设施:公共设施:公共厕所",
        "type": 0,
        "location": {
            "lat": 26.590976,
            "lng": 106.727927
        },
        "ad_info": {
            "adcode": 520103,
            "province": "贵州省",
            "city": "贵阳市",
            "district": "云岩区"
        }
    },
    {
        "id": "2641800761904642698",
        "title": "花溪公园公共厕所",
        "address": "贵州省贵阳市花溪区花溪公园大门广场靠花溪大桥处",
        "tel": "",
        "category": "基础设施:公共设施:公共厕所",
        "type": 0,
        "location": {
            "lat": 26.435416,
            "lng": 106.677109
        },
        "ad_info": {
            "adcode": 520111,
            "province": "贵州省",
            "city": "贵阳市",
            "district": "花溪区"
        }
    },
    {
        "id": "4121978445396287276",
        "title": "公共厕所",
        "address": "贵州省贵阳市观山湖区桃林路与诚信南路交叉口东北方向223米左右",
        "tel": "",
        "category": "基础设施:公共设施:公共厕所",
        "type": 0,
        "location": {
            "lat": 26.643084,
            "lng": 106.6198
        },
        "ad_info": {
            "adcode": 520115,
            "province": "贵州省",
            "city": "贵阳市",
            "district": "观山湖区"
        }
    },
    {
        "id": "18169565955973504481",
        "title": "公共厕所",
        "address": "贵州省贵阳市云岩区金仓路146号",
        "tel": "",
        "category": "基础设施:公共设施:公共厕所",
        "type": 0,
        "location": {
            "lat": 26.600491,
            "lng": 106.716011
        },
        "ad_info": {
            "adcode": 520103,
            "province": "贵州省",
            "city": "贵阳市",
            "district": "云岩区"
        }
    },
    {
        "id": "5345364115176398333",
        "title": "公共厕所",
        "address": "贵州省贵阳市观山湖区上秀路与凯里路交叉口正西方向439米左右",
        "tel": "",
        "category": "基础设施:公共设施:公共厕所",
        "type": 0,
        "location": {
            "lat": 26.637485,
            "lng": 106.660199
        },
        "ad_info": {
            "adcode": 520115,
            "province": "贵州省",
            "city": "贵阳市",
            "district": "观山湖区"
        }
    },
    {
        "id": "18436942497020533850",
        "title": "公共厕所",
        "address": "贵州省贵阳市云岩区中山西路与瑞金中路交叉口东北方向65米左右",
        "tel": "",
        "category": "基础设施:公共设施:公共厕所",
        "type": 0,
        "location": {
            "lat": 26.577674,
            "lng": 106.706481
        },
        "ad_info": {
            "adcode": 520103,
            "province": "贵州省",
            "city": "贵阳市",
            "district": "云岩区"
        }
    },
    {
        "id": "16486604050148815566",
        "title": "公共厕所",
        "address": "贵州省贵阳市南明区解放路29号",
        "tel": "",
        "category": "基础设施:公共设施:公共厕所",
        "type": 0,
        "location": {
            "lat": 26.561284,
            "lng": 106.723782
        },
        "ad_info": {
            "adcode": 520102,
            "province": "贵州省",
            "city": "贵阳市",
            "district": "南明区"
        }
    },
    {
        "id": "2208972612530500935",
        "title": "国泰大酒店-洗手间",
        "address": "贵州省贵阳市云岩区盐务街55号(近医学院)",
        "tel": "",
        "category": "基础设施:公共设施:公共厕所",
        "type": 0,
        "location": {
            "lat": 26.599773,
            "lng": 106.710985
        },
        "ad_info": {
            "adcode": 520103,
            "province": "贵州省",
            "city": "贵阳市",
            "district": "云岩区"
        }
    },
    {
        "id": "12009872806834026633",
        "title": "公共厕所",
        "address": "贵州省贵阳市观山湖区金朱东路东林公园东北侧约40米",
        "tel": "",
        "category": "基础设施:公共设施:公共厕所",
        "type": 0,
        "location": {
            "lat": 26.655997,
            "lng": 106.639236
        },
        "ad_info": {
            "adcode": 520115,
            "province": "贵州省",
            "city": "贵阳市",
            "district": "观山湖区"
        }
    },
    {
        "id": "4315805861975950774",
        "title": "公共厕所",
        "address": "贵州省贵阳市花溪区花溪大道南段3108花溪公园内",
        "tel": "",
        "category": "基础设施:公共设施:公共厕所",
        "type": 0,
        "location": {
            "lat": 26.432006,
            "lng": 106.671001
        },
        "ad_info": {
            "adcode": 520111,
            "province": "贵州省",
            "city": "贵阳市",
            "district": "花溪区"
        }
    },
    {
        "id": "12115592946248115476",
        "title": "公共厕所",
        "address": "贵州省贵阳市南明区中山西路与恒峰步行街交叉口东南方向50米左右",
        "tel": "",
        "category": "基础设施:公共设施:公共厕所",
        "type": 0,
        "location": {
            "lat": 26.577175,
            "lng": 106.708864
        },
        "ad_info": {
            "adcode": 520102,
            "province": "贵州省",
            "city": "贵阳市",
            "district": "南明区"
        }
    },
    {
        "id": "12886433097389157331",
        "title": "贵州武岳酒店-洗手间",
        "address": "贵州省贵阳市南明区南厂路1号",
        "tel": "",
        "category": "基础设施:公共设施:公共厕所",
        "type": 0,
        "location": {
            "lat": 26.560706,
            "lng": 106.719505
        },
        "ad_info": {
            "adcode": 520102,
            "province": "贵州省",
            "city": "贵阳市",
            "district": "南明区"
        }
    },
    {
        "id": "5015001754111585821",
        "title": "无障碍公共厕所",
        "address": "贵州省贵阳市云岩区双峰路与毛藤巷交叉口西南方向199米左右",
        "tel": "",
        "category": "基础设施:公共设施:公共厕所",
        "type": 0,
        "location": {
            "lat": 26.58596,
            "lng": 106.690142
        },
        "ad_info": {
            "adcode": 520103,
            "province": "贵州省",
            "city": "贵阳市",
            "district": "云岩区"
        }
    },
    {
        "id": "11400927372274863101",
        "title": "公共厕所",
        "address": "贵州省贵阳市花溪区明珠大道与田园路交叉口西南方向169米左右",
        "tel": "",
        "category": "基础设施:公共设施:公共厕所",
        "type": 0,
        "location": {
            "lat": 26.407648,
            "lng": 106.670535
        },
        "ad_info": {
            "adcode": 520111,
            "province": "贵州省",
            "city": "贵阳市",
            "district": "花溪区"
        }
    },
    {
        "id": "4543334206587774610",
        "title": "公共厕所",
        "address": "贵州省贵阳市云岩区一环与宝山北路交叉口正东方向91米左右",
        "tel": "",
        "category": "基础设施:公共设施:公共厕所",
        "type": 0,
        "location": {
            "lat": 26.592266,
            "lng": 106.719345
        },
        "ad_info": {
            "adcode": 520103,
            "province": "贵州省",
            "city": "贵阳市",
            "district": "云岩区"
        }
    },
    {
        "id": "16211082865171677873",
        "title": "公共厕所",
        "address": "贵州省贵阳市南明区都会大道花果园J区-7,8栋",
        "tel": "",
        "category": "基础设施:公共设施:公共厕所",
        "type": 0,
        "location": {
            "lat": 26.556287,
            "lng": 106.68382
        },
        "ad_info": {
            "adcode": 520102,
            "province": "贵州省",
            "city": "贵阳市",
            "district": "南明区"
        }
    },
    {
        "id": "3451014129592408303",
        "title": "公共厕所",
        "address": "贵州省贵阳市花溪区南湖路与田园路交叉口正南方向288米左右",
        "tel": "",
        "category": "基础设施:公共设施:公共厕所",
        "type": 0,
        "location": {
            "lat": 26.414829,
            "lng": 106.67228
        },
        "ad_info": {
            "adcode": 520111,
            "province": "贵州省",
            "city": "贵阳市",
            "district": "花溪区"
        }
    },
    {
        "id": "2786848751317129551",
        "title": "公共厕所",
        "address": "贵州省贵阳市观山湖区兴达路与奋进路交叉口东北方向101米左右",
        "tel": "",
        "category": "基础设施:公共设施:公共厕所",
        "type": 0,
        "location": {
            "lat": 26.572811,
            "lng": 106.562125
        },
        "ad_info": {
            "adcode": 520115,
            "province": "贵州省",
            "city": "贵阳市",
            "district": "观山湖区"
        }
    },
    {
        "id": "4405527235106000089",
        "title": "男洗手间(贵阳站)",
        "address": "贵州省贵阳市南明区遵义路1号贵阳站F2",
        "tel": "",
        "category": "基础设施:公共设施:男洗手间",
        "type": 0,
        "location": {
            "lat": 26.556611,
            "lng": 106.703742
        },
        "ad_info": {
            "adcode": 520102,
            "province": "贵州省",
            "city": "贵阳市",
            "district": "南明区"
        }
    },
    {
        "id": "14258882276968532919",
        "title": "免费公共厕所",
        "address": "贵州省贵阳市南明区朝阳巷与沙冲南路交叉口东北方向46米左右",
        "tel": "",
        "category": "基础设施:公共设施:公共厕所",
        "type": 0,
        "location": {
            "lat": 26.547441,
            "lng": 106.70365
        },
        "ad_info": {
            "adcode": 520102,
            "province": "贵州省",
            "city": "贵阳市",
            "district": "南明区"
        }
    },
    {
        "id": "2216070114635497516",
        "title": "公共厕所",
        "address": "贵州省贵阳市云岩区威清路与山林路交叉口东南方向99米左右",
        "tel": "",
        "category": "基础设施:公共设施:公共厕所",
        "type": 0,
        "location": {
            "lat": 26.585071,
            "lng": 106.702482
        },
        "ad_info": {
            "adcode": 520103,
            "province": "贵州省",
            "city": "贵阳市",
            "district": "云岩区"
        }
    },
    {
        "id": "17882844276238870011",
        "title": "公共厕所",
        "address": "贵州省贵阳市云岩区中华社区服务中心延安东路",
        "tel": "",
        "category": "基础设施:公共设施:公共厕所",
        "type": 0,
        "location": {
            "lat": 26.585305,
            "lng": 106.717207
        },
        "ad_info": {
            "adcode": 520103,
            "province": "贵州省",
            "city": "贵阳市",
            "district": "云岩区"
        }
    },
    {
        "id": "3875071772199693787",
        "title": "云潭南路G048号公共厕所",
        "address": "贵州省贵阳市观山湖区云潭南路G048号",
        "tel": "",
        "category": "基础设施:公共设施:公共厕所",
        "type": 0,
        "location": {
            "lat": 26.619337,
            "lng": 106.606829
        },
        "ad_info": {
            "adcode": 520115,
            "province": "贵州省",
            "city": "贵阳市",
            "district": "观山湖区"
        }
    },
    {
        "id": "3878355567699722264",
        "title": "公共厕所",
        "address": "贵州省贵阳市观山湖区林城西路与碧海南路交叉口正北方向85米左右",
        "tel": "",
        "category": "基础设施:公共设施:公共厕所",
        "type": 0,
        "location": {
            "lat": 26.645807,
            "lng": 106.620033
        },
        "ad_info": {
            "adcode": 520115,
            "province": "贵州省",
            "city": "贵阳市",
            "district": "观山湖区"
        }
    },
    {
        "id": "13044549593170524744",
        "title": "公共厕所",
        "address": "贵州省贵阳市云岩区中山东路与蔡家街交叉口正北方向55米左右",
        "tel": "",
        "category": "基础设施:公共设施:公共厕所",
        "type": 0,
        "location": {
            "lat": 26.578556,
            "lng": 106.717076
        },
        "ad_info": {
            "adcode": 520103,
            "province": "贵州省",
            "city": "贵阳市",
            "district": "云岩区"
        }
    },
    {
        "id": "7627752468675873717",
        "title": "公共厕所",
        "address": "贵州省贵阳市修文县河滨路与虎山路交叉口东北方向154米左右",
        "tel": "",
        "category": "基础设施:公共设施:公共厕所",
        "type": 0,
        "location": {
            "lat": 26.835193,
            "lng": 106.600384
        },
        "ad_info": {
            "adcode": 520123,
            "province": "贵州省",
            "city": "贵阳市",
            "district": "修文县"
        }
    },
    {
        "id": "13838409623218554539",
        "title": "公共厕所",
        "address": "贵州省贵阳市清镇市滨湖大道东段与职教路交叉口南200米",
        "tel": "",
        "category": "基础设施:公共设施:公共厕所",
        "type": 0,
        "location": {
            "lat": 26.568413,
            "lng": 106.476872
        },
        "ad_info": {
            "adcode": 520181,
            "province": "贵州省",
            "city": "贵阳市",
            "district": "清镇市"
        }
    },
    {
        "id": "9750462214689883250",
        "title": "公共厕所",
        "address": "贵州省贵阳市云岩区富水中路与富水北路交叉口正西方向93米左右",
        "tel": "",
        "category": "基础设施:公共设施:公共厕所",
        "type": 0,
        "location": {
            "lat": 26.580318,
            "lng": 106.71326
        },
        "ad_info": {
            "adcode": 520103,
            "province": "贵州省",
            "city": "贵阳市",
            "district": "云岩区"
        }
    },
    {
        "id": "6299378401902491288",
        "title": "免费公共厕所",
        "address": "贵州省贵阳市乌当区北衙路与洪济路交叉口正北方向172米左右",
        "tel": "",
        "category": "基础设施:公共设施:公共厕所",
        "type": 0,
        "location": {
            "lat": 26.636547,
            "lng": 106.766196
        },
        "ad_info": {
            "adcode": 520112,
            "province": "贵州省",
            "city": "贵阳市",
            "district": "乌当区"
        }
    },
    {
        "id": "17104536693939612875",
        "title": "贵阳喜来登贵航酒店-洗手间",
        "address": "贵州省贵阳市南明区中华南路49号贵航大厦",
        "tel": "",
        "category": "基础设施:公共设施:公共厕所",
        "type": 0,
        "location": {
            "lat": 26.571318,
            "lng": 106.714284
        },
        "ad_info": {
            "adcode": 520102,
            "province": "贵州省",
            "city": "贵阳市",
            "district": "南明区"
        }
    },
    {
        "id": "8629853798056655252",
        "title": "公共厕所",
        "address": "贵州省贵阳市花溪区既济路与普济路交叉口西南方向93米",
        "tel": "",
        "category": "基础设施:公共设施:公共厕所",
        "type": 0,
        "location": {
            "lat": 26.379583,
            "lng": 106.623141
        },
        "ad_info": {
            "adcode": 520111,
            "province": "贵州省",
            "city": "贵阳市",
            "district": "花溪区"
        }
    },
    {
        "id": "5552365542625191267",
        "title": "公共厕所",
        "address": "贵州省贵阳市南明区科幻谷路与西南环路交叉口正东方向262米左右",
        "tel": "",
        "category": "基础设施:公共设施:公共厕所",
        "type": 0,
        "location": {
            "lat": 26.520602,
            "lng": 106.776942
        },
        "ad_info": {
            "adcode": 520102,
            "province": "贵州省",
            "city": "贵阳市",
            "district": "南明区"
        }
    },
    {
        "id": "91162430112889987",
        "title": "公共厕所",
        "address": "贵州省贵阳市清镇市义慧路与梯青塔路交叉口正东方向64米左右",
        "tel": "",
        "category": "基础设施:公共设施:公共厕所",
        "type": 0,
        "location": {
            "lat": 26.557803,
            "lng": 106.463077
        },
        "ad_info": {
            "adcode": 520181,
            "province": "贵州省",
            "city": "贵阳市",
            "district": "清镇市"
        }
    },
    {
        "id": "16896024092814995684",
        "title": "公共厕所",
        "address": "贵州省贵阳市云岩区尚礼东路与尚礼路交叉口正北方向51米左右",
        "tel": "",
        "category": "基础设施:公共设施:公共厕所",
        "type": 0,
        "location": {
            "lat": 26.597879,
            "lng": 106.762109
        },
        "ad_info": {
            "adcode": 520103,
            "province": "贵州省",
            "city": "贵阳市",
            "district": "云岩区"
        }
    },
    {
        "id": "3526723951000325741",
        "title": "公共厕所",
        "address": "贵州省贵阳市云岩区湾子巷与黄金路交叉口西南方向59米左右",
        "tel": "",
        "category": "基础设施:公共设施:公共厕所",
        "type": 0,
        "location": {
            "lat": 26.583344,
            "lng": 106.694234
        },
        "ad_info": {
            "adcode": 520103,
            "province": "贵州省",
            "city": "贵阳市",
            "district": "云岩区"
        }
    },
    {
        "id": "1005231239571392141",
        "title": "公共厕所",
        "address": "贵州省贵阳市花溪区孟溪路与贵惠立交交叉口东南方向169米左右",
        "tel": "",
        "category": "基础设施:公共设施:公共厕所",
        "type": 0,
        "location": {
            "lat": 26.391659,
            "lng": 106.731604
        },
        "ad_info": {
            "adcode": 520111,
            "province": "贵州省",
            "city": "贵阳市",
            "district": "花溪区"
        }
    },
    {
        "id": "9838532818451161031",
        "title": "公共厕所",
        "address": "贵州省贵阳市观山湖区一号路与金悦路交叉口正北方向193米左右",
        "tel": "",
        "category": "基础设施:公共设施:公共厕所",
        "type": 0,
        "location": {
            "lat": 26.567715,
            "lng": 106.555856
        },
        "ad_info": {
            "adcode": 520115,
            "province": "贵州省",
            "city": "贵阳市",
            "district": "观山湖区"
        }
    },
    {
        "id": "6709288213536789004",
        "title": "公共厕所",
        "address": "贵州省贵阳市乌当区育新路与观溪路交叉口东北方向150米左右",
        "tel": "",
        "category": "基础设施:公共设施:公共厕所",
        "type": 0,
        "location": {
            "lat": 26.630952,
            "lng": 106.764964
        },
        "ad_info": {
            "adcode": 520112,
            "province": "贵州省",
            "city": "贵阳市",
            "district": "乌当区"
        }
    },
    {
        "id": "17731952891331441217",
        "title": "公共厕所",
        "address": "贵州省贵阳市南明区一环辅路与南浦路交叉口东南方向144米左右",
        "tel": "",
        "category": "基础设施:公共设施:公共厕所",
        "type": 0,
        "location": {
            "lat": 26.565554,
            "lng": 106.731235
        },
        "ad_info": {
            "adcode": 520102,
            "province": "贵州省",
            "city": "贵阳市",
            "district": "南明区"
        }
    },
    {
        "id": "11663393220562495527",
        "title": "公共厕所",
        "address": "贵州省贵阳市云岩区人民大道(北段)与黔灵西路交叉口东北方向126米左右",
        "tel": "",
        "category": "基础设施:公共设施:公共厕所",
        "type": 0,
        "location": {
            "lat": 26.587318,
            "lng": 106.70993
        },
        "ad_info": {
            "adcode": 520103,
            "province": "贵州省",
            "city": "贵阳市",
            "district": "云岩区"
        }
    },
    {
        "id": "7506373964003436466",
        "title": "公共厕所",
        "address": "贵州省贵阳市白云区白云南路399号",
        "tel": "",
        "category": "基础设施:公共设施:公共厕所",
        "type": 0,
        "location": {
            "lat": 26.672392,
            "lng": 106.643845
        },
        "ad_info": {
            "adcode": 520113,
            "province": "贵州省",
            "city": "贵阳市",
            "district": "白云区"
        }
    },
    {
        "id": "6791229849938771339",
        "title": "公共厕所",
        "address": "贵州省贵阳市观山湖区商城东路与杭州路交叉口西北方向172米左右",
        "tel": "",
        "category": "基础设施:公共设施:公共厕所",
        "type": 0,
        "location": {
            "lat": 26.60235,
            "lng": 106.58411
        },
        "ad_info": {
            "adcode": 520115,
            "province": "贵州省",
            "city": "贵阳市",
            "district": "观山湖区"
        }
    },
    {
        "id": "9521122499419865023",
        "title": "公共厕所",
        "address": "贵州省贵阳市云岩区电台街88号",
        "tel": "",
        "category": "基础设施:公共设施:公共厕所",
        "type": 0,
        "location": {
            "lat": 26.581192,
            "lng": 106.718368
        },
        "ad_info": {
            "adcode": 520103,
            "province": "贵州省",
            "city": "贵阳市",
            "district": "云岩区"
        }
    },
    {
        "id": "12697731411101094808",
        "title": "公共厕所",
        "address": "贵州省贵阳市观山湖区长岭南路33号正南方向100米",
        "tel": "",
        "category": "基础设施:公共设施:公共厕所",
        "type": 0,
        "location": {
            "lat": 26.61799,
            "lng": 106.64315
        },
        "ad_info": {
            "adcode": 520115,
            "province": "贵州省",
            "city": "贵阳市",
            "district": "观山湖区"
        }
    },
    {
        "id": "10500749100862750614",
        "title": "公共厕所",
        "address": "贵州省贵阳市云岩区新街与松坡路交叉口正西方向25米左右",
        "tel": "",
        "category": "基础设施:公共设施:公共厕所",
        "type": 0,
        "location": {
            "lat": 26.582734,
            "lng": 106.661238
        },
        "ad_info": {
            "adcode": 520103,
            "province": "贵州省",
            "city": "贵阳市",
            "district": "云岩区"
        }
    },
    {
        "id": "11028795553073826992",
        "title": "公共厕所",
        "address": "贵州省贵阳市云岩区改茶路与林泉路交叉口西南方向336米左右",
        "tel": "",
        "category": "基础设施:公共设施:公共厕所",
        "type": 0,
        "location": {
            "lat": 26.57427,
            "lng": 106.666808
        },
        "ad_info": {
            "adcode": 520103,
            "province": "贵州省",
            "city": "贵阳市",
            "district": "云岩区"
        }
    },
    {
        "id": "13153631745624321936",
        "title": "公共厕所",
        "address": "贵州省贵阳市花溪区新村路与黔江路交叉口正南方向334米左右",
        "tel": "",
        "category": "基础设施:公共设施:公共厕所",
        "type": 0,
        "location": {
            "lat": 26.530515,
            "lng": 106.70441
        },
        "ad_info": {
            "adcode": 520111,
            "province": "贵州省",
            "city": "贵阳市",
            "district": "花溪区"
        }
    },
    {
        "id": "6844691851603230339",
        "title": "旅游公共厕所",
        "address": "贵州省贵阳市南明区瑞金南路与雪涯路交叉口正南方向38米左右",
        "tel": "",
        "category": "基础设施:公共设施:公共厕所",
        "type": 0,
        "location": {
            "lat": 26.568776,
            "lng": 106.707721
        },
        "ad_info": {
            "adcode": 520102,
            "province": "贵州省",
            "city": "贵阳市",
            "district": "南明区"
        }
    },
    {
        "id": "2339304715111811816",
        "title": "公共厕所",
        "address": "贵州省贵阳市乌当区东二环与花都路交叉口西北方向545米左右",
        "tel": "",
        "category": "基础设施:公共设施:公共厕所",
        "type": 0,
        "location": {
            "lat": 26.666201,
            "lng": 106.746364
        },
        "ad_info": {
            "adcode": 520112,
            "province": "贵州省",
            "city": "贵阳市",
            "district": "乌当区"
        }
    },
    {
        "id": "3426108745646224538",
        "title": "公共厕所",
        "address": "贵州省贵阳市云岩区宝山北路19号",
        "tel": "",
        "category": "基础设施:公共设施:公共厕所",
        "type": 0,
        "location": {
            "lat": 26.57903,
            "lng": 106.72364
        },
        "ad_info": {
            "adcode": 520103,
            "province": "贵州省",
            "city": "贵阳市",
            "district": "云岩区"
        }
    },
    {
        "id": "6416589060509083613",
        "title": "公共厕所",
        "address": "贵州省贵阳市白云区龙井路32号",
        "tel": "",
        "category": "基础设施:公共设施:公共厕所",
        "type": 0,
        "location": {
            "lat": 26.669761,
            "lng": 106.618926
        },
        "ad_info": {
            "adcode": 520113,
            "province": "贵州省",
            "city": "贵阳市",
            "district": "白云区"
        }
    },
    {
        "id": "909306333508732583",
        "title": "公共厕所",
        "address": "贵州省贵阳市南明区中环路东段与富源立交交叉口西南方向184米左右",
        "tel": "",
        "category": "基础设施:公共设施:公共厕所",
        "type": 0,
        "location": {
            "lat": 26.554537,
            "lng": 106.73975
        },
        "ad_info": {
            "adcode": 520102,
            "province": "贵州省",
            "city": "贵阳市",
            "district": "南明区"
        }
    },
    {
        "id": "12147078249671821289",
        "title": "贵州山水大酒店-洗手间",
        "address": "贵州省贵阳市云岩区北京路203号(银海元隆广场旁)",
        "tel": "",
        "category": "基础设施:公共设施:公共厕所",
        "type": 0,
        "location": {
            "lat": 26.592869,
            "lng": 106.705084
        },
        "ad_info": {
            "adcode": 520103,
            "province": "贵州省",
            "city": "贵阳市",
            "district": "云岩区"
        }
    },
    {
        "id": "17135172740524512589",
        "title": "公共厕所",
        "address": "贵州省贵阳市乌当区广场西路与新添大道北段交叉口正东方向303米左右",
        "tel": "",
        "category": "基础设施:公共设施:公共厕所",
        "type": 0,
        "location": {
            "lat": 26.641703,
            "lng": 106.780004
        },
        "ad_info": {
            "adcode": 520112,
            "province": "贵州省",
            "city": "贵阳市",
            "district": "乌当区"
        }
    },
    {
        "id": "15486393149143219617",
        "title": "公共厕所",
        "address": "贵州省贵阳市云岩区延安北巷与延安南巷交叉口正西方向159米左右",
        "tel": "",
        "category": "基础设施:公共设施:公共厕所",
        "type": 0,
        "location": {
            "lat": 26.583751,
            "lng": 106.698588
        },
        "ad_info": {
            "adcode": 520103,
            "province": "贵州省",
            "city": "贵阳市",
            "district": "云岩区"
        }
    },
    {
        "id": "10636300466944701295",
        "title": "公共厕所",
        "address": "贵州省贵阳市云岩区延安北巷与延安南巷交叉口西北方向55米左右",
        "tel": "",
        "category": "基础设施:公共设施:公共厕所",
        "type": 0,
        "location": {
            "lat": 26.584201,
            "lng": 106.699786
        },
        "ad_info": {
            "adcode": 520103,
            "province": "贵州省",
            "city": "贵阳市",
            "district": "云岩区"
        }
    },
    {
        "id": "11809138005012540661",
        "title": "男洗手间(海纳广场)",
        "address": "贵州省贵阳市花溪区黄河路42号海纳广场1F",
        "tel": "",
        "category": "基础设施:公共设施:男洗手间",
        "type": 0,
        "location": {
            "lat": 26.520836,
            "lng": 106.7023
        },
        "ad_info": {
            "adcode": 520111,
            "province": "贵州省",
            "city": "贵阳市",
            "district": "花溪区"
        }
    },
    {
        "id": "2858439495132914861",
        "title": "公共厕所",
        "address": "贵州省贵阳市花溪区天河潭风景区贵阳故事街B3-12号",
        "tel": "",
        "category": "基础设施:公共设施:公共厕所",
        "type": 0,
        "location": {
            "lat": 26.443745,
            "lng": 106.583135
        },
        "ad_info": {
            "adcode": 520111,
            "province": "贵州省",
            "city": "贵阳市",
            "district": "花溪区"
        }
    },
    {
        "id": "10953540351080650993",
        "title": "公共厕所",
        "address": "贵州省贵阳市清镇市新民路与红旗路交叉口正南方向109米左右",
        "tel": "",
        "category": "基础设施:公共设施:公共厕所",
        "type": 0,
        "location": {
            "lat": 26.554733,
            "lng": 106.470348
        },
        "ad_info": {
            "adcode": 520181,
            "province": "贵州省",
            "city": "贵阳市",
            "district": "清镇市"
        }
    },
    {
        "id": "17752413159495508801",
        "title": "公共厕所",
        "address": "贵州省贵阳市南明区箭道街贵阳市苗苗实验学校",
        "tel": "",
        "category": "基础设施:公共设施:公共厕所",
        "type": 0,
        "location": {
            "lat": 26.568108,
            "lng": 106.7135
        },
        "ad_info": {
            "adcode": 520102,
            "province": "贵州省",
            "city": "贵阳市",
            "district": "南明区"
        }
    },
    {
        "id": "5997584234619144825",
        "title": "肯德基(黄河路餐厅)-洗手间",
        "address": "贵州省贵阳市花溪区黄河路35号",
        "tel": "",
        "category": "基础设施:公共设施:公共厕所",
        "type": 0,
        "location": {
            "lat": 26.520229,
            "lng": 106.70189
        },
        "ad_info": {
            "adcode": 520111,
            "province": "贵州省",
            "city": "贵阳市",
            "district": "花溪区"
        }
    },
    {
        "id": "8997821049897679966",
        "title": "公共厕所",
        "address": "贵州省贵阳市花溪区兴义路与花溪大道(南段)交叉口正北方向136米左右",
        "tel": "",
        "category": "基础设施:公共设施:公共厕所",
        "type": 0,
        "location": {
            "lat": 26.456297,
            "lng": 106.674982
        },
        "ad_info": {
            "adcode": 520111,
            "province": "贵州省",
            "city": "贵阳市",
            "district": "花溪区"
        }
    },
    {
        "id": "9400747294693754064",
        "title": "公共厕所",
        "address": "贵州省贵阳市云岩区庆丰路9号院附近(贵阳电信大厦西北)",
        "tel": "",
        "category": "基础设施:公共设施:公共厕所",
        "type": 0,
        "location": {
            "lat": 26.603005,
            "lng": 106.716885
        },
        "ad_info": {
            "adcode": 520103,
            "province": "贵州省",
            "city": "贵阳市",
            "district": "云岩区"
        }
    },
    {
        "id": "6467656070435090865",
        "title": "公共厕所",
        "address": "贵州省贵阳市云岩区白云大道192号",
        "tel": "",
        "category": "基础设施:公共设施:公共厕所",
        "type": 0,
        "location": {
            "lat": 26.59441,
            "lng": 106.66206
        },
        "ad_info": {
            "adcode": 520103,
            "province": "贵州省",
            "city": "贵阳市",
            "district": "云岩区"
        }
    },
    {
        "id": "10500749100862750614",
        "title": "公共厕所",
        "address": "贵州省贵阳市云岩区新街与松坡路交叉口正西方向25米左右",
        "tel": "",
        "category": "基础设施:公共设施:公共厕所",
        "type": 0,
        "location": {
            "lat": 26.582734,
            "lng": 106.661238
        },
        "ad_info": {
            "adcode": 520103,
            "province": "贵州省",
            "city": "贵阳市",
            "district": "云岩区"
        }
    },
    {
        "id": "11028795553073826992",
        "title": "公共厕所",
        "address": "贵州省贵阳市云岩区改茶路与林泉路交叉口西南方向336米左右",
        "tel": "",
        "category": "基础设施:公共设施:公共厕所",
        "type": 0,
        "location": {
            "lat": 26.57427,
            "lng": 106.666808
        },
        "ad_info": {
            "adcode": 520103,
            "province": "贵州省",
            "city": "贵阳市",
            "district": "云岩区"
        }
    },
    {
        "id": "13153631745624321936",
        "title": "公共厕所",
        "address": "贵州省贵阳市花溪区新村路与黔江路交叉口正南方向334米左右",
        "tel": "",
        "category": "基础设施:公共设施:公共厕所",
        "type": 0,
        "location": {
            "lat": 26.530515,
            "lng": 106.70441
        },
        "ad_info": {
            "adcode": 520111,
            "province": "贵州省",
            "city": "贵阳市",
            "district": "花溪区"
        }
    },
    {
        "id": "6844691851603230339",
        "title": "旅游公共厕所",
        "address": "贵州省贵阳市南明区瑞金南路与雪涯路交叉口正南方向38米左右",
        "tel": "",
        "category": "基础设施:公共设施:公共厕所",
        "type": 0,
        "location": {
            "lat": 26.568776,
            "lng": 106.707721
        },
        "ad_info": {
            "adcode": 520102,
            "province": "贵州省",
            "city": "贵阳市",
            "district": "南明区"
        }
    },
    {
        "id": "2339304715111811816",
        "title": "公共厕所",
        "address": "贵州省贵阳市乌当区东二环与花都路交叉口西北方向545米左右",
        "tel": "",
        "category": "基础设施:公共设施:公共厕所",
        "type": 0,
        "location": {
            "lat": 26.666201,
            "lng": 106.746364
        },
        "ad_info": {
            "adcode": 520112,
            "province": "贵州省",
            "city": "贵阳市",
            "district": "乌当区"
        }
    },
    {
        "id": "3426108745646224538",
        "title": "公共厕所",
        "address": "贵州省贵阳市云岩区宝山北路19号",
        "tel": "",
        "category": "基础设施:公共设施:公共厕所",
        "type": 0,
        "location": {
            "lat": 26.57903,
            "lng": 106.72364
        },
        "ad_info": {
            "adcode": 520103,
            "province": "贵州省",
            "city": "贵阳市",
            "district": "云岩区"
        }
    },
    {
        "id": "6416589060509083613",
        "title": "公共厕所",
        "address": "贵州省贵阳市白云区龙井路32号",
        "tel": "",
        "category": "基础设施:公共设施:公共厕所",
        "type": 0,
        "location": {
            "lat": 26.669761,
            "lng": 106.618926
        },
        "ad_info": {
            "adcode": 520113,
            "province": "贵州省",
            "city": "贵阳市",
            "district": "白云区"
        }
    },
    {
        "id": "909306333508732583",
        "title": "公共厕所",
        "address": "贵州省贵阳市南明区中环路东段与富源立交交叉口西南方向184米左右",
        "tel": "",
        "category": "基础设施:公共设施:公共厕所",
        "type": 0,
        "location": {
            "lat": 26.554537,
            "lng": 106.73975
        },
        "ad_info": {
            "adcode": 520102,
            "province": "贵州省",
            "city": "贵阳市",
            "district": "南明区"
        }
    },
    {
        "id": "12147078249671821289",
        "title": "贵州山水大酒店-洗手间",
        "address": "贵州省贵阳市云岩区北京路203号(银海元隆广场旁)",
        "tel": "",
        "category": "基础设施:公共设施:公共厕所",
        "type": 0,
        "location": {
            "lat": 26.592869,
            "lng": 106.705084
        },
        "ad_info": {
            "adcode": 520103,
            "province": "贵州省",
            "city": "贵阳市",
            "district": "云岩区"
        }
    },
    {
        "id": "17135172740524512589",
        "title": "公共厕所",
        "address": "贵州省贵阳市乌当区广场西路与新添大道北段交叉口正东方向303米左右",
        "tel": "",
        "category": "基础设施:公共设施:公共厕所",
        "type": 0,
        "location": {
            "lat": 26.641703,
            "lng": 106.780004
        },
        "ad_info": {
            "adcode": 520112,
            "province": "贵州省",
            "city": "贵阳市",
            "district": "乌当区"
        }
    },
    {
        "id": "15486393149143219617",
        "title": "公共厕所",
        "address": "贵州省贵阳市云岩区延安北巷与延安南巷交叉口正西方向159米左右",
        "tel": "",
        "category": "基础设施:公共设施:公共厕所",
        "type": 0,
        "location": {
            "lat": 26.583751,
            "lng": 106.698588
        },
        "ad_info": {
            "adcode": 520103,
            "province": "贵州省",
            "city": "贵阳市",
            "district": "云岩区"
        }
    },
    {
        "id": "10636300466944701295",
        "title": "公共厕所",
        "address": "贵州省贵阳市云岩区延安北巷与延安南巷交叉口西北方向55米左右",
        "tel": "",
        "category": "基础设施:公共设施:公共厕所",
        "type": 0,
        "location": {
            "lat": 26.584201,
            "lng": 106.699786
        },
        "ad_info": {
            "adcode": 520103,
            "province": "贵州省",
            "city": "贵阳市",
            "district": "云岩区"
        }
    },
    {
        "id": "11809138005012540661",
        "title": "男洗手间(海纳广场)",
        "address": "贵州省贵阳市花溪区黄河路42号海纳广场1F",
        "tel": "",
        "category": "基础设施:公共设施:男洗手间",
        "type": 0,
        "location": {
            "lat": 26.520836,
            "lng": 106.7023
        },
        "ad_info": {
            "adcode": 520111,
            "province": "贵州省",
            "city": "贵阳市",
            "district": "花溪区"
        }
    },
    {
        "id": "2858439495132914861",
        "title": "公共厕所",
        "address": "贵州省贵阳市花溪区天河潭风景区贵阳故事街B3-12号",
        "tel": "",
        "category": "基础设施:公共设施:公共厕所",
        "type": 0,
        "location": {
            "lat": 26.443745,
            "lng": 106.583135
        },
        "ad_info": {
            "adcode": 520111,
            "province": "贵州省",
            "city": "贵阳市",
            "district": "花溪区"
        }
    },
    {
        "id": "10953540351080650993",
        "title": "公共厕所",
        "address": "贵州省贵阳市清镇市新民路与红旗路交叉口正南方向109米左右",
        "tel": "",
        "category": "基础设施:公共设施:公共厕所",
        "type": 0,
        "location": {
            "lat": 26.554733,
            "lng": 106.470348
        },
        "ad_info": {
            "adcode": 520181,
            "province": "贵州省",
            "city": "贵阳市",
            "district": "清镇市"
        }
    },
    {
        "id": "17752413159495508801",
        "title": "公共厕所",
        "address": "贵州省贵阳市南明区箭道街贵阳市苗苗实验学校",
        "tel": "",
        "category": "基础设施:公共设施:公共厕所",
        "type": 0,
        "location": {
            "lat": 26.568108,
            "lng": 106.7135
        },
        "ad_info": {
            "adcode": 520102,
            "province": "贵州省",
            "city": "贵阳市",
            "district": "南明区"
        }
    },
    {
        "id": "5997584234619144825",
        "title": "肯德基(黄河路餐厅)-洗手间",
        "address": "贵州省贵阳市花溪区黄河路35号",
        "tel": "",
        "category": "基础设施:公共设施:公共厕所",
        "type": 0,
        "location": {
            "lat": 26.520229,
            "lng": 106.70189
        },
        "ad_info": {
            "adcode": 520111,
            "province": "贵州省",
            "city": "贵阳市",
            "district": "花溪区"
        }
    },
    {
        "id": "8997821049897679966",
        "title": "公共厕所",
        "address": "贵州省贵阳市花溪区兴义路与花溪大道(南段)交叉口正北方向136米左右",
        "tel": "",
        "category": "基础设施:公共设施:公共厕所",
        "type": 0,
        "location": {
            "lat": 26.456297,
            "lng": 106.674982
        },
        "ad_info": {
            "adcode": 520111,
            "province": "贵州省",
            "city": "贵阳市",
            "district": "花溪区"
        }
    },
    {
        "id": "9400747294693754064",
        "title": "公共厕所",
        "address": "贵州省贵阳市云岩区庆丰路9号院附近(贵阳电信大厦西北)",
        "tel": "",
        "category": "基础设施:公共设施:公共厕所",
        "type": 0,
        "location": {
            "lat": 26.603005,
            "lng": 106.716885
        },
        "ad_info": {
            "adcode": 520103,
            "province": "贵州省",
            "city": "贵阳市",
            "district": "云岩区"
        }
    },
    {
        "id": "6467656070435090865",
        "title": "公共厕所",
        "address": "贵州省贵阳市云岩区白云大道192号",
        "tel": "",
        "category": "基础设施:公共设施:公共厕所",
        "type": 0,
        "location": {
            "lat": 26.59441,
            "lng": 106.66206
        },
        "ad_info": {
            "adcode": 520103,
            "province": "贵州省",
            "city": "贵阳市",
            "district": "云岩区"
        }
    },
    {
        "id": "10500749100862750614",
        "title": "公共厕所",
        "address": "贵州省贵阳市云岩区新街与松坡路交叉口正西方向25米左右",
        "tel": "",
        "category": "基础设施:公共设施:公共厕所",
        "type": 0,
        "location": {
            "lat": 26.582734,
            "lng": 106.661238
        },
        "ad_info": {
            "adcode": 520103,
            "province": "贵州省",
            "city": "贵阳市",
            "district": "云岩区"
        }
    },
    {
        "id": "11028795553073826992",
        "title": "公共厕所",
        "address": "贵州省贵阳市云岩区改茶路与林泉路交叉口西南方向336米左右",
        "tel": "",
        "category": "基础设施:公共设施:公共厕所",
        "type": 0,
        "location": {
            "lat": 26.57427,
            "lng": 106.666808
        },
        "ad_info": {
            "adcode": 520103,
            "province": "贵州省",
            "city": "贵阳市",
            "district": "云岩区"
        }
    },
    {
        "id": "13153631745624321936",
        "title": "公共厕所",
        "address": "贵州省贵阳市花溪区新村路与黔江路交叉口正南方向334米左右",
        "tel": "",
        "category": "基础设施:公共设施:公共厕所",
        "type": 0,
        "location": {
            "lat": 26.530515,
            "lng": 106.70441
        },
        "ad_info": {
            "adcode": 520111,
            "province": "贵州省",
            "city": "贵阳市",
            "district": "花溪区"
        }
    },
    {
        "id": "6844691851603230339",
        "title": "旅游公共厕所",
        "address": "贵州省贵阳市南明区瑞金南路与雪涯路交叉口正南方向38米左右",
        "tel": "",
        "category": "基础设施:公共设施:公共厕所",
        "type": 0,
        "location": {
            "lat": 26.568776,
            "lng": 106.707721
        },
        "ad_info": {
            "adcode": 520102,
            "province": "贵州省",
            "city": "贵阳市",
            "district": "南明区"
        }
    },
    {
        "id": "2339304715111811816",
        "title": "公共厕所",
        "address": "贵州省贵阳市乌当区东二环与花都路交叉口西北方向545米左右",
        "tel": "",
        "category": "基础设施:公共设施:公共厕所",
        "type": 0,
        "location": {
            "lat": 26.666201,
            "lng": 106.746364
        },
        "ad_info": {
            "adcode": 520112,
            "province": "贵州省",
            "city": "贵阳市",
            "district": "乌当区"
        }
    },