[
    {
        "id": "4348401440995869109",
        "title": "公共厕所",
        "address": "广西壮族自治区贺州市八步区光明大道与城西路交叉口东南方向92米左右",
        "tel": "",
        "category": "基础设施:公共设施:公共厕所",
        "type": 0,
        "location": {
            "lat": 24.414356,
            "lng": 111.534009
        },
        "ad_info": {
            "adcode": 451102,
            "province": "广西壮族自治区",
            "city": "贺州市",
            "district": "八步区"
        }
    },
    {
        "id": "8403785326685937800",
        "title": "公共厕所",
        "address": "广西壮族自治区贺州市昭平县X723与黄姚新街交叉口正西方向949米左右",
        "tel": "",
        "category": "基础设施:公共设施:公共厕所",
        "type": 0,
        "location": {
            "lat": 24.24888,
            "lng": 111.202723
        },
        "ad_info": {
            "adcode": 451121,
            "province": "广西壮族自治区",
            "city": "贺州市",
            "district": "昭平县"
        }
    },
    {
        "id": "701647341003463579",
        "title": "公共厕所",
        "address": "广西壮族自治区贺州市八步区建设中路与新宁街交叉口西南方向84米左右",
        "tel": "",
        "category": "基础设施:公共设施:公共厕所",
        "type": 0,
        "location": {
            "lat": 24.412908,
            "lng": 111.547568
        },
        "ad_info": {
            "adcode": 451102,
            "province": "广西壮族自治区",
            "city": "贺州市",
            "district": "八步区"
        }
    },
    {
        "id": "778934419659454071",
        "title": "公共厕所",
        "address": "广西壮族自治区贺州市八步区建设西路421-423号",
        "tel": "",
        "category": "基础设施:公共设施:公共厕所",
        "type": 0,
        "location": {
            "lat": 24.41234,
            "lng": 111.51774
        },
        "ad_info": {
            "adcode": 451102,
            "province": "广西壮族自治区",
            "city": "贺州市",
            "district": "八步区"
        }
    },
    {
        "id": "14262490378201100822",
        "title": "公共厕所",
        "address": "广西壮族自治区贺州市八步区灵峰商业步行街与灵峰街交叉口东北方向32米左右",
        "tel": "",
        "category": "基础设施:公共设施:公共厕所",
        "type": 0,
        "location": {
            "lat": 24.409356,
            "lng": 111.552173
        },
        "ad_info": {
            "adcode": 451102,
            "province": "广西壮族自治区",
            "city": "贺州市",
            "district": "八步区"
        }
    },
    {
        "id": "3352768590995110599",
        "title": "公共厕所",
        "address": "广西壮族自治区贺州市八步区东宁商业步行街与体育路交叉口西北方向52米左右",
        "tel": "",
        "category": "基础设施:公共设施:公共厕所",
        "type": 0,
        "location": {
            "lat": 24.411532,
            "lng": 111.546832
        },
        "ad_info": {
            "adcode": 451102,
            "province": "广西壮族自治区",
            "city": "贺州市",
            "district": "八步区"
        }
    },
    {
        "id": "7742912343404167845",
        "title": "公共厕所",
        "address": "广西壮族自治区贺州市八步区光明大道与潇贺大道交叉口正东方向107米左右",
        "tel": "",
        "category": "基础设施:公共设施:公共厕所",
        "type": 0,
        "location": {
            "lat": 24.394493,
            "lng": 111.533887
        },
        "ad_info": {
            "adcode": 451102,
            "province": "广西壮族自治区",
            "city": "贺州市",
            "district": "八步区"
        }
    },
    {
        "id": "8996250156386491456",
        "title": "公共厕所",
        "address": "广西壮族自治区贺州市富川瑶族自治县X714与朝东老街交叉口西北方向1948米左右",
        "tel": "",
        "category": "基础设施:公共设施:公共厕所",
        "type": 0,
        "location": {
            "lat": 25.027544,
            "lng": 111.149976
        },
        "ad_info": {
            "adcode": 451123,
            "province": "广西壮族自治区",
            "city": "贺州市",
            "district": "富川瑶族自治县"
        }
    },
    {
        "id": "572098837063481962",
        "title": "公共厕所",
        "address": "广西壮族自治区贺州市八步区信都大道与合作大道交叉口东北方向516米左右",
        "tel": "",
        "category": "基础设施:公共设施:公共厕所",
        "type": 0,
        "location": {
            "lat": 24.000602,
            "lng": 111.732456
        },
        "ad_info": {
            "adcode": 451102,
            "province": "广西壮族自治区",
            "city": "贺州市",
            "district": "八步区"
        }
    },
    {
        "id": "10246849892134903001",
        "title": "公共厕所",
        "address": "广西壮族自治区贺州市八步区光明大道与建设中路交叉口正南方向101米左右",
        "tel": "",
        "category": "基础设施:公共设施:公共厕所",
        "type": 0,
        "location": {
            "lat": 24.412428,
            "lng": 111.533118
        },
        "ad_info": {
            "adcode": 451102,
            "province": "广西壮族自治区",
            "city": "贺州市",
            "district": "八步区"
        }
    },
    {
        "id": "1463758125997143085",
        "title": "公共厕所",
        "address": "广西壮族自治区贺州市八步区前进路与新兴北路交叉口西南方向79米左右",
        "tel": "",
        "category": "基础设施:公共设施:公共厕所",
        "type": 0,
        "location": {
            "lat": 24.4143,
            "lng": 111.54371
        },
        "ad_info": {
            "adcode": 451102,
            "province": "广西壮族自治区",
            "city": "贺州市",
            "district": "八步区"
        }
    },
    {
        "id": "2556648385895589012",
        "title": "公共厕所",
        "address": "广西壮族自治区贺州市八步区建设东路与星光路交叉口正西方向65米左右",
        "tel": "",
        "category": "基础设施:公共设施:公共厕所",
        "type": 0,
        "location": {
            "lat": 24.413025,
            "lng": 111.568147
        },
        "ad_info": {
            "adcode": 451102,
            "province": "广西壮族自治区",
            "city": "贺州市",
            "district": "八步区"
        }
    },
    {
        "id": "6046078670024634035",
        "title": "公共厕所",
        "address": "广西壮族自治区贺州市八步区建设东路183号",
        "tel": "",
        "category": "基础设施:公共设施:公共厕所",
        "type": 0,
        "location": {
            "lat": 24.412843,
            "lng": 111.568538
        },
        "ad_info": {
            "adcode": 451102,
            "province": "广西壮族自治区",
            "city": "贺州市",
            "district": "八步区"
        }
    },
    {
        "id": "5298609549431992753",
        "title": "公共厕所",
        "address": "广西壮族自治区贺州市富川瑶族自治县文教路206号",
        "tel": "",
        "category": "基础设施:公共设施:公共厕所",
        "type": 0,
        "location": {
            "lat": 24.828271,
            "lng": 111.270056
        },
        "ad_info": {
            "adcode": 451123,
            "province": "广西壮族自治区",
            "city": "贺州市",
            "district": "富川瑶族自治县"
        }
    },
    {
        "id": "10220900509894822348",
        "title": "公共厕所",
        "address": "广西壮族自治区贺州市昭平县X723与黄姚新街交叉口正西方向78米左右",
        "tel": "",
        "category": "基础设施:公共设施:公共厕所",
        "type": 0,
        "location": {
            "lat": 24.251922,
            "lng": 111.210792
        },
        "ad_info": {
            "adcode": 451121,
            "province": "广西壮族自治区",
            "city": "贺州市",
            "district": "昭平县"
        }
    },
    {
        "id": "13370656902632334110",
        "title": "公共厕所",
        "address": "广西壮族自治区贺州市八步区建设中路八步实验小学",
        "tel": "",
        "category": "基础设施:公共设施:公共厕所",
        "type": 0,
        "location": {
            "lat": 24.41275,
            "lng": 111.540219
        },
        "ad_info": {
            "adcode": 451102,
            "province": "广西壮族自治区",
            "city": "贺州市",
            "district": "八步区"
        }
    },
    {
        "id": "10094779922493631905",
        "title": "公共厕所",
        "address": "广西壮族自治区贺州市八步区东坡巷与爱莲西路交叉口正东方向390米左右",
        "tel": "",
        "category": "基础设施:公共设施:公共厕所",
        "type": 0,
        "location": {
            "lat": 24.412263,
            "lng": 111.580216
        },
        "ad_info": {
            "adcode": 451102,
            "province": "广西壮族自治区",
            "city": "贺州市",
            "district": "八步区"
        }
    },
    {
        "id": "704676251685602093",
        "title": "公共厕所",
        "address": "广西壮族自治区贺州市昭平县河西西路与竹园二街交叉口正北方向193米左右",
        "tel": "",
        "category": "基础设施:公共设施:公共厕所",
        "type": 0,
        "location": {
            "lat": 24.177432,
            "lng": 110.810794
        },
        "ad_info": {
            "adcode": 451121,
            "province": "广西壮族自治区",
            "city": "贺州市",
            "district": "昭平县"
        }
    },
    {
        "id": "16209147002029727235",
        "title": "公共厕所",
        "address": "广西壮族自治区贺州市八步区建设西路163号",
        "tel": "",
        "category": "基础设施:公共设施:公共厕所",
        "type": 0,
        "location": {
            "lat": 24.413915,
            "lng": 111.527701
        },
        "ad_info": {
            "adcode": 451102,
            "province": "广西壮族自治区",
            "city": "贺州市",
            "district": "八步区"
        }
    },
    {
        "id": "1748355265288217676",
        "title": "公共厕所",
        "address": "广西壮族自治区贺州市八步区X693与河西街交叉口东南方向254米左右",
        "tel": "",
        "category": "基础设施:公共设施:公共厕所",
        "type": 0,
        "location": {
            "lat": 24.328547,
            "lng": 111.663843
        },
        "ad_info": {
            "adcode": 451102,
            "province": "广西壮族自治区",
            "city": "贺州市",
            "district": "八步区"
        }
    },
    {
        "id": "3271300870591780305",
        "title": "公共厕所",
        "address": "广西壮族自治区贺州市八步区莲塘镇炭冲村刘屋排",
        "tel": "",
        "category": "基础设施:公共设施:公共厕所",
        "type": 0,
        "location": {
            "lat": 24.417402,
            "lng": 111.719861
        },
        "ad_info": {
            "adcode": 451102,
            "province": "广西壮族自治区",
            "city": "贺州市",
            "district": "八步区"
        }
    },
    {
        "id": "12857925731863036094",
        "title": "公共厕所",
        "address": "广西壮族自治区贺州市昭平县X723与黄姚新街交叉口西南方向1366米左右",
        "tel": "",
        "category": "基础设施:公共设施:公共厕所",
        "type": 0,
        "location": {
            "lat": 24.246286,
            "lng": 111.199472
        },
        "ad_info": {
            "adcode": 451121,
            "province": "广西壮族自治区",
            "city": "贺州市",
            "district": "昭平县"
        }
    },
    {
        "id": "827361712381137594",
        "title": "公共厕所",
        "address": "广西壮族自治区贺州市八步区光明大道与钟山西路交叉口东南方向191米左右",
        "tel": "",
        "category": "基础设施:公共设施:公共厕所",
        "type": 0,
        "location": {
            "lat": 24.39766,
            "lng": 111.536055
        },
        "ad_info": {
            "adcode": 451102,
            "province": "广西壮族自治区",
            "city": "贺州市",
            "district": "八步区"
        }
    },
    {
        "id": "11902311519245328799",
        "title": "公共厕所",
        "address": "广西壮族自治区贺州市八步区新兴北路17号",
        "tel": "",
        "category": "基础设施:公共设施:公共厕所",
        "type": 0,
        "location": {
            "lat": 24.411863,
            "lng": 111.545907
        },
        "ad_info": {
            "adcode": 451102,
            "province": "广西壮族自治区",
            "city": "贺州市",
            "district": "八步区"
        }
    },
    {
        "id": "4913326415592740618",
        "title": "公共厕所",
        "address": "广西壮族自治区贺州市八步区八达东路与创业路交叉口东南方向131米左右",
        "tel": "",
        "category": "基础设施:公共设施:公共厕所",
        "type": 0,
        "location": {
            "lat": 24.410631,
            "lng": 111.597686
        },
        "ad_info": {
            "adcode": 451102,
            "province": "广西壮族自治区",
            "city": "贺州市",
            "district": "八步区"
        }
    },
    {
        "id": "12266456845493843786",
        "title": "公共厕所",
        "address": "广西壮族自治区贺州市八步区G207",
        "tel": "",
        "category": "基础设施:公共设施:公共厕所",
        "type": 0,
        "location": {
            "lat": 24.157847,
            "lng": 111.704534
        },
        "ad_info": {
            "adcode": 451102,
            "province": "广西壮族自治区",
            "city": "贺州市",
            "district": "八步区"
        }
    },
    {
        "id": "12454903171911820764",
        "title": "公共厕所",
        "address": "广西壮族自治区贺州市八步区平安西路与翔云街交叉口正西方向151米左右",
        "tel": "",
        "category": "基础设施:公共设施:公共厕所",
        "type": 0,
        "location": {
            "lat": 24.407933,
            "lng": 111.559359
        },
        "ad_info": {
            "adcode": 451102,
            "province": "广西壮族自治区",
            "city": "贺州市",
            "district": "八步区"
        }
    },
    {
        "id": "14645894280753809665",
        "title": "公共厕所",
        "address": "广西壮族自治区贺州市八步区平安西路7号",
        "tel": "",
        "category": "基础设施:公共设施:公共厕所",
        "type": 0,
        "location": {
            "lat": 24.413948,
            "lng": 111.559388
        },
        "ad_info": {
            "adcode": 451102,
            "province": "广西壮族自治区",
            "city": "贺州市",
            "district": "八步区"
        }
    },
    {
        "id": "10408686972190220187",
        "title": "公共厕所",
        "address": "广西壮族自治区贺州市昭平县游客中心东北侧",
        "tel": "",
        "category": "基础设施:公共设施:公共厕所",
        "type": 0,
        "location": {
            "lat": 24.250481,
            "lng": 111.160698
        },
        "ad_info": {
            "adcode": 451121,
            "province": "广西壮族自治区",
            "city": "贺州市",
            "district": "昭平县"
        }
    },
    {
        "id": "9793484139147801006",
        "title": "公共厕所",
        "address": "广西壮族自治区贺州市八步区建设东路与银河街交叉口西南方向32米左右",
        "tel": "",
        "category": "基础设施:公共设施:公共厕所",
        "type": 0,
        "location": {
            "lat": 24.413007,
            "lng": 111.557824
        },
        "ad_info": {
            "adcode": 451102,
            "province": "广西壮族自治区",
            "city": "贺州市",
            "district": "八步区"
        }
    },
    {
        "id": "14586006192009792473",
        "title": "公共厕所",
        "address": "广西壮族自治区贺州市钟山县城厢路与复兴路交叉口西南方向270米左右",
        "tel": "",
        "category": "基础设施:公共设施:公共厕所",
        "type": 0,
        "location": {
            "lat": 24.528573,
            "lng": 111.315105
        },
        "ad_info": {
            "adcode": 451122,
            "province": "广西壮族自治区",
            "city": "贺州市",
            "district": "钟山县"
        }
    },
    {
        "id": "2831610725615293578",
        "title": "公共厕所",
        "address": "广西壮族自治区贺州市八步区S327与民田大桥交叉口正南方向95米左右",
        "tel": "",
        "category": "基础设施:公共设施:公共厕所",
        "type": 0,
        "location": {
            "lat": 24.415734,
            "lng": 111.500946
        },
        "ad_info": {
            "adcode": 451102,
            "province": "广西壮族自治区",
            "city": "贺州市",
            "district": "八步区"
        }
    },
    {
        "id": "7791475337644993056",
        "title": "公共厕所",
        "address": "广西壮族自治区贺州市八步区新兴南路117号",
        "tel": "",
        "category": "基础设施:公共设施:公共厕所",
        "type": 0,
        "location": {
            "lat": 24.399643,
            "lng": 111.541689
        },
        "ad_info": {
            "adcode": 451102,
            "province": "广西壮族自治区",
            "city": "贺州市",
            "district": "八步区"
        }
    },
    {
        "id": "7463303923097990411",
        "title": "公共厕所",
        "address": "广西壮族自治区贺州市八步区G323与八达东路交叉口正西方向60米左右",
        "tel": "",
        "category": "基础设施:公共设施:公共厕所",
        "type": 0,
        "location": {
            "lat": 24.408635,
            "lng": 111.615557
        },
        "ad_info": {
            "adcode": 451102,
            "province": "广西壮族自治区",
            "city": "贺州市",
            "district": "八步区"
        }
    },
    {
        "id": "12907433635860744729",
        "title": "公共厕所",
        "address": "广西壮族自治区贺州市昭平县G241与马滩大桥交叉口正南方向100米左右",
        "tel": "",
        "category": "基础设施:公共设施:公共厕所",
        "type": 0,
        "location": {
            "lat": 24.152129,
            "lng": 110.811936
        },
        "ad_info": {
            "adcode": 451121,
            "province": "广西壮族自治区",
            "city": "贺州市",
            "district": "昭平县"
        }
    },
    {
        "id": "6612171486102852447",
        "title": "信都镇公共厕所",
        "address": "广西壮族自治区贺州市八步区福宁街与金龙街交叉口正北方向106米左右",
        "tel": "",
        "category": "基础设施:公共设施:公共厕所",
        "type": 0,
        "location": {
            "lat": 23.99028,
            "lng": 111.726025
        },
        "ad_info": {
            "adcode": 451102,
            "province": "广西壮族自治区",
            "city": "贺州市",
            "district": "八步区"
        }
    },
    {
        "id": "11590893227688761809",
        "title": "公共厕所",
        "address": "广西壮族自治区贺州市昭平县G241与江滨路交叉口西北方向129米左右",
        "tel": "",
        "category": "基础设施:公共设施:公共厕所",
        "type": 0,
        "location": {
            "lat": 24.17334,
            "lng": 110.820984
        },
        "ad_info": {
            "adcode": 451121,
            "province": "广西壮族自治区",
            "city": "贺州市",
            "district": "昭平县"
        }
    },
    {
        "id": "8320930458244582788",
        "title": "无障碍洗手间",
        "address": "广西壮族自治区贺州市八步区新天地商业广场与鞍山西路交叉口西南方向67米左右",
        "tel": "",
        "category": "基础设施:公共设施:公共厕所",
        "type": 0,
        "location": {
            "lat": 24.410061,
            "lng": 111.554749
        },
        "ad_info": {
            "adcode": 451102,
            "province": "广西壮族自治区",
            "city": "贺州市",
            "district": "八步区"
        }
    },
    {
        "id": "493578536907851635",
        "title": "公共厕所",
        "address": "广西壮族自治区贺州市八步区厦良西路与新兴南路交叉口正北方向89米左右",
        "tel": "",
        "category": "基础设施:公共设施:公共厕所",
        "type": 0,
        "location": {
            "lat": 24.408857,
            "lng": 111.545022
        },
        "ad_info": {
            "adcode": 451102,
            "province": "广西壮族自治区",
            "city": "贺州市",
            "district": "八步区"
        }
    },
    {
        "id": "5679710085999480538",
        "title": "公共厕所",
        "address": "广西壮族自治区贺州市富川瑶族自治县凤凰路286号",
        "tel": "",
        "category": "基础设施:公共设施:公共厕所",
        "type": 0,
        "location": {
            "lat": 24.812424,
            "lng": 111.289521
        },
        "ad_info": {
            "adcode": 451123,
            "province": "广西壮族自治区",
            "city": "贺州市",
            "district": "富川瑶族自治县"
        }
    },
    {
        "id": "12784095217406165595",
        "title": "公共厕所",
        "address": "广西壮族自治区贺州市八步区宝龙汽车销售有限公司东侧120米",
        "tel": "",
        "category": "基础设施:公共设施:公共厕所",
        "type": 0,
        "location": {
            "lat": 24.418958,
            "lng": 111.688831
        },
        "ad_info": {
            "adcode": 451102,
            "province": "广西壮族自治区",
            "city": "贺州市",
            "district": "八步区"
        }
    },
    {
        "id": "13703397420978919581",
        "title": "公共厕所",
        "address": "广西壮族自治区贺州市八步区207国道与G78汕昆高速出口交叉口西南40米",
        "tel": "",
        "category": "基础设施:公共设施:公共厕所",
        "type": 0,
        "location": {
            "lat": 24.312814,
            "lng": 111.652101
        },
        "ad_info": {
            "adcode": 451102,
            "province": "广西壮族自治区",
            "city": "贺州市",
            "district": "八步区"
        }
    },
    {
        "id": "9260887435335385778",
        "title": "公共厕所",
        "address": "广西壮族自治区贺州市八步区G207与信都大道交叉口正北方向112米左右",
        "tel": "",
        "category": "基础设施:公共设施:公共厕所",
        "type": 0,
        "location": {
            "lat": 24.051856,
            "lng": 111.733801
        },
        "ad_info": {
            "adcode": 451102,
            "province": "广西壮族自治区",
            "city": "贺州市",
            "district": "八步区"
        }
    },
    {
        "id": "3560823404030301047",
        "title": "公共厕所",
        "address": "广西壮族自治区贺州市平桂区希望东路与电厂路交叉口西北方向32米左右",
        "tel": "",
        "category": "基础设施:公共设施:公共厕所",
        "type": 0,
        "location": {
            "lat": 24.467986,
            "lng": 111.492961
        },
        "ad_info": {
            "adcode": 451103,
            "province": "广西壮族自治区",
            "city": "贺州市",
            "district": "平桂区"
        }
    },
    {
        "id": "16153775150852437236",
        "title": "公共厕所",
        "address": "广西壮族自治区贺州市富川瑶族自治县青少年校外活动中心(风雨桥西南)",
        "tel": "",
        "category": "基础设施:公共设施:公共厕所",
        "type": 0,
        "location": {
            "lat": 24.815772,
            "lng": 111.273025
        },
        "ad_info": {
            "adcode": 451123,
            "province": "广西壮族自治区",
            "city": "贺州市",
            "district": "富川瑶族自治县"
        }
    },
    {
        "id": "6373610273518301042",
        "title": "公共厕所",
        "address": "广西壮族自治区贺州市昭平县马圣村牛角垌",
        "tel": "",
        "category": "基础设施:公共设施:公共厕所",
        "type": 0,
        "location": {
            "lat": 24.153471,
            "lng": 110.77194
        },
        "ad_info": {
            "adcode": 451121,
            "province": "广西壮族自治区",
            "city": "贺州市",
            "district": "昭平县"
        }
    },
    {
        "id": "7009307143119226879",
        "title": "公共厕所",
        "address": "广西壮族自治区贺州市昭平县东宁北路与体育路交叉口东南方向150米左右",
        "tel": "",
        "category": "基础设施:公共设施:公共厕所",
        "type": 0,
        "location": {
            "lat": 24.18477,
            "lng": 110.82289
        },
        "ad_info": {
            "adcode": 451121,
            "province": "广西壮族自治区",
            "city": "贺州市",
            "district": "昭平县"
        }
    },
    {
        "id": "12462090282729884267",
        "title": "公共厕所",
        "address": "广西壮族自治区贺州市钟山县钟山中路与钟山步行街交叉口正南方向38米左右",
        "tel": "",
        "category": "基础设施:公共设施:公共厕所",
        "type": 0,
        "location": {
            "lat": 24.524495,
            "lng": 111.305142
        },
        "ad_info": {
            "adcode": 451122,
            "province": "广西壮族自治区",
            "city": "贺州市",
            "district": "钟山县"
        }
    },
    {
        "id": "10723677219133677878",
        "title": "公共厕所",
        "address": "广西壮族自治区贺州市富川瑶族自治县二水沟路与凤凰路交叉口西北方向164米左右",
        "tel": "",
        "category": "基础设施:公共设施:公共厕所",
        "type": 0,
        "location": {
            "lat": 24.811592,
            "lng": 111.291853
        },
        "ad_info": {
            "adcode": 451123,
            "province": "广西壮族自治区",
            "city": "贺州市",
            "district": "富川瑶族自治县"
        }
    },
    {
        "id": "48418059646675026",
        "title": "公共厕所",
        "address": "广西壮族自治区贺州市平桂区东融大道辅路与光明大道交叉口东南方向459米左右",
        "tel": "",
        "category": "基础设施:公共设施:公共厕所",
        "type": 0,
        "location": {
            "lat": 24.440184,
            "lng": 111.529455
        },
        "ad_info": {
            "adcode": 451103,
            "province": "广西壮族自治区",
            "city": "贺州市",
            "district": "平桂区"
        }
    },
    {
        "id": "8684518709694328177",
        "title": "公共厕所",
        "address": "广西壮族自治区贺州市平桂区姑婆山大道与永康路交叉口正北方向176米左右",
        "tel": "",
        "category": "基础设施:公共设施:公共厕所",
        "type": 0,
        "location": {
            "lat": 24.436189,
            "lng": 111.54599
        },
        "ad_info": {
            "adcode": 451103,
            "province": "广西壮族自治区",
            "city": "贺州市",
            "district": "平桂区"
        }
    },
    {
        "id": "16272265779499740547",
        "title": "公共厕所",
        "address": "广西壮族自治区贺州市富川瑶族自治县S201与工业大道交叉口正北方向355米左右",
        "tel": "",
        "category": "基础设施:公共设施:公共厕所",
        "type": 0,
        "location": {
            "lat": 24.753183,
            "lng": 111.361301
        },
        "ad_info": {
            "adcode": 451123,
            "province": "广西壮族自治区",
            "city": "贺州市",
            "district": "富川瑶族自治县"
        }
    },
    {
        "id": "13369958301688225127",
        "title": "公共厕所",
        "address": "广西壮族自治区贺州市富川瑶族自治县新永路249号",
        "tel": "",
        "category": "基础设施:公共设施:公共厕所",
        "type": 0,
        "location": {
            "lat": 24.829617,
            "lng": 111.286819
        },
        "ad_info": {
            "adcode": 451123,
            "province": "广西壮族自治区",
            "city": "贺州市",
            "district": "富川瑶族自治县"
        }
    },
    {
        "id": "11911057961960389372",
        "title": "公共厕所",
        "address": "广西壮族自治区贺州市平桂区公园南一路与公园西路交叉口西北方向204米左右",
        "tel": "",
        "category": "基础设施:公共设施:公共厕所",
        "type": 0,
        "location": {
            "lat": 24.458745,
            "lng": 111.480812
        },
        "ad_info": {
            "adcode": 451103,
            "province": "广西壮族自治区",
            "city": "贺州市",
            "district": "平桂区"
        }
    },
    {
        "id": "10555445728230298514",
        "title": "公共厕所",
        "address": "广西壮族自治区贺州市富川瑶族自治县S203与南环路交叉口西北方向963米左右",
        "tel": "",
        "category": "基础设施:公共设施:公共厕所",
        "type": 0,
        "location": {
            "lat": 24.807906,
            "lng": 111.31055
        },
        "ad_info": {
            "adcode": 451123,
            "province": "广西壮族自治区",
            "city": "贺州市",
            "district": "富川瑶族自治县"
        }
    },
    {
        "id": "13938373781144287953",
        "title": "公共厕所",
        "address": "广西壮族自治区贺州市钟山县G323与富民路交叉口西北方向229米左右",
        "tel": "",
        "category": "基础设施:公共设施:公共厕所",
        "type": 0,
        "location": {
            "lat": 24.482016,
            "lng": 111.19601
        },
        "ad_info": {
            "adcode": 451122,
            "province": "广西壮族自治区",
            "city": "贺州市",
            "district": "钟山县"
        }
    },
    {
        "id": "4606723792032933493",
        "title": "公共厕所",
        "address": "广西壮族自治区贺州市钟山县北环东路与迎宾大道交叉口西南方向69米左右",
        "tel": "",
        "category": "基础设施:公共设施:公共厕所",
        "type": 0,
        "location": {
            "lat": 24.533888,
            "lng": 111.322957
        },
        "ad_info": {
            "adcode": 451122,
            "province": "广西壮族自治区",
            "city": "贺州市",
            "district": "钟山县"
        }
    },
    {
        "id": "7003398429246778705",
        "title": "公共厕所",
        "address": "广西壮族自治区贺州市平桂区公园南二路与复兴路交叉口东北方向242米左右",
        "tel": "",
        "category": "基础设施:公共设施:公共厕所",
        "type": 0,
        "location": {
            "lat": 24.458981,
            "lng": 111.479198
        },
        "ad_info": {
            "adcode": 451103,
            "province": "广西壮族自治区",
            "city": "贺州市",
            "district": "平桂区"
        }
    },
    {
        "id": "3490340675590995576",
        "title": "公共厕所",
        "address": "广西壮族自治区贺州市平桂区八达西路与民乐路交叉口东南方向78米左右",
        "tel": "",
        "category": "基础设施:公共设施:公共厕所",
        "type": 0,
        "location": {
            "lat": 24.417093,
            "lng": 111.52275
        },
        "ad_info": {
            "adcode": 451103,
            "province": "广西壮族自治区",
            "city": "贺州市",
            "district": "平桂区"
        }
    },
    {
        "id": "13138666293099922003",
        "title": "公共厕所",
        "address": "广西壮族自治区贺州市平桂区平桂大道与广场东路交叉口东南方向21米左右",
        "tel": "",
        "category": "基础设施:公共设施:公共厕所",
        "type": 0,
        "location": {
            "lat": 24.453771,
            "lng": 111.480968
        },
        "ad_info": {
            "adcode": 451103,
            "province": "广西壮族自治区",
            "city": "贺州市",
            "district": "平桂区"
        }
    },
    {
        "id": "4440049094255061245",
        "title": "卫生间",
        "address": "广西壮族自治区贺州市八步区平安东路与平安西路交叉口正南方向380米左右",
        "tel": "",
        "category": "基础设施:公共设施:公共厕所",
        "type": 0,
        "location": {
            "lat": 24.397482,
            "lng": 111.56731
        },
        "ad_info": {
            "adcode": 451102,
            "province": "广西壮族自治区",
            "city": "贺州市",
            "district": "八步区"
        }
    },
    {
        "id": "5627102428218039337",
        "title": "大桂山服务区公共厕所",
        "address": "广西壮族自治区贺州市八步区大桂山停车区与G78汕昆高速交叉口西北340米",
        "tel": "",
        "category": "基础设施:公共设施:公共厕所",
        "type": 0,
        "location": {
            "lat": 24.162612,
            "lng": 111.695355
        },
        "ad_info": {
            "adcode": 451102,
            "province": "广西壮族自治区",
            "city": "贺州市",
            "district": "八步区"
        }
    },
    {
        "id": "16711329576929429539",
        "title": "公共厕所",
        "address": "广西壮族自治区贺州市平桂区城西路与太平路交叉口正西方向81米左右",
        "tel": "",
        "category": "基础设施:公共设施:公共厕所",
        "type": 0,
        "location": {
            "lat": 24.441109,
            "lng": 111.513376
        },
        "ad_info": {
            "adcode": 451103,
            "province": "广西壮族自治区",
            "city": "贺州市",
            "district": "平桂区"
        }
    },
    {
        "id": "9346280297700110677",
        "title": "公共厕所",
        "address": "广西壮族自治区贺州市平桂区八达中路与前进路交叉口正东方向76米左右",
        "tel": "",
        "category": "基础设施:公共设施:公共厕所",
        "type": 0,
        "location": {
            "lat": 24.416685,
            "lng": 111.55294
        },
        "ad_info": {
            "adcode": 451103,
            "province": "广西壮族自治区",
            "city": "贺州市",
            "district": "平桂区"
        }
    },
    {
        "id": "6832965962482443323",
        "title": "爱莲湖公园公共厕所",
        "address": "广西壮族自治区贺州市八步区爱莲湖公园内(东北角)",
        "tel": "",
        "category": "基础设施:公共设施:公共厕所",
        "type": 0,
        "location": {
            "lat": 24.410786,
            "lng": 111.585141
        },
        "ad_info": {
            "adcode": 451102,
            "province": "广西壮族自治区",
            "city": "贺州市",
            "district": "八步区"
        }
    },
    {
        "id": "13196822516190389047",
        "title": "公共厕所",
        "address": "广西壮族自治区贺州市平桂区南环路中国石化加油站",
        "tel": "",
        "category": "基础设施:公共设施:公共厕所",
        "type": 0,
        "location": {
            "lat": 24.391366,
            "lng": 111.545029
        },
        "ad_info": {
            "adcode": 451103,
            "province": "广西壮族自治区",
            "city": "贺州市",
            "district": "平桂区"
        }
    },
    {
        "id": "2636533128358792585",
        "title": "公共厕所",
        "address": "广西壮族自治区贺州市平桂区安山驿站",
        "tel": "",
        "category": "基础设施:公共设施:公共厕所",
        "type": 0,
        "location": {
            "lat": 24.454395,
            "lng": 111.55816
        },
        "ad_info": {
            "adcode": 451103,
            "province": "广西壮族自治区",
            "city": "贺州市",
            "district": "平桂区"
        }
    },
    {
        "id": "3825876359457955768",
        "title": "公共厕所",
        "address": "广西壮族自治区贺州市钟山县北环东路与龙溪中路交叉口东南方向162米左右",
        "tel": "",
        "category": "基础设施:公共设施:公共厕所",
        "type": 0,
        "location": {
            "lat": 24.536773,
            "lng": 111.307535
        },
        "ad_info": {
            "adcode": 451122,
            "province": "广西壮族自治区",
            "city": "贺州市",
            "district": "钟山县"
        }
    },
    {
        "id": "17171842052574776144",
        "title": "公共厕所",
        "address": "广西壮族自治区贺州市钟山县护平东路与护平中路交叉口正北方向172米左右",
        "tel": "",
        "category": "基础设施:公共设施:公共厕所",
        "type": 0,
        "location": {
            "lat": 24.552065,
            "lng": 111.331144
        },
        "ad_info": {
            "adcode": 451122,
            "province": "广西壮族自治区",
            "city": "贺州市",
            "district": "钟山县"
        }
    },
    {
        "id": "14811266062488187230",
        "title": "公共厕所",
        "address": "广西壮族自治区贺州市平桂区万兴路与八达西路交叉口正北方向453米左右",
        "tel": "",
        "category": "基础设施:公共设施:公共厕所",
        "type": 0,
        "location": {
            "lat": 24.421417,
            "lng": 111.525596
        },
        "ad_info": {
            "adcode": 451103,
            "province": "广西壮族自治区",
            "city": "贺州市",
            "district": "平桂区"
        }
    },
    {
        "id": "8614994521467260639",
        "title": "公共厕所",
        "address": "广西壮族自治区贺州市平桂区G207与建设西路辅路交叉口西北方向55米",
        "tel": "",
        "category": "基础设施:公共设施:公共厕所",
        "type": 0,
        "location": {
            "lat": 24.415733,
            "lng": 111.515719
        },
        "ad_info": {
            "adcode": 451103,
            "province": "广西壮族自治区",
            "city": "贺州市",
            "district": "平桂区"
        }
    },
    {
        "id": "2774710779514118574",
        "title": "公共厕所",
        "address": "广西壮族自治区贺州市钟山县G323与二中路交叉口正西方向750米左右",
        "tel": "",
        "category": "基础设施:公共设施:公共厕所",
        "type": 0,
        "location": {
            "lat": 24.480096,
            "lng": 111.183092
        },
        "ad_info": {
            "adcode": 451122,
            "province": "广西壮族自治区",
            "city": "贺州市",
            "district": "钟山县"
        }
    },
    {
        "id": "12362142688113397731",
        "title": "公共厕所",
        "address": "广西壮族自治区贺州市钟山县S201与X706交叉口东北方向48米左右",
        "tel": "",
        "category": "基础设施:公共设施:公共厕所",
        "type": 0,
        "location": {
            "lat": 24.437196,
            "lng": 111.29757
        },
        "ad_info": {
            "adcode": 451122,
            "province": "广西壮族自治区",
            "city": "贺州市",
            "district": "钟山县"
        }
    },
    {
        "id": "10464292430962400520",
        "title": "公共厕所",
        "address": "广西壮族自治区贺州市钟山县兴钟南路与西乐街交叉口正西方向33米左右",
        "tel": "",
        "category": "基础设施:公共设施:公共厕所",
        "type": 0,
        "location": {
            "lat": 24.518686,
            "lng": 111.304656
        },
        "ad_info": {
            "adcode": 451122,
            "province": "广西壮族自治区",
            "city": "贺州市",
            "district": "钟山县"
        }
    },
    {
        "id": "11226501689833426445",
        "title": "公共厕所",
        "address": "广西壮族自治区贺州市八步区向阳路与日月街交叉口正北方向64米左右",
        "tel": "",
        "category": "基础设施:公共设施:公共厕所",
        "type": 0,
        "location": {
            "lat": 24.411911,
            "lng": 111.558106
        },
        "ad_info": {
            "adcode": 451102,
            "province": "广西壮族自治区",
            "city": "贺州市",
            "district": "八步区"
        }
    },
    {
        "id": "7766610941882461096",
        "title": "公共厕所",
        "address": "广西壮族自治区贺州市平桂区清面村黄田派出所玉石林警务室附近",
        "tel": "",
        "category": "基础设施:公共设施:公共厕所",
        "type": 0,
        "location": {
            "lat": 24.514395,
            "lng": 111.614023
        },
        "ad_info": {
            "adcode": 451103,
            "province": "广西壮族自治区",
            "city": "贺州市",
            "district": "平桂区"
        }
    },
    {
        "id": "10356773518256729618",
        "title": "公共厕所",
        "address": "广西壮族自治区贺州市钟山县建民路与钟山西路交叉口正西方向390米左右",
        "tel": "",
        "category": "基础设施:公共设施:公共厕所",
        "type": 0,
        "location": {
            "lat": 24.522689,
            "lng": 111.290039
        },
        "ad_info": {
            "adcode": 451122,
            "province": "广西壮族自治区",
            "city": "贺州市",
            "district": "钟山县"
        }
    },
    {
        "id": "3783602634547741613",
        "title": "公共厕所",
        "address": "广西壮族自治区贺州市平桂区光明大道与潇贺大道交叉口东南方向127米左右",
        "tel": "",
        "category": "基础设施:公共设施:公共厕所",
        "type": 0,
        "location": {
            "lat": 24.394001,
            "lng": 111.533927
        },
        "ad_info": {
            "adcode": 451103,
            "province": "广西壮族自治区",
            "city": "贺州市",
            "district": "平桂区"
        }
    },
    {
        "id": "1716898868169059816",
        "title": "公共厕所",
        "address": "广西壮族自治区贺州市八步区桃源北路与鞍山东路交叉口东北方向66米左右",
        "tel": "",
        "category": "基础设施:公共设施:公共厕所",
        "type": 0,
        "location": {
            "lat": 24.399759,
            "lng": 111.577783
        },
        "ad_info": {
            "adcode": 451102,
            "province": "广西壮族自治区",
            "city": "贺州市",
            "district": "八步区"
        }
    },
    {
        "id": "18145377078725982764",
        "title": "公共厕所",
        "address": "广西壮族自治区贺州市平桂区厦岛三路与园博经一路交叉口正南方向40米左右",
        "tel": "",
        "category": "基础设施:公共设施:公共厕所",
        "type": 0,
        "location": {
            "lat": 24.3814,
            "lng": 111.59215
        },
        "ad_info": {
            "adcode": 451103,
            "province": "广西壮族自治区",
            "city": "贺州市",
            "district": "平桂区"
        }
    },
    {
        "id": "13986967330430112058",
        "title": "公共厕所",
        "address": "广西壮族自治区贺州市平桂区南环路与桂粤湘大道交叉口东南方向124米左右",
        "tel": "",
        "category": "基础设施:公共设施:公共厕所",
        "type": 0,
        "location": {
            "lat": 24.374415,
            "lng": 111.58852
        },
        "ad_info": {
            "adcode": 451103,
            "province": "广西壮族自治区",
            "city": "贺州市",
            "district": "平桂区"
        }
    },
    {
        "id": "4362834545735796902",
        "title": "公共厕所",
        "address": "广西壮族自治区贺州市平桂区公园西一支路与复兴路交叉口正南方向101米左右",
        "tel": "",
        "category": "基础设施:公共设施:公共厕所",
        "type": 0,
        "location": {
            "lat": 24.460271,
            "lng": 111.47926
        },
        "ad_info": {
            "adcode": 451103,
            "province": "广西壮族自治区",
            "city": "贺州市",
            "district": "平桂区"
        }
    },
    {
        "id": "11537485000740257066",
        "title": "公共厕所",
        "address": "广西壮族自治区贺州市钟山县钟山大道与钟山西路交叉口正西方向87米左右",
        "tel": "",
        "category": "基础设施:公共设施:公共厕所",
        "type": 0,
        "location": {
            "lat": 24.523096,
            "lng": 111.281235
        },
        "ad_info": {
            "adcode": 451122,
            "province": "广西壮族自治区",
            "city": "贺州市",
            "district": "钟山县"
        }
    },
    {
        "id": "4758913150118644180",
        "title": "公共厕所",
        "address": "广西壮族自治区贺州市平桂区南环路与桂粤湘大道交叉口西南方向101米左右",
        "tel": "",
        "category": "基础设施:公共设施:公共厕所",
        "type": 0,
        "location": {
            "lat": 24.374636,
            "lng": 111.587453
        },
        "ad_info": {
            "adcode": 451103,
            "province": "广西壮族自治区",
            "city": "贺州市",
            "district": "平桂区"
        }
    },
    {
        "id": "11344089724170497259",
        "title": "永安街公共厕所",
        "address": "广西壮族自治区贺州市昭平县东宁南路与中山路交叉口正西方向57米左右",
        "tel": "",
        "category": "基础设施:公共设施:公共厕所",
        "type": 0,
        "location": {
            "lat": 24.171652,
            "lng": 110.8114
        },
        "ad_info": {
            "adcode": 451121,
            "province": "广西壮族自治区",
            "city": "贺州市",
            "district": "昭平县"
        }
    },
    {
        "id": "1243623728957053945",
        "title": "昭平服务区公共厕所",
        "address": "广西壮族自治区贺州市昭平县昭平服务区南侧",
        "tel": "",
        "category": "基础设施:公共设施:公共厕所",
        "type": 0,
        "location": {
            "lat": 24.192236,
            "lng": 110.815895
        },
        "ad_info": {
            "adcode": 451121,
            "province": "广西壮族自治区",
            "city": "贺州市",
            "district": "昭平县"
        }
    },
    {
        "id": "10563763270473582060",
        "title": "信都服务区公共厕所",
        "address": "广西壮族自治区贺州市八步区信都服务区西北侧",
        "tel": "",
        "category": "基础设施:公共设施:公共厕所",
        "type": 0,
        "location": {
            "lat": 24.048922,
            "lng": 111.706887
        },
        "ad_info": {
            "adcode": 451102,
            "province": "广西壮族自治区",
            "city": "贺州市",
            "district": "八步区"
        }
    },
    {
        "id": "3481156643990162797",
        "title": "黄姚停车区公共厕所",
        "address": "广西壮族自治区贺州市昭平县中国石化黄姚停车区加油站南侧50米",
        "tel": "",
        "category": "基础设施:公共设施:公共厕所",
        "type": 0,
        "location": {
            "lat": 24.175266,
            "lng": 111.221367
        },
        "ad_info": {
            "adcode": 451121,
            "province": "广西壮族自治区",
            "city": "贺州市",
            "district": "昭平县"
        }
    },
    {
        "id": "12138169617058939526",
        "title": "宇城公共卫生间隔断",
        "address": "广西壮族自治区贺州市八步区二机二巷与育才南路交叉口正南方向28米左右",
        "tel": "",
        "category": "基础设施:公共设施:公共厕所",
        "type": 0,
        "location": {
            "lat": 24.415576,
            "lng": 111.538189
        },
        "ad_info": {
            "adcode": 451102,
            "province": "广西壮族自治区",
            "city": "贺州市",
            "district": "八步区"
        }
    },
    {
        "id": "11772301929095139925",
        "title": "贺州服务区西区第二公共厕所",
        "address": "广西壮族自治区贺州市八步区G78汕昆高速与贺州服务区交叉口西140米",
        "tel": "",
        "category": "基础设施:公共设施:公共厕所",
        "type": 0,
        "location": {
            "lat": 24.346771,
            "lng": 111.644533
        },
        "ad_info": {
            "adcode": 451102,
            "province": "广西壮族自治区",
            "city": "贺州市",
            "district": "八步区"
        }
    },
    {
        "id": "15810169867555543522",
        "title": "贺州服务区东区第三公共厕所",
        "address": "广西壮族自治区贺州市八步区G78汕昆高速附近",
        "tel": "",
        "category": "基础设施:公共设施:公共厕所",
        "type": 0,
        "location": {
            "lat": 24.350901,
            "lng": 111.645495
        },
        "ad_info": {
            "adcode": 451102,
            "province": "广西壮族自治区",
            "city": "贺州市",
            "district": "八步区"
        }
    },
    {
        "id": "5544337163553073501",
        "title": "公共厕所",
        "address": "广西壮族自治区贺州市八步区芳林路中转站2层",
        "tel": "",
        "category": "基础设施:公共设施:公共厕所",
        "type": 0,
        "location": {
            "lat": 24.409299,
            "lng": 111.535224
        },
        "ad_info": {
            "adcode": 451102,
            "province": "广西壮族自治区",
            "city": "贺州市",
            "district": "八步区"
        }
    },
    {
        "id": "6763069508492047329",
        "title": "昭平服务区公共厕所",
        "address": "广西壮族自治区贺州市昭平县昭平服务区北30米",
        "tel": "",
        "category": "基础设施:公共设施:公共厕所",
        "type": 0,
        "location": {
            "lat": 24.194781,
            "lng": 110.81771
        },
        "ad_info": {
            "adcode": 451121,
            "province": "广西壮族自治区",
            "city": "贺州市",
            "district": "昭平县"
        }
    },
    {
        "id": "16133032312402432121",
        "title": "白马服务区公共厕所",
        "address": "广西壮族自治区贺州市八步区G78汕昆高速与白马服务区交叉口西240米",
        "tel": "",
        "category": "基础设施:公共设施:公共厕所",
        "type": 0,
        "location": {
            "lat": 24.020474,
            "lng": 111.767841
        },
        "ad_info": {
            "adcode": 451102,
            "province": "广西壮族自治区",
            "city": "贺州市",
            "district": "八步区"
        }
    },
    {
        "id": "8814554655315463487",
        "title": "贺州服务区第一公共厕所",
        "address": "广西壮族自治区贺州市八步区贺街镇汕昆高速公路贺州服务区西区",
        "tel": "",
        "category": "基础设施:公共设施:公共厕所",
        "type": 0,
        "location": {
            "lat": 24.347142,
            "lng": 111.644435
        },
        "ad_info": {
            "adcode": 451102,
            "province": "广西壮族自治区",
            "city": "贺州市",
            "district": "八步区"
        }
    },
    {
        "id": "17422306159870140502",
        "title": "公共厕所",
        "address": "广西壮族自治区贺州市八步区新兴北路与竹篙巷交叉口正西方向92米左右",
        "tel": "",
        "category": "基础设施:公共设施:公共厕所",
        "type": 0,
        "location": {
            "lat": 24.411181,
            "lng": 111.54398
        },
        "ad_info": {
            "adcode": 451102,
            "province": "广西壮族自治区",
            "city": "贺州市",
            "district": "八步区"
        }
    },
    {
        "id": "17285004673234116991",
        "title": "白马服务区第二公共厕所",
        "address": "广西壮族自治区贺州市八步区G78汕昆高速附近",
        "tel": "",
        "category": "基础设施:公共设施:公共厕所",
        "type": 0,
        "location": {
            "lat": 24.023433,
            "lng": 111.767232
        },
        "ad_info": {
            "adcode": 451102,
            "province": "广西壮族自治区",
            "city": "贺州市",
            "district": "八步区"
        }
    },
    {
        "id": "3142230111216024785",
        "title": "生态园公共厕所",
        "address": "广西壮族自治区贺州市钟山县一中西路与北环西路交叉口西北方向375米左右",
        "tel": "",
        "category": "基础设施:公共设施:公共厕所",
        "type": 0,
        "location": {
            "lat": 24.534568,
            "lng": 111.294343
        },
        "ad_info": {
            "adcode": 451122,
            "province": "广西壮族自治区",
            "city": "贺州市",
            "district": "钟山县"
        }
    },
    {
        "id": "7210201073025370792",
        "title": "黄姚停车区公共厕所",
        "address": "广西壮族自治区贺州市昭平县中国石化黄姚停车区加油站北侧",
        "tel": "",
        "category": "基础设施:公共设施:公共厕所",
        "type": 0,
        "location": {
            "lat": 24.175401,
            "lng": 111.219832
        },
        "ad_info": {
            "adcode": 451121,
            "province": "广西壮族自治区",
            "city": "贺州市",
            "district": "昭平县"
        }
    },
    {
        "id": "7523314251163835275",
        "title": "贺州服务区公共厕所",
        "address": "广西壮族自治区贺州市八步区G78汕昆高速附近",
        "tel": "",
        "category": "基础设施:公共设施:公共厕所",
        "type": 0,
        "location": {
            "lat": 24.350183,
            "lng": 111.646173
        },
        "ad_info": {
            "adcode": 451102,
            "province": "广西壮族自治区",
            "city": "贺州市",
            "district": "八步区"
        }
    },
    {
        "id": "12790921092797751160",
        "title": "贺州服务区西区第三公共厕所",
        "address": "广西壮族自治区贺州市八步区临贺大道与栗子坪路交叉口西北方向1782米左右",
        "tel": "",
        "category": "基础设施:公共设施:公共厕所",
        "type": 0,
        "location": {
            "lat": 24.346215,
            "lng": 111.645226
        },
        "ad_info": {
            "adcode": 451102,
            "province": "广西壮族自治区",
            "city": "贺州市",
            "district": "八步区"
        }
    },
    {
        "id": "13566905005052777436",
        "title": "富罗服务区公共厕所",
        "address": "广西壮族自治区贺州市昭平县易捷便利店(包茂高速公路北)",
        "tel": "",
        "category": "基础设施:公共设施:公共厕所",
        "type": 0,
        "location": {
            "lat": 24.035706,
            "lng": 111.158676
        },
        "ad_info": {
            "adcode": 451121,
            "province": "广西壮族自治区",
            "city": "贺州市",
            "district": "昭平县"
        }
    },
    {
        "id": "17242907017320466029",
        "title": "信都服务区公共厕所",
        "address": "广西壮族自治区贺州市八步区信都服务区东南侧",
        "tel": "",
        "category": "基础设施:公共设施:公共厕所",
        "type": 0,
        "location": {
            "lat": 24.047637,
            "lng": 111.708799
        },
        "ad_info": {
            "adcode": 451102,
            "province": "广西壮族自治区",
            "city": "贺州市",
            "district": "八步区"
        }
    },
    {
        "id": "17858573942099852768",
        "title": "大桂山停车区公共厕所",
        "address": "广西壮族自治区贺州市八步区大桂山停车区西南侧",
        "tel": "",
        "category": "基础设施:公共设施:公共厕所",
        "type": 0,
        "location": {
            "lat": 24.163947,
            "lng": 111.691891
        },
        "ad_info": {
            "adcode": 451102,
            "province": "广西壮族自治区",
            "city": "贺州市",
            "district": "八步区"
        }
    },
    {
        "id": "8222772928189637740",
        "title": "无障碍公共厕所",
        "address": "广西壮族自治区贺州市钟山县中共广西工委历史博物馆东侧110米",
        "tel": "",
        "category": "基础设施:公共设施:公共厕所",
        "type": 0,
        "location": {
            "lat": 24.435709,
            "lng": 111.091854
        },
        "ad_info": {
            "adcode": 451122,
            "province": "广西壮族自治区",
            "city": "贺州市",
            "district": "钟山县"
        }
    },
    {
        "id": "16912626761269103528",
        "title": "富川服务区公共厕所",
        "address": "广西壮族自治区贺州市富川瑶族自治县石化富川服务区加油站北侧160米",
        "tel": "",
        "category": "基础设施:公共设施:公共厕所",
        "type": 0,
        "location": {
            "lat": 24.999321,
            "lng": 111.26997
        },
        "ad_info": {
            "adcode": 451123,
            "province": "广西壮族自治区",
            "city": "贺州市",
            "district": "富川瑶族自治县"
        }
    },
    {
        "id": "9639186890215705213",
        "title": "白马服务区公共厕所",
        "address": "广西壮族自治区贺州市八步区信都镇汕昆高速公路白马服务区北区",
        "tel": "",
        "category": "基础设施:公共设施:公共厕所",
        "type": 0,
        "location": {
            "lat": 24.023379,
            "lng": 111.768596
        },
        "ad_info": {
            "adcode": 451102,
            "province": "广西壮族自治区",
            "city": "贺州市",
            "district": "八步区"
        }
    },
    {
        "id": "15308116979839063841",
        "title": "贺州服务区东区第二公共厕所",
        "address": "广西壮族自治区贺州市八步区G78汕昆高速附近",
        "tel": "",
        "category": "基础设施:公共设施:公共厕所",
        "type": 0,
        "location": {
            "lat": 24.350579,
            "lng": 111.645958
        },
        "ad_info": {
            "adcode": 451102,
            "province": "广西壮族自治区",
            "city": "贺州市",
            "district": "八步区"
        }
    },
    {
        "id": "17168379263696093912",
        "title": "南塘公共厕所",
        "address": "广西壮族自治区贺州市昭平县重庆街4号",
        "tel": "",
        "category": "基础设施:公共设施:公共厕所",
        "type": 0,
        "location": {
            "lat": 24.166709,
            "lng": 110.812857
        },
        "ad_info": {
            "adcode": 451121,
            "province": "广西壮族自治区",
            "city": "贺州市",
            "district": "昭平县"
        }
    },
    {
        "id": "7167436123002221808",
        "title": "兴钟北路公共厕所",
        "address": "广西壮族自治区贺州市钟山县北门江西路与文化二巷交叉口东北方向26米左右",
        "tel": "",
        "category": "基础设施:公共设施:公共厕所",
        "type": 0,
        "location": {
            "lat": 24.531902,
            "lng": 111.301489
        },
        "ad_info": {
            "adcode": 451122,
            "province": "广西壮族自治区",
            "city": "贺州市",
            "district": "钟山县"
        }
    },
    {
        "id": "3019470048763567217",
        "title": "钟山西服务区公共厕所",
        "address": "广西壮族自治区贺州市钟山县中国石油北投能源钟山西服务区加油站东北侧140米",
        "tel": "",
        "category": "基础设施:公共设施:公共厕所",
        "type": 0,
        "location": {
            "lat": 24.353261,
            "lng": 111.124064
        },
        "ad_info": {
            "adcode": 451122,
            "province": "广西壮族自治区",
            "city": "贺州市",
            "district": "钟山县"
        }
    },
    {
        "id": "15580136513069448666",
        "title": "富罗服务区公共厕所",
        "address": "广西壮族自治区贺州市昭平县易捷便利店(包茂高速公路北)",
        "tel": "",
        "category": "基础设施:公共设施:公共厕所",
        "type": 0,
        "location": {
            "lat": 24.03454,
            "lng": 111.160149
        },
        "ad_info": {
            "adcode": 451121,
            "province": "广西壮族自治区",
            "city": "贺州市",
            "district": "昭平县"
        }
    },
    {
        "id": "10821768265987377672",
        "title": "同古服务区公共厕所",
        "address": "广西壮族自治区贺州市钟山县包茂高速与同古立交交叉口西北方向1723米左右",
        "tel": "",
        "category": "基础设施:公共设施:公共厕所",
        "type": 0,
        "location": {
            "lat": 24.394506,
            "lng": 111.186065
        },
        "ad_info": {
            "adcode": 451122,
            "province": "广西壮族自治区",
            "city": "贺州市",
            "district": "钟山县"
        }
    },
    {
        "id": "2282101755059566678",
        "title": "钟山县一江两岸工程05号公共厕所",
        "address": "广西壮族自治区贺州市钟山县新兴北路与钟羊中路交叉口东北方向160米左右",
        "tel": "",
        "category": "基础设施:公共设施:公共厕所",
        "type": 0,
        "location": {
            "lat": 24.535357,
            "lng": 111.306526
        },
        "ad_info": {
            "adcode": 451122,
            "province": "广西壮族自治区",
            "city": "贺州市",
            "district": "钟山县"
        }
    },
    {
        "id": "12676821530363613537",
        "title": "同古服务区公共厕所",
        "address": "广西壮族自治区贺州市钟山县包茂高速与同古立交交叉口西北方向1529米左右",
        "tel": "",
        "category": "基础设施:公共设施:公共厕所",
        "type": 0,
        "location": {
            "lat": 24.392156,
            "lng": 111.186615
        },
        "ad_info": {
            "adcode": 451122,
            "province": "广西壮族自治区",
            "city": "贺州市",
            "district": "钟山县"
        }
    },
    {
        "id": "16209767554256464440",
        "title": "钟山县一江两岸21号旅游公共厕所",
        "address": "广西壮族自治区贺州市钟山县北环东路与龙溪中路交叉口东南方向198米左右",
        "tel": "",
        "category": "基础设施:公共设施:公共厕所",
        "type": 0,
        "location": {
            "lat": 24.536464,
            "lng": 111.307657
        },
        "ad_info": {
            "adcode": 451122,
            "province": "广西壮族自治区",
            "city": "贺州市",
            "district": "钟山县"
        }
    },
    {
        "id": "5856136399546111782",
        "title": "钟山服务区公共厕所",
        "address": "广西壮族自治区贺州市钟山县中国石化钟山服务区加油站东南侧170米",
        "tel": "",
        "category": "基础设施:公共设施:公共厕所",
        "type": 0,
        "location": {
            "lat": 24.604925,
            "lng": 111.277393
        },
        "ad_info": {
            "adcode": 451122,
            "province": "广西壮族自治区",
            "city": "贺州市",
            "district": "钟山县"
        }
    },
    {
        "id": "12709877967683540843",
        "title": "钟山服务区公共厕所",
        "address": "广西壮族自治区贺州市钟山县中国石化钟山服务区加油站西北侧160米",
        "tel": "",
        "category": "基础设施:公共设施:公共厕所",
        "type": 0,
        "location": {
            "lat": 24.605442,
            "lng": 111.274451
        },
        "ad_info": {
            "adcode": 451122,
            "province": "广西壮族自治区",
            "city": "贺州市",
            "district": "钟山县"
        }
    },
    {
        "id": "2784428133996230947",
        "title": "同古服务区第二公共厕所",
        "address": "广西壮族自治区贺州市钟山县包茂高速与同古立交交叉口西北方向1451米左右",
        "tel": "",
        "category": "基础设施:公共设施:公共厕所",
        "type": 0,
        "location": {
            "lat": 24.391926,
            "lng": 111.187368
        },
        "ad_info": {
            "adcode": 451122,
            "province": "广西壮族自治区",
            "city": "贺州市",
            "district": "钟山县"
        }
    },
    {
        "id": "3017245392894244627",
        "title": "建设中路公共厕所",
        "address": "广西壮族自治区贺州市八步区建设中路与竹篙巷交叉口西北方向56米左右",
        "tel": "",
        "category": "基础设施:公共设施:公共厕所",
        "type": 0,
        "location": {
            "lat": 24.413628,
            "lng": 111.542646
        },
        "ad_info": {
            "adcode": 451102,
            "province": "广西壮族自治区",
            "city": "贺州市",
            "district": "八步区"
        }
    },
    {
        "id": "10598857244170063506",
        "title": "公共厕所",
        "address": "广西壮族自治区贺州市平桂区石材粉体安置区(西湾石梯)东南侧180米",
        "tel": "",
        "category": "基础设施:公共设施:公共厕所",
        "type": 0,
        "location": {
            "lat": 24.523502,
            "lng": 111.478372
        },
        "ad_info": {
            "adcode": 451103,
            "province": "广西壮族自治区",
            "city": "贺州市",
            "district": "平桂区"
        }
    },
    {
        "id": "488499930481606098",
        "title": "公共厕所",
        "address": "广西壮族自治区贺州市八步区中国石化怀集泰源加油站西侧150米",
        "tel": "",
        "category": "基础设施:公共设施:公共厕所",
        "type": 0,
        "location": {
            "lat": 23.984082,
            "lng": 111.939991
        },
        "ad_info": {
            "adcode": 451102,
            "province": "广西壮族自治区",
            "city": "贺州市",
            "district": "八步区"
        }
    },
    {
        "id": "18064985043726624945",
        "title": "新华街无障碍公共厕所",
        "address": "广西壮族自治区贺州市昭平县东宁南路与平安街交叉口正西方向113米左右",
        "tel": "",
        "category": "基础设施:公共设施:公共厕所",
        "type": 0,
        "location": {
            "lat": 24.167988,
            "lng": 110.810364
        },
        "ad_info": {
            "adcode": 451121,
            "province": "广西壮族自治区",
            "city": "贺州市",
            "district": "昭平县"
        }
    },
    {
        "id": "11660229708468101176",
        "title": "同古服务区公共厕所",
        "address": "广西壮族自治区贺州市钟山县包茂高速与同古立交交叉口西北方向1755米左右",
        "tel": "",
        "category": "基础设施:公共设施:公共厕所",
        "type": 0,
        "location": {
            "lat": 24.39463,
            "lng": 111.18578
        },
        "ad_info": {
            "adcode": 451122,
            "province": "广西壮族自治区",
            "city": "贺州市",
            "district": "钟山县"
        }
    },
    {
        "id": "8345809748290489728",
        "title": "公共厕所",
        "address": "广西壮族自治区贺州市昭平县东宁北路与体育路交叉口正东方向84米左右",
        "tel": "",
        "category": "基础设施:公共设施:公共厕所",
        "type": 0,
        "location": {
            "lat": 24.185429,
            "lng": 110.822541
        },
        "ad_info": {
            "adcode": 451121,
            "province": "广西壮族自治区",
            "city": "贺州市",
            "district": "昭平县"
        }
    },
    {
        "id": "8128939572268252803",
        "title": "公共厕所",
        "address": "广西壮族自治区贺州市平桂区公园南二路与广场东路交叉口东南方向56米左右",
        "tel": "",
        "category": "基础设施:公共设施:公共厕所",
        "type": 0,
        "location": {
            "lat": 24.455643,
            "lng": 111.481169
        },
        "ad_info": {
            "adcode": 451103,
            "province": "广西壮族自治区",
            "city": "贺州市",
            "district": "平桂区"
        }
    },
    {
        "id": "7308835947395416202",
        "title": "公共厕所",
        "address": "广西壮族自治区贺州市昭平县G241与裕路大桥交叉口东北方向198米左右",
        "tel": "",
        "category": "基础设施:公共设施:公共厕所",
        "type": 0,
        "location": {
            "lat": 24.29752,
            "lng": 111.029826
        },
        "ad_info": {
            "adcode": 451121,
            "province": "广西壮族自治区",
            "city": "贺州市",
            "district": "昭平县"
        }
    },
    {
        "id": "14710173374159584244",
        "title": "公共厕所",
        "address": "广西壮族自治区贺州市钟山县一江两岸16号",
        "tel": "",
        "category": "基础设施:公共设施:公共厕所",
        "type": 0,
        "location": {
            "lat": 24.529877,
            "lng": 111.330886
        },
        "ad_info": {
            "adcode": 451122,
            "province": "广西壮族自治区",
            "city": "贺州市",
            "district": "钟山县"
        }
    },
    {
        "id": "5907944711948182455",
        "title": "公共厕所",
        "address": "广西壮族自治区贺州市八步区新兴南路74号",
        "tel": "",
        "category": "基础设施:公共设施:公共厕所",
        "type": 0,
        "location": {
            "lat": 24.401144,
            "lng": 111.541755
        },
        "ad_info": {
            "adcode": 451102,
            "province": "广西壮族自治区",
            "city": "贺州市",
            "district": "八步区"
        }
    },
    {
        "id": "2051717728520438994",
        "title": "公共厕所",
        "address": "广西壮族自治区贺州市八步区建安街与江北中路交叉口正西方向89米左右",
        "tel": "",
        "category": "基础设施:公共设施:公共厕所",
        "type": 0,
        "location": {
            "lat": 24.40584,
            "lng": 111.55562
        },
        "ad_info": {
            "adcode": 451102,
            "province": "广西壮族自治区",
            "city": "贺州市",
            "district": "八步区"
        }
    },
    {
        "id": "5934329138006940437",
        "title": "公共厕所",
        "address": "广西壮族自治区贺州市钟山县城厢路与复兴路交叉口西南方向300米左右",
        "tel": "",
        "category": "基础设施:公共设施:公共厕所",
        "type": 0,
        "location": {
            "lat": 24.528428,
            "lng": 111.314857
        },
        "ad_info": {
            "adcode": 451122,
            "province": "广西壮族自治区",
            "city": "贺州市",
            "district": "钟山县"
        }
    },
    {
        "id": "3895971486848769076",
        "title": "公共厕所",
        "address": "广西壮族自治区贺州市平桂区关帝庙路与萌渚大道交叉口西北方向78米左右",
        "tel": "",
        "category": "基础设施:公共设施:公共厕所",
        "type": 0,
        "location": {
            "lat": 24.581727,
            "lng": 111.420709
        },
        "ad_info": {
            "adcode": 451103,
            "province": "广西壮族自治区",
            "city": "贺州市",
            "district": "平桂区"
        }
    },
    {
        "id": "15270677170061508116",
        "title": "富川服务区公共厕所",
        "address": "广西壮族自治区贺州市富川瑶族自治县石化富川服务区加油站南侧160米",
        "tel": "",
        "category": "基础设施:公共设施:公共厕所",
        "type": 0,
        "location": {
            "lat": 24.998002,
            "lng": 111.272347
        },
        "ad_info": {
            "adcode": 451123,
            "province": "广西壮族自治区",
            "city": "贺州市",
            "district": "富川瑶族自治县"
        }
    },
    {
        "id": "17547121331942350004",
        "title": "公共厕所",
        "address": "广西壮族自治区贺州市八步区光明大道与钟山西路交叉口东南方向137米左右",
        "tel": "",
        "category": "基础设施:公共设施:公共厕所",
        "type": 0,
        "location": {
            "lat": 24.397758,
            "lng": 111.535504
        },
        "ad_info": {
            "adcode": 451102,
            "province": "广西壮族自治区",
            "city": "贺州市",
            "district": "八步区"
        }
    },
    {
        "id": "10431697678279606432",
        "title": "公共厕所",
        "address": "广西壮族自治区贺州市富川瑶族自治县G207与S201交叉口东南方向65米左右",
        "tel": "",
        "category": "基础设施:公共设施:公共厕所",
        "type": 0,
        "location": {
            "lat": 24.64754,
            "lng": 111.400496
        },
        "ad_info": {
            "adcode": 451123,
            "province": "广西壮族自治区",
            "city": "贺州市",
            "district": "富川瑶族自治县"
        }
    },
    {
        "id": "16225983192209663635",
        "title": "钟山西服务区公共厕所",
        "address": "广西壮族自治区贺州市钟山县X723与Y002交叉口正南方向767米左右",
        "tel": "",
        "category": "基础设施:公共设施:公共厕所",
        "type": 0,
        "location": {
            "lat": 24.351229,
            "lng": 111.124699
        },
        "ad_info": {
            "adcode": 451122,
            "province": "广西壮族自治区",
            "city": "贺州市",
            "district": "钟山县"
        }
    }
]