[
    {
        "id": "3579909863586285226",
        "title": "公共厕所",
        "address": "四川省资阳市雁江区槐树东路万达广场(资阳店)",
        "tel": "",
        "category": "基础设施:公共设施:公共厕所",
        "type": 0,
        "location": {
            "lat": 30.128039,
            "lng": 104.619492
        },
        "ad_info": {
            "adcode": 512002,
            "province": "四川省",
            "city": "资阳市",
            "district": "雁江区"
        }
    },
    {
        "id": "12703061031444576062",
        "title": "公共厕所",
        "address": "四川省资阳市乐至县帅乡大道一段与金三街交叉口正南方向61米左右",
        "tel": "",
        "category": "基础设施:公共设施:公共厕所",
        "type": 0,
        "location": {
            "lat": 30.279893,
            "lng": 105.019251
        },
        "ad_info": {
            "adcode": 512022,
            "province": "四川省",
            "city": "资阳市",
            "district": "乐至县"
        }
    },
    {
        "id": "2203256437465039146",
        "title": "公共厕所",
        "address": "四川省资阳市雁江区新华路北二巷与狮子路交叉口正东方向78米左右",
        "tel": "",
        "category": "基础设施:公共设施:公共厕所",
        "type": 0,
        "location": {
            "lat": 30.133113,
            "lng": 104.635067
        },
        "ad_info": {
            "adcode": 512002,
            "province": "四川省",
            "city": "资阳市",
            "district": "雁江区"
        }
    },
    {
        "id": "3170692257114252463",
        "title": "公共厕所",
        "address": "四川省资阳市雁江区中兴街与蜀乡大道交叉口东北方向272米左右",
        "tel": "",
        "category": "基础设施:公共设施:公共厕所",
        "type": 0,
        "location": {
            "lat": 30.104156,
            "lng": 104.672307
        },
        "ad_info": {
            "adcode": 512002,
            "province": "四川省",
            "city": "资阳市",
            "district": "雁江区"
        }
    },
    {
        "id": "12396435686471095188",
        "title": "公共厕所",
        "address": "四川省资阳市雁江区城南东街与滨江大道一段交叉口正南方向161米左右",
        "tel": "",
        "category": "基础设施:公共设施:公共厕所",
        "type": 0,
        "location": {
            "lat": 30.11058,
            "lng": 104.653978
        },
        "ad_info": {
            "adcode": 512002,
            "province": "四川省",
            "city": "资阳市",
            "district": "雁江区"
        }
    },
    {
        "id": "6812287412053419859",
        "title": "公共厕所",
        "address": "四川省资阳市雁江区政府西路与陈家巷交叉口西南方向15米左右",
        "tel": "",
        "category": "基础设施:公共设施:公共厕所",
        "type": 0,
        "location": {
            "lat": 30.118915,
            "lng": 104.647429
        },
        "ad_info": {
            "adcode": 512002,
            "province": "四川省",
            "city": "资阳市",
            "district": "雁江区"
        }
    },
    {
        "id": "10812215270075553647",
        "title": "公共厕所",
        "address": "四川省资阳市雁江区学苑路与车城大道三段交叉口西北方向138米左右",
        "tel": "",
        "category": "基础设施:公共设施:公共厕所",
        "type": 0,
        "location": {
            "lat": 30.145495,
            "lng": 104.630858
        },
        "ad_info": {
            "adcode": 512002,
            "province": "四川省",
            "city": "资阳市",
            "district": "雁江区"
        }
    },
    {
        "id": "18026677568156235712",
        "title": "公共厕所",
        "address": "四川省资阳市雁江区建设南路一段与马家巷交叉口正东方向112米左右",
        "tel": "",
        "category": "基础设施:公共设施:公共厕所",
        "type": 0,
        "location": {
            "lat": 30.11415,
            "lng": 104.65372
        },
        "ad_info": {
            "adcode": 512002,
            "province": "四川省",
            "city": "资阳市",
            "district": "雁江区"
        }
    },
    {
        "id": "1779213098317565957",
        "title": "公共厕所",
        "address": "四川省资阳市雁江区三贤路与三贤路南一巷交叉口西北方向142米左右",
        "tel": "",
        "category": "基础设施:公共设施:公共厕所",
        "type": 0,
        "location": {
            "lat": 30.139798,
            "lng": 104.634245
        },
        "ad_info": {
            "adcode": 512002,
            "province": "四川省",
            "city": "资阳市",
            "district": "雁江区"
        }
    },
    {
        "id": "6660276435096386498",
        "title": "公共厕所",
        "address": "四川省资阳市雁江区建设南路二段26号",
        "tel": "",
        "category": "基础设施:公共设施:公共厕所",
        "type": 0,
        "location": {
            "lat": 30.115883,
            "lng": 104.648619
        },
        "ad_info": {
            "adcode": 512002,
            "province": "四川省",
            "city": "资阳市",
            "district": "雁江区"
        }
    },
    {
        "id": "8900362723604351500",
        "title": "公共厕所",
        "address": "四川省资阳市乐至县厂区一路与工贸街交叉口正南方向407米左右",
        "tel": "",
        "category": "基础设施:公共设施:公共厕所",
        "type": 0,
        "location": {
            "lat": 30.270016,
            "lng": 105.039156
        },
        "ad_info": {
            "adcode": 512022,
            "province": "四川省",
            "city": "资阳市",
            "district": "乐至县"
        }
    },
    {
        "id": "1046261790789633707",
        "title": "公共厕所",
        "address": "四川省资阳市雁江区中城街与大北街交叉口正北方向62米左右",
        "tel": "",
        "category": "基础设施:公共设施:公共厕所",
        "type": 0,
        "location": {
            "lat": 30.117894,
            "lng": 104.653394
        },
        "ad_info": {
            "adcode": 512002,
            "province": "四川省",
            "city": "资阳市",
            "district": "雁江区"
        }
    },
    {
        "id": "11241796035854707613",
        "title": "公共厕所",
        "address": "四川省资阳市乐至县农经路与农经路西二巷交叉口正西方向62米左右",
        "tel": "",
        "category": "基础设施:公共设施:公共厕所",
        "type": 0,
        "location": {
            "lat": 30.272855,
            "lng": 105.031641
        },
        "ad_info": {
            "adcode": 512022,
            "province": "四川省",
            "city": "资阳市",
            "district": "乐至县"
        }
    },
    {
        "id": "171998402574869887",
        "title": "公共厕所",
        "address": "四川省资阳市乐至县园林街与园林路交叉口正北方向182米左右",
        "tel": "",
        "category": "基础设施:公共设施:公共厕所",
        "type": 0,
        "location": {
            "lat": 30.280213,
            "lng": 105.031243
        },
        "ad_info": {
            "adcode": 512022,
            "province": "四川省",
            "city": "资阳市",
            "district": "乐至县"
        }
    },
    {
        "id": "9521404664822658355",
        "title": "公共厕所",
        "address": "四川省资阳市雁江区希望大道2号",
        "tel": "",
        "category": "基础设施:公共设施:公共厕所",
        "type": 0,
        "location": {
            "lat": 30.097041,
            "lng": 104.668403
        },
        "ad_info": {
            "adcode": 512002,
            "province": "四川省",
            "city": "资阳市",
            "district": "雁江区"
        }
    },
    {
        "id": "4798453288344618467",
        "title": "公共厕所",
        "address": "四川省资阳市雁江区外西街与建设西路二段交叉口东北方向97米左右",
        "tel": "",
        "category": "基础设施:公共设施:公共厕所",
        "type": 0,
        "location": {
            "lat": 30.120407,
            "lng": 104.645902
        },
        "ad_info": {
            "adcode": 512002,
            "province": "四川省",
            "city": "资阳市",
            "district": "雁江区"
        }
    },
    {
        "id": "9940383368489865989",
        "title": "公共厕所",
        "address": "四川省资阳市安岳县建设街与顺城街交叉口正南方向51米左右",
        "tel": "",
        "category": "基础设施:公共设施:公共厕所",
        "type": 0,
        "location": {
            "lat": 30.09861,
            "lng": 105.334872
        },
        "ad_info": {
            "adcode": 512021,
            "province": "四川省",
            "city": "资阳市",
            "district": "安岳县"
        }
    },
    {
        "id": "8893337089645222598",
        "title": "公共厕所",
        "address": "四川省资阳市雁江区健康路与和平中路交叉口东北方向20米左右",
        "tel": "",
        "category": "基础设施:公共设施:公共厕所",
        "type": 0,
        "location": {
            "lat": 30.116306,
            "lng": 104.649969
        },
        "ad_info": {
            "adcode": 512002,
            "province": "四川省",
            "city": "资阳市",
            "district": "雁江区"
        }
    },
    {
        "id": "3150130010805532913",
        "title": "公共厕所",
        "address": "四川省资阳市雁江区建设东路167号",
        "tel": "",
        "category": "基础设施:公共设施:公共厕所",
        "type": 0,
        "location": {
            "lat": 30.117279,
            "lng": 104.657019
        },
        "ad_info": {
            "adcode": 512002,
            "province": "四川省",
            "city": "资阳市",
            "district": "雁江区"
        }
    },
    {
        "id": "2822568788350415466",
        "title": "公共厕所",
        "address": "四川省资阳市雁江区新华路与车城大道二段东二巷交叉口正东方向178米左右",
        "tel": "",
        "category": "基础设施:公共设施:公共厕所",
        "type": 0,
        "location": {
            "lat": 30.132572,
            "lng": 104.638031
        },
        "ad_info": {
            "adcode": 512002,
            "province": "四川省",
            "city": "资阳市",
            "district": "雁江区"
        }
    },
    {
        "id": "9859623354173734612",
        "title": "公共厕所",
        "address": "四川省资阳市雁江区滨河西路一段与铜车马街交叉口正南方向74米左右",
        "tel": "",
        "category": "基础设施:公共设施:公共厕所",
        "type": 0,
        "location": {
            "lat": 30.116133,
            "lng": 104.642353
        },
        "ad_info": {
            "adcode": 512002,
            "province": "四川省",
            "city": "资阳市",
            "district": "雁江区"
        }
    },
    {
        "id": "9326772633120677304",
        "title": "公共卫生间",
        "address": "四川省资阳市雁江区后坝井街与小北街交叉口西北方向10米左右",
        "tel": "",
        "category": "基础设施:公共设施:公共厕所",
        "type": 0,
        "location": {
            "lat": 30.11933,
            "lng": 104.65449
        },
        "ad_info": {
            "adcode": 512002,
            "province": "四川省",
            "city": "资阳市",
            "district": "雁江区"
        }
    },
    {
        "id": "14458993717229216061",
        "title": "公共厕所",
        "address": "四川省资阳市雁江区四槐巷裕丰苑",
        "tel": "",
        "category": "基础设施:公共设施:公共厕所",
        "type": 0,
        "location": {
            "lat": 30.119716,
            "lng": 104.655994
        },
        "ad_info": {
            "adcode": 512002,
            "province": "四川省",
            "city": "资阳市",
            "district": "雁江区"
        }
    },
    {
        "id": "9480018956918379822",
        "title": "公共厕所",
        "address": "四川省资阳市乐至县放生中学西南侧130米",
        "tel": "",
        "category": "基础设施:公共设施:公共厕所",
        "type": 0,
        "location": {
            "lat": 30.335501,
            "lng": 104.945082
        },
        "ad_info": {
            "adcode": 512022,
            "province": "四川省",
            "city": "资阳市",
            "district": "乐至县"
        }
    },
    {
        "id": "11648794378078604531",
        "title": "公共厕所",
        "address": "四川省资阳市雁江区书台路与天台路交叉口正西方向308米左右",
        "tel": "",
        "category": "基础设施:公共设施:公共厕所",
        "type": 0,
        "location": {
            "lat": 30.101841,
            "lng": 104.637115
        },
        "ad_info": {
            "adcode": 512002,
            "province": "四川省",
            "city": "资阳市",
            "district": "雁江区"
        }
    },
    {
        "id": "7774331627183352563",
        "title": "公共厕所",
        "address": "四川省资阳市雁江区和平南路与滨江大道一段交叉口正东方向82米左右",
        "tel": "",
        "category": "基础设施:公共设施:公共厕所",
        "type": 0,
        "location": {
            "lat": 30.107985,
            "lng": 104.648236
        },
        "ad_info": {
            "adcode": 512002,
            "province": "四川省",
            "city": "资阳市",
            "district": "雁江区"
        }
    },
    {
        "id": "1771443432454535944",
        "title": "公共厕所",
        "address": "四川省资阳市乐至县万贯大道与二环路交叉口东南方向78米左右",
        "tel": "",
        "category": "基础设施:公共设施:公共厕所",
        "type": 0,
        "location": {
            "lat": 30.302083,
            "lng": 105.020408
        },
        "ad_info": {
            "adcode": 512022,
            "province": "四川省",
            "city": "资阳市",
            "district": "乐至县"
        }
    },
    {
        "id": "16784620200014230084",
        "title": "公共厕所",
        "address": "四川省资阳市雁江区台阳路与松涛路一段交叉口正东方向140米左右",
        "tel": "",
        "category": "基础设施:公共设施:公共厕所",
        "type": 0,
        "location": {
            "lat": 30.123323,
            "lng": 104.638078
        },
        "ad_info": {
            "adcode": 512002,
            "province": "四川省",
            "city": "资阳市",
            "district": "雁江区"
        }
    },
    {
        "id": "12003336955058192781",
        "title": "公共厕所",
        "address": "四川省资阳市乐至县天池镇川鄂中路汽车运输公司客运站",
        "tel": "",
        "category": "基础设施:公共设施:公共厕所",
        "type": 0,
        "location": {
            "lat": 30.282617,
            "lng": 105.023962
        },
        "ad_info": {
            "adcode": 512022,
            "province": "四川省",
            "city": "资阳市",
            "district": "乐至县"
        }
    },
    {
        "id": "12081235291957595396",
        "title": "公共厕所",
        "address": "四川省资阳市雁江区和平北路与建设北路一段交叉口东北方向58米左右",
        "tel": "",
        "category": "基础设施:公共设施:公共厕所",
        "type": 0,
        "location": {
            "lat": 30.122381,
            "lng": 104.652018
        },
        "ad_info": {
            "adcode": 512002,
            "province": "四川省",
            "city": "资阳市",
            "district": "雁江区"
        }
    },
    {
        "id": "17506651215480136062",
        "title": "公共厕所",
        "address": "四川省资阳市雁江区娇子大道二段与娇子大道南三巷交叉口东南方向65米左右",
        "tel": "",
        "category": "基础设施:公共设施:公共厕所",
        "type": 0,
        "location": {
            "lat": 30.125611,
            "lng": 104.619532
        },
        "ad_info": {
            "adcode": 512002,
            "province": "四川省",
            "city": "资阳市",
            "district": "雁江区"
        }
    },
    {
        "id": "13240703104543686295",
        "title": "公共厕所",
        "address": "四川省资阳市乐至县恒通街与新南路交叉口正北方向75米左右",
        "tel": "",
        "category": "基础设施:公共设施:公共厕所",
        "type": 0,
        "location": {
            "lat": 30.273866,
            "lng": 105.026921
        },
        "ad_info": {
            "adcode": 512022,
            "province": "四川省",
            "city": "资阳市",
            "district": "乐至县"
        }
    },
    {
        "id": "6061385219121813062",
        "title": "公共厕所",
        "address": "四川省资阳市安岳县兴安路与解放街交叉口西北方向63米左右",
        "tel": "",
        "category": "基础设施:公共设施:公共厕所",
        "type": 0,
        "location": {
            "lat": 30.106628,
            "lng": 105.34374
        },
        "ad_info": {
            "adcode": 512021,
            "province": "四川省",
            "city": "资阳市",
            "district": "安岳县"
        }
    },
    {
        "id": "6416312108148508495",
        "title": "公共厕所",
        "address": "四川省资阳市雁江区百威英博大道华西嘉苑",
        "tel": "",
        "category": "基础设施:公共设施:公共厕所",
        "type": 0,
        "location": {
            "lat": 30.094063,
            "lng": 104.645721
        },
        "ad_info": {
            "adcode": 512002,
            "province": "四川省",
            "city": "资阳市",
            "district": "雁江区"
        }
    },
    {
        "id": "6491274817948303121",
        "title": "公共厕所",
        "address": "四川省资阳市安岳县交通北街与文大街交叉口正南方向50米左右",
        "tel": "",
        "category": "基础设施:公共设施:公共厕所",
        "type": 0,
        "location": {
            "lat": 29.993842,
            "lng": 105.302405
        },
        "ad_info": {
            "adcode": 512021,
            "province": "四川省",
            "city": "资阳市",
            "district": "安岳县"
        }
    },
    {
        "id": "1096913838779144312",
        "title": "公共厕所",
        "address": "四川省资阳市安岳县柠都大道西段158号",
        "tel": "",
        "category": "基础设施:公共设施:公共厕所",
        "type": 0,
        "location": {
            "lat": 30.101315,
            "lng": 105.353768
        },
        "ad_info": {
            "adcode": 512021,
            "province": "四川省",
            "city": "资阳市",
            "district": "安岳县"
        }
    },
    {
        "id": "8934410638392047827",
        "title": "公共厕所",
        "address": "四川省资阳市雁江区外环路西一段与车城大道四段交叉口西北方向187米左右",
        "tel": "",
        "category": "基础设施:公共设施:公共厕所",
        "type": 0,
        "location": {
            "lat": 30.156154,
            "lng": 104.617991
        },
        "ad_info": {
            "adcode": 512002,
            "province": "四川省",
            "city": "资阳市",
            "district": "雁江区"
        }
    },
    {
        "id": "1384568728573448475",
        "title": "公共厕所",
        "address": "四川省资阳市乐至县文庙街163号",
        "tel": "",
        "category": "基础设施:公共设施:公共厕所",
        "type": 0,
        "location": {
            "lat": 30.285439,
            "lng": 105.027825
        },
        "ad_info": {
            "adcode": 512022,
            "province": "四川省",
            "city": "资阳市",
            "district": "乐至县"
        }
    },
    {
        "id": "10246723063540861702",
        "title": "公共厕所",
        "address": "四川省资阳市雁江区兴城大道与天台路交叉口正东方向267米左右",
        "tel": "",
        "category": "基础设施:公共设施:公共厕所",
        "type": 0,
        "location": {
            "lat": 30.074481,
            "lng": 104.64286
        },
        "ad_info": {
            "adcode": 512002,
            "province": "四川省",
            "city": "资阳市",
            "district": "雁江区"
        }
    },
    {
        "id": "12253169378075102587",
        "title": "公共厕所",
        "address": "四川省资阳市雁江区后西街与大北街交叉口东北方向52米左右",
        "tel": "",
        "category": "基础设施:公共设施:公共厕所",
        "type": 0,
        "location": {
            "lat": 30.118735,
            "lng": 104.654246
        },
        "ad_info": {
            "adcode": 512002,
            "province": "四川省",
            "city": "资阳市",
            "district": "雁江区"
        }
    },
    {
        "id": "1524581597078561413",
        "title": "公共厕所",
        "address": "四川省资阳市雁江区中城街与中城街东一巷交叉口西北方向25米左右",
        "tel": "",
        "category": "基础设施:公共设施:公共厕所",
        "type": 0,
        "location": {
            "lat": 30.116797,
            "lng": 104.652954
        },
        "ad_info": {
            "adcode": 512002,
            "province": "四川省",
            "city": "资阳市",
            "district": "雁江区"
        }
    },
    {
        "id": "8368005158105883691",
        "title": "公共厕所",
        "address": "四川省资阳市雁江区建设北路一段67号",
        "tel": "",
        "category": "基础设施:公共设施:公共厕所",
        "type": 0,
        "location": {
            "lat": 30.12164,
            "lng": 104.65331
        },
        "ad_info": {
            "adcode": 512002,
            "province": "四川省",
            "city": "资阳市",
            "district": "雁江区"
        }
    },
    {
        "id": "14781235002906606156",
        "title": "公共厕所",
        "address": "四川省资阳市乐至县前进街与川鄂东路交叉口东北方向90米左右",
        "tel": "",
        "category": "基础设施:公共设施:公共厕所",
        "type": 0,
        "location": {
            "lat": 30.280274,
            "lng": 105.028452
        },
        "ad_info": {
            "adcode": 512022,
            "province": "四川省",
            "city": "资阳市",
            "district": "乐至县"
        }
    },
    {
        "id": "17373040842045940605",
        "title": "公共厕所",
        "address": "四川省资阳市雁江区滨江大道与青年路交叉口正南方向231米左右",
        "tel": "",
        "category": "基础设施:公共设施:公共厕所",
        "type": 0,
        "location": {
            "lat": 30.121233,
            "lng": 104.667421
        },
        "ad_info": {
            "adcode": 512002,
            "province": "四川省",
            "city": "资阳市",
            "district": "雁江区"
        }
    },
    {
        "id": "2268580247110045838",
        "title": "公共厕所",
        "address": "四川省资阳市雁江区崇文街与正东街交叉口西北方向126米左右",
        "tel": "",
        "category": "基础设施:公共设施:公共厕所",
        "type": 0,
        "location": {
            "lat": 30.115574,
            "lng": 104.654536
        },
        "ad_info": {
            "adcode": 512002,
            "province": "四川省",
            "city": "资阳市",
            "district": "雁江区"
        }
    },
    {
        "id": "10474223187404796253",
        "title": "公共厕所",
        "address": "四川省资阳市雁江区外环路西一段与规划道路交叉口西北方向374米左右",
        "tel": "",
        "category": "基础设施:公共设施:公共厕所",
        "type": 0,
        "location": {
            "lat": 30.145484,
            "lng": 104.609266
        },
        "ad_info": {
            "adcode": 512002,
            "province": "四川省",
            "city": "资阳市",
            "district": "雁江区"
        }
    },
    {
        "id": "17548667205931764700",
        "title": "公共厕所",
        "address": "四川省资阳市安岳县G247与陈抟路西段交叉口正东方向137米左右",
        "tel": "",
        "category": "基础设施:公共设施:公共厕所",
        "type": 0,
        "location": {
            "lat": 30.089037,
            "lng": 105.346413
        },
        "ad_info": {
            "adcode": 512021,
            "province": "四川省",
            "city": "资阳市",
            "district": "安岳县"
        }
    },
    {
        "id": "10298692750201430729",
        "title": "公共厕所",
        "address": "四川省资阳市雁江区建设北路二段与文化路交叉口正北方向221米左右",
        "tel": "",
        "category": "基础设施:公共设施:公共厕所",
        "type": 0,
        "location": {
            "lat": 30.124203,
            "lng": 104.649731
        },
        "ad_info": {
            "adcode": 512002,
            "province": "四川省",
            "city": "资阳市",
            "district": "雁江区"
        }
    },
    {
        "id": "9979295410092551408",
        "title": "公共厕所",
        "address": "四川省资阳市雁江区娇子大道与娇子大道二段交叉口正南方向391米左右",
        "tel": "",
        "category": "基础设施:公共设施:公共厕所",
        "type": 0,
        "location": {
            "lat": 30.126279,
            "lng": 104.596762
        },
        "ad_info": {
            "adcode": 512002,
            "province": "四川省",
            "city": "资阳市",
            "district": "雁江区"
        }
    },
    {
        "id": "4733675422782949796",
        "title": "公共厕所",
        "address": "四川省资阳市乐至县S106与陈家桥交叉口正北方向397米左右",
        "tel": "",
        "category": "基础设施:公共设施:公共厕所",
        "type": 0,
        "location": {
            "lat": 30.405881,
            "lng": 104.907099
        },
        "ad_info": {
            "adcode": 512022,
            "province": "四川省",
            "city": "资阳市",
            "district": "乐至县"
        }
    },
    {
        "id": "18036895559488001874",
        "title": "公共厕所",
        "address": "四川省资阳市雁江区紫龙路与蜀都大道交叉口东南方向994米左右",
        "tel": "",
        "category": "基础设施:公共设施:公共厕所",
        "type": 0,
        "location": {
            "lat": 30.155711,
            "lng": 104.708199
        },
        "ad_info": {
            "adcode": 512002,
            "province": "四川省",
            "city": "资阳市",
            "district": "雁江区"
        }
    },
    {
        "id": "10193639882773790564",
        "title": "公共厕所",
        "address": "四川省资阳市雁江区娇子大道二段辅路与金台路交叉口正东方向145米左右",
        "tel": "",
        "category": "基础设施:公共设施:公共厕所",
        "type": 0,
        "location": {
            "lat": 30.124961,
            "lng": 104.613153
        },
        "ad_info": {
            "adcode": 512002,
            "province": "四川省",
            "city": "资阳市",
            "district": "雁江区"
        }
    },
    {
        "id": "15502452797112454420",
        "title": "公共厕所",
        "address": "四川省资阳市雁江区晶鑫小区(滨河西路一段北)",
        "tel": "",
        "category": "基础设施:公共设施:公共厕所",
        "type": 0,
        "location": {
            "lat": 30.12062,
            "lng": 104.641517
        },
        "ad_info": {
            "adcode": 512002,
            "province": "四川省",
            "city": "资阳市",
            "district": "雁江区"
        }
    },
    {
        "id": "13270395765534729269",
        "title": "公共厕所",
        "address": "四川省资阳市雁江区外环路西二段与321国道交叉口东北60米",
        "tel": "",
        "category": "基础设施:公共设施:公共厕所",
        "type": 0,
        "location": {
            "lat": 30.085856,
            "lng": 104.607656
        },
        "ad_info": {
            "adcode": 512002,
            "province": "四川省",
            "city": "资阳市",
            "district": "雁江区"
        }
    },
    {
        "id": "10387510278666368402",
        "title": "公共厕所",
        "address": "四川省资阳市雁江区晶鑫街与晶鑫街二巷交叉口正南方向29米左右",
        "tel": "",
        "category": "基础设施:公共设施:公共厕所",
        "type": 0,
        "location": {
            "lat": 30.120426,
            "lng": 104.642469
        },
        "ad_info": {
            "adcode": 512002,
            "province": "四川省",
            "city": "资阳市",
            "district": "雁江区"
        }
    },
    {
        "id": "1074256634398283484",
        "title": "公共厕所",
        "address": "四川省资阳市雁江区后西街情缘家园",
        "tel": "",
        "category": "基础设施:公共设施:公共厕所",
        "type": 0,
        "location": {
            "lat": 30.118955,
            "lng": 104.652723
        },
        "ad_info": {
            "adcode": 512002,
            "province": "四川省",
            "city": "资阳市",
            "district": "雁江区"
        }
    },
    {
        "id": "11966962370845356638",
        "title": "公共厕所",
        "address": "四川省资阳市雁江区中城街与大东街交叉口东南方向112米左右",
        "tel": "",
        "category": "基础设施:公共设施:公共厕所",
        "type": 0,
        "location": {
            "lat": 30.115146,
            "lng": 104.653733
        },
        "ad_info": {
            "adcode": 512002,
            "province": "四川省",
            "city": "资阳市",
            "district": "雁江区"
        }
    },
    {
        "id": "859960148481277392",
        "title": "公共厕所",
        "address": "四川省资阳市安岳县东北街与国道街交叉口正西方向88米左右",
        "tel": "",
        "category": "基础设施:公共设施:公共厕所",
        "type": 0,
        "location": {
            "lat": 30.046609,
            "lng": 105.674228
        },
        "ad_info": {
            "adcode": 512021,
            "province": "四川省",
            "city": "资阳市",
            "district": "安岳县"
        }
    },
    {
        "id": "1825499427242784385",
        "title": "公共厕所",
        "address": "四川省资阳市安岳县Y324与华孟路交叉口西北方向129米左右",
        "tel": "",
        "category": "基础设施:公共设施:公共厕所",
        "type": 0,
        "location": {
            "lat": 30.004035,
            "lng": 105.009689
        },
        "ad_info": {
            "adcode": 512021,
            "province": "四川省",
            "city": "资阳市",
            "district": "安岳县"
        }
    },
    {
        "id": "12676272040599919649",
        "title": "公共厕所",
        "address": "四川省资阳市安岳县创业路与安渝路交叉口西北方向340米左右",
        "tel": "",
        "category": "基础设施:公共设施:公共厕所",
        "type": 0,
        "location": {
            "lat": 30.112119,
            "lng": 105.358776
        },
        "ad_info": {
            "adcode": 512021,
            "province": "四川省",
            "city": "资阳市",
            "district": "安岳县"
        }
    },
    {
        "id": "8129791885737384507",
        "title": "公共厕所",
        "address": "四川省资阳市雁江区G321与育才路交叉口正北方向637米左右",
        "tel": "",
        "category": "基础设施:公共设施:公共厕所",
        "type": 0,
        "location": {
            "lat": 30.032209,
            "lng": 104.588142
        },
        "ad_info": {
            "adcode": 512002,
            "province": "四川省",
            "city": "资阳市",
            "district": "雁江区"
        }
    },
    {
        "id": "11151331761155619557",
        "title": "万人小区公共厕所",
        "address": "四川省资阳市乐至县邮政路141号",
        "tel": "",
        "category": "基础设施:公共设施:公共厕所",
        "type": 0,
        "location": {
            "lat": 30.29084,
            "lng": 105.021695
        },
        "ad_info": {
            "adcode": 512022,
            "province": "四川省",
            "city": "资阳市",
            "district": "乐至县"
        }
    },
    {
        "id": "14626666364057682129",
        "title": "公共厕所",
        "address": "四川省资阳市雁江区春天路与春天里交叉口西南方向65米左右",
        "tel": "",
        "category": "基础设施:公共设施:公共厕所",
        "type": 0,
        "location": {
            "lat": 30.152726,
            "lng": 104.631663
        },
        "ad_info": {
            "adcode": 512002,
            "province": "四川省",
            "city": "资阳市",
            "district": "雁江区"
        }
    },
    {
        "id": "13892213145600363515",
        "title": "公共厕所",
        "address": "四川省资阳市乐至县东街与前进街交叉口正南方向33米左右",
        "tel": "",
        "category": "基础设施:公共设施:公共厕所",
        "type": 0,
        "location": {
            "lat": 30.277419,
            "lng": 105.028248
        },
        "ad_info": {
            "adcode": 512022,
            "province": "四川省",
            "city": "资阳市",
            "district": "乐至县"
        }
    },
    {
        "id": "3780693674364870969",
        "title": "陈毅广场公共厕所",
        "address": "四川省资阳市乐至县国华路东一巷与国华路交叉口西北180米",
        "tel": "",
        "category": "基础设施:公共设施:公共厕所",
        "type": 0,
        "location": {
            "lat": 30.284007,
            "lng": 105.018014
        },
        "ad_info": {
            "adcode": 512022,
            "province": "四川省",
            "city": "资阳市",
            "district": "乐至县"
        }
    },
    {
        "id": "3442885383050895750",
        "title": "公共厕所",
        "address": "四川省资阳市安岳县天岳路与河坪街交叉口东南方向1720米左右",
        "tel": "",
        "category": "基础设施:公共设施:公共厕所",
        "type": 0,
        "location": {
            "lat": 30.126122,
            "lng": 105.456736
        },
        "ad_info": {
            "adcode": 512021,
            "province": "四川省",
            "city": "资阳市",
            "district": "安岳县"
        }
    },
    {
        "id": "255131318593340097",
        "title": "公共厕所",
        "address": "四川省资阳市安岳县滨河路与龙鸳路交叉口东北方向205米左右",
        "tel": "",
        "category": "基础设施:公共设施:公共厕所",
        "type": 0,
        "location": {
            "lat": 30.145938,
            "lng": 105.281871
        },
        "ad_info": {
            "adcode": 512021,
            "province": "四川省",
            "city": "资阳市",
            "district": "安岳县"
        }
    },
    {
        "id": "7016944904808121961",
        "title": "公共厕所",
        "address": "四川省资阳市安岳县富民街与正下街交叉口东北方向21米左右",
        "tel": "",
        "category": "基础设施:公共设施:公共厕所",
        "type": 0,
        "location": {
            "lat": 30.145133,
            "lng": 105.44519
        },
        "ad_info": {
            "adcode": 512021,
            "province": "四川省",
            "city": "资阳市",
            "district": "安岳县"
        }
    },
    {
        "id": "11749493564498841229",
        "title": "公共厕所",
        "address": "四川省资阳市乐至县商贸街与宏扬街交叉口正西方向18米左右",
        "tel": "",
        "category": "基础设施:公共设施:公共厕所",
        "type": 0,
        "location": {
            "lat": 30.276455,
            "lng": 105.029809
        },
        "ad_info": {
            "adcode": 512022,
            "province": "四川省",
            "city": "资阳市",
            "district": "乐至县"
        }
    },
    {
        "id": "4077726957142157559",
        "title": "河心地公共厕所",
        "address": "四川省资阳市雁江区晶鑫街一巷与晶鑫街一巷侧三巷交叉口正西方向17米左右",
        "tel": "",
        "category": "基础设施:公共设施:公共厕所",
        "type": 0,
        "location": {
            "lat": 30.118674,
            "lng": 104.642882
        },
        "ad_info": {
            "adcode": 512002,
            "province": "四川省",
            "city": "资阳市",
            "district": "雁江区"
        }
    },
    {
        "id": "6907343982290475877",
        "title": "桥亭子公共厕所",
        "address": "四川省资阳市雁江区一级乐幼儿园(桥亭子街东)",
        "tel": "",
        "category": "基础设施:公共设施:公共厕所",
        "type": 0,
        "location": {
            "lat": 30.11762,
            "lng": 104.647974
        },
        "ad_info": {
            "adcode": 512002,
            "province": "四川省",
            "city": "资阳市",
            "district": "雁江区"
        }
    },
    {
        "id": "10360001950339875139",
        "title": "公共厕所",
        "address": "四川省资阳市雁江区中学路与土主庙巷交叉口正南方向91米左右",
        "tel": "",
        "category": "基础设施:公共设施:公共厕所",
        "type": 0,
        "location": {
            "lat": 30.117364,
            "lng": 104.64626
        },
        "ad_info": {
            "adcode": 512002,
            "province": "四川省",
            "city": "资阳市",
            "district": "雁江区"
        }
    },
    {
        "id": "3353846597337944792",
        "title": "公共厕所",
        "address": "四川省资阳市乐至县八一路与名景路交叉口东北方向56米左右",
        "tel": "",
        "category": "基础设施:公共设施:公共厕所",
        "type": 0,
        "location": {
            "lat": 30.267521,
            "lng": 105.021481
        },
        "ad_info": {
            "adcode": 512022,
            "province": "四川省",
            "city": "资阳市",
            "district": "乐至县"
        }
    },
    {
        "id": "1595006021890023489",
        "title": "公共厕所",
        "address": "四川省资阳市雁江区台阳路与新城路交叉口西北方向103米左右",
        "tel": "",
        "category": "基础设施:公共设施:公共厕所",
        "type": 0,
        "location": {
            "lat": 30.12542,
            "lng": 104.63406
        },
        "ad_info": {
            "adcode": 512002,
            "province": "四川省",
            "city": "资阳市",
            "district": "雁江区"
        }
    },
    {
        "id": "15696540474847710529",
        "title": "公共卫生间",
        "address": "四川省资阳市安岳县上府街67号",
        "tel": "",
        "category": "基础设施:公共设施:公共厕所",
        "type": 0,
        "location": {
            "lat": 30.101896,
            "lng": 105.340565
        },
        "ad_info": {
            "adcode": 512021,
            "province": "四川省",
            "city": "资阳市",
            "district": "安岳县"
        }
    },
    {
        "id": "16410939227594212491",
        "title": "公共厕所",
        "address": "四川省资阳市雁江区和平南路与和平南路西二巷交叉口正东方向69米左右",
        "tel": "",
        "category": "基础设施:公共设施:公共厕所",
        "type": 0,
        "location": {
            "lat": 30.111963,
            "lng": 104.649198
        },
        "ad_info": {
            "adcode": 512002,
            "province": "四川省",
            "city": "资阳市",
            "district": "雁江区"
        }
    },
    {
        "id": "2062629789358407680",
        "title": "公共厕所",
        "address": "四川省资阳市安岳县温州商贸城与凤山路北段交叉口东100米",
        "tel": "",
        "category": "基础设施:公共设施:公共厕所",
        "type": 0,
        "location": {
            "lat": 30.104308,
            "lng": 105.3408
        },
        "ad_info": {
            "adcode": 512021,
            "province": "四川省",
            "city": "资阳市",
            "district": "安岳县"
        }
    },
    {
        "id": "9773156358511766010",
        "title": "公共厕所",
        "address": "四川省资阳市安岳县华美街与经廉路交叉口正北方向81米左右",
        "tel": "",
        "category": "基础设施:公共设施:公共厕所",
        "type": 0,
        "location": {
            "lat": 30.100442,
            "lng": 105.347534
        },
        "ad_info": {
            "adcode": 512021,
            "province": "四川省",
            "city": "资阳市",
            "district": "安岳县"
        }
    },
    {
        "id": "14440470970597831924",
        "title": "公共厕所",
        "address": "四川省资阳市雁江区滨江大道一段与滨河西路一段交叉口正北方向58米左右",
        "tel": "",
        "category": "基础设施:公共设施:公共厕所",
        "type": 0,
        "location": {
            "lat": 30.108241,
            "lng": 104.64549
        },
        "ad_info": {
            "adcode": 512002,
            "province": "四川省",
            "city": "资阳市",
            "district": "雁江区"
        }
    },
    {
        "id": "663812420723350602",
        "title": "公共厕所",
        "address": "四川省资阳市安岳县顺城巷安岳县幼儿园西侧约60米",
        "tel": "",
        "category": "基础设施:公共设施:公共厕所",
        "type": 0,
        "location": {
            "lat": 30.096631,
            "lng": 105.33424
        },
        "ad_info": {
            "adcode": 512021,
            "province": "四川省",
            "city": "资阳市",
            "district": "安岳县"
        }
    },
    {
        "id": "13447164255086354308",
        "title": "公共厕所",
        "address": "四川省资阳市安岳县岳阳镇杨家湾广场对面",
        "tel": "",
        "category": "基础设施:公共设施:公共厕所",
        "type": 0,
        "location": {
            "lat": 30.100823,
            "lng": 105.336342
        },
        "ad_info": {
            "adcode": 512021,
            "province": "四川省",
            "city": "资阳市",
            "district": "安岳县"
        }
    },
    {
        "id": "14007433602536478426",
        "title": "公共厕所",
        "address": "四川省资阳市安岳县乐至街与西大街交叉口正南方向26米左右",
        "tel": "",
        "category": "基础设施:公共设施:公共厕所",
        "type": 0,
        "location": {
            "lat": 30.10123,
            "lng": 105.33739
        },
        "ad_info": {
            "adcode": 512021,
            "province": "四川省",
            "city": "资阳市",
            "district": "安岳县"
        }
    },
    {
        "id": "6861690604229856118",
        "title": "公共厕所",
        "address": "四川省资阳市安岳县奎星路与岳阳路交叉口正北方向46米左右",
        "tel": "",
        "category": "基础设施:公共设施:公共厕所",
        "type": 0,
        "location": {
            "lat": 30.097634,
            "lng": 105.339008
        },
        "ad_info": {
            "adcode": 512021,
            "province": "四川省",
            "city": "资阳市",
            "district": "安岳县"
        }
    },
    {
        "id": "18217977385598533433",
        "title": "女洗手间(万达广场)",
        "address": "四川省资阳市雁江区娇子大道120号万达广场F2层",
        "tel": "",
        "category": "基础设施:公共设施:公共厕所",
        "type": 0,
        "location": {
            "lat": 30.128056,
            "lng": 104.620786
        },
        "ad_info": {
            "adcode": 512002,
            "province": "四川省",
            "city": "资阳市",
            "district": "雁江区"
        }
    },
    {
        "id": "11573584392517537380",
        "title": "乐至服务区公共厕所",
        "address": "四川省资阳市乐至县G5013渝蓉高速附近",
        "tel": "",
        "category": "基础设施:公共设施:公共厕所",
        "type": 0,
        "location": {
            "lat": 30.18656,
            "lng": 105.06196
        },
        "ad_info": {
            "adcode": 512022,
            "province": "四川省",
            "city": "资阳市",
            "district": "乐至县"
        }
    },
    {
        "id": "11409650370616871206",
        "title": "谢无量广场公共厕所",
        "address": "四川省资阳市乐至县天池大道一段215号",
        "tel": "",
        "category": "基础设施:公共设施:公共厕所",
        "type": 0,
        "location": {
            "lat": 30.296481,
            "lng": 105.000429
        },
        "ad_info": {
            "adcode": 512022,
            "province": "四川省",
            "city": "资阳市",
            "district": "乐至县"
        }
    },
    {
        "id": "7317630673871857928",
        "title": "茂林28公共厕所",
        "address": "四川省资阳市雁江区花果山路与花果山路南一巷交叉口正西方向215米左右",
        "tel": "",
        "category": "基础设施:公共设施:公共厕所",
        "type": 0,
        "location": {
            "lat": 30.151288,
            "lng": 104.62776
        },
        "ad_info": {
            "adcode": 512002,
            "province": "四川省",
            "city": "资阳市",
            "district": "雁江区"
        }
    },
    {
        "id": "14594107749766059852",
        "title": "公共厕所",
        "address": "四川省资阳市雁江区建设北路二段208号",
        "tel": "",
        "category": "基础设施:公共设施:公共厕所",
        "type": 0,
        "location": {
            "lat": 30.121912,
            "lng": 104.650602
        },
        "ad_info": {
            "adcode": 512002,
            "province": "四川省",
            "city": "资阳市",
            "district": "雁江区"
        }
    },
    {
        "id": "7633917403218634866",
        "title": "公共卫生间",
        "address": "四川省资阳市雁江区大平山路与幸福大道交叉口正北方向88米左右",
        "tel": "",
        "category": "基础设施:公共设施:公共厕所",
        "type": 0,
        "location": {
            "lat": 30.13621,
            "lng": 104.6202
        },
        "ad_info": {
            "adcode": 512002,
            "province": "四川省",
            "city": "资阳市",
            "district": "雁江区"
        }
    },
    {
        "id": "17790526954610141715",
        "title": "乐至服务区公共厕所",
        "address": "四川省资阳市乐至县乐至服务区与S40广洪高速交叉口西320米",
        "tel": "",
        "category": "基础设施:公共设施:公共厕所",
        "type": 0,
        "location": {
            "lat": 30.326958,
            "lng": 104.997372
        },
        "ad_info": {
            "adcode": 512022,
            "province": "四川省",
            "city": "资阳市",
            "district": "乐至县"
        }
    },
    {
        "id": "4349271110754576598",
        "title": "号公共厕所",
        "address": "四川省资阳市雁江区花果山路与花果山路南一巷交叉口东北方向28米左右",
        "tel": "",
        "category": "基础设施:公共设施:公共厕所",
        "type": 0,
        "location": {
            "lat": 30.151889,
            "lng": 104.630153
        },
        "ad_info": {
            "adcode": 512002,
            "province": "四川省",
            "city": "资阳市",
            "district": "雁江区"
        }
    },
    {
        "id": "13872234781084108340",
        "title": "资阳服务区公共厕所",
        "address": "四川省资阳市雁江区狮子山街道厦蓉高速公路资阳服务区",
        "tel": "",
        "category": "基础设施:公共设施:公共厕所",
        "type": 0,
        "location": {
            "lat": 30.134705,
            "lng": 104.605863
        },
        "ad_info": {
            "adcode": 512002,
            "province": "四川省",
            "city": "资阳市",
            "district": "雁江区"
        }
    },
    {
        "id": "17892529696954973253",
        "title": "公共厕所",
        "address": "四川省资阳市雁江区和平北路与建设北路一段交叉口正北方向136米左右",
        "tel": "",
        "category": "基础设施:公共设施:公共厕所",
        "type": 0,
        "location": {
            "lat": 30.123172,
            "lng": 104.6516
        },
        "ad_info": {
            "adcode": 512002,
            "province": "四川省",
            "city": "资阳市",
            "district": "雁江区"
        }
    },
    {
        "id": "2107973854264050366",
        "title": "乐至服务区公共厕所",
        "address": "四川省资阳市乐至县天池大道与旅游大道交叉口东北方向1896米左右",
        "tel": "",
        "category": "基础设施:公共设施:公共厕所",
        "type": 0,
        "location": {
            "lat": 30.325369,
            "lng": 104.996812
        },
        "ad_info": {
            "adcode": 512022,
            "province": "四川省",
            "city": "资阳市",
            "district": "乐至县"
        }
    },
    {
        "id": "6135078779371586571",
        "title": "安岳服务区-公共厕所",
        "address": "四川省资阳市安岳县S11遂内高速西100米",
        "tel": "",
        "category": "基础设施:公共设施:公共厕所",
        "type": 0,
        "location": {
            "lat": 30.042303,
            "lng": 105.364835
        },
        "ad_info": {
            "adcode": 512021,
            "province": "四川省",
            "city": "资阳市",
            "district": "安岳县"
        }
    },
    {
        "id": "17241861741520469057",
        "title": "资阳服务区公共厕所",
        "address": "四川省资阳市雁江区资阳服务区北(厦蓉高速公路西)",
        "tel": "",
        "category": "基础设施:公共设施:公共厕所",
        "type": 0,
        "location": {
            "lat": 30.136308,
            "lng": 104.605238
        },
        "ad_info": {
            "adcode": 512002,
            "province": "四川省",
            "city": "资阳市",
            "district": "雁江区"
        }
    },
    {
        "id": "7937037060564458809",
        "title": "安岳服务区公共厕所",
        "address": "四川省资阳市安岳县S11遂内高速附近",
        "tel": "",
        "category": "基础设施:公共设施:公共厕所",
        "type": 0,
        "location": {
            "lat": 30.04137,
            "lng": 105.366157
        },
        "ad_info": {
            "adcode": 512021,
            "province": "四川省",
            "city": "资阳市",
            "district": "安岳县"
        }
    },
    {
        "id": "8459551028993212112",
        "title": "安岳服务区第二公共厕所",
        "address": "四川省资阳市安岳县S11遂内高速附近",
        "tel": "",
        "category": "基础设施:公共设施:公共厕所",
        "type": 0,
        "location": {
            "lat": 30.041816,
            "lng": 105.36645
        },
        "ad_info": {
            "adcode": 512021,
            "province": "四川省",
            "city": "资阳市",
            "district": "安岳县"
        }
    },
    {
        "id": "7503051965292149917",
        "title": "资阳西服务区公共厕所",
        "address": "四川省资阳市雁江区Y232与丰高路交叉口正西方向160米左右",
        "tel": "",
        "category": "基础设施:公共设施:公共厕所",
        "type": 0,
        "location": {
            "lat": 30.05196,
            "lng": 104.648683
        },
        "ad_info": {
            "adcode": 512002,
            "province": "四川省",
            "city": "资阳市",
            "district": "雁江区"
        }
    },
    {
        "id": "10822592130979275477",
        "title": "资阳西服务区第二公共厕所",
        "address": "四川省资阳市雁江区Y232与丰高路交叉口正西方向263米左右",
        "tel": "",
        "category": "基础设施:公共设施:公共厕所",
        "type": 0,
        "location": {
            "lat": 30.05169,
            "lng": 104.647626
        },
        "ad_info": {
            "adcode": 512002,
            "province": "四川省",
            "city": "资阳市",
            "district": "雁江区"
        }
    },
    {
        "id": "17717717364529318679",
        "title": "资阳西服务区第二公共厕所",
        "address": "四川省资阳市雁江区资阳西服务区与S40广洪高速交叉口西200米",
        "tel": "",
        "category": "基础设施:公共设施:公共厕所",
        "type": 0,
        "location": {
            "lat": 30.050623,
            "lng": 104.64902
        },
        "ad_info": {
            "adcode": 512002,
            "province": "四川省",
            "city": "资阳市",
            "district": "雁江区"
        }
    },
    {
        "id": "7045692924065925274",
        "title": "资阳西服务区第一公共厕所",
        "address": "四川省资阳市雁江区Y232与丰高路交叉口西南方向319米左右",
        "tel": "",
        "category": "基础设施:公共设施:公共厕所",
        "type": 0,
        "location": {
            "lat": 30.050373,
            "lng": 104.647555
        },
        "ad_info": {
            "adcode": 512002,
            "province": "四川省",
            "city": "资阳市",
            "district": "雁江区"
        }
    },
    {
        "id": "145000382287343237",
        "title": "无障碍洗手间(万达广场)",
        "address": "四川省资阳市雁江区娇子大道120号万达广场(资阳店)F4层",
        "tel": "",
        "category": "基础设施:公共设施:公共厕所",
        "type": 0,
        "location": {
            "lat": 30.127064,
            "lng": 104.618949
        },
        "ad_info": {
            "adcode": 512002,
            "province": "四川省",
            "city": "资阳市",
            "district": "雁江区"
        }
    },
    {
        "id": "9570205086287751216",
        "title": "资阳服务区第二公共厕所",
        "address": "四川省资阳市雁江区外环路西一段与槐树中路交叉口正西方向536米左右",
        "tel": "",
        "category": "基础设施:公共设施:公共厕所",
        "type": 0,
        "location": {
            "lat": 30.135218,
            "lng": 104.604879
        },
        "ad_info": {
            "adcode": 512002,
            "province": "四川省",
            "city": "资阳市",
            "district": "雁江区"
        }
    },
    {
        "id": "8466229807799065799",
        "title": "水厂公共厕所",
        "address": "四川省资阳市雁江区车城大道一段与车城大道二段交叉口东南方向112米左右",
        "tel": "",
        "category": "基础设施:公共设施:公共厕所",
        "type": 0,
        "location": {
            "lat": 30.129973,
            "lng": 104.637096
        },
        "ad_info": {
            "adcode": 512002,
            "province": "四川省",
            "city": "资阳市",
            "district": "雁江区"
        }
    },
    {
        "id": "4342930239337934929",
        "title": "男洗手间(万达广场)",
        "address": "四川省资阳市雁江区幸福大道120号资阳万达广场B1",
        "tel": "",
        "category": "基础设施:公共设施:男洗手间",
        "type": 0,
        "location": {
            "lat": 30.127778,
            "lng": 104.621057
        },
        "ad_info": {
            "adcode": 512002,
            "province": "四川省",
            "city": "资阳市",
            "district": "雁江区"
        }
    },
    {
        "id": "8304637278758628424",
        "title": "男洗手间(万达广场)",
        "address": "四川省资阳市雁江区幸福大道120号资阳万达广场F3",
        "tel": "",
        "category": "基础设施:公共设施:男洗手间",
        "type": 0,
        "location": {
            "lat": 30.127557,
            "lng": 104.618742
        },
        "ad_info": {
            "adcode": 512002,
            "province": "四川省",
            "city": "资阳市",
            "district": "雁江区"
        }
    },
    {
        "id": "17008934940568634358",
        "title": "残障洗手间(万达广场)",
        "address": "四川省资阳市雁江区幸福大道120号资阳万达广场F2",
        "tel": "",
        "category": "基础设施:公共设施:无障碍洗手间",
        "type": 0,
        "location": {
            "lat": 30.128056,
            "lng": 104.620877
        },
        "ad_info": {
            "adcode": 512002,
            "province": "四川省",
            "city": "资阳市",
            "district": "雁江区"
        }
    },
    {
        "id": "4135355234401281330",
        "title": "男洗手间(万达广场)",
        "address": "四川省资阳市雁江区幸福大道120号资阳万达广场F1",
        "tel": "",
        "category": "基础设施:公共设施:男洗手间",
        "type": 0,
        "location": {
            "lat": 30.127577,
            "lng": 104.618764
        },
        "ad_info": {
            "adcode": 512002,
            "province": "四川省",
            "city": "资阳市",
            "district": "雁江区"
        }
    },
    {
        "id": "16857319607922720246",
        "title": "女洗手间(万达广场)",
        "address": "四川省资阳市雁江区幸福大道120号资阳万达广场F2",
        "tel": "",
        "category": "基础设施:公共设施:女洗手间",
        "type": 0,
        "location": {
            "lat": 30.127392,
            "lng": 104.619691
        },
        "ad_info": {
            "adcode": 512002,
            "province": "四川省",
            "city": "资阳市",
            "district": "雁江区"
        }
    },
    {
        "id": "8044024949203532760",
        "title": "女洗手间(万达广场)",
        "address": "四川省资阳市雁江区幸福大道120号资阳万达广场F1",
        "tel": "",
        "category": "基础设施:公共设施:女洗手间",
        "type": 0,
        "location": {
            "lat": 30.128065,
            "lng": 104.620846
        },
        "ad_info": {
            "adcode": 512002,
            "province": "四川省",
            "city": "资阳市",
            "district": "雁江区"
        }
    },
    {
        "id": "17966157681630086430",
        "title": "女洗手间(万达广场)",
        "address": "四川省资阳市雁江区幸福大道120号资阳万达广场F4",
        "tel": "",
        "category": "基础设施:公共设施:女洗手间",
        "type": 0,
        "location": {
            "lat": 30.12709,
            "lng": 104.618888
        },
        "ad_info": {
            "adcode": 512002,
            "province": "四川省",
            "city": "资阳市",
            "district": "雁江区"
        }
    },
    {
        "id": "17121100889099239976",
        "title": "男洗手间(万达广场)",
        "address": "四川省资阳市雁江区幸福大道120号资阳万达广场F4",
        "tel": "",
        "category": "基础设施:公共设施:男洗手间",
        "type": 0,
        "location": {
            "lat": 30.127048,
            "lng": 104.618902
        },
        "ad_info": {
            "adcode": 512002,
            "province": "四川省",
            "city": "资阳市",
            "district": "雁江区"
        }
    },
    {
        "id": "3995968654546733358",
        "title": "残障卫生间",
        "address": "四川省资阳市雁江区幸福大道120号资阳万达广场F2",
        "tel": "",
        "category": "基础设施:公共设施:无障碍洗手间",
        "type": 0,
        "location": {
            "lat": 30.127412,
            "lng": 104.619672
        },
        "ad_info": {
            "adcode": 512002,
            "province": "四川省",
            "city": "资阳市",
            "district": "雁江区"
        }
    },
    {
        "id": "14345316849041934055",
        "title": "残障卫生间",
        "address": "四川省资阳市雁江区幸福大道120号资阳万达广场F4",
        "tel": "",
        "category": "基础设施:公共设施:无障碍洗手间",
        "type": 0,
        "location": {
            "lat": 30.127076,
            "lng": 104.618923
        },
        "ad_info": {
            "adcode": 512002,
            "province": "四川省",
            "city": "资阳市",
            "district": "雁江区"
        }
    },
    {
        "id": "1754589696334141835",
        "title": "残障卫生间",
        "address": "四川省资阳市雁江区幸福大道120号资阳万达广场F3",
        "tel": "",
        "category": "基础设施:公共设施:无障碍洗手间",
        "type": 0,
        "location": {
            "lat": 30.127412,
            "lng": 104.619671
        },
        "ad_info": {
            "adcode": 512002,
            "province": "四川省",
            "city": "资阳市",
            "district": "雁江区"
        }
    },
    {
        "id": "10209166741555674864",
        "title": "残障卫生间",
        "address": "四川省资阳市雁江区幸福大道120号资阳万达广场F1",
        "tel": "",
        "category": "基础设施:公共设施:无障碍洗手间",
        "type": 0,
        "location": {
            "lat": 30.127413,
            "lng": 104.619672
        },
        "ad_info": {
            "adcode": 512002,
            "province": "四川省",
            "city": "资阳市",
            "district": "雁江区"
        }
    },
    {
        "id": "4372891874618711029",
        "title": "女卫生间",
        "address": "四川省资阳市雁江区幸福大道120号资阳万达广场F3",
        "tel": "",
        "category": "基础设施:公共设施:女洗手间",
        "type": 0,
        "location": {
            "lat": 30.127392,
            "lng": 104.61969
        },
        "ad_info": {
            "adcode": 512002,
            "province": "四川省",
            "city": "资阳市",
            "district": "雁江区"
        }
    },
    {
        "id": "1531200611368739818",
        "title": "女卫生间",
        "address": "四川省资阳市雁江区幸福大道120号资阳万达广场F3",
        "tel": "",
        "category": "基础设施:公共设施:女洗手间",
        "type": 0,
        "location": {
            "lat": 30.128066,
            "lng": 104.620844
        },
        "ad_info": {
            "adcode": 512002,
            "province": "四川省",
            "city": "资阳市",
            "district": "雁江区"
        }
    },
    {
        "id": "14139123461071750485",
        "title": "男卫生间",
        "address": "四川省资阳市雁江区幸福大道120号资阳万达广场F3",
        "tel": "",
        "category": "基础设施:公共设施:男洗手间",
        "type": 0,
        "location": {
            "lat": 30.127583,
            "lng": 104.621078
        },
        "ad_info": {
            "adcode": 512002,
            "province": "四川省",
            "city": "资阳市",
            "district": "雁江区"
        }
    },
    {
        "id": "9465488729901119771",
        "title": "公共厕所",
        "address": "四川省资阳市雁江区城南大道与外环路西三段交叉口正西方向122米左右",
        "tel": "",
        "category": "基础设施:公共设施:公共厕所",
        "type": 0,
        "location": {
            "lat": 30.0825,
            "lng": 104.606049
        },
        "ad_info": {
            "adcode": 512002,
            "province": "四川省",
            "city": "资阳市",
            "district": "雁江区"
        }
    },
    {
        "id": "11304188256014372938",
        "title": "公共厕所",
        "address": "四川省资阳市乐至县仙鹤大道与金港商业街交叉口西南方向206米左右",
        "tel": "",
        "category": "基础设施:公共设施:公共厕所",
        "type": 0,
        "location": {
            "lat": 30.274949,
            "lng": 105.014578
        },
        "ad_info": {
            "adcode": 512022,
            "province": "四川省",
            "city": "资阳市",
            "district": "乐至县"
        }
    },
    {
        "id": "12787433467083362516",
        "title": "女卫生间",
        "address": "四川省资阳市雁江区幸福大道120号资阳万达广场F1",
        "tel": "",
        "category": "基础设施:公共设施:女洗手间",
        "type": 0,
        "location": {
            "lat": 30.127391,
            "lng": 104.619691
        },
        "ad_info": {
            "adcode": 512002,
            "province": "四川省",
            "city": "资阳市",
            "district": "雁江区"
        }
    },
    {
        "id": "13245125448388069002",
        "title": "公共厕所",
        "address": "四川省资阳市乐至县中行路与幸福街交叉口正北方向19米左右",
        "tel": "",
        "category": "基础设施:公共设施:公共厕所",
        "type": 0,
        "location": {
            "lat": 30.275142,
            "lng": 105.037131
        },
        "ad_info": {
            "adcode": 512022,
            "province": "四川省",
            "city": "资阳市",
            "district": "乐至县"
        }
    },
    {
        "id": "13938108419916059805",
        "title": "公共厕所",
        "address": "四川省资阳市雁江区筏子桥西路与规划路交叉口正南方向49米左右",
        "tel": "",
        "category": "基础设施:公共设施:公共厕所",
        "type": 0,
        "location": {
            "lat": 30.149216,
            "lng": 104.622185
        },
        "ad_info": {
            "adcode": 512002,
            "province": "四川省",
            "city": "资阳市",
            "district": "雁江区"
        }
    },
    {
        "id": "9995964528957942503",
        "title": "公共厕所",
        "address": "四川省资阳市雁江区大千路与娇子大道二段交叉口东南方向270米左右",
        "tel": "",
        "category": "基础设施:公共设施:公共厕所",
        "type": 0,
        "location": {
            "lat": 30.123519,
            "lng": 104.617503
        },
        "ad_info": {
            "adcode": 512002,
            "province": "四川省",
            "city": "资阳市",
            "district": "雁江区"
        }
    },
    {
        "id": "1631107490684632492",
        "title": "公共厕所",
        "address": "四川省资阳市雁江区南骏大道与松涛路二段交叉口东南480米",
        "tel": "",
        "category": "基础设施:公共设施:公共厕所",
        "type": 0,
        "location": {
            "lat": 30.115362,
            "lng": 104.633081
        },
        "ad_info": {
            "adcode": 512002,
            "province": "四川省",
            "city": "资阳市",
            "district": "雁江区"
        }
    },
    {
        "id": "13264049974928295094",
        "title": "公共厕所",
        "address": "四川省资阳市安岳县铁西街世纪明珠",
        "tel": "",
        "category": "基础设施:公共设施:公共厕所",
        "type": 0,
        "location": {
            "lat": 30.103782,
            "lng": 105.333176
        },
        "ad_info": {
            "adcode": 512021,
            "province": "四川省",
            "city": "资阳市",
            "district": "安岳县"
        }
    },
    {
        "id": "13080712142770455448",
        "title": "公共厕所",
        "address": "四川省资阳市安岳县海慧路9号",
        "tel": "",
        "category": "基础设施:公共设施:公共厕所",
        "type": 0,
        "location": {
            "lat": 30.094938,
            "lng": 105.336949
        },
        "ad_info": {
            "adcode": 512021,
            "province": "四川省",
            "city": "资阳市",
            "district": "安岳县"
        }
    },
    {
        "id": "3342751664355323195",
        "title": "公共厕所",
        "address": "四川省资阳市雁江区滨河西路四段与花果山路交叉口正南方向107米左右",
        "tel": "",
        "category": "基础设施:公共设施:公共厕所",
        "type": 0,
        "location": {
            "lat": 30.151125,
            "lng": 104.635015
        },
        "ad_info": {
            "adcode": 512002,
            "province": "四川省",
            "city": "资阳市",
            "district": "雁江区"
        }
    },
    {
        "id": "8576626051027373825",
        "title": "公共厕所",
        "address": "四川省资阳市雁江区城南大道与外环路西二段交叉口东260米",
        "tel": "",
        "category": "基础设施:公共设施:公共厕所",
        "type": 0,
        "location": {
            "lat": 30.082427,
            "lng": 104.609971
        },
        "ad_info": {
            "adcode": 512002,
            "province": "四川省",
            "city": "资阳市",
            "district": "雁江区"
        }
    },
    {
        "id": "12226169524616117590",
        "title": "公共厕所",
        "address": "四川省资阳市安岳县林凤中学东南侧200米",
        "tel": "",
        "category": "基础设施:公共设施:公共厕所",
        "type": 0,
        "location": {
            "lat": 30.006509,
            "lng": 105.578991
        },
        "ad_info": {
            "adcode": 512021,
            "province": "四川省",
            "city": "资阳市",
            "district": "安岳县"
        }
    },
    {
        "id": "10402601689286927041",
        "title": "男洗手间(万达广场)",
        "address": "四川省资阳市雁江区幸福大道120号资阳万达广场F3",
        "tel": "",
        "category": "基础设施:公共设施:男洗手间",
        "type": 0,
        "location": {
            "lat": 30.128079,
            "lng": 104.620891
        },
        "ad_info": {
            "adcode": 512002,
            "province": "四川省",
            "city": "资阳市",
            "district": "雁江区"
        }
    },
    {
        "id": "6035360104072288545",
        "title": "男洗手间(万达广场)",
        "address": "四川省资阳市雁江区幸福大道120号资阳万达广场F2",
        "tel": "",
        "category": "基础设施:公共设施:男洗手间",
        "type": 0,
        "location": {
            "lat": 30.128077,
            "lng": 104.620892
        },
        "ad_info": {
            "adcode": 512002,
            "province": "四川省",
            "city": "资阳市",
            "district": "雁江区"
        }
    },
    {
        "id": "7405227807198670757",
        "title": "女洗手间(万达广场)",
        "address": "四川省资阳市雁江区娇子大道120号万达广场F3层",
        "tel": "",
        "category": "基础设施:公共设施:公共厕所",
        "type": 0,
        "location": {
            "lat": 30.127383,
            "lng": 104.619684
        },
        "ad_info": {
            "adcode": 512002,
            "province": "四川省",
            "city": "资阳市",
            "district": "雁江区"
        }
    },
    {
        "id": "4495268286946334523",
        "title": "女洗手间(万达广场)",
        "address": "四川省资阳市雁江区幸福大道120号资阳万达广场F1",
        "tel": "",
        "category": "基础设施:公共设施:公共厕所",
        "type": 0,
        "location": {
            "lat": 30.127566,
            "lng": 104.618717
        },
        "ad_info": {
            "adcode": 512002,
            "province": "四川省",
            "city": "资阳市",
            "district": "雁江区"
        }
    },
    {
        "id": "3252883993463892854",
        "title": "公共厕所",
        "address": "四川省资阳市雁江区西门桥街与西门桥街南一巷交叉口西南方向51米左右",
        "tel": "",
        "category": "基础设施:公共设施:公共厕所",
        "type": 0,
        "location": {
            "lat": 30.120879,
            "lng": 104.638679
        },
        "ad_info": {
            "adcode": 512002,
            "province": "四川省",
            "city": "资阳市",
            "district": "雁江区"
        }
    },
    {
        "id": "4165244215786734821",
        "title": "中迪广场B区公共厕所",
        "address": "四川省资阳市安岳县中迪广场B区2栋1单元1F(天坪街北)",
        "tel": "",
        "category": "基础设施:公共设施:公共厕所",
        "type": 0,
        "location": {
            "lat": 30.093745,
            "lng": 105.361335
        },
        "ad_info": {
            "adcode": 512021,
            "province": "四川省",
            "city": "资阳市",
            "district": "安岳县"
        }
    },
    {
        "id": "17676795759175082317",
        "title": "安岳东服务区公共厕所",
        "address": "四川省资阳市安岳县S3成资渝高速与安岳东服务区交叉口西北340米",
        "tel": "",
        "category": "基础设施:公共设施:公共厕所",
        "type": 0,
        "location": {
            "lat": 30.127699,
            "lng": 105.472562
        },
        "ad_info": {
            "adcode": 512021,
            "province": "四川省",
            "city": "资阳市",
            "district": "安岳县"
        }
    },
    {
        "id": "14929695986332515305",
        "title": "公共厕所",
        "address": "四川省资阳市雁江区后西街后西街综合市场",
        "tel": "",
        "category": "基础设施:公共设施:公共厕所",
        "type": 0,
        "location": {
            "lat": 30.119394,
            "lng": 104.65118
        },
        "ad_info": {
            "adcode": 512002,
            "province": "四川省",
            "city": "资阳市",
            "district": "雁江区"
        }
    },
    {
        "id": "5340182056459070585",
        "title": "公共厕所",
        "address": "四川省资阳市乐至县XM01与Y423交叉口西北方向1927米左右",
        "tel": "",
        "category": "基础设施:公共设施:公共厕所",
        "type": 0,
        "location": {
            "lat": 30.149749,
            "lng": 105.094037
        },
        "ad_info": {
            "adcode": 512022,
            "province": "四川省",
            "city": "资阳市",
            "district": "乐至县"
        }
    },
    {
        "id": "5762205524119046005",
        "title": "公共厕所",
        "address": "四川省资阳市雁江区公园路与松涛路一段交叉口正东方向76米左右",
        "tel": "",
        "category": "基础设施:公共设施:公共厕所",
        "type": 0,
        "location": {
            "lat": 30.125509,
            "lng": 104.640195
        },
        "ad_info": {
            "adcode": 512002,
            "province": "四川省",
            "city": "资阳市",
            "district": "雁江区"
        }
    },
    {
        "id": "14428550594851160532",
        "title": "公共厕所",
        "address": "四川省资阳市安岳县古井路与滨河路交叉口西北方向150米左右",
        "tel": "",
        "category": "基础设施:公共设施:公共厕所",
        "type": 0,
        "location": {
            "lat": 29.936577,
            "lng": 105.625461
        },
        "ad_info": {
            "adcode": 512021,
            "province": "四川省",
            "city": "资阳市",
            "district": "安岳县"
        }
    },
    {
        "id": "11138508814349455927",
        "title": "女洗手间(万达广场)",
        "address": "四川省资阳市雁江区幸福大道120号资阳万达广场F3",
        "tel": "",
        "category": "基础设施:公共设施:女洗手间",
        "type": 0,
        "location": {
            "lat": 30.127595,
            "lng": 104.621128
        },
        "ad_info": {
            "adcode": 512002,
            "province": "四川省",
            "city": "资阳市",
            "district": "雁江区"
        }
    },
    {
        "id": "1996031820701880685",
        "title": "乐至南服务区公共厕所",
        "address": "四川省资阳市乐至县南服务区南侧",
        "tel": "",
        "category": "基础设施:公共设施:公共厕所",
        "type": 0,
        "location": {
            "lat": 30.108614,
            "lng": 105.124474
        },
        "ad_info": {
            "adcode": 512022,
            "province": "四川省",
            "city": "资阳市",
            "district": "乐至县"
        }
    },
    {
        "id": "15996603925539310753",
        "title": "龙滩河停车区公共厕所",
        "address": "四川省资阳市雁江区保和镇遂资高速公路东(水阁凉亭)附近",
        "tel": "",
        "category": "基础设施:公共设施:公共厕所",
        "type": 0,
        "location": {
            "lat": 30.215569,
            "lng": 104.839394
        },
        "ad_info": {
            "adcode": 512002,
            "province": "四川省",
            "city": "资阳市",
            "district": "雁江区"
        }
    },
    {
        "id": "15318505816347470353",
        "title": "公共厕所",
        "address": "四川省资阳市安岳县兴龙街与国道路交叉口东北方向177米左右",
        "tel": "",
        "category": "基础设施:公共设施:公共厕所",
        "type": 0,
        "location": {
            "lat": 30.072009,
            "lng": 105.568251
        },
        "ad_info": {
            "adcode": 512021,
            "province": "四川省",
            "city": "资阳市",
            "district": "安岳县"
        }
    },
    {
        "id": "11639225225630899755",
        "title": "公共厕所",
        "address": "四川省资阳市雁江区蜀乡大道与雷音大街交叉口正东方向137米左右",
        "tel": "",
        "category": "基础设施:公共设施:公共厕所",
        "type": 0,
        "location": {
            "lat": 30.130521,
            "lng": 104.690488
        },
        "ad_info": {
            "adcode": 512002,
            "province": "四川省",
            "city": "资阳市",
            "district": "雁江区"
        }
    },
    {
        "id": "10143704716148812046",
        "title": "公共厕所",
        "address": "四川省资阳市雁江区西门桥街与西门桥街南一巷交叉口西北方向159米左右",
        "tel": "",
        "category": "基础设施:公共设施:公共厕所",
        "type": 0,
        "location": {
            "lat": 30.12237,
            "lng": 104.637971
        },
        "ad_info": {
            "adcode": 512002,
            "province": "四川省",
            "city": "资阳市",
            "district": "雁江区"
        }
    },
    {
        "id": "10846920978388309734",
        "title": "公共厕所",
        "address": "四川省资阳市雁江区二环路与娇子大道二段交叉口正南方向329米左右",
        "tel": "",
        "category": "基础设施:公共设施:公共厕所",
        "type": 0,
        "location": {
            "lat": 30.123633,
            "lng": 104.622381
        },
        "ad_info": {
            "adcode": 512002,
            "province": "四川省",
            "city": "资阳市",
            "district": "雁江区"
        }
    },
    {
        "id": "5566466988395652395",
        "title": "九韶文化公园公共卫生间(公共厕所)",
        "address": "四川省资阳市安岳县普州大道北段12号",
        "tel": "",
        "category": "基础设施:公共设施:公共厕所",
        "type": 0,
        "location": {
            "lat": 30.106706,
            "lng": 105.352125
        },
        "ad_info": {
            "adcode": 512021,
            "province": "四川省",
            "city": "资阳市",
            "district": "安岳县"
        }
    },
    {
        "id": "10331366163112166796",
        "title": "公共厕所",
        "address": "四川省资阳市雁江区滨江大道与青年路交叉口正北方向408米左右",
        "tel": "",
        "category": "基础设施:公共设施:公共厕所",
        "type": 0,
        "location": {
            "lat": 30.126983,
            "lng": 104.666979
        },
        "ad_info": {
            "adcode": 512002,
            "province": "四川省",
            "city": "资阳市",
            "district": "雁江区"
        }
    },
    {
        "id": "495565010955936092",
        "title": "男洗手间(万达广场)",
        "address": "四川省资阳市雁江区幸福大道120号资阳万达广场F1",
        "tel": "",
        "category": "基础设施:公共设施:男洗手间",
        "type": 0,
        "location": {
            "lat": 30.127433,
            "lng": 104.619682
        },
        "ad_info": {
            "adcode": 512002,
            "province": "四川省",
            "city": "资阳市",
            "district": "雁江区"
        }
    },
    {
        "id": "9653095215818745911",
        "title": "棉花湾公共厕所",
        "address": "四川省资阳市乐至县天池大道一段81号",
        "tel": "",
        "category": "基础设施:公共设施:公共厕所",
        "type": 0,
        "location": {
            "lat": 30.29192,
            "lng": 105.006156
        },
        "ad_info": {
            "adcode": 512022,
            "province": "四川省",
            "city": "资阳市",
            "district": "乐至县"
        }
    },
    {
        "id": "11761530128596232004",
        "title": "华博苑公共厕所",
        "address": "四川省资阳市乐至县川鄂中路171号",
        "tel": "",
        "category": "基础设施:公共设施:公共厕所",
        "type": 0,
        "location": {
            "lat": 30.281253,
            "lng": 105.024481
        },
        "ad_info": {
            "adcode": 512022,
            "province": "四川省",
            "city": "资阳市",
            "district": "乐至县"
        }
    },
    {
        "id": "5027712917085858298",
        "title": "公共厕所",
        "address": "四川省资阳市雁江区正兴街与汇兴路交叉口正东方向168米左右",
        "tel": "",
        "category": "基础设施:公共设施:公共厕所",
        "type": 0,
        "location": {
            "lat": 30.104,
            "lng": 104.67941
        },
        "ad_info": {
            "adcode": 512002,
            "province": "四川省",
            "city": "资阳市",
            "district": "雁江区"
        }
    },
    {
        "id": "11771531137038237736",
        "title": "中央时代星城商业街临时公共厕所",
        "address": "四川省资阳市安岳县普州大道南段与龙门堤巷交叉口正东方向210米左右",
        "tel": "",
        "category": "基础设施:公共设施:公共厕所",
        "type": 0,
        "location": {
            "lat": 30.107227,
            "lng": 105.352436
        },
        "ad_info": {
            "adcode": 512021,
            "province": "四川省",
            "city": "资阳市",
            "district": "安岳县"
        }
    },
    {
        "id": "1397236089232318144",
        "title": "公共厕所",
        "address": "四川省资阳市雁江区和平北路与建设北路一段交叉口正北方向291米左右",
        "tel": "",
        "category": "基础设施:公共设施:公共厕所",
        "type": 0,
        "location": {
            "lat": 30.124571,
            "lng": 104.651823
        },
        "ad_info": {
            "adcode": 512002,
            "province": "四川省",
            "city": "资阳市",
            "district": "雁江区"
        }
    },
    {
        "id": "4403089976236768615",
        "title": "公共厕所",
        "address": "四川省资阳市雁江区伍隍镇铺子坳村刘迪沟X138(资资路)",
        "tel": "",
        "category": "基础设施:公共设施:公共厕所",
        "type": 0,
        "location": {
            "lat": 29.987247,
            "lng": 104.801505
        },
        "ad_info": {
            "adcode": 512002,
            "province": "四川省",
            "city": "资阳市",
            "district": "雁江区"
        }
    },
    {
        "id": "16470209310971796152",
        "title": "安岳李家停车区公共厕所",
        "address": "四川省资阳市安岳县成安渝高速",
        "tel": "",
        "category": "基础设施:公共设施:公共厕所",
        "type": 0,
        "location": {
            "lat": 29.783792,
            "lng": 105.494306
        },
        "ad_info": {
            "adcode": 512021,
            "province": "四川省",
            "city": "资阳市",
            "district": "安岳县"
        }
    },
    {
        "id": "12278007652714515247",
        "title": "公共厕所",
        "address": "四川省资阳市安岳县东大街与兴龙街交叉口正东方向45米左右",
        "tel": "",
        "category": "基础设施:公共设施:公共厕所",
        "type": 0,
        "location": {
            "lat": 30.068896,
            "lng": 105.566454
        },
        "ad_info": {
            "adcode": 512021,
            "province": "四川省",
            "city": "资阳市",
            "district": "安岳县"
        }
    },
    {
        "id": "1641531453784393714",
        "title": "九韶文化公园公共卫生间a(公共厕所)",
        "address": "四川省资阳市安岳县新村路与普州大道南段交叉口正东方向169米左右",
        "tel": "",
        "category": "基础设施:公共设施:公共厕所",
        "type": 0,
        "location": {
            "lat": 30.112711,
            "lng": 105.355475
        },
        "ad_info": {
            "adcode": 512021,
            "province": "四川省",
            "city": "资阳市",
            "district": "安岳县"
        }
    },
    {
        "id": "5800814810398641309",
        "title": "女洗手间(万达广场)",
        "address": "四川省资阳市雁江区娇子大道120号万达广场F3层",
        "tel": "",
        "category": "基础设施:公共设施:公共厕所",
        "type": 0,
        "location": {
            "lat": 30.128056,
            "lng": 104.620786
        },
        "ad_info": {
            "adcode": 512002,
            "province": "四川省",
            "city": "资阳市",
            "district": "雁江区"
        }
    },
    {
        "id": "13344466210727624919",
        "title": "滨河路公共厕所",
        "address": "四川省资阳市乐至县天童大道198号",
        "tel": "",
        "category": "基础设施:公共设施:公共厕所",
        "type": 0,
        "location": {
            "lat": 30.299752,
            "lng": 104.996121
        },
        "ad_info": {
            "adcode": 512022,
            "province": "四川省",
            "city": "资阳市",
            "district": "乐至县"
        }
    },
    {
        "id": "9127201456866672095",
        "title": "公共厕所",
        "address": "四川省资阳市乐至县X058与二环路交叉口东南方向357米左右",
        "tel": "",
        "category": "基础设施:公共设施:公共厕所",
        "type": 0,
        "location": {
            "lat": 30.295356,
            "lng": 105.024687
        },
        "ad_info": {
            "adcode": 512022,
            "province": "四川省",
            "city": "资阳市",
            "district": "乐至县"
        }
    },
    {
        "id": "3764904310477490899",
        "title": "男洗手间(万达广场)",
        "address": "四川省资阳市雁江区幸福大道120号资阳万达广场F3",
        "tel": "",
        "category": "基础设施:公共设施:男洗手间",
        "type": 0,
        "location": {
            "lat": 30.127433,
            "lng": 104.619682
        },
        "ad_info": {
            "adcode": 512002,
            "province": "四川省",
            "city": "资阳市",
            "district": "雁江区"
        }
    },
    {
        "id": "9673118310576968416",
        "title": "公共厕所",
        "address": "四川省资阳市雁江区外环路西二段与康乐北路交叉口正北方向79米左右",
        "tel": "",
        "category": "基础设施:公共设施:公共厕所",
        "type": 0,
        "location": {
            "lat": 30.12204,
            "lng": 104.604695
        },
        "ad_info": {
            "adcode": 512002,
            "province": "四川省",
            "city": "资阳市",
            "district": "雁江区"
        }
    },
    {
        "id": "5132960964806643338",
        "title": "公共厕所",
        "address": "四川省资阳市安岳县工业大道北段与柠都大道东段交叉口东北320米",
        "tel": "",
        "category": "基础设施:公共设施:公共厕所",
        "type": 0,
        "location": {
            "lat": 30.097078,
            "lng": 105.366557
        },
        "ad_info": {
            "adcode": 512021,
            "province": "四川省",
            "city": "资阳市",
            "district": "安岳县"
        }
    },
    {
        "id": "14530379601790872294",
        "title": "安岳李家停车区公共厕所",
        "address": "四川省资阳市安岳县李家停车区超市东南侧",
        "tel": "",
        "category": "基础设施:公共设施:公共厕所",
        "type": 0,
        "location": {
            "lat": 29.784308,
            "lng": 105.495468
        },
        "ad_info": {
            "adcode": 512021,
            "province": "四川省",
            "city": "资阳市",
            "district": "安岳县"
        }
    },
    {
        "id": "10003608187721509448",
        "title": "陈毅故居-公共厕所",
        "address": "四川省资阳市乐至县",
        "tel": "",
        "category": "基础设施:公共设施:公共厕所",
        "type": 0,
        "location": {
            "lat": 30.388842,
            "lng": 104.948024
        },
        "ad_info": {
            "adcode": 512022,
            "province": "四川省",
            "city": "资阳市",
            "district": "乐至县"
        }
    },
    {
        "id": "8089707152697661650",
        "title": "公共厕所",
        "address": "四川省资阳市安岳县兴新路东段与兴新路西段交叉口东北方向107米左右",
        "tel": "",
        "category": "基础设施:公共设施:公共厕所",
        "type": 0,
        "location": {
            "lat": 29.830419,
            "lng": 105.319729
        },
        "ad_info": {
            "adcode": 512021,
            "province": "四川省",
            "city": "资阳市",
            "district": "安岳县"
        }
    },
    {
        "id": "11021714798996952341",
        "title": "旅游公共厕所",
        "address": "四川省资阳市乐至县蟠龙镇附近",
        "tel": "",
        "category": "基础设施:公共设施:公共厕所",
        "type": 0,
        "location": {
            "lat": 30.26701,
            "lng": 105.17013
        },
        "ad_info": {
            "adcode": 512022,
            "province": "四川省",
            "city": "资阳市",
            "district": "乐至县"
        }
    },
    {
        "id": "9298593487449518212",
        "title": "公共厕所",
        "address": "四川省资阳市乐至县",
        "tel": "",
        "category": "基础设施:公共设施:公共厕所",
        "type": 0,
        "location": {
            "lat": 30.303319,
            "lng": 105.004911
        },
        "ad_info": {
            "adcode": 512022,
            "province": "四川省",
            "city": "资阳市",
            "district": "乐至县"
        }
    },
    {
        "id": "4383106336198838252",
        "title": "公共厕所",
        "address": "四川省资阳市雁江区万罗路与南华街交叉口西南方向380米左右",
        "tel": "",
        "category": "基础设施:公共设施:公共厕所",
        "type": 0,
        "location": {
            "lat": 30.124196,
            "lng": 104.48189
        },
        "ad_info": {
            "adcode": 512002,
            "province": "四川省",
            "city": "资阳市",
            "district": "雁江区"
        }
    },
    {
        "id": "5626439942155644801",
        "title": "公共厕所",
        "address": "四川省资阳市雁江区育才路与董钧路交叉口东北方向23米左右",
        "tel": "",
        "category": "基础设施:公共设施:公共厕所",
        "type": 0,
        "location": {
            "lat": 30.148518,
            "lng": 104.640841
        },
        "ad_info": {
            "adcode": 512002,
            "province": "四川省",
            "city": "资阳市",
            "district": "雁江区"
        }
    },
    {
        "id": "4258049489514302840",
        "title": "西二巷公共厕所",
        "address": "四川省资阳市乐至县外西街93号",
        "tel": "",
        "category": "基础设施:公共设施:公共厕所",
        "type": 0,
        "location": {
            "lat": 30.280848,
            "lng": 105.023409
        },
        "ad_info": {
            "adcode": 512022,
            "province": "四川省",
            "city": "资阳市",
            "district": "乐至县"
        }
    },
    {
        "id": "7614042011967069878",
        "title": "女洗手间(万达广场)",
        "address": "四川省资阳市雁江区娇子大道120号万达广场F3层",
        "tel": "",
        "category": "基础设施:公共设施:公共厕所",
        "type": 0,
        "location": {
            "lat": 30.127567,
            "lng": 104.61875
        },
        "ad_info": {
            "adcode": 512002,
            "province": "四川省",
            "city": "资阳市",
            "district": "雁江区"
        }
    },
    {
        "id": "1629703491168626389",
        "title": "置信丽府小区地面公共厕所",
        "address": "四川省资阳市安岳县长城·城南壹号南50米置信丽府5栋1楼物业客服中心旁边",
        "tel": "",
        "category": "基础设施:公共设施:公共厕所",
        "type": 0,
        "location": {
            "lat": 30.079773,
            "lng": 105.326885
        },
        "ad_info": {
            "adcode": 512021,
            "province": "四川省",
            "city": "资阳市",
            "district": "安岳县"
        }
    },
    {
        "id": "7368813074457432176",
        "title": "飞龙村村民委员会公共厕所",
        "address": "四川省资阳市安岳县G247与冉红路交叉口东北方向1427米",
        "tel": "028-24311522",
        "category": "基础设施:公共设施:公共厕所",
        "type": 0,
        "location": {
            "lat": 30.143868,
            "lng": 105.364512
        },
        "ad_info": {
            "adcode": 512021,
            "province": "四川省",
            "city": "资阳市",
            "district": "安岳县"
        }
    },
    {
        "id": "15113402071258242765",
        "title": "公共厕所",
        "address": "四川省资阳市雁江区人民医院急诊",
        "tel": "",
        "category": "基础设施:公共设施:公共厕所",
        "type": 0,
        "location": {
            "lat": 30.122799,
            "lng": 104.62242
        },
        "ad_info": {
            "adcode": 512002,
            "province": "四川省",
            "city": "资阳市",
            "district": "雁江区"
        }
    },
    {
        "id": "12816406441241087437",
        "title": "公共厕所",
        "address": "四川省资阳市雁江区支三路与碧满路交叉口西北方向64米左右",
        "tel": "",
        "category": "基础设施:公共设施:公共厕所",
        "type": 0,
        "location": {
            "lat": 30.11881,
            "lng": 104.673786
        },
        "ad_info": {
            "adcode": 512002,
            "province": "四川省",
            "city": "资阳市",
            "district": "雁江区"
        }
    },
    {
        "id": "5390874353671652938",
        "title": "娑婆山公共厕所",
        "address": "四川省资阳市乐至县聚丰恒大道2号",
        "tel": "",
        "category": "基础设施:公共设施:公共厕所",
        "type": 0,
        "location": {
            "lat": 30.297243,
            "lng": 105.024592
        },
        "ad_info": {
            "adcode": 512022,
            "province": "四川省",
            "city": "资阳市",
            "district": "乐至县"
        }
    },
    {
        "id": "12685397907930490170",
        "title": "朝阳停车区公共厕所",
        "address": "四川省资阳市乐至县G5013渝蓉高速与朝阳停车区交叉口西北240米",
        "tel": "",
        "category": "基础设施:公共设施:公共厕所",
        "type": 0,
        "location": {
            "lat": 30.074021,
            "lng": 105.208966
        },
        "ad_info": {
            "adcode": 512022,
            "province": "四川省",
            "city": "资阳市",
            "district": "乐至县"
        }
    },
    {
        "id": "420127943318916308",
        "title": "男洗手间(万达广场)",
        "address": "四川省资阳市雁江区幸福大道120号资阳万达广场F1",
        "tel": "",
        "category": "基础设施:公共设施:男洗手间",
        "type": 0,
        "location": {
            "lat": 30.128077,
            "lng": 104.620894
        },
        "ad_info": {
            "adcode": 512002,
            "province": "四川省",
            "city": "资阳市",
            "district": "雁江区"
        }
    },
    {
        "id": "4022090806522203989",
        "title": "公共厕所",
        "address": "四川省资阳市雁江区临江街与板永路交叉口西北方向161米左右",
        "tel": "",
        "category": "基础设施:公共设施:公共厕所",
        "type": 0,
        "location": {
            "lat": 30.153343,
            "lng": 104.805513
        },
        "ad_info": {
            "adcode": 512002,
            "province": "四川省",
            "city": "资阳市",
            "district": "雁江区"
        }
    },
    {
        "id": "18245327417914600630",
        "title": "公共厕所(特来电三期充电站内)",
        "address": "四川省资阳市安岳县新村路与普州大道南段交叉口正南方向100米左右",
        "tel": "028-24528788",
        "category": "基础设施:公共设施:公共厕所",
        "type": 0,
        "location": {
            "lat": 30.11224,
            "lng": 105.354095
        },
        "ad_info": {
            "adcode": 512021,
            "province": "四川省",
            "city": "资阳市",
            "district": "安岳县"
        }
    },
    {
        "id": "3722842274225371529",
        "title": "公共厕所",
        "address": "四川省资阳市安岳县普州大道北段26号",
        "tel": "",
        "category": "基础设施:公共设施:公共厕所",
        "type": 0,
        "location": {
            "lat": 30.115447,
            "lng": 105.354187
        },
        "ad_info": {
            "adcode": 512021,
            "province": "四川省",
            "city": "资阳市",
            "district": "安岳县"
        }
    },
    {
        "id": "5321847955920272854",
        "title": "公共厕所",
        "address": "四川省资阳市安岳县北坝路东段与普州大道南段交叉口西南方向103米左右",
        "tel": "",
        "category": "基础设施:公共设施:公共厕所",
        "type": 0,
        "location": {
            "lat": 30.105912,
            "lng": 105.348956
        },
        "ad_info": {
            "adcode": 512021,
            "province": "四川省",
            "city": "资阳市",
            "district": "安岳县"
        }
    },
    {
        "id": "7735327808065588205",
        "title": "公共厕所",
        "address": "四川省资阳市雁江区中环二路与蜀乡大道交叉口正东方向91米左右",
        "tel": "",
        "category": "基础设施:公共设施:公共厕所",
        "type": 0,
        "location": {
            "lat": 30.099935,
            "lng": 104.670937
        },
        "ad_info": {
            "adcode": 512002,
            "province": "四川省",
            "city": "资阳市",
            "district": "雁江区"
        }
    },
    {
        "id": "3178353108530636183",
        "title": "中央时代星城公共厕所",
        "address": "四川省资阳市安岳县中央时代星城3栋4栋之间西100米(黄桷垭街北)物业服方中心旁边",
        "tel": "028-24528788",
        "category": "基础设施:公共设施:公共厕所",
        "type": 0,
        "location": {
            "lat": 30.106451,
            "lng": 105.352557
        },
        "ad_info": {
            "adcode": 512021,
            "province": "四川省",
            "city": "资阳市",
            "district": "安岳县"
        }
    },
    {
        "id": "2739981212695908743",
        "title": "公共厕所",
        "address": "四川省资阳市雁江区滨江大道与青年路交叉口正北方向126米左右",
        "tel": "",
        "category": "基础设施:公共设施:公共厕所",
        "type": 0,
        "location": {
            "lat": 30.124441,
            "lng": 104.66765
        },
        "ad_info": {
            "adcode": 512002,
            "province": "四川省",
            "city": "资阳市",
            "district": "雁江区"
        }
    },
    {
        "id": "13926667754022608909",
        "title": "公共厕所",
        "address": "四川省资阳市安岳县朝安路与环峰东街交叉口东南方向1832米左右",
        "tel": "",
        "category": "基础设施:公共设施:公共厕所",
        "type": 0,
        "location": {
            "lat": 30.055662,
            "lng": 105.24274
        },
        "ad_info": {
            "adcode": 512021,
            "province": "四川省",
            "city": "资阳市",
            "district": "安岳县"
        }
    },
    {
        "id": "9517239808273595392",
        "title": "安岳东服务区公共厕所",
        "address": "四川省资阳市安岳县合安高速与成资渝高速交叉口正西方向375米左右",
        "tel": "",
        "category": "基础设施:公共设施:公共厕所",
        "type": 0,
        "location": {
            "lat": 30.125401,
            "lng": 105.471976
        },
        "ad_info": {
            "adcode": 512021,
            "province": "四川省",
            "city": "资阳市",
            "district": "安岳县"
        }
    },
    {
        "id": "4116750818942055519",
        "title": "男洗手间(万达广场)",
        "address": "四川省资阳市雁江区幸福大道120号资阳万达广场F2",
        "tel": "",
        "category": "基础设施:公共设施:男洗手间",
        "type": 0,
        "location": {
            "lat": 30.127433,
            "lng": 104.619682
        },
        "ad_info": {
            "adcode": 512002,
            "province": "四川省",
            "city": "资阳市",
            "district": "雁江区"
        }
    },
    {
        "id": "7872368402151120151",
        "title": "公共厕所",
        "address": "四川省资阳市雁江区外环路西一段与外环路西二段交叉口正东方向216米左右",
        "tel": "",
        "category": "基础设施:公共设施:公共厕所",
        "type": 0,
        "location": {
            "lat": 30.126764,
            "lng": 104.609166
        },
        "ad_info": {
            "adcode": 512002,
            "province": "四川省",
            "city": "资阳市",
            "district": "雁江区"
        }
    },
    {
        "id": "16609886494193272047",
        "title": "公共厕所",
        "address": "四川省资阳市雁江区中学街与资资路交叉口正西方向1273米左右",
        "tel": "",
        "category": "基础设施:公共设施:公共厕所",
        "type": 0,
        "location": {
            "lat": 30.015801,
            "lng": 104.820342
        },
        "ad_info": {
            "adcode": 512002,
            "province": "四川省",
            "city": "资阳市",
            "district": "雁江区"
        }
    },
    {
        "id": "2186698716909543276",
        "title": "公共厕所",
        "address": "四川省资阳市安岳县Y322与龙居街交叉口正南方向542米左右",
        "tel": "",
        "category": "基础设施:公共设施:公共厕所",
        "type": 0,
        "location": {
            "lat": 30.00045,
            "lng": 105.053283
        },
        "ad_info": {
            "adcode": 512021,
            "province": "四川省",
            "city": "资阳市",
            "district": "安岳县"
        }
    },
    {
        "id": "15767608956607436933",
        "title": "公共厕所",
        "address": "四川省资阳市雁江区君山街与政新街交叉口东北方向938米左右",
        "tel": "",
        "category": "基础设施:公共设施:公共厕所",
        "type": 0,
        "location": {
            "lat": 30.267841,
            "lng": 104.699295
        },
        "ad_info": {
            "adcode": 512002,
            "province": "四川省",
            "city": "资阳市",
            "district": "雁江区"
        }
    },
    {
        "id": "5149822083602793217",
        "title": "公共厕所",
        "address": "四川省资阳市安岳县Y310与八悦路交叉口正东方向198米左右",
        "tel": "",
        "category": "基础设施:公共设施:公共厕所",
        "type": 0,
        "location": {
            "lat": 30.237602,
            "lng": 105.227053
        },
        "ad_info": {
            "adcode": 512021,
            "province": "四川省",
            "city": "资阳市",
            "district": "安岳县"
        }
    },
    {
        "id": "10630508951616030381",
        "title": "公共厕所",
        "address": "四川省资阳市雁江区公园路与松涛路一段交叉口正东方向56米左右",
        "tel": "",
        "category": "基础设施:公共设施:公共厕所",
        "type": 0,
        "location": {
            "lat": 30.12573,
            "lng": 104.639959
        },
        "ad_info": {
            "adcode": 512002,
            "province": "四川省",
            "city": "资阳市",
            "district": "雁江区"
        }
    },
    {
        "id": "12816406441241087437",
        "title": "公共厕所",
        "address": "四川省资阳市雁江区支三路与碧满路交叉口西北方向64米左右",
        "tel": "",
        "category": "基础设施:公共设施:公共厕所",
        "type": 0,
        "location": {
            "lat": 30.11881,
            "lng": 104.673786
        },
        "ad_info": {
            "adcode": 512002,
            "province": "四川省",
            "city": "资阳市",
            "district": "雁江区"
        }
    },
    {
        "id": "5390874353671652938",
        "title": "娑婆山公共厕所",
        "address": "四川省资阳市乐至县聚丰恒大道2号",
        "tel": "",
        "category": "基础设施:公共设施:公共厕所",
        "type": 0,
        "location": {
            "lat": 30.297243,
            "lng": 105.024592
        },
        "ad_info": {
            "adcode": 512022,
            "province": "四川省",
            "city": "资阳市",
            "district": "乐至县"
        }
    },
    {
        "id": "12685397907930490170",
        "title": "朝阳停车区公共厕所",
        "address": "四川省资阳市乐至县G5013渝蓉高速与朝阳停车区交叉口西北240米",
        "tel": "",
        "category": "基础设施:公共设施:公共厕所",
        "type": 0,
        "location": {
            "lat": 30.074021,
            "lng": 105.208966
        },
        "ad_info": {
            "adcode": 512022,
            "province": "四川省",
            "city": "资阳市",
            "district": "乐至县"
        }
    },
    {
        "id": "420127943318916308",
        "title": "男洗手间(万达广场)",
        "address": "四川省资阳市雁江区幸福大道120号资阳万达广场F1",
        "tel": "",
        "category": "基础设施:公共设施:男洗手间",
        "type": 0,
        "location": {
            "lat": 30.128077,
            "lng": 104.620894
        },
        "ad_info": {
            "adcode": 512002,
            "province": "四川省",
            "city": "资阳市",
            "district": "雁江区"
        }
    },
    {
        "id": "4022090806522203989",
        "title": "公共厕所",
        "address": "四川省资阳市雁江区临江街与板永路交叉口西北方向161米左右",
        "tel": "",
        "category": "基础设施:公共设施:公共厕所",
        "type": 0,
        "location": {
            "lat": 30.153343,
            "lng": 104.805513
        },
        "ad_info": {
            "adcode": 512002,
            "province": "四川省",
            "city": "资阳市",
            "district": "雁江区"
        }
    },
    {
        "id": "18245327417914600630",
        "title": "公共厕所(特来电三期充电站内)",
        "address": "四川省资阳市安岳县新村路与普州大道南段交叉口正南方向100米左右",
        "tel": "028-24528788",
        "category": "基础设施:公共设施:公共厕所",
        "type": 0,
        "location": {
            "lat": 30.11224,
            "lng": 105.354095
        },
        "ad_info": {
            "adcode": 512021,
            "province": "四川省",
            "city": "资阳市",
            "district": "安岳县"
        }
    },
    {
        "id": "3722842274225371529",
        "title": "公共厕所",
        "address": "四川省资阳市安岳县普州大道北段26号",
        "tel": "",
        "category": "基础设施:公共设施:公共厕所",
        "type": 0,
        "location": {
            "lat": 30.115447,
            "lng": 105.354187
        },
        "ad_info": {
            "adcode": 512021,
            "province": "四川省",
            "city": "资阳市",
            "district": "安岳县"
        }
    },
    {
        "id": "5321847955920272854",
        "title": "公共厕所",
        "address": "四川省资阳市安岳县北坝路东段与普州大道南段交叉口西南方向103米左右",
        "tel": "",
        "category": "基础设施:公共设施:公共厕所",
        "type": 0,
        "location": {
            "lat": 30.105912,
            "lng": 105.348956
        },
        "ad_info": {
            "adcode": 512021,
            "province": "四川省",
            "city": "资阳市",
            "district": "安岳县"
        }
    },
    {
        "id": "7735327808065588205",
        "title": "公共厕所",
        "address": "四川省资阳市雁江区中环二路与蜀乡大道交叉口正东方向91米左右",
        "tel": "",
        "category": "基础设施:公共设施:公共厕所",
        "type": 0,
        "location": {
            "lat": 30.099935,
            "lng": 104.670937
        },
        "ad_info": {
            "adcode": 512002,
            "province": "四川省",
            "city": "资阳市",
            "district": "雁江区"
        }
    },
    {
        "id": "3178353108530636183",
        "title": "中央时代星城公共厕所",
        "address": "四川省资阳市安岳县中央时代星城3栋4栋之间西100米(黄桷垭街北)物业服方中心旁边",
        "tel": "028-24528788",
        "category": "基础设施:公共设施:公共厕所",
        "type": 0,
        "location": {
            "lat": 30.106451,
            "lng": 105.352557
        },
        "ad_info": {
            "adcode": 512021,
            "province": "四川省",
            "city": "资阳市",
            "district": "安岳县"
        }
    },
    {
        "id": "2739981212695908743",
        "title": "公共厕所",
        "address": "四川省资阳市雁江区滨江大道与青年路交叉口正北方向126米左右",
        "tel": "",
        "category": "基础设施:公共设施:公共厕所",
        "type": 0,
        "location": {
            "lat": 30.124441,
            "lng": 104.66765
        },
        "ad_info": {
            "adcode": 512002,
            "province": "四川省",
            "city": "资阳市",
            "district": "雁江区"
        }
    },
    {
        "id": "13926667754022608909",
        "title": "公共厕所",
        "address": "四川省资阳市安岳县朝安路与环峰东街交叉口东南方向1832米左右",
        "tel": "",
        "category": "基础设施:公共设施:公共厕所",
        "type": 0,
        "location": {
            "lat": 30.055662,
            "lng": 105.24274
        },
        "ad_info": {
            "adcode": 512021,
            "province": "四川省",
            "city": "资阳市",
            "district": "安岳县"
        }
    },
    {
        "id": "9517239808273595392",
        "title": "安岳东服务区公共厕所",
        "address": "四川省资阳市安岳县合安高速与成资渝高速交叉口正西方向375米左右",
        "tel": "",
        "category": "基础设施:公共设施:公共厕所",
        "type": 0,
        "location": {
            "lat": 30.125401,
            "lng": 105.471976
        },
        "ad_info": {
            "adcode": 512021,
            "province": "四川省",
            "city": "资阳市",
            "district": "安岳县"
        }
    },
    {
        "id": "4116750818942055519",
        "title": "男洗手间(万达广场)",
        "address": "四川省资阳市雁江区幸福大道120号资阳万达广场F2",
        "tel": "",
        "category": "基础设施:公共设施:男洗手间",
        "type": 0,
        "location": {
            "lat": 30.127433,
            "lng": 104.619682
        },
        "ad_info": {
            "adcode": 512002,
            "province": "四川省",
            "city": "资阳市",
            "district": "雁江区"
        }
    },
    {
        "id": "7872368402151120151",
        "title": "公共厕所",
        "address": "四川省资阳市雁江区外环路西一段与外环路西二段交叉口正东方向216米左右",
        "tel": "",
        "category": "基础设施:公共设施:公共厕所",
        "type": 0,
        "location": {
            "lat": 30.126764,
            "lng": 104.609166
        },
        "ad_info": {
            "adcode": 512002,
            "province": "四川省",
            "city": "资阳市",
            "district": "雁江区"
        }
    },
    {
        "id": "16609886494193272047",
        "title": "公共厕所",
        "address": "四川省资阳市雁江区中学街与资资路交叉口正西方向1273米左右",
        "tel": "",
        "category": "基础设施:公共设施:公共厕所",
        "type": 0,
        "location": {
            "lat": 30.015801,
            "lng": 104.820342
        },
        "ad_info": {
            "adcode": 512002,
            "province": "四川省",
            "city": "资阳市",
            "district": "雁江区"
        }
    },
    {
        "id": "2186698716909543276",
        "title": "公共厕所",
        "address": "四川省资阳市安岳县Y322与龙居街交叉口正南方向542米左右",
        "tel": "",
        "category": "基础设施:公共设施:公共厕所",
        "type": 0,
        "location": {
            "lat": 30.00045,
            "lng": 105.053283
        },
        "ad_info": {
            "adcode": 512021,
            "province": "四川省",
            "city": "资阳市",
            "district": "安岳县"
        }
    },
    {
        "id": "15767608956607436933",
        "title": "公共厕所",
        "address": "四川省资阳市雁江区君山街与政新街交叉口东北方向938米左右",
        "tel": "",
        "category": "基础设施:公共设施:公共厕所",
        "type": 0,
        "location": {
            "lat": 30.267841,
            "lng": 104.699295
        },
        "ad_info": {
            "adcode": 512002,
            "province": "四川省",
            "city": "资阳市",
            "district": "雁江区"
        }
    },
    {
        "id": "5149822083602793217",
        "title": "公共厕所",
        "address": "四川省资阳市安岳县Y310与八悦路交叉口正东方向198米左右",
        "tel": "",
        "category": "基础设施:公共设施:公共厕所",
        "type": 0,
        "location": {
            "lat": 30.237602,
            "lng": 105.227053
        },
        "ad_info": {
            "adcode": 512021,
            "province": "四川省",
            "city": "资阳市",
            "district": "安岳县"
        }
    },
    {
        "id": "10630508951616030381",
        "title": "公共厕所",
        "address": "四川省资阳市雁江区公园路与松涛路一段交叉口正东方向56米左右",
        "tel": "",
        "category": "基础设施:公共设施:公共厕所",
        "type": 0,
        "location": {
            "lat": 30.12573,
            "lng": 104.639959
        },
        "ad_info": {
            "adcode": 512002,
            "province": "四川省",
            "city": "资阳市",
            "district": "雁江区"
        }
    },
    {
        "id": "12816406441241087437",
        "title": "公共厕所",
        "address": "四川省资阳市雁江区支三路与碧满路交叉口西北方向64米左右",
        "tel": "",
        "category": "基础设施:公共设施:公共厕所",
        "type": 0,
        "location": {
            "lat": 30.11881,
            "lng": 104.673786
        },
        "ad_info": {
            "adcode": 512002,
            "province": "四川省",
            "city": "资阳市",
            "district": "雁江区"
        }
    },
    {
        "id": "5390874353671652938",
        "title": "娑婆山公共厕所",
        "address": "四川省资阳市乐至县聚丰恒大道2号",
        "tel": "",
        "category": "基础设施:公共设施:公共厕所",
        "type": 0,
        "location": {
            "lat": 30.297243,
            "lng": 105.024592
        },
        "ad_info": {
            "adcode": 512022,
            "province": "四川省",
            "city": "资阳市",
            "district": "乐至县"
        }
    },
    {
        "id": "12685397907930490170",
        "title": "朝阳停车区公共厕所",
        "address": "四川省资阳市乐至县G5013渝蓉高速与朝阳停车区交叉口西北240米",
        "tel": "",
        "category": "基础设施:公共设施:公共厕所",
        "type": 0,
        "location": {
            "lat": 30.074021,
            "lng": 105.208966
        },
        "ad_info": {
            "adcode": 512022,
            "province": "四川省",
            "city": "资阳市",
            "district": "乐至县"
        }
    },
    {
        "id": "420127943318916308",
        "title": "男洗手间(万达广场)",
        "address": "四川省资阳市雁江区幸福大道120号资阳万达广场F1",
        "tel": "",
        "category": "基础设施:公共设施:男洗手间",
        "type": 0,
        "location": {
            "lat": 30.128077,
            "lng": 104.620894
        },
        "ad_info": {
            "adcode": 512002,
            "province": "四川省",
            "city": "资阳市",
            "district": "雁江区"
        }
    },
    {
        "id": "4022090806522203989",
        "title": "公共厕所",
        "address": "四川省资阳市雁江区临江街与板永路交叉口西北方向161米左右",
        "tel": "",
        "category": "基础设施:公共设施:公共厕所",
        "type": 0,
        "location": {
            "lat": 30.153343,
            "lng": 104.805513
        },
        "ad_info": {
            "adcode": 512002,
            "province": "四川省",
            "city": "资阳市",
            "district": "雁江区"
        }
    },
    {
        "id": "18245327417914600630",
        "title": "公共厕所(特来电三期充电站内)",
        "address": "四川省资阳市安岳县新村路与普州大道南段交叉口正南方向100米左右",
        "tel": "028-24528788",
        "category": "基础设施:公共设施:公共厕所",
        "type": 0,
        "location": {
            "lat": 30.11224,
            "lng": 105.354095
        },
        "ad_info": {
            "adcode": 512021,
            "province": "四川省",
            "city": "资阳市",
            "district": "安岳县"
        }
    },
    {
        "id": "3722842274225371529",
        "title": "公共厕所",
        "address": "四川省资阳市安岳县普州大道北段26号",
        "tel": "",
        "category": "基础设施:公共设施:公共厕所",
        "type": 0,
        "location": {
            "lat": 30.115447,
            "lng": 105.354187
        },
        "ad_info": {
            "adcode": 512021,
            "province": "四川省",
            "city": "资阳市",
            "district": "安岳县"
        }
    },
    {
        "id": "5321847955920272854",
        "title": "公共厕所",
        "address": "四川省资阳市安岳县北坝路东段与普州大道南段交叉口西南方向103米左右",
        "tel": "",
        "category": "基础设施:公共设施:公共厕所",
        "type": 0,
        "location": {
            "lat": 30.105912,
            "lng": 105.348956
        },
        "ad_info": {
            "adcode": 512021,
            "province": "四川省",
            "city": "资阳市",
            "district": "安岳县"
        }
    },
    {
        "id": "7735327808065588205",
        "title": "公共厕所",
        "address": "四川省资阳市雁江区中环二路与蜀乡大道交叉口正东方向91米左右",
        "tel": "",
        "category": "基础设施:公共设施:公共厕所",
        "type": 0,
        "location": {
            "lat": 30.099935,
            "lng": 104.670937
        },
        "ad_info": {
            "adcode": 512002,
            "province": "四川省",
            "city": "资阳市",
            "district": "雁江区"
        }
    },
    {
        "id": "3178353108530636183",
        "title": "中央时代星城公共厕所",
        "address": "四川省资阳市安岳县中央时代星城3栋4栋之间西100米(黄桷垭街北)物业服方中心旁边",
        "tel": "028-24528788",
        "category": "基础设施:公共设施:公共厕所",
        "type": 0,
        "location": {
            "lat": 30.106451,
            "lng": 105.352557
        },
        "ad_info": {
            "adcode": 512021,
            "province": "四川省",
            "city": "资阳市",
            "district": "安岳县"
        }
    },
    {
        "id": "2739981212695908743",
        "title": "公共厕所",
        "address": "四川省资阳市雁江区滨江大道与青年路交叉口正北方向126米左右",
        "tel": "",
        "category": "基础设施:公共设施:公共厕所",
        "type": 0,
        "location": {
            "lat": 30.124441,
            "lng": 104.66765
        },
        "ad_info": {
            "adcode": 512002,
            "province": "四川省",
            "city": "资阳市",
            "district": "雁江区"
        }
    },
    {
        "id": "13926667754022608909",
        "title": "公共厕所",
        "address": "四川省资阳市安岳县朝安路与环峰东街交叉口东南方向1832米左右",
        "tel": "",
        "category": "基础设施:公共设施:公共厕所",
        "type": 0,
        "location": {
            "lat": 30.055662,
            "lng": 105.24274
        },
        "ad_info": {
            "adcode": 512021,
            "province": "四川省",
            "city": "资阳市",
            "district": "安岳县"
        }
    },
    {
        "id": "9517239808273595392",
        "title": "安岳东服务区公共厕所",
        "address": "四川省资阳市安岳县合安高速与成资渝高速交叉口正西方向375米左右",
        "tel": "",
        "category": "基础设施:公共设施:公共厕所",
        "type": 0,
        "location": {
            "lat": 30.125401,
            "lng": 105.471976
        },
        "ad_info": {
            "adcode": 512021,
            "province": "四川省",
            "city": "资阳市",
            "district": "安岳县"
        }
    },
    {
        "id": "4116750818942055519",
        "title": "男洗手间(万达广场)",
        "address": "四川省资阳市雁江区幸福大道120号资阳万达广场F2",
        "tel": "",
        "category": "基础设施:公共设施:男洗手间",
        "type": 0,
        "location": {
            "lat": 30.127433,
            "lng": 104.619682
        },
        "ad_info": {
            "adcode": 512002,
            "province": "四川省",
            "city": "资阳市",
            "district": "雁江区"
        }
    },
    {
        "id": "7872368402151120151",
        "title": "公共厕所",
        "address": "四川省资阳市雁江区外环路西一段与外环路西二段交叉口正东方向216米左右",
        "tel": "",
        "category": "基础设施:公共设施:公共厕所",
        "type": 0,
        "location": {
            "lat": 30.126764,
            "lng": 104.609166
        },
        "ad_info": {
            "adcode": 512002,
            "province": "四川省",
            "city": "资阳市",
            "district": "雁江区"
        }
    },
    {
        "id": "16609886494193272047",
        "title": "公共厕所",
        "address": "四川省资阳市雁江区中学街与资资路交叉口正西方向1273米左右",
        "tel": "",
        "category": "基础设施:公共设施:公共厕所",
        "type": 0,
        "location": {
            "lat": 30.015801,
            "lng": 104.820342
        },
        "ad_info": {
            "adcode": 512002,
            "province": "四川省",
            "city": "资阳市",
            "district": "雁江区"
        }
    },
    {
        "id": "2186698716909543276",
        "title": "公共厕所",
        "address": "四川省资阳市安岳县Y322与龙居街交叉口正南方向542米左右",
        "tel": "",
        "category": "基础设施:公共设施:公共厕所",
        "type": 0,
        "location": {
            "lat": 30.00045,
            "lng": 105.053283
        },
        "ad_info": {
            "adcode": 512021,
            "province": "四川省",
            "city": "资阳市",
            "district": "安岳县"
        }
    },
    {
        "id": "15767608956607436933",
        "title": "公共厕所",
        "address": "四川省资阳市雁江区君山街与政新街交叉口东北方向938米左右",
        "tel": "",
        "category": "基础设施:公共设施:公共厕所",
        "type": 0,
        "location": {
            "lat": 30.267841,
            "lng": 104.699295
        },
        "ad_info": {
            "adcode": 512002,
            "province": "四川省",
            "city": "资阳市",
            "district": "雁江区"
        }
    },
    {
        "id": "5149822083602793217",
        "title": "公共厕所",
        "address": "四川省资阳市安岳县Y310与八悦路交叉口正东方向198米左右",
        "tel": "",
        "category": "基础设施:公共设施:公共厕所",
        "type": 0,
        "location": {
            "lat": 30.237602,
            "lng": 105.227053
        },
        "ad_info": {
            "adcode": 512021,
            "province": "四川省",
            "city": "资阳市",
            "district": "安岳县"
        }
    },
    {
        "id": "10630508951616030381",
        "title": "公共厕所",
        "address": "四川省资阳市雁江区公园路与松涛路一段交叉口正东方向56米左右",
        "tel": "",
        "category": "基础设施:公共设施:公共厕所",
        "type": 0,
        "location": {
            "lat": 30.12573,
            "lng": 104.639959
        },
        "ad_info": {
            "adcode": 512002,
            "province": "四川省",
            "city": "资阳市",
            "district": "雁江区"
        }
    },
    {
        "id": "12816406441241087437",
        "title": "公共厕所",
        "address": "四川省资阳市雁江区支三路与碧满路交叉口西北方向64米左右",
        "tel": "",
        "category": "基础设施:公共设施:公共厕所",
        "type": 0,
        "location": {
            "lat": 30.11881,
            "lng": 104.673786
        },
        "ad_info": {
            "adcode": 512002,
            "province": "四川省",
            "city": "资阳市",
            "district": "雁江区"
        }
    },
    {
        "id": "5390874353671652938",
        "title": "娑婆山公共厕所",
        "address": "四川省资阳市乐至县聚丰恒大道2号",
        "tel": "",
        "category": "基础设施:公共设施:公共厕所",
        "type": 0,
        "location": {
            "lat": 30.297243,
            "lng": 105.024592
        },
        "ad_info": {
            "adcode": 512022,
            "province": "四川省",
            "city": "资阳市",
            "district": "乐至县"
        }
    },
    {
        "id": "12685397907930490170",
        "title": "朝阳停车区公共厕所",
        "address": "四川省资阳市乐至县G5013渝蓉高速与朝阳停车区交叉口西北240米",
        "tel": "",
        "category": "基础设施:公共设施:公共厕所",
        "type": 0,
        "location": {
            "lat": 30.074021,
            "lng": 105.208966
        },
        "ad_info": {
            "adcode": 512022,
            "province": "四川省",
            "city": "资阳市",
            "district": "乐至县"
        }
    },
    {
        "id": "420127943318916308",
        "title": "男洗手间(万达广场)",
        "address": "四川省资阳市雁江区幸福大道120号资阳万达广场F1",
        "tel": "",
        "category": "基础设施:公共设施:男洗手间",
        "type": 0,
        "location": {
            "lat": 30.128077,
            "lng": 104.620894
        },
        "ad_info": {
            "adcode": 512002,
            "province": "四川省",
            "city": "资阳市",
            "district": "雁江区"
        }
    },
    {
        "id": "4022090806522203989",
        "title": "公共厕所",
        "address": "四川省资阳市雁江区临江街与板永路交叉口西北方向161米左右",
        "tel": "",
        "category": "基础设施:公共设施:公共厕所",
        "type": 0,
        "location": {
            "lat": 30.153343,
            "lng": 104.805513
        },
        "ad_info": {
            "adcode": 512002,
            "province": "四川省",
            "city": "资阳市",
            "district": "雁江区"
        }
    },
    {
        "id": "18245327417914600630",
        "title": "公共厕所(特来电三期充电站内)",
        "address": "四川省资阳市安岳县新村路与普州大道南段交叉口正南方向100米左右",
        "tel": "028-24528788",
        "category": "基础设施:公共设施:公共厕所",
        "type": 0,
        "location": {
            "lat": 30.11224,
            "lng": 105.354095
        },
        "ad_info": {
            "adcode": 512021,
            "province": "四川省",
            "city": "资阳市",
            "district": "安岳县"
        }
    },
    {
        "id": "3722842274225371529",
        "title": "公共厕所",
        "address": "四川省资阳市安岳县普州大道北段26号",
        "tel": "",
        "category": "基础设施:公共设施:公共厕所",
        "type": 0,
        "location": {
            "lat": 30.115447,
            "lng": 105.354187
        },
        "ad_info": {
            "adcode": 512021,
            "province": "四川省",
            "city": "资阳市",
            "district": "安岳县"
        }
    },
    {
        "id": "5321847955920272854",
        "title": "公共厕所",
        "address": "四川省资阳市安岳县北坝路东段与普州大道南段交叉口西南方向103米左右",
        "tel": "",
        "category": "基础设施:公共设施:公共厕所",
        "type": 0,
        "location": {
            "lat": 30.105912,
            "lng": 105.348956
        },
        "ad_info": {
            "adcode": 512021,
            "province": "四川省",
            "city": "资阳市",
            "district": "安岳县"
        }
    },
    {
        "id": "7735327808065588205",
        "title": "公共厕所",
        "address": "四川省资阳市雁江区中环二路与蜀乡大道交叉口正东方向91米左右",
        "tel": "",
        "category": "基础设施:公共设施:公共厕所",
        "type": 0,
        "location": {
            "lat": 30.099935,
            "lng": 104.670937
        },
        "ad_info": {
            "adcode": 512002,
            "province": "四川省",
            "city": "资阳市",
            "district": "雁江区"
        }
    },
    {
        "id": "3178353108530636183",
        "title": "中央时代星城公共厕所",
        "address": "四川省资阳市安岳县中央时代星城3栋4栋之间西100米(黄桷垭街北)物业服方中心旁边",
        "tel": "028-24528788",
        "category": "基础设施:公共设施:公共厕所",
        "type": 0,
        "location": {
            "lat": 30.106451,
            "lng": 105.352557
        },
        "ad_info": {
            "adcode": 512021,
            "province": "四川省",
            "city": "资阳市",
            "district": "安岳县"
        }
    },
    {
        "id": "2739981212695908743",
        "title": "公共厕所",
        "address": "四川省资阳市雁江区滨江大道与青年路交叉口正北方向126米左右",
        "tel": "",
        "category": "基础设施:公共设施:公共厕所",
        "type": 0,
        "location": {
            "lat": 30.124441,
            "lng": 104.66765
        },
        "ad_info": {
            "adcode": 512002,
            "province": "四川省",
            "city": "资阳市",
            "district": "雁江区"
        }
    },
    {
        "id": "13926667754022608909",
        "title": "公共厕所",
        "address": "四川省资阳市安岳县朝安路与环峰东街交叉口东南方向1832米左右",
        "tel": "",
        "category": "基础设施:公共设施:公共厕所",
        "type": 0,
        "location": {
            "lat": 30.055662,
            "lng": 105.24274
        },
        "ad_info": {
            "adcode": 512021,
            "province": "四川省",
            "city": "资阳市",
            "district": "安岳县"
        }
    },
    {
        "id": "9517239808273595392",
        "title": "安岳东服务区公共厕所",
        "address": "四川省资阳市安岳县合安高速与成资渝高速交叉口正西方向375米左右",
        "tel": "",
        "category": "基础设施:公共设施:公共厕所",
        "type": 0,
        "location": {
            "lat": 30.125401,
            "lng": 105.471976
        },
        "ad_info": {
            "adcode": 512021,
            "province": "四川省",
            "city": "资阳市",
            "district": "安岳县"
        }
    },
    {
        "id": "4116750818942055519",
        "title": "男洗手间(万达广场)",
        "address": "四川省资阳市雁江区幸福大道120号资阳万达广场F2",
        "tel": "",
        "category": "基础设施:公共设施:男洗手间",
        "type": 0,
        "location": {
            "lat": 30.127433,
            "lng": 104.619682
        },
        "ad_info": {
            "adcode": 512002,
            "province": "四川省",
            "city": "资阳市",
            "district": "雁江区"
        }
    },
    {
        "id": "7872368402151120151",
        "title": "公共厕所",
        "address": "四川省资阳市雁江区外环路西一段与外环路西二段交叉口正东方向216米左右",
        "tel": "",
        "category": "基础设施:公共设施:公共厕所",
        "type": 0,
        "location": {
            "lat": 30.126764,
            "lng": 104.609166
        },
        "ad_info": {
            "adcode": 512002,
            "province": "四川省",
            "city": "资阳市",
            "district": "雁江区"
        }
    },
    {
        "id": "16609886494193272047",
        "title": "公共厕所",
        "address": "四川省资阳市雁江区中学街与资资路交叉口正西方向1273米左右",
        "tel": "",
        "category": "基础设施:公共设施:公共厕所",
        "type": 0,
        "location": {
            "lat": 30.015801,
            "lng": 104.820342
        },
        "ad_info": {
            "adcode": 512002,
            "province": "四川省",
            "city": "资阳市",
            "district": "雁江区"
        }
    },
    {
        "id": "2186698716909543276",
        "title": "公共厕所",
        "address": "四川省资阳市安岳县Y322与龙居街交叉口正南方向542米左右",
        "tel": "",
        "category": "基础设施:公共设施:公共厕所",
        "type": 0,
        "location": {
            "lat": 30.00045,
            "lng": 105.053283
        },
        "ad_info": {
            "adcode": 512021,
            "province": "四川省",
            "city": "资阳市",
            "district": "安岳县"
        }
    },
    {
        "id": "15767608956607436933",
        "title": "公共厕所",
        "address": "四川省资阳市雁江区君山街与政新街交叉口东北方向938米左右",
        "tel": "",
        "category": "基础设施:公共设施:公共厕所",
        "type": 0,
        "location": {
            "lat": 30.267841,
            "lng": 104.699295
        },
        "ad_info": {
            "adcode": 512002,
            "province": "四川省",
            "city": "资阳市",
            "district": "雁江区"
        }
    },
    {
        "id": "5149822083602793217",
        "title": "公共厕所",
        "address": "四川省资阳市安岳县Y310与八悦路交叉口正东方向198米左右",
        "tel": "",
        "category": "基础设施:公共设施:公共厕所",
        "type": 0,
        "location": {
            "lat": 30.237602,
            "lng": 105.227053
        },
        "ad_info": {
            "adcode": 512021,
            "province": "四川省",
            "city": "资阳市",
            "district": "安岳县"
        }
    },
    {
        "id": "10630508951616030381",
        "title": "公共厕所",
        "address": "四川省资阳市雁江区公园路与松涛路一段交叉口正东方向56米左右",
        "tel": "",
        "category": "基础设施:公共设施:公共厕所",
        "type": 0,
        "location": {
            "lat": 30.12573,
            "lng": 104.639959
        },
        "ad_info": {
            "adcode": 512002,
            "province": "四川省",
            "city": "资阳市",
            "district": "雁江区"
        }
    },
    {
        "id": "12816406441241087437",
        "title": "公共厕所",
        "address": "四川省资阳市雁江区支三路与碧满路交叉口西北方向64米左右",
        "tel": "",
        "category": "基础设施:公共设施:公共厕所",
        "type": 0,
        "location": {
            "lat": 30.11881,
            "lng": 104.673786
        },
        "ad_info": {
            "adcode": 512002,
            "province": "四川省",
            "city": "资阳市",
            "district": "雁江区"
        }
    },
    {
        "id": "5390874353671652938",
        "title": "娑婆山公共厕所",
        "address": "四川省资阳市乐至县聚丰恒大道2号",
        "tel": "",
        "category": "基础设施:公共设施:公共厕所",
        "type": 0,
        "location": {
            "lat": 30.297243,
            "lng": 105.024592
        },
        "ad_info": {
            "adcode": 512022,
            "province": "四川省",
            "city": "资阳市",
            "district": "乐至县"
        }
    },
    {
        "id": "12685397907930490170",
        "title": "朝阳停车区公共厕所",
        "address": "四川省资阳市乐至县G5013渝蓉高速与朝阳停车区交叉口西北240米",
        "tel": "",
        "category": "基础设施:公共设施:公共厕所",
        "type": 0,
        "location": {
            "lat": 30.074021,
            "lng": 105.208966
        },
        "ad_info": {
            "adcode": 512022,
            "province": "四川省",
            "city": "资阳市",
            "district": "乐至县"
        }
    },
    {
        "id": "420127943318916308",
        "title": "男洗手间(万达广场)",
        "address": "四川省资阳市雁江区幸福大道120号资阳万达广场F1",
        "tel": "",
        "category": "基础设施:公共设施:男洗手间",
        "type": 0,
        "location": {
            "lat": 30.128077,
            "lng": 104.620894
        },
        "ad_info": {
            "adcode": 512002,
            "province": "四川省",
            "city": "资阳市",
            "district": "雁江区"
        }
    },
    {
        "id": "4022090806522203989",
        "title": "公共厕所",
        "address": "四川省资阳市雁江区临江街与板永路交叉口西北方向161米左右",
        "tel": "",
        "category": "基础设施:公共设施:公共厕所",
        "type": 0,
        "location": {
            "lat": 30.153343,
            "lng": 104.805513
        },
        "ad_info": {
            "adcode": 512002,
            "province": "四川省",
            "city": "资阳市",
            "district": "雁江区"
        }
    },
    {
        "id": "18245327417914600630",
        "title": "公共厕所(特来电三期充电站内)",
        "address": "四川省资阳市安岳县新村路与普州大道南段交叉口正南方向100米左右",
        "tel": "028-24528788",
        "category": "基础设施:公共设施:公共厕所",
        "type": 0,
        "location": {
            "lat": 30.11224,
            "lng": 105.354095
        },
        "ad_info": {
            "adcode": 512021,
            "province": "四川省",
            "city": "资阳市",
            "district": "安岳县"
        }
    },
    {
        "id": "3722842274225371529",
        "title": "公共厕所",
        "address": "四川省资阳市安岳县普州大道北段26号",
        "tel": "",
        "category": "基础设施:公共设施:公共厕所",
        "type": 0,
        "location": {
            "lat": 30.115447,
            "lng": 105.354187
        },
        "ad_info": {
            "adcode": 512021,
            "province": "四川省",
            "city": "资阳市",
            "district": "安岳县"
        }
    },
    {
        "id": "5321847955920272854",
        "title": "公共厕所",
        "address": "四川省资阳市安岳县北坝路东段与普州大道南段交叉口西南方向103米左右",
        "tel": "",
        "category": "基础设施:公共设施:公共厕所",
        "type": 0,
        "location": {
            "lat": 30.105912,
            "lng": 105.348956
        },
        "ad_info": {
            "adcode": 512021,
            "province": "四川省",
            "city": "资阳市",
            "district": "安岳县"
        }
    },
    {
        "id": "7735327808065588205",
        "title": "公共厕所",
        "address": "四川省资阳市雁江区中环二路与蜀乡大道交叉口正东方向91米左右",
        "tel": "",
        "category": "基础设施:公共设施:公共厕所",
        "type": 0,
        "location": {
            "lat": 30.099935,
            "lng": 104.670937
        },
        "ad_info": {
            "adcode": 512002,
            "province": "四川省",
            "city": "资阳市",
            "district": "雁江区"
        }
    },
    {
        "id": "3178353108530636183",
        "title": "中央时代星城公共厕所",
        "address": "四川省资阳市安岳县中央时代星城3栋4栋之间西100米(黄桷垭街北)物业服方中心旁边",
        "tel": "028-24528788",
        "category": "基础设施:公共设施:公共厕所",
        "type": 0,
        "location": {
            "lat": 30.106451,
            "lng": 105.352557
        },
        "ad_info": {
            "adcode": 512021,
            "province": "四川省",
            "city": "资阳市",
            "district": "安岳县"
        }
    },
    {
        "id": "2739981212695908743",
        "title": "公共厕所",
        "address": "四川省资阳市雁江区滨江大道与青年路交叉口正北方向126米左右",
        "tel": "",
        "category": "基础设施:公共设施:公共厕所",
        "type": 0,
        "location": {
            "lat": 30.124441,
            "lng": 104.66765
        },
        "ad_info": {
            "adcode": 512002,
            "province": "四川省",
            "city": "资阳市",
            "district": "雁江区"
        }
    },
    {
        "id": "13926667754022608909",
        "title": "公共厕所",
        "address": "四川省资阳市安岳县朝安路与环峰东街交叉口东南方向1832米左右",
        "tel": "",
        "category": "基础设施:公共设施:公共厕所",
        "type": 0,
        "location": {
            "lat": 30.055662,
            "lng": 105.24274
        },
        "ad_info": {
            "adcode": 512021,
            "province": "四川省",
            "city": "资阳市",
            "district": "安岳县"
        }
    },
    {
        "id": "9517239808273595392",
        "title": "安岳东服务区公共厕所",
        "address": "四川省资阳市安岳县合安高速与成资渝高速交叉口正西方向375米左右",
        "tel": "",
        "category": "基础设施:公共设施:公共厕所",
        "type": 0,
        "location": {
            "lat": 30.125401,
            "lng": 105.471976
        },
        "ad_info": {
            "adcode": 512021,
            "province": "四川省",
            "city": "资阳市",
            "district": "安岳县"
        }
    },
    {
        "id": "4116750818942055519",
        "title": "男洗手间(万达广场)",
        "address": "四川省资阳市雁江区幸福大道120号资阳万达广场F2",
        "tel": "",
        "category": "基础设施:公共设施:男洗手间",
        "type": 0,
        "location": {
            "lat": 30.127433,
            "lng": 104.619682
        },
        "ad_info": {
            "adcode": 512002,
            "province": "四川省",
            "city": "资阳市",
            "district": "雁江区"
        }
    },
    {
        "id": "7872368402151120151",
        "title": "公共厕所",
        "address": "四川省资阳市雁江区外环路西一段与外环路西二段交叉口正东方向216米左右",
        "tel": "",
        "category": "基础设施:公共设施:公共厕所",
        "type": 0,
        "location": {
            "lat": 30.126764,
            "lng": 104.609166
        },
        "ad_info": {
            "adcode": 512002,
            "province": "四川省",
            "city": "资阳市",
            "district": "雁江区"
        }
    },
    {
        "id": "16609886494193272047",
        "title": "公共厕所",
        "address": "四川省资阳市雁江区中学街与资资路交叉口正西方向1273米左右",
        "tel": "",
        "category": "基础设施:公共设施:公共厕所",
        "type": 0,
        "location": {
            "lat": 30.015801,
            "lng": 104.820342
        },
        "ad_info": {
            "adcode": 512002,
            "province": "四川省",
            "city": "资阳市",
            "district": "雁江区"
        }
    },
    {
        "id": "2186698716909543276",
        "title": "公共厕所",
        "address": "四川省资阳市安岳县Y322与龙居街交叉口正南方向542米左右",
        "tel": "",
        "category": "基础设施:公共设施:公共厕所",
        "type": 0,
        "location": {
            "lat": 30.00045,
            "lng": 105.053283
        },
        "ad_info": {
            "adcode": 512021,
            "province": "四川省",
            "city": "资阳市",
            "district": "安岳县"
        }
    },
    {
        "id": "15767608956607436933",
        "title": "公共厕所",
        "address": "四川省资阳市雁江区君山街与政新街交叉口东北方向938米左右",
        "tel": "",
        "category": "基础设施:公共设施:公共厕所",
        "type": 0,
        "location": {
            "lat": 30.267841,
            "lng": 104.699295
        },
        "ad_info": {
            "adcode": 512002,
            "province": "四川省",
            "city": "资阳市",
            "district": "雁江区"
        }
    },
    {
        "id": "5149822083602793217",
        "title": "公共厕所",
        "address": "四川省资阳市安岳县Y310与八悦路交叉口正东方向198米左右",
        "tel": "",
        "category": "基础设施:公共设施:公共厕所",
        "type": 0,
        "location": {
            "lat": 30.237602,
            "lng": 105.227053
        },
        "ad_info": {
            "adcode": 512021,
            "province": "四川省",
            "city": "资阳市",
            "district": "安岳县"
        }
    },
    {
        "id": "10630508951616030381",
        "title": "公共厕所",
        "address": "四川省资阳市雁江区公园路与松涛路一段交叉口正东方向56米左右",
        "tel": "",
        "category": "基础设施:公共设施:公共厕所",
        "type": 0,
        "location": {
            "lat": 30.12573,
            "lng": 104.639959
        },
        "ad_info": {
            "adcode": 512002,
            "province": "四川省",
            "city": "资阳市",
            "district": "雁江区"
        }
    }
]