[
    {
        "id": "1398243821348626956",
        "title": "公共厕所",
        "address": "吉林省辽源市龙山区康宁大街与西宁大路交叉口东北方向86米左右",
        "tel": "",
        "category": "基础设施:公共设施:公共厕所",
        "type": 0,
        "location": {
            "lat": 42.904322,
            "lng": 125.143681
        },
        "ad_info": {
            "adcode": 220402,
            "province": "吉林省",
            "city": "辽源市",
            "district": "龙山区"
        }
    },
    {
        "id": "10874989602827356977",
        "title": "公共厕所",
        "address": "吉林省辽源市龙山区辽河大路160号",
        "tel": "",
        "category": "基础设施:公共设施:公共厕所",
        "type": 0,
        "location": {
            "lat": 42.902104,
            "lng": 125.1382
        },
        "ad_info": {
            "adcode": 220402,
            "province": "吉林省",
            "city": "辽源市",
            "district": "龙山区"
        }
    },
    {
        "id": "7762578606805465262",
        "title": "公共厕所",
        "address": "吉林省辽源市龙山区兴旺路与新兴路交叉口西北方向293米左右",
        "tel": "",
        "category": "基础设施:公共设施:公共厕所",
        "type": 0,
        "location": {
            "lat": 42.91479,
            "lng": 125.178701
        },
        "ad_info": {
            "adcode": 220402,
            "province": "吉林省",
            "city": "辽源市",
            "district": "龙山区"
        }
    },
    {
        "id": "1261211362980645207",
        "title": "公共厕所",
        "address": "吉林省辽源市西安区和宁街与河丰胡同交叉口西北方向54米左右",
        "tel": "",
        "category": "基础设施:公共设施:公共厕所",
        "type": 0,
        "location": {
            "lat": 42.910121,
            "lng": 125.14517
        },
        "ad_info": {
            "adcode": 220403,
            "province": "吉林省",
            "city": "辽源市",
            "district": "西安区"
        }
    },
    {
        "id": "17009246920003394240",
        "title": "公共厕所",
        "address": "吉林省辽源市龙山区民康路林苑公园(东侧)",
        "tel": "",
        "category": "基础设施:公共设施:公共厕所",
        "type": 0,
        "location": {
            "lat": 42.898266,
            "lng": 125.137164
        },
        "ad_info": {
            "adcode": 220402,
            "province": "吉林省",
            "city": "辽源市",
            "district": "龙山区"
        }
    },
    {
        "id": "13804336649529638807",
        "title": "公共厕所",
        "address": "吉林省辽源市龙山区友宁路与友生胡同交叉口正东方向71米左右",
        "tel": "",
        "category": "基础设施:公共设施:公共厕所",
        "type": 0,
        "location": {
            "lat": 42.909593,
            "lng": 125.128431
        },
        "ad_info": {
            "adcode": 220402,
            "province": "吉林省",
            "city": "辽源市",
            "district": "龙山区"
        }
    },
    {
        "id": "18162630655186094924",
        "title": "公共厕所",
        "address": "吉林省辽源市龙山区人民大街与辽河大路交叉口东北方向120米左右",
        "tel": "",
        "category": "基础设施:公共设施:公共厕所",
        "type": 0,
        "location": {
            "lat": 42.896169,
            "lng": 125.146307
        },
        "ad_info": {
            "adcode": 220402,
            "province": "吉林省",
            "city": "辽源市",
            "district": "龙山区"
        }
    },
    {
        "id": "4046789492055741732",
        "title": "公共厕所",
        "address": "吉林省辽源市龙山区康宁大街24号物价局",
        "tel": "",
        "category": "基础设施:公共设施:公共厕所",
        "type": 0,
        "location": {
            "lat": 42.9026,
            "lng": 125.144425
        },
        "ad_info": {
            "adcode": 220402,
            "province": "吉林省",
            "city": "辽源市",
            "district": "龙山区"
        }
    },
    {
        "id": "18001961153404747818",
        "title": "公共厕所",
        "address": "吉林省辽源市龙山区福瑞路与福镇大路交叉口西北方向203米左右",
        "tel": "",
        "category": "基础设施:公共设施:公共厕所",
        "type": 0,
        "location": {
            "lat": 42.877605,
            "lng": 125.176283
        },
        "ad_info": {
            "adcode": 220402,
            "province": "吉林省",
            "city": "辽源市",
            "district": "龙山区"
        }
    },
    {
        "id": "9014736818412562914",
        "title": "公共厕所",
        "address": "吉林省辽源市西安区人民大街956号",
        "tel": "",
        "category": "基础设施:公共设施:公共厕所",
        "type": 0,
        "location": {
            "lat": 42.917748,
            "lng": 125.151928
        },
        "ad_info": {
            "adcode": 220403,
            "province": "吉林省",
            "city": "辽源市",
            "district": "西安区"
        }
    },
    {
        "id": "5806687917348289915",
        "title": "公共厕所",
        "address": "吉林省辽源市龙山区和宁街与安北大街交叉口东北方向140米左右",
        "tel": "",
        "category": "基础设施:公共设施:公共厕所",
        "type": 0,
        "location": {
            "lat": 42.909942,
            "lng": 125.133238
        },
        "ad_info": {
            "adcode": 220402,
            "province": "吉林省",
            "city": "辽源市",
            "district": "龙山区"
        }
    },
    {
        "id": "5989143184605017654",
        "title": "公共厕所",
        "address": "吉林省辽源市龙山区Y001与东吉大路交叉口正西方向210米左右",
        "tel": "",
        "category": "基础设施:公共设施:公共厕所",
        "type": 0,
        "location": {
            "lat": 42.916215,
            "lng": 125.199386
        },
        "ad_info": {
            "adcode": 220402,
            "province": "吉林省",
            "city": "辽源市",
            "district": "龙山区"
        }
    },
    {
        "id": "12414127064186959618",
        "title": "公共厕所",
        "address": "吉林省辽源市龙山区工农路与福民街交叉口正西方向64米左右",
        "tel": "",
        "category": "基础设施:公共设施:公共厕所",
        "type": 0,
        "location": {
            "lat": 42.889339,
            "lng": 125.172899
        },
        "ad_info": {
            "adcode": 220402,
            "province": "吉林省",
            "city": "辽源市",
            "district": "龙山区"
        }
    },
    {
        "id": "1864890046389744512",
        "title": "公共厕所",
        "address": "吉林省辽源市西安区和宁街与河丰胡同交叉口西北方向59米左右",
        "tel": "",
        "category": "基础设施:公共设施:公共厕所",
        "type": 0,
        "location": {
            "lat": 42.91037,
            "lng": 125.145369
        },
        "ad_info": {
            "adcode": 220403,
            "province": "吉林省",
            "city": "辽源市",
            "district": "西安区"
        }
    },
    {
        "id": "6459967013156057443",
        "title": "公共厕所",
        "address": "吉林省辽源市东辽县东交大街与龙兴路交叉口正南方向233米左右",
        "tel": "",
        "category": "基础设施:公共设施:公共厕所",
        "type": 0,
        "location": {
            "lat": 42.921117,
            "lng": 125.00335
        },
        "ad_info": {
            "adcode": 220422,
            "province": "吉林省",
            "city": "辽源市",
            "district": "东辽县"
        }
    },
    {
        "id": "14924618125209029301",
        "title": "公共卫生间",
        "address": "吉林省辽源市东辽县鲍立新中医诊所西南侧250米",
        "tel": "",
        "category": "基础设施:公共设施:公共厕所",
        "type": 0,
        "location": {
            "lat": 42.920811,
            "lng": 124.989371
        },
        "ad_info": {
            "adcode": 220422,
            "province": "吉林省",
            "city": "辽源市",
            "district": "东辽县"
        }
    },
    {
        "id": "12701359315666953148",
        "title": "公共厕所",
        "address": "吉林省辽源市东丰县育才胡同与金鹿大街交叉口正北方向30米左右",
        "tel": "",
        "category": "基础设施:公共设施:公共厕所",
        "type": 0,
        "location": {
            "lat": 42.670556,
            "lng": 125.538254
        },
        "ad_info": {
            "adcode": 220421,
            "province": "吉林省",
            "city": "辽源市",
            "district": "东丰县"
        }
    },
    {
        "id": "16539925600267802038",
        "title": "公共厕所",
        "address": "吉林省辽源市东丰县向阳路与锦绣街交叉口正南方向133米左右",
        "tel": "",
        "category": "基础设施:公共设施:公共厕所",
        "type": 0,
        "location": {
            "lat": 42.673917,
            "lng": 125.516297
        },
        "ad_info": {
            "adcode": 220421,
            "province": "吉林省",
            "city": "辽源市",
            "district": "东丰县"
        }
    },
    {
        "id": "5313545472772824990",
        "title": "公共厕所",
        "address": "吉林省辽源市龙山区春阳路200号",
        "tel": "",
        "category": "基础设施:公共设施:公共厕所",
        "type": 0,
        "location": {
            "lat": 42.879964,
            "lng": 125.141048
        },
        "ad_info": {
            "adcode": 220402,
            "province": "吉林省",
            "city": "辽源市",
            "district": "龙山区"
        }
    },
    {
        "id": "10647342800966365389",
        "title": "公共厕所",
        "address": "吉林省辽源市东丰县江城大路与鹿乡一条街交叉口西北方向97米左右",
        "tel": "",
        "category": "基础设施:公共设施:公共厕所",
        "type": 0,
        "location": {
            "lat": 42.667477,
            "lng": 125.539948
        },
        "ad_info": {
            "adcode": 220421,
            "province": "吉林省",
            "city": "辽源市",
            "district": "东丰县"
        }
    },
    {
        "id": "6788400984312061690",
        "title": "公共厕所",
        "address": "吉林省辽源市西安区东旭街与仙城西路交叉口正南方向317米左右",
        "tel": "",
        "category": "基础设施:公共设施:公共厕所",
        "type": 0,
        "location": {
            "lat": 42.929711,
            "lng": 125.152012
        },
        "ad_info": {
            "adcode": 220403,
            "province": "吉林省",
            "city": "辽源市",
            "district": "西安区"
        }
    },
    {
        "id": "3557647983669546879",
        "title": "公共厕所",
        "address": "吉林省辽源市东丰县江城大路42号正北方向70米",
        "tel": "",
        "category": "基础设施:公共设施:公共厕所",
        "type": 0,
        "location": {
            "lat": 42.671191,
            "lng": 125.52621
        },
        "ad_info": {
            "adcode": 220421,
            "province": "吉林省",
            "city": "辽源市",
            "district": "东丰县"
        }
    },
    {
        "id": "12949640840676238793",
        "title": "公共厕所",
        "address": "吉林省辽源市龙山区吉光路与龙山大街交叉口西北方向47米左右",
        "tel": "",
        "category": "基础设施:公共设施:公共厕所",
        "type": 0,
        "location": {
            "lat": 42.900829,
            "lng": 125.150679
        },
        "ad_info": {
            "adcode": 220402,
            "province": "吉林省",
            "city": "辽源市",
            "district": "龙山区"
        }
    },
    {
        "id": "5620373323107169677",
        "title": "公共厕所",
        "address": "吉林省辽源市东辽县Y019与辽营线交叉口东南方向1583米左右",
        "tel": "",
        "category": "基础设施:公共设施:公共厕所",
        "type": 0,
        "location": {
            "lat": 43.043283,
            "lng": 125.425814
        },
        "ad_info": {
            "adcode": 220422,
            "province": "吉林省",
            "city": "辽源市",
            "district": "东辽县"
        }
    },
    {
        "id": "1475071883189900119",
        "title": "公共厕所",
        "address": "吉林省辽源市龙山区东吉大路与兴山街交叉口西南方向138米左右",
        "tel": "",
        "category": "基础设施:公共设施:公共厕所",
        "type": 0,
        "location": {
            "lat": 42.91466,
            "lng": 125.194887
        },
        "ad_info": {
            "adcode": 220402,
            "province": "吉林省",
            "city": "辽源市",
            "district": "龙山区"
        }
    },
    {
        "id": "5717279901023245910",
        "title": "公共厕所",
        "address": "吉林省辽源市东辽县东辽大街与顺发路交叉口东南方向142米左右",
        "tel": "",
        "category": "基础设施:公共设施:公共厕所",
        "type": 0,
        "location": {
            "lat": 42.931588,
            "lng": 124.980636
        },
        "ad_info": {
            "adcode": 220422,
            "province": "吉林省",
            "city": "辽源市",
            "district": "东辽县"
        }
    },
    {
        "id": "15860784709701465938",
        "title": "公厕",
        "address": "吉林省辽源市龙山区富祥街",
        "tel": "",
        "category": "基础设施:公共设施:公共厕所",
        "type": 0,
        "location": {
            "lat": 42.896902,
            "lng": 125.110664
        },
        "ad_info": {
            "adcode": 220402,
            "province": "吉林省",
            "city": "辽源市",
            "district": "龙山区"
        }
    },
    {
        "id": "10992221261706061715",
        "title": "公共厕所",
        "address": "吉林省辽源市东辽县东辽县实验小学东南侧130米",
        "tel": "",
        "category": "基础设施:公共设施:公共厕所",
        "type": 0,
        "location": {
            "lat": 42.928668,
            "lng": 124.983663
        },
        "ad_info": {
            "adcode": 220422,
            "province": "吉林省",
            "city": "辽源市",
            "district": "东辽县"
        }
    },
    {
        "id": "11599632307708289643",
        "title": "公共厕所",
        "address": "吉林省辽源市龙山区人民大街与向阳大路交叉口西北方向44米左右",
        "tel": "",
        "category": "基础设施:公共设施:公共厕所",
        "type": 0,
        "location": {
            "lat": 42.888068,
            "lng": 125.142585
        },
        "ad_info": {
            "adcode": 220402,
            "province": "吉林省",
            "city": "辽源市",
            "district": "龙山区"
        }
    },
    {
        "id": "4934170224561662185",
        "title": "公共厕所",
        "address": "吉林省辽源市龙山区Y011与工农路交叉口正北方向1341米左右",
        "tel": "",
        "category": "基础设施:公共设施:公共厕所",
        "type": 0,
        "location": {
            "lat": 42.892734,
            "lng": 125.195335
        },
        "ad_info": {
            "adcode": 220402,
            "province": "吉林省",
            "city": "辽源市",
            "district": "龙山区"
        }
    },
    {
        "id": "6094252825908912347",
        "title": "公共厕所",
        "address": "吉林省辽源市东辽县",
        "tel": "",
        "category": "基础设施:公共设施:公共厕所",
        "type": 0,
        "location": {
            "lat": 42.886913,
            "lng": 125.019726
        },
        "ad_info": {
            "adcode": 220422,
            "province": "吉林省",
            "city": "辽源市",
            "district": "东辽县"
        }
    },
    {
        "id": "16930068696619093718",
        "title": "公共厕所",
        "address": "吉林省辽源市龙山区富祥街与谊民胡同交叉口东南方向31米左右",
        "tel": "",
        "category": "基础设施:公共设施:公共厕所",
        "type": 0,
        "location": {
            "lat": 42.903034,
            "lng": 125.113329
        },
        "ad_info": {
            "adcode": 220402,
            "province": "吉林省",
            "city": "辽源市",
            "district": "龙山区"
        }
    },
    {
        "id": "1292165939568973487",
        "title": "公共厕所",
        "address": "吉林省辽源市龙山区G229与建和路交叉口正北方向242米左右",
        "tel": "",
        "category": "基础设施:公共设施:公共厕所",
        "type": 0,
        "location": {
            "lat": 42.859519,
            "lng": 125.123215
        },
        "ad_info": {
            "adcode": 220402,
            "province": "吉林省",
            "city": "辽源市",
            "district": "龙山区"
        }
    },
    {
        "id": "2921776005295552949",
        "title": "公共厕所",
        "address": "吉林省辽源市龙山区红枫潭垂钓园西北(303国道南)",
        "tel": "",
        "category": "基础设施:公共设施:公共厕所",
        "type": 0,
        "location": {
            "lat": 42.895473,
            "lng": 125.103643
        },
        "ad_info": {
            "adcode": 220402,
            "province": "吉林省",
            "city": "辽源市",
            "district": "龙山区"
        }
    },
    {
        "id": "7683414725160471175",
        "title": "公共厕所",
        "address": "吉林省辽源市龙山区和宁街与安北大街交叉口正西方向18米左右",
        "tel": "",
        "category": "基础设施:公共设施:公共厕所",
        "type": 0,
        "location": {
            "lat": 42.909074,
            "lng": 125.131804
        },
        "ad_info": {
            "adcode": 220402,
            "province": "吉林省",
            "city": "辽源市",
            "district": "龙山区"
        }
    },
    {
        "id": "1438400524649428601",
        "title": "公共厕所",
        "address": "吉林省辽源市西安区亮河东街与西二环路交叉口西南方向322米左右",
        "tel": "",
        "category": "基础设施:公共设施:公共厕所",
        "type": 0,
        "location": {
            "lat": 42.934615,
            "lng": 125.0751
        },
        "ad_info": {
            "adcode": 220403,
            "province": "吉林省",
            "city": "辽源市",
            "district": "西安区"
        }
    },
    {
        "id": "10550876248279869036",
        "title": "公共厕所",
        "address": "吉林省辽源市东丰县吉祥路与河堤路交叉口东北方向442米左右",
        "tel": "",
        "category": "基础设施:公共设施:公共厕所",
        "type": 0,
        "location": {
            "lat": 42.689298,
            "lng": 125.528576
        },
        "ad_info": {
            "adcode": 220421,
            "province": "吉林省",
            "city": "辽源市",
            "district": "东丰县"
        }
    },
    {
        "id": "10604554517875089103",
        "title": "公共厕所",
        "address": "吉林省辽源市龙山区G229与东二环路交叉口正东方向245米左右",
        "tel": "",
        "category": "基础设施:公共设施:公共厕所",
        "type": 0,
        "location": {
            "lat": 42.868672,
            "lng": 125.187724
        },
        "ad_info": {
            "adcode": 220402,
            "province": "吉林省",
            "city": "辽源市",
            "district": "龙山区"
        }
    },
    {
        "id": "11472702159387739770",
        "title": "公共厕所",
        "address": "吉林省辽源市龙山区S208与辽营线交叉口东南方向1496米左右",
        "tel": "",
        "category": "基础设施:公共设施:公共厕所",
        "type": 0,
        "location": {
            "lat": 42.910365,
            "lng": 125.225298
        },
        "ad_info": {
            "adcode": 220402,
            "province": "吉林省",
            "city": "辽源市",
            "district": "龙山区"
        }
    },
    {
        "id": "3603976385066514852",
        "title": "公共厕所",
        "address": "吉林省辽源市龙山区G229与X080交叉口正东方向1130米左右",
        "tel": "",
        "category": "基础设施:公共设施:公共厕所",
        "type": 0,
        "location": {
            "lat": 42.849134,
            "lng": 125.217679
        },
        "ad_info": {
            "adcode": 220402,
            "province": "吉林省",
            "city": "辽源市",
            "district": "龙山区"
        }
    },
    {
        "id": "10324326162863338484",
        "title": "公共厕所",
        "address": "吉林省辽源市龙山区新兴路辽源市实验中学",
        "tel": "",
        "category": "基础设施:公共设施:公共厕所",
        "type": 0,
        "location": {
            "lat": 42.901668,
            "lng": 125.154594
        },
        "ad_info": {
            "adcode": 220402,
            "province": "吉林省",
            "city": "辽源市",
            "district": "龙山区"
        }
    },
    {
        "id": "1443751856069620727",
        "title": "公共厕所",
        "address": "吉林省辽源市西安区人民大街1398号",
        "tel": "",
        "category": "基础设施:公共设施:公共厕所",
        "type": 0,
        "location": {
            "lat": 42.934237,
            "lng": 125.145847
        },
        "ad_info": {
            "adcode": 220403,
            "province": "吉林省",
            "city": "辽源市",
            "district": "西安区"
        }
    },
    {
        "id": "1317877578800118414",
        "title": "公共厕所",
        "address": "吉林省辽源市龙山区和宁街612号",
        "tel": "",
        "category": "基础设施:公共设施:公共厕所",
        "type": 0,
        "location": {
            "lat": 42.909738,
            "lng": 125.133401
        },
        "ad_info": {
            "adcode": 220402,
            "province": "吉林省",
            "city": "辽源市",
            "district": "龙山区"
        }
    },
    {
        "id": "15954322603918007168",
        "title": "公共厕所",
        "address": "吉林省辽源市西安区西福路57号",
        "tel": "",
        "category": "基础设施:公共设施:公共厕所",
        "type": 0,
        "location": {
            "lat": 42.948963,
            "lng": 125.146711
        },
        "ad_info": {
            "adcode": 220403,
            "province": "吉林省",
            "city": "辽源市",
            "district": "西安区"
        }
    },
    {
        "id": "12392698878709561247",
        "title": "公共厕所",
        "address": "吉林省辽源市东辽县东辽大街与连泉路交叉口东北方向146米左右",
        "tel": "",
        "category": "基础设施:公共设施:公共厕所",
        "type": 0,
        "location": {
            "lat": 42.929744,
            "lng": 124.988151
        },
        "ad_info": {
            "adcode": 220422,
            "province": "吉林省",
            "city": "辽源市",
            "district": "东辽县"
        }
    },
    {
        "id": "852293725284867462",
        "title": "公共厕所",
        "address": "吉林省辽源市西安区G229与北二环路交叉口西南方向318米左右",
        "tel": "",
        "category": "基础设施:公共设施:公共厕所",
        "type": 0,
        "location": {
            "lat": 42.950386,
            "lng": 125.1645
        },
        "ad_info": {
            "adcode": 220403,
            "province": "吉林省",
            "city": "辽源市",
            "district": "西安区"
        }
    },
    {
        "id": "168175911021846044",
        "title": "公共厕所",
        "address": "吉林省辽源市西安区山南路与群英胡同交叉口东南方向146米左右",
        "tel": "",
        "category": "基础设施:公共设施:公共厕所",
        "type": 0,
        "location": {
            "lat": 42.941711,
            "lng": 125.152408
        },
        "ad_info": {
            "adcode": 220403,
            "province": "吉林省",
            "city": "辽源市",
            "district": "西安区"
        }
    },
    {
        "id": "1205539814393910481",
        "title": "公共厕所",
        "address": "吉林省辽源市东辽县站前路白泉站",
        "tel": "",
        "category": "基础设施:公共设施:公共厕所",
        "type": 0,
        "location": {
            "lat": 42.926699,
            "lng": 125.001168
        },
        "ad_info": {
            "adcode": 220422,
            "province": "吉林省",
            "city": "辽源市",
            "district": "东辽县"
        }
    },
    {
        "id": "9026258591206532734",
        "title": "公共厕所",
        "address": "吉林省辽源市东辽县G229与Y014交叉口东北方向1221米左右",
        "tel": "",
        "category": "基础设施:公共设施:公共厕所",
        "type": 0,
        "location": {
            "lat": 43.01772,
            "lng": 125.158826
        },
        "ad_info": {
            "adcode": 220422,
            "province": "吉林省",
            "city": "辽源市",
            "district": "东辽县"
        }
    },
    {
        "id": "16012021951324998217",
        "title": "公共厕所",
        "address": "吉林省辽源市东辽县G229与Y016交叉口东北方向1273米左右",
        "tel": "",
        "category": "基础设施:公共设施:公共厕所",
        "type": 0,
        "location": {
            "lat": 43.082259,
            "lng": 125.129609
        },
        "ad_info": {
            "adcode": 220422,
            "province": "吉林省",
            "city": "辽源市",
            "district": "东辽县"
        }
    },
    {
        "id": "11225790530421694116",
        "title": "公共厕所",
        "address": "吉林省辽源市东辽县东交大街与顺发路交叉口西北方向540米左右",
        "tel": "",
        "category": "基础设施:公共设施:公共厕所",
        "type": 0,
        "location": {
            "lat": 42.936972,
            "lng": 124.975717
        },
        "ad_info": {
            "adcode": 220422,
            "province": "吉林省",
            "city": "辽源市",
            "district": "东辽县"
        }
    },
    {
        "id": "17813845070867496750",
        "title": "公共厕所",
        "address": "吉林省辽源市西安区东山北路兴合小区",
        "tel": "",
        "category": "基础设施:公共设施:公共厕所",
        "type": 0,
        "location": {
            "lat": 42.949628,
            "lng": 125.151544
        },
        "ad_info": {
            "adcode": 220403,
            "province": "吉林省",
            "city": "辽源市",
            "district": "西安区"
        }
    },
    {
        "id": "14111142128090224014",
        "title": "公共厕所",
        "address": "吉林省辽源市西安区仙城东路与仙城大街交叉口正北方向78米左右",
        "tel": "",
        "category": "基础设施:公共设施:公共厕所",
        "type": 0,
        "location": {
            "lat": 42.933303,
            "lng": 125.153726
        },
        "ad_info": {
            "adcode": 220403,
            "province": "吉林省",
            "city": "辽源市",
            "district": "西安区"
        }
    },
    {
        "id": "7015245156234500146",
        "title": "公共厕所",
        "address": "吉林省辽源市东丰县兴隆街与江城大路交叉口正南方向118米左右",
        "tel": "",
        "category": "基础设施:公共设施:公共厕所",
        "type": 0,
        "location": {
            "lat": 42.668609,
            "lng": 125.53347
        },
        "ad_info": {
            "adcode": 220421,
            "province": "吉林省",
            "city": "辽源市",
            "district": "东丰县"
        }
    },
    {
        "id": "14417052391689402257",
        "title": "公共厕所",
        "address": "吉林省辽源市东辽县X065与Y001交叉口正北方向1894米左右",
        "tel": "",
        "category": "基础设施:公共设施:公共厕所",
        "type": 0,
        "location": {
            "lat": 43.121654,
            "lng": 124.999734
        },
        "ad_info": {
            "adcode": 220422,
            "province": "吉林省",
            "city": "辽源市",
            "district": "东辽县"
        }
    },
    {
        "id": "6547211005025854618",
        "title": "公共厕所",
        "address": "吉林省辽源市西安区东山北路与东胜路交叉口正北方向63米左右",
        "tel": "",
        "category": "基础设施:公共设施:公共厕所",
        "type": 0,
        "location": {
            "lat": 42.945778,
            "lng": 125.147598
        },
        "ad_info": {
            "adcode": 220403,
            "province": "吉林省",
            "city": "辽源市",
            "district": "西安区"
        }
    },
    {
        "id": "2509993446844276795",
        "title": "公共厕所",
        "address": "吉林省辽源市东辽县G303与X065交叉口东南方向164米左右",
        "tel": "",
        "category": "基础设施:公共设施:公共厕所",
        "type": 0,
        "location": {
            "lat": 42.970649,
            "lng": 124.901379
        },
        "ad_info": {
            "adcode": 220422,
            "province": "吉林省",
            "city": "辽源市",
            "district": "东辽县"
        }
    },
    {
        "id": "463833304844110416",
        "title": "公共厕所",
        "address": "吉林省辽源市东辽县X072与辽营线交叉口正北方向80米左右",
        "tel": "",
        "category": "基础设施:公共设施:公共厕所",
        "type": 0,
        "location": {
            "lat": 43.009685,
            "lng": 125.357974
        },
        "ad_info": {
            "adcode": 220422,
            "province": "吉林省",
            "city": "辽源市",
            "district": "东辽县"
        }
    },
    {
        "id": "10250748911138767233",
        "title": "公共厕所",
        "address": "吉林省辽源市东辽县X071与Y042交叉口正北方向237米左右",
        "tel": "",
        "category": "基础设施:公共设施:公共厕所",
        "type": 0,
        "location": {
            "lat": 42.729115,
            "lng": 125.024266
        },
        "ad_info": {
            "adcode": 220422,
            "province": "吉林省",
            "city": "辽源市",
            "district": "东辽县"
        }
    },
    {
        "id": "7946497898247155373",
        "title": "公共厕所",
        "address": "吉林省辽源市西安区西康街与西福路交叉口正西方向61米左右",
        "tel": "",
        "category": "基础设施:公共设施:公共厕所",
        "type": 0,
        "location": {
            "lat": 42.948822,
            "lng": 125.140974
        },
        "ad_info": {
            "adcode": 220403,
            "province": "吉林省",
            "city": "辽源市",
            "district": "西安区"
        }
    },
    {
        "id": "11466070709246743816",
        "title": "公共厕所",
        "address": "吉林省辽源市西安区矿北大街53号",
        "tel": "",
        "category": "基础设施:公共设施:公共厕所",
        "type": 0,
        "location": {
            "lat": 42.947238,
            "lng": 125.146727
        },
        "ad_info": {
            "adcode": 220403,
            "province": "吉林省",
            "city": "辽源市",
            "district": "西安区"
        }
    },
    {
        "id": "12313326332447090106",
        "title": "公共厕所",
        "address": "吉林省辽源市东丰县西余胡同与鑫达路交叉口正南方向35米左右",
        "tel": "",
        "category": "基础设施:公共设施:公共厕所",
        "type": 0,
        "location": {
            "lat": 42.682294,
            "lng": 125.52915
        },
        "ad_info": {
            "adcode": 220421,
            "province": "吉林省",
            "city": "辽源市",
            "district": "东丰县"
        }
    },
    {
        "id": "11087317270097041504",
        "title": "公共厕所",
        "address": "吉林省辽源市东丰县向阳路与盈河街交叉口正北方向17米左右",
        "tel": "",
        "category": "基础设施:公共设施:公共厕所",
        "type": 0,
        "location": {
            "lat": 42.675678,
            "lng": 125.520156
        },
        "ad_info": {
            "adcode": 220421,
            "province": "吉林省",
            "city": "辽源市",
            "district": "东丰县"
        }
    },
    {
        "id": "16261141736918416044",
        "title": "公共厕所",
        "address": "吉林省辽源市东丰县河堤路与通山街交叉口东北方向63米左右",
        "tel": "",
        "category": "基础设施:公共设施:公共厕所",
        "type": 0,
        "location": {
            "lat": 42.665963,
            "lng": 125.527284
        },
        "ad_info": {
            "adcode": 220421,
            "province": "吉林省",
            "city": "辽源市",
            "district": "东丰县"
        }
    },
    {
        "id": "7512632280288900064",
        "title": "公共厕所",
        "address": "吉林省辽源市东丰县河堤路与通山街交叉口西南方向183米左右",
        "tel": "",
        "category": "基础设施:公共设施:公共厕所",
        "type": 0,
        "location": {
            "lat": 42.664449,
            "lng": 125.525188
        },
        "ad_info": {
            "adcode": 220421,
            "province": "吉林省",
            "city": "辽源市",
            "district": "东丰县"
        }
    },
    {
        "id": "8563360707505539886",
        "title": "公共厕所",
        "address": "吉林省辽源市东辽县东交大街与人民大路东路交叉口正东方向140米左右",
        "tel": "",
        "category": "基础设施:公共设施:公共厕所",
        "type": 0,
        "location": {
            "lat": 42.91815,
            "lng": 125.035123
        },
        "ad_info": {
            "adcode": 220422,
            "province": "吉林省",
            "city": "辽源市",
            "district": "东辽县"
        }
    },
    {
        "id": "13521207083761765086",
        "title": "公共厕所",
        "address": "吉林省辽源市西安区东山北路与东胜路交叉口正北方向138米左右",
        "tel": "",
        "category": "基础设施:公共设施:公共厕所",
        "type": 0,
        "location": {
            "lat": 42.946461,
            "lng": 125.147791
        },
        "ad_info": {
            "adcode": 220403,
            "province": "吉林省",
            "city": "辽源市",
            "district": "西安区"
        }
    },
    {
        "id": "10317485233116592959",
        "title": "公共厕所",
        "address": "吉林省辽源市东丰县东青胡同与金鹿大街交叉口东南方向39米左右",
        "tel": "",
        "category": "基础设施:公共设施:公共厕所",
        "type": 0,
        "location": {
            "lat": 42.671797,
            "lng": 125.538597
        },
        "ad_info": {
            "adcode": 220421,
            "province": "吉林省",
            "city": "辽源市",
            "district": "东丰县"
        }
    },
    {
        "id": "3363043745187486747",
        "title": "公共厕所",
        "address": "吉林省辽源市西安区亮河东街与西二环路交叉口西南方向820米左右",
        "tel": "",
        "category": "基础设施:公共设施:公共厕所",
        "type": 0,
        "location": {
            "lat": 42.931326,
            "lng": 125.070929
        },
        "ad_info": {
            "adcode": 220403,
            "province": "吉林省",
            "city": "辽源市",
            "district": "西安区"
        }
    },
    {
        "id": "9991960184424238835",
        "title": "公共厕所",
        "address": "吉林省辽源市东丰县Y015与长东线交叉口正南方向604米左右",
        "tel": "",
        "category": "基础设施:公共设施:公共厕所",
        "type": 0,
        "location": {
            "lat": 42.792988,
            "lng": 125.606095
        },
        "ad_info": {
            "adcode": 220421,
            "province": "吉林省",
            "city": "辽源市",
            "district": "东丰县"
        }
    },
    {
        "id": "6287560624677553851",
        "title": "公共厕所",
        "address": "吉林省辽源市东丰县长东线中国石油二龙加油站",
        "tel": "",
        "category": "基础设施:公共设施:公共厕所",
        "type": 0,
        "location": {
            "lat": 42.786423,
            "lng": 125.606875
        },
        "ad_info": {
            "adcode": 220421,
            "province": "吉林省",
            "city": "辽源市",
            "district": "东丰县"
        }
    },
    {
        "id": "1537829650342604674",
        "title": "公共厕所",
        "address": "吉林省辽源市东丰县G229与丰源路交叉口东南方向412米左右",
        "tel": "",
        "category": "基础设施:公共设施:公共厕所",
        "type": 0,
        "location": {
            "lat": 42.69518,
            "lng": 125.505287
        },
        "ad_info": {
            "adcode": 220421,
            "province": "吉林省",
            "city": "辽源市",
            "district": "东丰县"
        }
    },
    {
        "id": "9842316009385926880",
        "title": "公共厕所",
        "address": "吉林省辽源市东丰县双勤线附近",
        "tel": "",
        "category": "基础设施:公共设施:公共厕所",
        "type": 0,
        "location": {
            "lat": 42.664076,
            "lng": 125.637559
        },
        "ad_info": {
            "adcode": 220421,
            "province": "吉林省",
            "city": "辽源市",
            "district": "东丰县"
        }
    },
    {
        "id": "15466588423957258404",
        "title": "公共厕所",
        "address": "吉林省辽源市东丰县河堤路与通山街交叉口东北方向18米左右",
        "tel": "",
        "category": "基础设施:公共设施:公共厕所",
        "type": 0,
        "location": {
            "lat": 42.665836,
            "lng": 125.526764
        },
        "ad_info": {
            "adcode": 220421,
            "province": "吉林省",
            "city": "辽源市",
            "district": "东丰县"
        }
    },
    {
        "id": "9583629839061595021",
        "title": "公共厕所",
        "address": "吉林省辽源市东丰县广场路与建设大街交叉口正北方向23米左右",
        "tel": "",
        "category": "基础设施:公共设施:公共厕所",
        "type": 0,
        "location": {
            "lat": 42.680589,
            "lng": 125.526178
        },
        "ad_info": {
            "adcode": 220421,
            "province": "吉林省",
            "city": "辽源市",
            "district": "东丰县"
        }
    },
    {
        "id": "11125218171293810601",
        "title": "公共厕所",
        "address": "吉林省辽源市东丰县北泰胡同与北福胡同交叉口正北方向45米左右",
        "tel": "",
        "category": "基础设施:公共设施:公共厕所",
        "type": 0,
        "location": {
            "lat": 42.677862,
            "lng": 125.53222
        },
        "ad_info": {
            "adcode": 220421,
            "province": "吉林省",
            "city": "辽源市",
            "district": "东丰县"
        }
    },
    {
        "id": "11118696456329226112",
        "title": "公共厕所",
        "address": "吉林省辽源市东丰县尚西线与盈开线交叉口正南方向71米左右",
        "tel": "",
        "category": "基础设施:公共设施:公共厕所",
        "type": 0,
        "location": {
            "lat": 43.024539,
            "lng": 125.666093
        },
        "ad_info": {
            "adcode": 220421,
            "province": "吉林省",
            "city": "辽源市",
            "district": "东丰县"
        }
    },
    {
        "id": "16891138471516642463",
        "title": "公共厕所",
        "address": "吉林省辽源市东丰县东风路与青龙立交桥交叉口西南方向115米左右",
        "tel": "",
        "category": "基础设施:公共设施:公共厕所",
        "type": 0,
        "location": {
            "lat": 42.679526,
            "lng": 125.559717
        },
        "ad_info": {
            "adcode": 220421,
            "province": "吉林省",
            "city": "辽源市",
            "district": "东丰县"
        }
    },
    {
        "id": "9907324617746314557",
        "title": "公共厕所",
        "address": "吉林省辽源市东丰县东草线附近",
        "tel": "",
        "category": "基础设施:公共设施:公共厕所",
        "type": 0,
        "location": {
            "lat": 42.315871,
            "lng": 125.259439
        },
        "ad_info": {
            "adcode": 220421,
            "province": "吉林省",
            "city": "辽源市",
            "district": "东丰县"
        }
    },
    {
        "id": "6331892623671611170",
        "title": "公共厕所",
        "address": "吉林省辽源市东丰县东丰县中心林场西侧110米",
        "tel": "",
        "category": "基础设施:公共设施:公共厕所",
        "type": 0,
        "location": {
            "lat": 42.657619,
            "lng": 125.541443
        },
        "ad_info": {
            "adcode": 220421,
            "province": "吉林省",
            "city": "辽源市",
            "district": "东丰县"
        }
    },
    {
        "id": "42356895300550233",
        "title": "公共厕所",
        "address": "吉林省辽源市东丰县东西线与柳西线交叉口正南方向45米左右",
        "tel": "",
        "category": "基础设施:公共设施:公共厕所",
        "type": 0,
        "location": {
            "lat": 42.557059,
            "lng": 125.124601
        },
        "ad_info": {
            "adcode": 220421,
            "province": "吉林省",
            "city": "辽源市",
            "district": "东丰县"
        }
    },
    {
        "id": "7386924596427456810",
        "title": "公共厕所",
        "address": "吉林省辽源市东丰县东粮路与南站路交叉口正南方向851米左右",
        "tel": "",
        "category": "基础设施:公共设施:公共厕所",
        "type": 0,
        "location": {
            "lat": 42.654213,
            "lng": 125.544469
        },
        "ad_info": {
            "adcode": 220421,
            "province": "吉林省",
            "city": "辽源市",
            "district": "东丰县"
        }
    },
    {
        "id": "3894552945905868323",
        "title": "公共厕所",
        "address": "吉林省辽源市东丰县长东线与双勤线交叉口东南400米",
        "tel": "",
        "category": "基础设施:公共设施:公共厕所",
        "type": 0,
        "location": {
            "lat": 42.697686,
            "lng": 125.588221
        },
        "ad_info": {
            "adcode": 220421,
            "province": "吉林省",
            "city": "辽源市",
            "district": "东丰县"
        }
    },
    {
        "id": "7953588023659417931",
        "title": "公共厕所",
        "address": "吉林省辽源市东丰县福康路911号",
        "tel": "",
        "category": "基础设施:公共设施:公共厕所",
        "type": 0,
        "location": {
            "lat": 42.670477,
            "lng": 125.54311
        },
        "ad_info": {
            "adcode": 220421,
            "province": "吉林省",
            "city": "辽源市",
            "district": "东丰县"
        }
    },
    {
        "id": "5568352077286821144",
        "title": "八部水洗公共厕所",
        "address": "吉林省辽源市龙山区西宁大路3120号",
        "tel": "",
        "category": "基础设施:公共设施:公共厕所",
        "type": 0,
        "location": {
            "lat": 42.911635,
            "lng": 125.115013
        },
        "ad_info": {
            "adcode": 220402,
            "province": "吉林省",
            "city": "辽源市",
            "district": "龙山区"
        }
    },
    {
        "id": "1864396359986262202",
        "title": "半拉山公共厕所",
        "address": "吉林省辽源市龙山区滨河南路28号",
        "tel": "",
        "category": "基础设施:公共设施:公共厕所",
        "type": 0,
        "location": {
            "lat": 42.899251,
            "lng": 125.125162
        },
        "ad_info": {
            "adcode": 220402,
            "province": "吉林省",
            "city": "辽源市",
            "district": "龙山区"
        }
    },
    {
        "id": "336996245991954865",
        "title": "老人家水洗厕所",
        "address": "吉林省辽源市龙山区济康路与龙山大街交叉口正南方向63米左右",
        "tel": "",
        "category": "基础设施:公共设施:公共厕所",
        "type": 0,
        "location": {
            "lat": 42.898349,
            "lng": 125.150444
        },
        "ad_info": {
            "adcode": 220402,
            "province": "吉林省",
            "city": "辽源市",
            "district": "龙山区"
        }
    },
    {
        "id": "8870551855757460975",
        "title": "公共厕所(长寿街)",
        "address": "吉林省辽源市龙山区健康路与长寿街交叉口西南方向22米左右",
        "tel": "",
        "category": "基础设施:公共设施:公共厕所",
        "type": 0,
        "location": {
            "lat": 42.899902,
            "lng": 125.148118
        },
        "ad_info": {
            "adcode": 220402,
            "province": "吉林省",
            "city": "辽源市",
            "district": "龙山区"
        }
    },
    {
        "id": "8697129227676856910",
        "title": "公共厕所",
        "address": "吉林省辽源市东丰县南昌胡同31号",
        "tel": "",
        "category": "基础设施:公共设施:公共厕所",
        "type": 0,
        "location": {
            "lat": 42.673682,
            "lng": 125.529458
        },
        "ad_info": {
            "adcode": 220421,
            "province": "吉林省",
            "city": "辽源市",
            "district": "东丰县"
        }
    },
    {
        "id": "5447393187271311619",
        "title": "公共厕所",
        "address": "吉林省辽源市东丰县兴隆街与北新胡同交叉口正西方向43米左右",
        "tel": "",
        "category": "基础设施:公共设施:公共厕所",
        "type": 0,
        "location": {
            "lat": 42.677085,
            "lng": 125.534639
        },
        "ad_info": {
            "adcode": 220421,
            "province": "吉林省",
            "city": "辽源市",
            "district": "东丰县"
        }
    },
    {
        "id": "2001832630395050337",
        "title": "公共厕所",
        "address": "吉林省辽源市龙山区工农路与福民街交叉口正西方向179米左右",
        "tel": "",
        "category": "基础设施:公共设施:公共厕所",
        "type": 0,
        "location": {
            "lat": 42.889925,
            "lng": 125.171644
        },
        "ad_info": {
            "adcode": 220402,
            "province": "吉林省",
            "city": "辽源市",
            "district": "龙山区"
        }
    },
    {
        "id": "7540757651168739122",
        "title": "公共厕所",
        "address": "吉林省辽源市龙山区福兴街中国石油加油站",
        "tel": "",
        "category": "基础设施:公共设施:公共厕所",
        "type": 0,
        "location": {
            "lat": 42.891189,
            "lng": 125.153414
        },
        "ad_info": {
            "adcode": 220402,
            "province": "吉林省",
            "city": "辽源市",
            "district": "龙山区"
        }
    },
    {
        "id": "17872284047966475410",
        "title": "公共厕所",
        "address": "吉林省辽源市东丰县福康路与东风路辅路交叉口东南40米",
        "tel": "",
        "category": "基础设施:公共设施:公共厕所",
        "type": 0,
        "location": {
            "lat": 42.674599,
            "lng": 125.542242
        },
        "ad_info": {
            "adcode": 220421,
            "province": "吉林省",
            "city": "辽源市",
            "district": "东丰县"
        }
    },
    {
        "id": "8090406744107120098",
        "title": "公共厕所",
        "address": "吉林省辽源市西安区仙城南一街与仙城南二街交叉口正西方向164米左右",
        "tel": "",
        "category": "基础设施:公共设施:公共厕所",
        "type": 0,
        "location": {
            "lat": 42.93531,
            "lng": 125.15453
        },
        "ad_info": {
            "adcode": 220403,
            "province": "吉林省",
            "city": "辽源市",
            "district": "西安区"
        }
    },
    {
        "id": "6590350766293383148",
        "title": "公共厕所",
        "address": "吉林省辽源市龙山区友谊大路与学府胡同交叉口东南方向186米左右",
        "tel": "",
        "category": "基础设施:公共设施:公共厕所",
        "type": 0,
        "location": {
            "lat": 42.896249,
            "lng": 125.119393
        },
        "ad_info": {
            "adcode": 220402,
            "province": "吉林省",
            "city": "辽源市",
            "district": "龙山区"
        }
    },
    {
        "id": "13722682917046576157",
        "title": "公共厕所",
        "address": "吉林省辽源市龙山区中康街与友谊大路交叉口东北方向45米左右",
        "tel": "",
        "category": "基础设施:公共设施:公共厕所",
        "type": 0,
        "location": {
            "lat": 42.902718,
            "lng": 125.135593
        },
        "ad_info": {
            "adcode": 220402,
            "province": "吉林省",
            "city": "辽源市",
            "district": "龙山区"
        }
    },
    {
        "id": "17264592135453161324",
        "title": "公共厕所",
        "address": "吉林省辽源市东辽县东辽大街与安慈路交叉口正东方向149米左右",
        "tel": "",
        "category": "基础设施:公共设施:公共厕所",
        "type": 0,
        "location": {
            "lat": 42.925931,
            "lng": 124.99516
        },
        "ad_info": {
            "adcode": 220422,
            "province": "吉林省",
            "city": "辽源市",
            "district": "东辽县"
        }
    },
    {
        "id": "1424382377895565580",
        "title": "公共厕所",
        "address": "吉林省辽源市西安区平安胡同与矿北大街交叉口正东方向141米左右",
        "tel": "",
        "category": "基础设施:公共设施:公共厕所",
        "type": 0,
        "location": {
            "lat": 42.941055,
            "lng": 125.148045
        },
        "ad_info": {
            "adcode": 220403,
            "province": "吉林省",
            "city": "辽源市",
            "district": "西安区"
        }
    },
    {
        "id": "8176969296347422538",
        "title": "公共厕所",
        "address": "吉林省辽源市东丰县江城大路与药业大街交叉口正南方向124米左右",
        "tel": "",
        "category": "基础设施:公共设施:公共厕所",
        "type": 0,
        "location": {
            "lat": 42.669511,
            "lng": 125.527298
        },
        "ad_info": {
            "adcode": 220421,
            "province": "吉林省",
            "city": "辽源市",
            "district": "东丰县"
        }
    },
    {
        "id": "6183412272292105115",
        "title": "区政府水洗公共厕所",
        "address": "吉林省辽源市西安区人民大街6374号",
        "tel": "",
        "category": "基础设施:公共设施:公共厕所",
        "type": 0,
        "location": {
            "lat": 42.928585,
            "lng": 125.147706
        },
        "ad_info": {
            "adcode": 220403,
            "province": "吉林省",
            "city": "辽源市",
            "district": "西安区"
        }
    },
    {
        "id": "12636673473047705342",
        "title": "公共厕所",
        "address": "吉林省辽源市东丰县河堤路惠民东区",
        "tel": "",
        "category": "基础设施:公共设施:公共厕所",
        "type": 0,
        "location": {
            "lat": 42.676359,
            "lng": 125.521796
        },
        "ad_info": {
            "adcode": 220421,
            "province": "吉林省",
            "city": "辽源市",
            "district": "东丰县"
        }
    },
    {
        "id": "8497379562286120454",
        "title": "公共厕所",
        "address": "吉林省辽源市龙山区人民大街与春阳路交叉口东南方向54米左右",
        "tel": "",
        "category": "基础设施:公共设施:公共厕所",
        "type": 0,
        "location": {
            "lat": 42.878021,
            "lng": 125.138366
        },
        "ad_info": {
            "adcode": 220402,
            "province": "吉林省",
            "city": "辽源市",
            "district": "龙山区"
        }
    },
    {
        "id": "4291644084748095940",
        "title": "公共厕所",
        "address": "吉林省辽源市东丰县吉祥路与河堤路交叉口西北方向93米左右",
        "tel": "",
        "category": "基础设施:公共设施:公共厕所",
        "type": 0,
        "location": {
            "lat": 42.686948,
            "lng": 125.523752
        },
        "ad_info": {
            "adcode": 220421,
            "province": "吉林省",
            "city": "辽源市",
            "district": "东丰县"
        }
    },
    {
        "id": "17880149848028184099",
        "title": "公共厕所",
        "address": "吉林省辽源市西安区人民大街5409号",
        "tel": "",
        "category": "基础设施:公共设施:公共厕所",
        "type": 0,
        "location": {
            "lat": 42.920814,
            "lng": 125.152851
        },
        "ad_info": {
            "adcode": 220403,
            "province": "吉林省",
            "city": "辽源市",
            "district": "西安区"
        }
    },
    {
        "id": "2418564692445360789",
        "title": "辽源东服务区公共厕所",
        "address": "吉林省辽源市龙山区中国石油吉高能源辽源东服务区加油站东南侧110米",
        "tel": "",
        "category": "基础设施:公共设施:公共厕所",
        "type": 0,
        "location": {
            "lat": 42.902699,
            "lng": 125.249941
        },
        "ad_info": {
            "adcode": 220402,
            "province": "吉林省",
            "city": "辽源市",
            "district": "龙山区"
        }
    },
    {
        "id": "9696805084028326668",
        "title": "公共厕所",
        "address": "吉林省辽源市东丰县东光胡同与金鹿大街交叉口正东方向70米左右",
        "tel": "",
        "category": "基础设施:公共设施:公共厕所",
        "type": 0,
        "location": {
            "lat": 42.674385,
            "lng": 125.539737
        },
        "ad_info": {
            "adcode": 220421,
            "province": "吉林省",
            "city": "辽源市",
            "district": "东丰县"
        }
    },
    {
        "id": "5004435031092865222",
        "title": "辽源东服务区公共厕所",
        "address": "吉林省辽源市龙山区中国石油吉高能源辽源东服务区加油站西北侧140米",
        "tel": "",
        "category": "基础设施:公共设施:公共厕所",
        "type": 0,
        "location": {
            "lat": 42.90106,
            "lng": 125.248393
        },
        "ad_info": {
            "adcode": 220402,
            "province": "吉林省",
            "city": "辽源市",
            "district": "龙山区"
        }
    },
    {
        "id": "8726317549475070132",
        "title": "四季酒店水洗公共厕所",
        "address": "吉林省辽源市龙山区西宁大路437号",
        "tel": "",
        "category": "基础设施:公共设施:公共厕所",
        "type": 0,
        "location": {
            "lat": 42.903727,
            "lng": 125.144722
        },
        "ad_info": {
            "adcode": 220402,
            "province": "吉林省",
            "city": "辽源市",
            "district": "龙山区"
        }
    },
    {
        "id": "8869348204091968041",
        "title": "黄河服务区公共厕所",
        "address": "吉林省辽源市东丰县营东高速黄河服务区",
        "tel": "",
        "category": "基础设施:公共设施:公共厕所",
        "type": 0,
        "location": {
            "lat": 42.925835,
            "lng": 125.535705
        },
        "ad_info": {
            "adcode": 220421,
            "province": "吉林省",
            "city": "辽源市",
            "district": "东丰县"
        }
    },
    {
        "id": "11763562371146425405",
        "title": "农行水洗公共厕所",
        "address": "吉林省辽源市龙山区辽河大路55号",
        "tel": "",
        "category": "基础设施:公共设施:公共厕所",
        "type": 0,
        "location": {
            "lat": 42.895895,
            "lng": 125.146356
        },
        "ad_info": {
            "adcode": 220402,
            "province": "吉林省",
            "city": "辽源市",
            "district": "龙山区"
        }
    },
    {
        "id": "3215976886290316326",
        "title": "公共厕所",
        "address": "吉林省辽源市龙山区连阳路30号",
        "tel": "",
        "category": "基础设施:公共设施:公共厕所",
        "type": 0,
        "location": {
            "lat": 42.885146,
            "lng": 125.134996
        },
        "ad_info": {
            "adcode": 220402,
            "province": "吉林省",
            "city": "辽源市",
            "district": "龙山区"
        }
    },
    {
        "id": "16891121417615853023",
        "title": "辽源西服务区公共厕所",
        "address": "吉林省辽源市东辽县中国石油吉高能源辽源西服务区加油站东北侧160米",
        "tel": "",
        "category": "基础设施:公共设施:公共厕所",
        "type": 0,
        "location": {
            "lat": 42.938918,
            "lng": 125.064642
        },
        "ad_info": {
            "adcode": 220422,
            "province": "吉林省",
            "city": "辽源市",
            "district": "东辽县"
        }
    },
    {
        "id": "4530083992350119539",
        "title": "旅游厕所",
        "address": "吉林省辽源市东辽县安石镇朝阳村四组",
        "tel": "",
        "category": "基础设施:公共设施:公共厕所",
        "type": 0,
        "location": {
            "lat": 43.013981,
            "lng": 125.323661
        },
        "ad_info": {
            "adcode": 220422,
            "province": "吉林省",
            "city": "辽源市",
            "district": "东辽县"
        }
    },
    {
        "id": "3924580867685097253",
        "title": "黄河服务区公共厕所",
        "address": "吉林省辽源市东丰县",
        "tel": "",
        "category": "基础设施:公共设施:公共厕所",
        "type": 0,
        "location": {
            "lat": 42.925843,
            "lng": 125.539061
        },
        "ad_info": {
            "adcode": 220421,
            "province": "吉林省",
            "city": "辽源市",
            "district": "东丰县"
        }
    },
    {
        "id": "17319773131885489706",
        "title": "东梅服务区公共厕所",
        "address": "吉林省辽源市东丰县东梅服务区与G1212沈吉高速交叉口西400米",
        "tel": "",
        "category": "基础设施:公共设施:公共厕所",
        "type": 0,
        "location": {
            "lat": 42.553566,
            "lng": 125.6105
        },
        "ad_info": {
            "adcode": 220421,
            "province": "吉林省",
            "city": "辽源市",
            "district": "东丰县"
        }
    },
    {
        "id": "7088858511059348314",
        "title": "水洗公共厕所",
        "address": "吉林省辽源市龙山区吉光路与富康街交叉口正北方向61米左右",
        "tel": "",
        "category": "基础设施:公共设施:公共厕所",
        "type": 0,
        "location": {
            "lat": 42.902301,
            "lng": 125.144292
        },
        "ad_info": {
            "adcode": 220402,
            "province": "吉林省",
            "city": "辽源市",
            "district": "龙山区"
        }
    },
    {
        "id": "12796873252268012858",
        "title": "水洗公共厕所",
        "address": "吉林省辽源市龙山区兴发胡同12号",
        "tel": "",
        "category": "基础设施:公共设施:公共厕所",
        "type": 0,
        "location": {
            "lat": 42.897764,
            "lng": 125.16273
        },
        "ad_info": {
            "adcode": 220402,
            "province": "吉林省",
            "city": "辽源市",
            "district": "龙山区"
        }
    },
    {
        "id": "9174134066308113960",
        "title": "十四中水洗公共厕所",
        "address": "吉林省辽源市龙山区齐宁路175号",
        "tel": "",
        "category": "基础设施:公共设施:公共厕所",
        "type": 0,
        "location": {
            "lat": 42.905873,
            "lng": 125.141084
        },
        "ad_info": {
            "adcode": 220402,
            "province": "吉林省",
            "city": "辽源市",
            "district": "龙山区"
        }
    },
    {
        "id": "4005276053827477454",
        "title": "东梅服务区第二公共厕所",
        "address": "吉林省辽源市东丰县Y016与中蚂线交叉口正东方向1893米左右",
        "tel": "",
        "category": "基础设施:公共设施:公共厕所",
        "type": 0,
        "location": {
            "lat": 42.554618,
            "lng": 125.608633
        },
        "ad_info": {
            "adcode": 220421,
            "province": "吉林省",
            "city": "辽源市",
            "district": "东丰县"
        }
    },
    {
        "id": "13462784713819856182",
        "title": "健民水洗公共厕所",
        "address": "吉林省辽源市龙山区人民大街714号",
        "tel": "",
        "category": "基础设施:公共设施:公共厕所",
        "type": 0,
        "location": {
            "lat": 42.913671,
            "lng": 125.150616
        },
        "ad_info": {
            "adcode": 220402,
            "province": "吉林省",
            "city": "辽源市",
            "district": "龙山区"
        }
    },
    {
        "id": "5068563933875701870",
        "title": "公共厕所",
        "address": "吉林省辽源市东辽县东交大街与连泉路交叉口正北方向101米左右",
        "tel": "",
        "category": "基础设施:公共设施:公共厕所",
        "type": 0,
        "location": {
            "lat": 42.930061,
            "lng": 124.991661
        },
        "ad_info": {
            "adcode": 220422,
            "province": "吉林省",
            "city": "辽源市",
            "district": "东辽县"
        }
    },
    {
        "id": "11459400494922806424",
        "title": "公共厕所",
        "address": "吉林省辽源市龙山区福镇大路与龙山大街交叉口西南方向62米左右",
        "tel": "",
        "category": "基础设施:公共设施:公共厕所",
        "type": 0,
        "location": {
            "lat": 42.89461,
            "lng": 125.151018
        },
        "ad_info": {
            "adcode": 220402,
            "province": "吉林省",
            "city": "辽源市",
            "district": "龙山区"
        }
    },
    {
        "id": "32353744210781627",
        "title": "公共厕所",
        "address": "吉林省辽源市东辽县X065与Y011交叉口正南方向1094米左右",
        "tel": "",
        "category": "基础设施:公共设施:公共厕所",
        "type": 0,
        "location": {
            "lat": 43.038705,
            "lng": 124.942169
        },
        "ad_info": {
            "adcode": 220422,
            "province": "吉林省",
            "city": "辽源市",
            "district": "东辽县"
        }
    },
    {
        "id": "5773883538937976922",
        "title": "公共厕所",
        "address": "吉林省辽源市龙山区福汇路与福源路交叉口东南方向130米左右",
        "tel": "",
        "category": "基础设施:公共设施:公共厕所",
        "type": 0,
        "location": {
            "lat": 42.893822,
            "lng": 125.162891
        },
        "ad_info": {
            "adcode": 220402,
            "province": "吉林省",
            "city": "辽源市",
            "district": "龙山区"
        }
    },
    {
        "id": "17674104932862238640",
        "title": "五中水洗公共厕所",
        "address": "吉林省辽源市龙山区兴医胡同219号",
        "tel": "",
        "category": "基础设施:公共设施:公共厕所",
        "type": 0,
        "location": {
            "lat": 42.899204,
            "lng": 125.159788
        },
        "ad_info": {
            "adcode": 220402,
            "province": "吉林省",
            "city": "辽源市",
            "district": "龙山区"
        }
    },
    {
        "id": "348039322684202997",
        "title": "公共厕所",
        "address": "吉林省辽源市东丰县兴隆街1927号",
        "tel": "",
        "category": "基础设施:公共设施:公共厕所",
        "type": 0,
        "location": {
            "lat": 42.671148,
            "lng": 125.533262
        },
        "ad_info": {
            "adcode": 220421,
            "province": "吉林省",
            "city": "辽源市",
            "district": "东丰县"
        }
    },
    {
        "id": "6839675520566603734",
        "title": "公共厕所",
        "address": "吉林省辽源市龙山区顺兴气体充装站东北侧140米",
        "tel": "",
        "category": "基础设施:公共设施:公共厕所",
        "type": 0,
        "location": {
            "lat": 42.862878,
            "lng": 125.167042
        },
        "ad_info": {
            "adcode": 220402,
            "province": "吉林省",
            "city": "辽源市",
            "district": "龙山区"
        }
    },
    {
        "id": "10268016395155854398",
        "title": "公共厕所",
        "address": "吉林省辽源市东辽县金州乡鴜鹭湖水利风景区(景区内停车场)",
        "tel": "",
        "category": "基础设施:公共设施:公共厕所",
        "type": 0,
        "location": {
            "lat": 43.036313,
            "lng": 125.30544
        },
        "ad_info": {
            "adcode": 220422,
            "province": "吉林省",
            "city": "辽源市",
            "district": "东辽县"
        }
    },
    {
        "id": "15112437890798730499",
        "title": "辽源西服务区公共厕所",
        "address": "吉林省辽源市东辽县中国石油吉高能源辽源西服务区加油站西南侧100米",
        "tel": "",
        "category": "基础设施:公共设施:公共厕所",
        "type": 0,
        "location": {
            "lat": 42.937446,
            "lng": 125.065877
        },
        "ad_info": {
            "adcode": 220422,
            "province": "吉林省",
            "city": "辽源市",
            "district": "东辽县"
        }
    },
    {
        "id": "11250838176039942713",
        "title": "公共厕所",
        "address": "吉林省辽源市东丰县董刚汽车修配厂西北侧260米",
        "tel": "",
        "category": "基础设施:公共设施:公共厕所",
        "type": 0,
        "location": {
            "lat": 42.695294,
            "lng": 125.514166
        },
        "ad_info": {
            "adcode": 220421,
            "province": "吉林省",
            "city": "辽源市",
            "district": "东丰县"
        }
    },
    {
        "id": "11779065683858869919",
        "title": "公共厕所",
        "address": "吉林省辽源市龙山区人民大街与辽河大路交叉口西北方向101米左右",
        "tel": "",
        "category": "基础设施:公共设施:公共厕所",
        "type": 0,
        "location": {
            "lat": 42.896344,
            "lng": 125.144208
        },
        "ad_info": {
            "adcode": 220402,
            "province": "吉林省",
            "city": "辽源市",
            "district": "龙山区"
        }
    },
    {
        "id": "3221995177443541201",
        "title": "公共厕所",
        "address": "吉林省辽源市龙山区社会保险龙山区分局",
        "tel": "",
        "category": "基础设施:公共设施:公共厕所",
        "type": 0,
        "location": {
            "lat": 42.90184,
            "lng": 125.15439
        },
        "ad_info": {
            "adcode": 220402,
            "province": "吉林省",
            "city": "辽源市",
            "district": "龙山区"
        }
    },
    {
        "id": "14546632236629751658",
        "title": "公共厕所",
        "address": "吉林省辽源市东丰县河堤路1068号",
        "tel": "",
        "category": "基础设施:公共设施:公共厕所",
        "type": 0,
        "location": {
            "lat": 42.671725,
            "lng": 125.521494
        },
        "ad_info": {
            "adcode": 220421,
            "province": "吉林省",
            "city": "辽源市",
            "district": "东丰县"
        }
    },
    {
        "id": "7381561630366548137",
        "title": "公共厕所",
        "address": "吉林省辽源市东辽县Y037与Y041交叉口正北方向304米左右",
        "tel": "",
        "category": "基础设施:公共设施:公共厕所",
        "type": 0,
        "location": {
            "lat": 42.780605,
            "lng": 125.172222
        },
        "ad_info": {
            "adcode": 220422,
            "province": "吉林省",
            "city": "辽源市",
            "district": "东辽县"
        }
    },
    {
        "id": "3902610096757410799",
        "title": "公共厕所",
        "address": "吉林省辽源市西安区西安南路与西安大路交叉口东南方向112米左右",
        "tel": "",
        "category": "基础设施:公共设施:公共厕所",
        "type": 0,
        "location": {
            "lat": 42.945761,
            "lng": 125.135573
        },
        "ad_info": {
            "adcode": 220403,
            "province": "吉林省",
            "city": "辽源市",
            "district": "西安区"
        }
    },
    {
        "id": "15384578426678244497",
        "title": "公共厕所",
        "address": "吉林省辽源市东丰县东风路与盈河街交叉口正北方向103米左右",
        "tel": "",
        "category": "基础设施:公共设施:公共厕所",
        "type": 0,
        "location": {
            "lat": 42.679295,
            "lng": 125.521435
        },
        "ad_info": {
            "adcode": 220421,
            "province": "吉林省",
            "city": "辽源市",
            "district": "东丰县"
        }
    },
    {
        "id": "8554047714724759291",
        "title": "公共厕所",
        "address": "吉林省辽源市东丰县丰城街与北影胡同交叉口西南方向58米左右",
        "tel": "",
        "category": "基础设施:公共设施:公共厕所",
        "type": 0,
        "location": {
            "lat": 42.680358,
            "lng": 125.533485
        },
        "ad_info": {
            "adcode": 220421,
            "province": "吉林省",
            "city": "辽源市",
            "district": "东丰县"
        }
    },
    {
        "id": "15131024609719152652",
        "title": "无障碍公共厕所",
        "address": "吉林省辽源市龙山区新兴路571号",
        "tel": "",
        "category": "基础设施:公共设施:公共厕所",
        "type": 0,
        "location": {
            "lat": 42.902969,
            "lng": 125.161192
        },
        "ad_info": {
            "adcode": 220402,
            "province": "吉林省",
            "city": "辽源市",
            "district": "龙山区"
        }
    },
    {
        "id": "16447523413772563458",
        "title": "公共厕所",
        "address": "吉林省辽源市东丰县黄河邮政支局西南侧",
        "tel": "",
        "category": "基础设施:公共设施:公共厕所",
        "type": 0,
        "location": {
            "lat": 42.876871,
            "lng": 125.699249
        },
        "ad_info": {
            "adcode": 220421,
            "province": "吉林省",
            "city": "辽源市",
            "district": "东丰县"
        }
    },
    {
        "id": "6279004519356860581",
        "title": "公共厕所",
        "address": "吉林省辽源市东辽县安恕镇卫生院东侧280米",
        "tel": "",
        "category": "基础设施:公共设施:公共厕所",
        "type": 0,
        "location": {
            "lat": 42.814483,
            "lng": 125.055575
        },
        "ad_info": {
            "adcode": 220422,
            "province": "吉林省",
            "city": "辽源市",
            "district": "东辽县"
        }
    },
    {
        "id": "3251986236611393483",
        "title": "公共厕所",
        "address": "吉林省辽源市东丰县南通胡同宏达花园",
        "tel": "",
        "category": "基础设施:公共设施:公共厕所",
        "type": 0,
        "location": {
            "lat": 42.671157,
            "lng": 125.530387
        },
        "ad_info": {
            "adcode": 220421,
            "province": "吉林省",
            "city": "辽源市",
            "district": "东丰县"
        }
    },
    {
        "id": "2184288032299474763",
        "title": "公共厕所",
        "address": "吉林省辽源市东丰县南昌胡同与南通胡同交叉口西南方向52米左右",
        "tel": "",
        "category": "基础设施:公共设施:公共厕所",
        "type": 0,
        "location": {
            "lat": 42.670856,
            "lng": 125.528561
        },
        "ad_info": {
            "adcode": 220421,
            "province": "吉林省",
            "city": "辽源市",
            "district": "东丰县"
        }
    },
    {
        "id": "8017311020402178768",
        "title": "公共厕所",
        "address": "吉林省辽源市东辽县云顶镇湾河村小学校附近",
        "tel": "",
        "category": "基础设施:公共设施:公共厕所",
        "type": 0,
        "location": {
            "lat": 43.083849,
            "lng": 124.969412
        },
        "ad_info": {
            "adcode": 220422,
            "province": "吉林省",
            "city": "辽源市",
            "district": "东辽县"
        }
    },
    {
        "id": "6304647099364095617",
        "title": "公共厕所",
        "address": "吉林省辽源市龙山区人民大街与青阳路交叉口正北方向91米左右",
        "tel": "",
        "category": "基础设施:公共设施:公共厕所",
        "type": 0,
        "location": {
            "lat": 42.882901,
            "lng": 125.14016
        },
        "ad_info": {
            "adcode": 220402,
            "province": "吉林省",
            "city": "辽源市",
            "district": "龙山区"
        }
    },
    {
        "id": "3815351808533892053",
        "title": "公共厕所",
        "address": "吉林省辽源市龙山区G229与东二环路交叉口正南方向1502米左右",
        "tel": "",
        "category": "基础设施:公共设施:公共厕所",
        "type": 0,
        "location": {
            "lat": 42.854304,
            "lng": 125.184333
        },
        "ad_info": {
            "adcode": 220402,
            "province": "吉林省",
            "city": "辽源市",
            "district": "龙山区"
        }
    },
    {
        "id": "6544548576058133416",
        "title": "公共厕所",
        "address": "吉林省辽源市东丰县富民街与鑫达路交叉口西南方向43米左右",
        "tel": "",
        "category": "基础设施:公共设施:公共厕所",
        "type": 0,
        "location": {
            "lat": 42.68541,
            "lng": 125.51102
        },
        "ad_info": {
            "adcode": 220421,
            "province": "吉林省",
            "city": "辽源市",
            "district": "东丰县"
        }
    },
    {
        "id": "628241427790232024",
        "title": "辽县体育场公共厕所",
        "address": "吉林省辽源市东辽县东辽大街与英发路交叉口西南方向173米左右",
        "tel": "",
        "category": "基础设施:公共设施:公共厕所",
        "type": 0,
        "location": {
            "lat": 42.928422,
            "lng": 124.983979
        },
        "ad_info": {
            "adcode": 220422,
            "province": "吉林省",
            "city": "辽源市",
            "district": "东辽县"
        }
    },
    {
        "id": "7919452662395211333",
        "title": "公共厕所",
        "address": "吉林省辽源市东丰县Y006与药业大街交叉口正南方向113米左右",
        "tel": "",
        "category": "基础设施:公共设施:公共厕所",
        "type": 0,
        "location": {
            "lat": 42.683352,
            "lng": 125.531346
        },
        "ad_info": {
            "adcode": 220421,
            "province": "吉林省",
            "city": "辽源市",
            "district": "东丰县"
        }
    },
    {
        "id": "8322360100072728209",
        "title": "东梅服务区公共厕所",
        "address": "吉林省辽源市东丰县G1212沈吉高速北100米",
        "tel": "",
        "category": "基础设施:公共设施:公共厕所",
        "type": 0,
        "location": {
            "lat": 42.555301,
            "lng": 125.610123
        },
        "ad_info": {
            "adcode": 220421,
            "province": "吉林省",
            "city": "辽源市",
            "district": "东丰县"
        }
    },
    {
        "id": "16684171390874196966",
        "title": "公共厕所",
        "address": "吉林省辽源市东丰县江城大路与鹿乡一条街交叉口西北方向139米左右",
        "tel": "",
        "category": "基础设施:公共设施:公共厕所",
        "type": 0,
        "location": {
            "lat": 42.667771,
            "lng": 125.539616
        },
        "ad_info": {
            "adcode": 220421,
            "province": "吉林省",
            "city": "辽源市",
            "district": "东丰县"
        }
    },
    {
        "id": "11616717768181761655",
        "title": "公共厕所",
        "address": "吉林省辽源市东辽县东盛大街与育才路交叉口正南方向56米左右",
        "tel": "",
        "category": "基础设施:公共设施:公共厕所",
        "type": 0,
        "location": {
            "lat": 42.925309,
            "lng": 124.985024
        },
        "ad_info": {
            "adcode": 220422,
            "province": "吉林省",
            "city": "辽源市",
            "district": "东辽县"
        }
    },
    {
        "id": "7922799024281406419",
        "title": "公共厕所",
        "address": "吉林省辽源市西安区人民大街与仙仁路交叉口正南方向79米左右",
        "tel": "",
        "category": "基础设施:公共设施:公共厕所",
        "type": 0,
        "location": {
            "lat": 42.919185,
            "lng": 125.153465
        },
        "ad_info": {
            "adcode": 220403,
            "province": "吉林省",
            "city": "辽源市",
            "district": "西安区"
        }
    },
    {
        "id": "6926455841534872597",
        "title": "华孚小区水洗公共厕所",
        "address": "吉林省辽源市龙山区吉春路119号",
        "tel": "",
        "category": "基础设施:公共设施:公共厕所",
        "type": 0,
        "location": {
            "lat": 42.897217,
            "lng": 125.147016
        },
        "ad_info": {
            "adcode": 220402,
            "province": "吉林省",
            "city": "辽源市",
            "district": "龙山区"
        }
    },
    {
        "id": "2882386155936827349",
        "title": "公共厕所",
        "address": "吉林省辽源市龙山区友谊大路与谊阳胡同交叉口西北方向74米左右",
        "tel": "",
        "category": "基础设施:公共设施:公共厕所",
        "type": 0,
        "location": {
            "lat": 42.901934,
            "lng": 125.128722
        },
        "ad_info": {
            "adcode": 220402,
            "province": "吉林省",
            "city": "辽源市",
            "district": "龙山区"
        }
    }
]