[
    {
        "id": "13802339840053280464",
        "title": "公共厕所",
        "address": "辽宁省辽阳市灯塔市西大窑官屯村燕州城北",
        "tel": "",
        "category": "基础设施:公共设施:公共厕所",
        "type": 0,
        "location": {
            "lat": 41.307553,
            "lng": 123.499066
        },
        "ad_info": {
            "adcode": 211081,
            "province": "辽宁省",
            "city": "辽阳市",
            "district": "灯塔市"
        }
    },
    {
        "id": "12506700268874735134",
        "title": "公共厕所",
        "address": "辽宁省辽阳市灯塔市中兴路与繁荣街交叉口正北方向88米左右",
        "tel": "",
        "category": "基础设施:公共设施:公共厕所",
        "type": 0,
        "location": {
            "lat": 41.428863,
            "lng": 123.320479
        },
        "ad_info": {
            "adcode": 211081,
            "province": "辽宁省",
            "city": "辽阳市",
            "district": "灯塔市"
        }
    },
    {
        "id": "13411531728653665715",
        "title": "公共厕所",
        "address": "辽宁省辽阳市灯塔市和谐街与罗华线交叉口正北方向115米左右",
        "tel": "",
        "category": "基础设施:公共设施:公共厕所",
        "type": 0,
        "location": {
            "lat": 41.358594,
            "lng": 123.456917
        },
        "ad_info": {
            "adcode": 211081,
            "province": "辽宁省",
            "city": "辽阳市",
            "district": "灯塔市"
        }
    },
    {
        "id": "12252962268018099913",
        "title": "公共厕所",
        "address": "辽宁省辽阳市灯塔市西大窑镇下缸窑村刁家沟",
        "tel": "",
        "category": "基础设施:公共设施:公共厕所",
        "type": 0,
        "location": {
            "lat": 41.329943,
            "lng": 123.530902
        },
        "ad_info": {
            "adcode": 211081,
            "province": "辽宁省",
            "city": "辽阳市",
            "district": "灯塔市"
        }
    },
    {
        "id": "14145010562572028191",
        "title": "公共厕所",
        "address": "辽宁省辽阳市灯塔市柳河子镇红旗村",
        "tel": "",
        "category": "基础设施:公共设施:公共厕所",
        "type": 0,
        "location": {
            "lat": 41.447941,
            "lng": 123.609649
        },
        "ad_info": {
            "adcode": 211081,
            "province": "辽宁省",
            "city": "辽阳市",
            "district": "灯塔市"
        }
    },
    {
        "id": "16395122447363625090",
        "title": "公共厕所",
        "address": "辽宁省辽阳市灯塔市西大窑镇附近",
        "tel": "",
        "category": "基础设施:公共设施:公共厕所",
        "type": 0,
        "location": {
            "lat": 41.325409,
            "lng": 123.542287
        },
        "ad_info": {
            "adcode": 211081,
            "province": "辽宁省",
            "city": "辽阳市",
            "district": "灯塔市"
        }
    },
    {
        "id": "6657381837578681275",
        "title": "公共厕所",
        "address": "辽宁省辽阳市灯塔市小小线与广场街交叉口正西方向310米左右",
        "tel": "",
        "category": "基础设施:公共设施:公共厕所",
        "type": 0,
        "location": {
            "lat": 41.431527,
            "lng": 123.173157
        },
        "ad_info": {
            "adcode": 211081,
            "province": "辽宁省",
            "city": "辽阳市",
            "district": "灯塔市"
        }
    },
    {
        "id": "9092433017197603455",
        "title": "公共厕所",
        "address": "辽宁省辽阳市灯塔市西大窑镇下缸窑村刁家沟村",
        "tel": "",
        "category": "基础设施:公共设施:公共厕所",
        "type": 0,
        "location": {
            "lat": 41.329625,
            "lng": 123.54191
        },
        "ad_info": {
            "adcode": 211081,
            "province": "辽宁省",
            "city": "辽阳市",
            "district": "灯塔市"
        }
    },
    {
        "id": "4144847432644045521",
        "title": "公共厕所",
        "address": "辽宁省辽阳市灯塔市小小线与广场街交叉口西南方向630米左右",
        "tel": "",
        "category": "基础设施:公共设施:公共厕所",
        "type": 0,
        "location": {
            "lat": 41.427797,
            "lng": 123.172461
        },
        "ad_info": {
            "adcode": 211081,
            "province": "辽宁省",
            "city": "辽阳市",
            "district": "灯塔市"
        }
    },
    {
        "id": "11498849599362774512",
        "title": "公共厕所",
        "address": "辽宁省辽阳市灯塔市G202与野前线交叉口西南方向496米左右",
        "tel": "",
        "category": "基础设施:公共设施:公共厕所",
        "type": 0,
        "location": {
            "lat": 41.358803,
            "lng": 123.172246
        },
        "ad_info": {
            "adcode": 211081,
            "province": "辽宁省",
            "city": "辽阳市",
            "district": "灯塔市"
        }
    },
    {
        "id": "3207395344183756107",
        "title": "公共厕所",
        "address": "辽宁省辽阳市灯塔市G202与野前线交叉口西南方向522米左右",
        "tel": "",
        "category": "基础设施:公共设施:公共厕所",
        "type": 0,
        "location": {
            "lat": 41.358674,
            "lng": 123.171981
        },
        "ad_info": {
            "adcode": 211081,
            "province": "辽宁省",
            "city": "辽阳市",
            "district": "灯塔市"
        }
    },
    {
        "id": "15254772256059921235",
        "title": "公共厕所",
        "address": "辽宁省辽阳市太子河区小庄街与铁西路交叉口西南方向76米左右",
        "tel": "",
        "category": "基础设施:公共设施:公共厕所",
        "type": 0,
        "location": {
            "lat": 41.287033,
            "lng": 123.16596
        },
        "ad_info": {
            "adcode": 211011,
            "province": "辽宁省",
            "city": "辽阳市",
            "district": "太子河区"
        }
    },
    {
        "id": "12523682007493373241",
        "title": "公共厕所",
        "address": "辽宁省辽阳市灯塔市北环路与小小线交叉口正西方向253米左右",
        "tel": "",
        "category": "基础设施:公共设施:公共厕所",
        "type": 0,
        "location": {
            "lat": 41.439011,
            "lng": 123.256504
        },
        "ad_info": {
            "adcode": 211081,
            "province": "辽宁省",
            "city": "辽阳市",
            "district": "灯塔市"
        }
    },
    {
        "id": "11300831659741577866",
        "title": "公共厕所",
        "address": "辽宁省辽阳市宏伟区南萃路与新村大街交叉口正北方向63米左右",
        "tel": "",
        "category": "基础设施:公共设施:公共厕所",
        "type": 0,
        "location": {
            "lat": 41.197463,
            "lng": 123.198325
        },
        "ad_info": {
            "adcode": 211004,
            "province": "辽宁省",
            "city": "辽阳市",
            "district": "宏伟区"
        }
    },
    {
        "id": "15501283347641450427",
        "title": "公共厕所",
        "address": "辽宁省辽阳市灯塔市苑南路与繁荣街交叉口东160米",
        "tel": "",
        "category": "基础设施:公共设施:公共厕所",
        "type": 0,
        "location": {
            "lat": 41.42462,
            "lng": 123.321536
        },
        "ad_info": {
            "adcode": 211081,
            "province": "辽宁省",
            "city": "辽阳市",
            "district": "灯塔市"
        }
    },
    {
        "id": "12417349087366999690",
        "title": "公共厕所",
        "address": "辽宁省辽阳市弓长岭区苏安大街与雷锋街交叉口西北方向266米左右",
        "tel": "",
        "category": "基础设施:公共设施:公共厕所",
        "type": 0,
        "location": {
            "lat": 41.156317,
            "lng": 123.43782
        },
        "ad_info": {
            "adcode": 211005,
            "province": "辽宁省",
            "city": "辽阳市",
            "district": "弓长岭区"
        }
    },
    {
        "id": "16873250362121832903",
        "title": "公共厕所",
        "address": "辽宁省辽阳市弓长岭区",
        "tel": "",
        "category": "基础设施:公共设施:公共厕所",
        "type": 0,
        "location": {
            "lat": 41.137124,
            "lng": 123.422473
        },
        "ad_info": {
            "adcode": 211005,
            "province": "辽宁省",
            "city": "辽阳市",
            "district": "弓长岭区"
        }
    },
    {
        "id": "15933514893896589841",
        "title": "公共厕所",
        "address": "辽宁省辽阳市灯塔市富强街隆德家园",
        "tel": "",
        "category": "基础设施:公共设施:公共厕所",
        "type": 0,
        "location": {
            "lat": 41.423386,
            "lng": 123.336782
        },
        "ad_info": {
            "adcode": 211081,
            "province": "辽宁省",
            "city": "辽阳市",
            "district": "灯塔市"
        }
    },
    {
        "id": "3992034116395678358",
        "title": "公共厕所",
        "address": "辽宁省辽阳市弓长岭区西土线",
        "tel": "",
        "category": "基础设施:公共设施:公共厕所",
        "type": 0,
        "location": {
            "lat": 41.111061,
            "lng": 123.313143
        },
        "ad_info": {
            "adcode": 211005,
            "province": "辽宁省",
            "city": "辽阳市",
            "district": "弓长岭区"
        }
    },
    {
        "id": "5443904663146251120",
        "title": "公共厕所",
        "address": "辽宁省辽阳市太子河区辽阳太阳胶品有限公司东南侧120米",
        "tel": "",
        "category": "基础设施:公共设施:公共厕所",
        "type": 0,
        "location": {
            "lat": 41.29523,
            "lng": 123.197651
        },
        "ad_info": {
            "adcode": 211011,
            "province": "辽宁省",
            "city": "辽阳市",
            "district": "太子河区"
        }
    },
    {
        "id": "3247189164490567180",
        "title": "公共厕所",
        "address": "辽宁省辽阳市灯塔市304省道南50米",
        "tel": "",
        "category": "基础设施:公共设施:公共厕所",
        "type": 0,
        "location": {
            "lat": 41.453782,
            "lng": 123.631169
        },
        "ad_info": {
            "adcode": 211081,
            "province": "辽宁省",
            "city": "辽阳市",
            "district": "灯塔市"
        }
    },
    {
        "id": "13224630109060857459",
        "title": "公共厕所",
        "address": "辽宁省辽阳市灯塔市建材路与文昌街交叉口东南方向96米左右",
        "tel": "",
        "category": "基础设施:公共设施:公共厕所",
        "type": 0,
        "location": {
            "lat": 41.43255,
            "lng": 123.330292
        },
        "ad_info": {
            "adcode": 211081,
            "province": "辽宁省",
            "city": "辽阳市",
            "district": "灯塔市"
        }
    },
    {
        "id": "1351835894273103771",
        "title": "公共厕所",
        "address": "辽宁省辽阳市太子河区胜利街与首山路交叉口东北方向1443米左右",
        "tel": "",
        "category": "基础设施:公共设施:公共厕所",
        "type": 0,
        "location": {
            "lat": 41.22213,
            "lng": 123.107214
        },
        "ad_info": {
            "adcode": 211011,
            "province": "辽宁省",
            "city": "辽阳市",
            "district": "太子河区"
        }
    },
    {
        "id": "3497565000769826931",
        "title": "公共厕所",
        "address": "辽宁省辽阳市太子河区工农小学西南149米(富民路东)",
        "tel": "",
        "category": "基础设施:公共设施:公共厕所",
        "type": 0,
        "location": {
            "lat": 41.29258,
            "lng": 123.195834
        },
        "ad_info": {
            "adcode": 211011,
            "province": "辽宁省",
            "city": "辽阳市",
            "district": "太子河区"
        }
    },
    {
        "id": "11708635346722402677",
        "title": "公共厕所",
        "address": "辽宁省辽阳市太子河区腾泰学校东侧210米",
        "tel": "",
        "category": "基础设施:公共设施:公共厕所",
        "type": 0,
        "location": {
            "lat": 41.286627,
            "lng": 123.172343
        },
        "ad_info": {
            "adcode": 211011,
            "province": "辽宁省",
            "city": "辽阳市",
            "district": "太子河区"
        }
    },
    {
        "id": "7403054125981530302",
        "title": "公共厕所",
        "address": "辽宁省辽阳市灯塔市建材路与文昌街交叉口正东方向86米左右",
        "tel": "",
        "category": "基础设施:公共设施:公共厕所",
        "type": 0,
        "location": {
            "lat": 41.433306,
            "lng": 123.330674
        },
        "ad_info": {
            "adcode": 211081,
            "province": "辽宁省",
            "city": "辽阳市",
            "district": "灯塔市"
        }
    },
    {
        "id": "5815186107902203367",
        "title": "公共厕所",
        "address": "辽宁省辽阳市宏伟区汇华街",
        "tel": "",
        "category": "基础设施:公共设施:公共厕所",
        "type": 0,
        "location": {
            "lat": 41.201415,
            "lng": 123.186046
        },
        "ad_info": {
            "adcode": 211004,
            "province": "辽宁省",
            "city": "辽阳市",
            "district": "宏伟区"
        }
    },
    {
        "id": "3997702241461357605",
        "title": "公共厕所",
        "address": "辽宁省辽阳市太子河区钟林子街与铁西路交叉口东南方向333米左右",
        "tel": "",
        "category": "基础设施:公共设施:公共厕所",
        "type": 0,
        "location": {
            "lat": 41.292799,
            "lng": 123.180702
        },
        "ad_info": {
            "adcode": 211011,
            "province": "辽宁省",
            "city": "辽阳市",
            "district": "太子河区"
        }
    },
    {
        "id": "9193771948814835321",
        "title": "公共厕所",
        "address": "辽宁省辽阳市灯塔市G202与北虹路交叉口东北方向345米左右",
        "tel": "",
        "category": "基础设施:公共设施:公共厕所",
        "type": 0,
        "location": {
            "lat": 41.424807,
            "lng": 123.276741
        },
        "ad_info": {
            "adcode": 211081,
            "province": "辽宁省",
            "city": "辽阳市",
            "district": "灯塔市"
        }
    },
    {
        "id": "6594657710473777609",
        "title": "公共厕所",
        "address": "辽宁省辽阳市白塔区文庙胡同与赵纸房胡同交叉口正东方向93米左右",
        "tel": "",
        "category": "基础设施:公共设施:公共厕所",
        "type": 0,
        "location": {
            "lat": 41.264812,
            "lng": 123.201469
        },
        "ad_info": {
            "adcode": 211002,
            "province": "辽宁省",
            "city": "辽阳市",
            "district": "白塔区"
        }
    },
    {
        "id": "13232734316138586577",
        "title": "公共厕所",
        "address": "辽宁省辽阳市太子河区钟林子街与铁西路交叉口西北方向247米左右",
        "tel": "",
        "category": "基础设施:公共设施:公共厕所",
        "type": 0,
        "location": {
            "lat": 41.295861,
            "lng": 123.17519
        },
        "ad_info": {
            "adcode": 211011,
            "province": "辽宁省",
            "city": "辽阳市",
            "district": "太子河区"
        }
    },
    {
        "id": "10283403741722945837",
        "title": "公共厕所",
        "address": "辽宁省辽阳市弓长岭区华表路与姑小线交叉口正西方向701米左右",
        "tel": "",
        "category": "基础设施:公共设施:公共厕所",
        "type": 0,
        "location": {
            "lat": 41.234284,
            "lng": 123.485314
        },
        "ad_info": {
            "adcode": 211005,
            "province": "辽宁省",
            "city": "辽阳市",
            "district": "弓长岭区"
        }
    },
    {
        "id": "4166668497411775894",
        "title": "公共厕所",
        "address": "辽宁省辽阳市辽阳县文化广场与柳后线交叉口西北方向394米左右",
        "tel": "",
        "category": "基础设施:公共设施:公共厕所",
        "type": 0,
        "location": {
            "lat": 41.194844,
            "lng": 122.827929
        },
        "ad_info": {
            "adcode": 211021,
            "province": "辽宁省",
            "city": "辽阳市",
            "district": "辽阳县"
        }
    },
    {
        "id": "1561787303597385136",
        "title": "公共厕所",
        "address": "辽宁省辽阳市太子河区滨河南街与铁西路交叉口正南方向354米左右",
        "tel": "",
        "category": "基础设施:公共设施:公共厕所",
        "type": 0,
        "location": {
            "lat": 41.288576,
            "lng": 123.173867
        },
        "ad_info": {
            "adcode": 211011,
            "province": "辽宁省",
            "city": "辽阳市",
            "district": "太子河区"
        }
    },
    {
        "id": "5956524966951294796",
        "title": "公共厕所(冷热地公园C区)",
        "address": "辽宁省辽阳市弓长岭区安平乡冷热地公园C区",
        "tel": "",
        "category": "基础设施:公共设施:公共厕所",
        "type": 0,
        "location": {
            "lat": 41.204175,
            "lng": 123.422517
        },
        "ad_info": {
            "adcode": 211005,
            "province": "辽宁省",
            "city": "辽阳市",
            "district": "弓长岭区"
        }
    },
    {
        "id": "102174998077156770",
        "title": "公共厕所",
        "address": "辽宁省辽阳市辽阳县沈海高速与辽中环线高速交叉口西南方向140米左右",
        "tel": "",
        "category": "基础设施:公共设施:公共厕所",
        "type": 0,
        "location": {
            "lat": 41.263416,
            "lng": 123.04945
        },
        "ad_info": {
            "adcode": 211021,
            "province": "辽宁省",
            "city": "辽阳市",
            "district": "辽阳县"
        }
    },
    {
        "id": "12280388979280120819",
        "title": "公共厕所",
        "address": "辽宁省辽阳市太子河区瓦窑子路与钟林子街交叉口东南方向303米左右",
        "tel": "",
        "category": "基础设施:公共设施:公共厕所",
        "type": 0,
        "location": {
            "lat": 41.297219,
            "lng": 123.173725
        },
        "ad_info": {
            "adcode": 211011,
            "province": "辽宁省",
            "city": "辽阳市",
            "district": "太子河区"
        }
    },
    {
        "id": "17086144550194959091",
        "title": "公共厕所",
        "address": "辽宁省辽阳市太子河区天天石油加油站(沙岭动物卫生监督所东南)附近",
        "tel": "",
        "category": "基础设施:公共设施:公共厕所",
        "type": 0,
        "location": {
            "lat": 41.332881,
            "lng": 123.037796
        },
        "ad_info": {
            "adcode": 211011,
            "province": "辽宁省",
            "city": "辽阳市",
            "district": "太子河区"
        }
    },
    {
        "id": "2566204523762897678",
        "title": "公共厕所",
        "address": "辽宁省辽阳市白塔区富虹大街与解放路交叉口东南方向307米左右",
        "tel": "",
        "category": "基础设施:公共设施:公共厕所",
        "type": 0,
        "location": {
            "lat": 41.259931,
            "lng": 123.153822
        },
        "ad_info": {
            "adcode": 211002,
            "province": "辽宁省",
            "city": "辽阳市",
            "district": "白塔区"
        }
    },
    {
        "id": "9412345025125477653",
        "title": "公共厕所",
        "address": "辽宁省辽阳市辽阳县吉高线与辽凤线交叉口正北方向187米左右",
        "tel": "",
        "category": "基础设施:公共设施:公共厕所",
        "type": 0,
        "location": {
            "lat": 40.81292,
            "lng": 123.148904
        },
        "ad_info": {
            "adcode": 211021,
            "province": "辽宁省",
            "city": "辽阳市",
            "district": "辽阳县"
        }
    },
    {
        "id": "3946855095192247587",
        "title": "公共厕所",
        "address": "辽宁省辽阳市白塔区新兴街与新华路交叉口正西方向203米左右",
        "tel": "",
        "category": "基础设施:公共设施:公共厕所",
        "type": 0,
        "location": {
            "lat": 41.259281,
            "lng": 123.180269
        },
        "ad_info": {
            "adcode": 211002,
            "province": "辽宁省",
            "city": "辽阳市",
            "district": "白塔区"
        }
    },
    {
        "id": "1395728780277506007",
        "title": "公共厕所",
        "address": "辽宁省辽阳市辽阳县文化广场与柳后线交叉口西北方向240米左右",
        "tel": "",
        "category": "基础设施:公共设施:公共厕所",
        "type": 0,
        "location": {
            "lat": 41.19362,
            "lng": 122.828796
        },
        "ad_info": {
            "adcode": 211021,
            "province": "辽宁省",
            "city": "辽阳市",
            "district": "辽阳县"
        }
    },
    {
        "id": "6641482359108876101",
        "title": "公共厕所",
        "address": "辽宁省辽阳市辽阳县胜利街与首山路交叉口正东方向44米左右",
        "tel": "",
        "category": "基础设施:公共设施:公共厕所",
        "type": 0,
        "location": {
            "lat": 41.214766,
            "lng": 123.09362
        },
        "ad_info": {
            "adcode": 211021,
            "province": "辽宁省",
            "city": "辽阳市",
            "district": "辽阳县"
        }
    },
    {
        "id": "10136849687663113617",
        "title": "公共厕所",
        "address": "辽宁省辽阳市宏伟区湖西路儿童乐园(北侧)",
        "tel": "",
        "category": "基础设施:公共设施:公共厕所",
        "type": 0,
        "location": {
            "lat": 41.207585,
            "lng": 123.2027
        },
        "ad_info": {
            "adcode": 211004,
            "province": "辽宁省",
            "city": "辽阳市",
            "district": "宏伟区"
        }
    },
    {
        "id": "3074081767701845644",
        "title": "公共厕所",
        "address": "辽宁省辽阳市白塔区南郊街66号",
        "tel": "",
        "category": "基础设施:公共设施:公共厕所",
        "type": 0,
        "location": {
            "lat": 41.250605,
            "lng": 123.180084
        },
        "ad_info": {
            "adcode": 211002,
            "province": "辽宁省",
            "city": "辽阳市",
            "district": "白塔区"
        }
    },
    {
        "id": "8891662207343447752",
        "title": "公共厕所",
        "address": "辽宁省辽阳市辽阳县德德经销店东侧270米",
        "tel": "",
        "category": "基础设施:公共设施:公共厕所",
        "type": 0,
        "location": {
            "lat": 41.196998,
            "lng": 122.744796
        },
        "ad_info": {
            "adcode": 211021,
            "province": "辽宁省",
            "city": "辽阳市",
            "district": "辽阳县"
        }
    },
    {
        "id": "7864041262716363355",
        "title": "公共厕所",
        "address": "辽宁省辽阳市白塔区中心路与南环街交叉口正东方向149米左右",
        "tel": "",
        "category": "基础设施:公共设施:公共厕所",
        "type": 0,
        "location": {
            "lat": 41.242139,
            "lng": 123.187262
        },
        "ad_info": {
            "adcode": 211002,
            "province": "辽宁省",
            "city": "辽阳市",
            "district": "白塔区"
        }
    },
    {
        "id": "14160992086200748475",
        "title": "公共厕所",
        "address": "辽宁省辽阳市宏伟区荣华街奥林园小区",
        "tel": "",
        "category": "基础设施:公共设施:公共厕所",
        "type": 0,
        "location": {
            "lat": 41.212568,
            "lng": 123.193669
        },
        "ad_info": {
            "adcode": 211004,
            "province": "辽宁省",
            "city": "辽阳市",
            "district": "宏伟区"
        }
    },
    {
        "id": "11628316879459109632",
        "title": "公共厕所",
        "address": "辽宁省辽阳市宏伟区健康路与风华街交叉口正北方向143米左右",
        "tel": "",
        "category": "基础设施:公共设施:公共厕所",
        "type": 0,
        "location": {
            "lat": 41.199949,
            "lng": 123.200272
        },
        "ad_info": {
            "adcode": 211004,
            "province": "辽宁省",
            "city": "辽阳市",
            "district": "宏伟区"
        }
    },
    {
        "id": "7757619459631257594",
        "title": "公共厕所",
        "address": "辽宁省辽阳市宏伟区健康路与朝阳大街交叉口东南方向78米左右",
        "tel": "",
        "category": "基础设施:公共设施:公共厕所",
        "type": 0,
        "location": {
            "lat": 41.203898,
            "lng": 123.199154
        },
        "ad_info": {
            "adcode": 211004,
            "province": "辽宁省",
            "city": "辽阳市",
            "district": "宏伟区"
        }
    },
    {
        "id": "5788931009572111319",
        "title": "公共厕所",
        "address": "辽宁省辽阳市白塔区卫国路与富虹大街交叉口正东方向295米左右",
        "tel": "",
        "category": "基础设施:公共设施:公共厕所",
        "type": 0,
        "location": {
            "lat": 41.257715,
            "lng": 123.160733
        },
        "ad_info": {
            "adcode": 211002,
            "province": "辽宁省",
            "city": "辽阳市",
            "district": "白塔区"
        }
    },
    {
        "id": "11277076447305597167",
        "title": "公共厕所",
        "address": "辽宁省辽阳市宏伟区南萃路与风华街交叉口东南方向64米左右",
        "tel": "",
        "category": "基础设施:公共设施:公共厕所",
        "type": 0,
        "location": {
            "lat": 41.197811,
            "lng": 123.19829
        },
        "ad_info": {
            "adcode": 211004,
            "province": "辽宁省",
            "city": "辽阳市",
            "district": "宏伟区"
        }
    },
    {
        "id": "563620964779625508",
        "title": "公共厕所",
        "address": "辽宁省辽阳市白塔区宏伟路",
        "tel": "",
        "category": "基础设施:公共设施:公共厕所",
        "type": 0,
        "location": {
            "lat": 41.254974,
            "lng": 123.218227
        },
        "ad_info": {
            "adcode": 211002,
            "province": "辽宁省",
            "city": "辽阳市",
            "district": "白塔区"
        }
    },
    {
        "id": "15402715207954975901",
        "title": "公共厕所",
        "address": "辽宁省辽阳市白塔区7号路与轻工街交叉口东南方向127米左右",
        "tel": "",
        "category": "基础设施:公共设施:公共厕所",
        "type": 0,
        "location": {
            "lat": 41.268844,
            "lng": 123.15786
        },
        "ad_info": {
            "adcode": 211002,
            "province": "辽宁省",
            "city": "辽阳市",
            "district": "白塔区"
        }
    },
    {
        "id": "11246067716260544282",
        "title": "公共厕所",
        "address": "辽宁省辽阳市白塔区东兴路与新兴街交叉口正西方向196米左右",
        "tel": "",
        "category": "基础设施:公共设施:公共厕所",
        "type": 0,
        "location": {
            "lat": 41.258082,
            "lng": 123.189315
        },
        "ad_info": {
            "adcode": 211002,
            "province": "辽宁省",
            "city": "辽阳市",
            "district": "白塔区"
        }
    },
    {
        "id": "10887108651116941864",
        "title": "公共厕所",
        "address": "辽宁省辽阳市白塔区东文化路博爱园(南侧)",
        "tel": "",
        "category": "基础设施:公共设施:公共厕所",
        "type": 0,
        "location": {
            "lat": 41.257188,
            "lng": 123.171548
        },
        "ad_info": {
            "adcode": 211002,
            "province": "辽宁省",
            "city": "辽阳市",
            "district": "白塔区"
        }
    },
    {
        "id": "13564315951085491854",
        "title": "公共厕所",
        "address": "辽宁省辽阳市文圣区新城路与新运大街交叉口西南方向109米左右",
        "tel": "",
        "category": "基础设施:公共设施:公共厕所",
        "type": 0,
        "location": {
            "lat": 41.267584,
            "lng": 123.233806
        },
        "ad_info": {
            "adcode": 211003,
            "province": "辽宁省",
            "city": "辽阳市",
            "district": "文圣区"
        }
    },
    {
        "id": "8174666289650676537",
        "title": "公共厕所",
        "address": "辽宁省辽阳市白塔区胜利路62号",
        "tel": "",
        "category": "基础设施:公共设施:公共厕所",
        "type": 0,
        "location": {
            "lat": 41.278639,
            "lng": 123.166114
        },
        "ad_info": {
            "adcode": 211002,
            "province": "辽宁省",
            "city": "辽阳市",
            "district": "白塔区"
        }
    },
    {
        "id": "14587469190616381355",
        "title": "公共厕所",
        "address": "辽宁省辽阳市白塔区团结街与新运大街交叉口正南方向102米左右",
        "tel": "",
        "category": "基础设施:公共设施:公共厕所",
        "type": 0,
        "location": {
            "lat": 41.268183,
            "lng": 123.168638
        },
        "ad_info": {
            "adcode": 211002,
            "province": "辽宁省",
            "city": "辽阳市",
            "district": "白塔区"
        }
    },
    {
        "id": "1540214560484325337",
        "title": "公共厕所",
        "address": "辽宁省辽阳市白塔区民主路与西大街交叉口东北方向109米左右",
        "tel": "",
        "category": "基础设施:公共设施:公共厕所",
        "type": 0,
        "location": {
            "lat": 41.267547,
            "lng": 123.174008
        },
        "ad_info": {
            "adcode": 211002,
            "province": "辽宁省",
            "city": "辽阳市",
            "district": "白塔区"
        }
    },
    {
        "id": "14738584491890865655",
        "title": "公共厕所",
        "address": "辽宁省辽阳市辽阳县腾飞街与辽鞍路交叉口西北方向34米左右",
        "tel": "",
        "category": "基础设施:公共设施:公共厕所",
        "type": 0,
        "location": {
            "lat": 41.193821,
            "lng": 123.062028
        },
        "ad_info": {
            "adcode": 211021,
            "province": "辽宁省",
            "city": "辽阳市",
            "district": "辽阳县"
        }
    },
    {
        "id": "4488784121349845162",
        "title": "公共厕所",
        "address": "辽宁省辽阳市白塔区北顺城街与武圣路交叉口西南方向112米左右",
        "tel": "",
        "category": "基础设施:公共设施:公共厕所",
        "type": 0,
        "location": {
            "lat": 41.276904,
            "lng": 123.181473
        },
        "ad_info": {
            "adcode": 211002,
            "province": "辽宁省",
            "city": "辽阳市",
            "district": "白塔区"
        }
    },
    {
        "id": "293742207231189313",
        "title": "公共厕所",
        "address": "辽宁省辽阳市白塔区东兴路与中华大街交叉口正南方向81米左右",
        "tel": "",
        "category": "基础设施:公共设施:公共厕所",
        "type": 0,
        "location": {
            "lat": 41.270554,
            "lng": 123.195822
        },
        "ad_info": {
            "adcode": 211002,
            "province": "辽宁省",
            "city": "辽阳市",
            "district": "白塔区"
        }
    },
    {
        "id": "16884610163308715646",
        "title": "公共厕所",
        "address": "辽宁省辽阳市白塔区新运大街文庙广场(西南角)",
        "tel": "",
        "category": "基础设施:公共设施:公共厕所",
        "type": 0,
        "location": {
            "lat": 41.260927,
            "lng": 123.198193
        },
        "ad_info": {
            "adcode": 211002,
            "province": "辽宁省",
            "city": "辽阳市",
            "district": "白塔区"
        }
    },
    {
        "id": "465333114427178750",
        "title": "公共厕所",
        "address": "辽宁省辽阳市文圣区姑小线与沈环线交叉口正东方向515米左右",
        "tel": "",
        "category": "基础设施:公共设施:公共厕所",
        "type": 0,
        "location": {
            "lat": 41.238872,
            "lng": 123.3596
        },
        "ad_info": {
            "adcode": 211003,
            "province": "辽宁省",
            "city": "辽阳市",
            "district": "文圣区"
        }
    },
    {
        "id": "11993616116237079861",
        "title": "公共厕所",
        "address": "辽宁省辽阳市白塔区东五道街与新华路交叉口正东方向140米左右",
        "tel": "",
        "category": "基础设施:公共设施:公共厕所",
        "type": 0,
        "location": {
            "lat": 41.273327,
            "lng": 123.188698
        },
        "ad_info": {
            "adcode": 211002,
            "province": "辽宁省",
            "city": "辽阳市",
            "district": "白塔区"
        }
    },
    {
        "id": "17060178209209137730",
        "title": "公共厕所",
        "address": "辽宁省辽阳市白塔区东二道街与中心路交叉口西北方向68米左右",
        "tel": "",
        "category": "基础设施:公共设施:公共厕所",
        "type": 0,
        "location": {
            "lat": 41.267621,
            "lng": 123.188742
        },
        "ad_info": {
            "adcode": 211002,
            "province": "辽宁省",
            "city": "辽阳市",
            "district": "白塔区"
        }
    },
    {
        "id": "2904373220660539755",
        "title": "公共厕所",
        "address": "辽宁省辽阳市白塔区中华大街与胜利路交叉口东北方向377米左右",
        "tel": "",
        "category": "基础设施:公共设施:公共厕所",
        "type": 0,
        "location": {
            "lat": 41.282971,
            "lng": 123.173053
        },
        "ad_info": {
            "adcode": 211002,
            "province": "辽宁省",
            "city": "辽阳市",
            "district": "白塔区"
        }
    },
    {
        "id": "458815138831393714",
        "title": "公共厕所",
        "address": "辽宁省辽阳市白塔区北工街与曙光路交叉口东北方向210米左右",
        "tel": "",
        "category": "基础设施:公共设施:公共厕所",
        "type": 0,
        "location": {
            "lat": 41.290279,
            "lng": 123.189516
        },
        "ad_info": {
            "adcode": 211002,
            "province": "辽宁省",
            "city": "辽阳市",
            "district": "白塔区"
        }
    },
    {
        "id": "4429826127102429329",
        "title": "公共厕所",
        "address": "辽宁省辽阳市白塔区中合华府东北侧200米",
        "tel": "",
        "category": "基础设施:公共设施:公共厕所",
        "type": 0,
        "location": {
            "lat": 41.281318,
            "lng": 123.205891
        },
        "ad_info": {
            "adcode": 211002,
            "province": "辽宁省",
            "city": "辽阳市",
            "district": "白塔区"
        }
    },
    {
        "id": "9723262277089808065",
        "title": "人参谷森林公园入口卫生间",
        "address": "辽宁省辽阳市弓长岭区朴姑线",
        "tel": "",
        "category": "基础设施:公共设施:公共厕所",
        "type": 0,
        "location": {
            "lat": 41.205679,
            "lng": 123.439127
        },
        "ad_info": {
            "adcode": 211005,
            "province": "辽宁省",
            "city": "辽阳市",
            "district": "弓长岭区"
        }
    },
    {
        "id": "699015476550860282",
        "title": "人参谷森林公园景区公共卫生间",
        "address": "辽宁省辽阳市弓长岭区朴姑线",
        "tel": "",
        "category": "基础设施:公共设施:公共厕所",
        "type": 0,
        "location": {
            "lat": 41.204455,
            "lng": 123.452308
        },
        "ad_info": {
            "adcode": 211005,
            "province": "辽宁省",
            "city": "辽阳市",
            "district": "弓长岭区"
        }
    },
    {
        "id": "1483688092172807406",
        "title": "公共厕所",
        "address": "辽宁省辽阳市白塔区北哨街与曙光路交叉口正西方向157米左右",
        "tel": "",
        "category": "基础设施:公共设施:公共厕所",
        "type": 0,
        "location": {
            "lat": 41.285208,
            "lng": 123.18549
        },
        "ad_info": {
            "adcode": 211002,
            "province": "辽宁省",
            "city": "辽阳市",
            "district": "白塔区"
        }
    },
    {
        "id": "2435624863518353815",
        "title": "公共厕所",
        "address": "辽宁省辽阳市太子河区振兴路与铁工街交叉口正南方向49米左右",
        "tel": "",
        "category": "基础设施:公共设施:公共厕所",
        "type": 0,
        "location": {
            "lat": 41.303788,
            "lng": 123.176494
        },
        "ad_info": {
            "adcode": 211011,
            "province": "辽宁省",
            "city": "辽阳市",
            "district": "太子河区"
        }
    },
    {
        "id": "8723340159118055115",
        "title": "公共厕所",
        "address": "辽宁省辽阳市文圣区衍水大街与铁凤路交叉口正北方向431米左右",
        "tel": "",
        "category": "基础设施:公共设施:公共厕所",
        "type": 0,
        "location": {
            "lat": 41.288327,
            "lng": 123.215962
        },
        "ad_info": {
            "adcode": 211003,
            "province": "辽宁省",
            "city": "辽阳市",
            "district": "文圣区"
        }
    },
    {
        "id": "10514055488871359387",
        "title": "公共厕所",
        "address": "辽宁省辽阳市白塔区新兴街与民主路交叉口正西方向129米左右",
        "tel": "",
        "category": "基础设施:公共设施:公共厕所",
        "type": 0,
        "location": {
            "lat": 41.259319,
            "lng": 123.169927
        },
        "ad_info": {
            "adcode": 211002,
            "province": "辽宁省",
            "city": "辽阳市",
            "district": "白塔区"
        }
    },
    {
        "id": "2149520225671201008",
        "title": "公共厕所",
        "address": "辽宁省辽阳市白塔区文圣路与新兴街交叉口西北方向163米左右",
        "tel": "",
        "category": "基础设施:公共设施:公共厕所",
        "type": 0,
        "location": {
            "lat": 41.257288,
            "lng": 123.194884
        },
        "ad_info": {
            "adcode": 211002,
            "province": "辽宁省",
            "city": "辽阳市",
            "district": "白塔区"
        }
    },
    {
        "id": "13421555823881286737",
        "title": "公共厕所",
        "address": "辽宁省辽阳市灯塔市中兴路与罕王街交叉口正西方向225米左右",
        "tel": "",
        "category": "基础设施:公共设施:公共厕所",
        "type": 0,
        "location": {
            "lat": 41.426553,
            "lng": 123.348014
        },
        "ad_info": {
            "adcode": 211081,
            "province": "辽宁省",
            "city": "辽阳市",
            "district": "灯塔市"
        }
    },
    {
        "id": "9620977930233176334",
        "title": "公共厕所",
        "address": "辽宁省辽阳市白塔区南顺城街171号",
        "tel": "",
        "category": "基础设施:公共设施:公共厕所",
        "type": 0,
        "location": {
            "lat": 41.258866,
            "lng": 123.192246
        },
        "ad_info": {
            "adcode": 211002,
            "province": "辽宁省",
            "city": "辽阳市",
            "district": "白塔区"
        }
    },
    {
        "id": "2239514870256066381",
        "title": "公共厕所",
        "address": "辽宁省辽阳市灯塔市光明路与繁荣街交叉口西北方向85米左右",
        "tel": "",
        "category": "基础设施:公共设施:公共厕所",
        "type": 0,
        "location": {
            "lat": 41.43074,
            "lng": 123.32049
        },
        "ad_info": {
            "adcode": 211081,
            "province": "辽宁省",
            "city": "辽阳市",
            "district": "灯塔市"
        }
    },
    {
        "id": "14437708407323251919",
        "title": "公共厕所",
        "address": "辽宁省辽阳市白塔区中心路与新兴街交叉口西北方向128米左右",
        "tel": "",
        "category": "基础设施:公共设施:公共厕所",
        "type": 0,
        "location": {
            "lat": 41.258807,
            "lng": 123.185475
        },
        "ad_info": {
            "adcode": 211002,
            "province": "辽宁省",
            "city": "辽阳市",
            "district": "白塔区"
        }
    },
    {
        "id": "1517700329344037502",
        "title": "公共厕所",
        "address": "辽宁省辽阳市白塔区东门路与青年大街交叉口正西方向271米左右",
        "tel": "",
        "category": "基础设施:公共设施:公共厕所",
        "type": 0,
        "location": {
            "lat": 41.253628,
            "lng": 123.208802
        },
        "ad_info": {
            "adcode": 211002,
            "province": "辽宁省",
            "city": "辽阳市",
            "district": "白塔区"
        }
    },
    {
        "id": "4179969372263293633",
        "title": "公共厕所",
        "address": "辽宁省辽阳市文圣区同心街与太子河路交叉口西北方向260米左右",
        "tel": "",
        "category": "基础设施:公共设施:公共厕所",
        "type": 0,
        "location": {
            "lat": 41.279837,
            "lng": 123.211994
        },
        "ad_info": {
            "adcode": 211003,
            "province": "辽宁省",
            "city": "辽阳市",
            "district": "文圣区"
        }
    },
    {
        "id": "16137075064421539971",
        "title": "公共厕所",
        "address": "辽宁省辽阳市白塔区胜利路与北哨街交叉口东260米",
        "tel": "",
        "category": "基础设施:公共设施:公共厕所",
        "type": 0,
        "location": {
            "lat": 41.285486,
            "lng": 123.184071
        },
        "ad_info": {
            "adcode": 211002,
            "province": "辽宁省",
            "city": "辽阳市",
            "district": "白塔区"
        }
    },
    {
        "id": "111414979719258718",
        "title": "公共厕所",
        "address": "辽宁省辽阳市白塔区北工街与曙光路交叉口正东方向87米左右",
        "tel": "",
        "category": "基础设施:公共设施:公共厕所",
        "type": 0,
        "location": {
            "lat": 41.288508,
            "lng": 123.189358
        },
        "ad_info": {
            "adcode": 211002,
            "province": "辽宁省",
            "city": "辽阳市",
            "district": "白塔区"
        }
    },
    {
        "id": "14358335211255039732",
        "title": "公共厕所",
        "address": "辽宁省辽阳市太子河区建设路与铁工街交叉口西南方向131米左右",
        "tel": "",
        "category": "基础设施:公共设施:公共厕所",
        "type": 0,
        "location": {
            "lat": 41.303059,
            "lng": 123.178743
        },
        "ad_info": {
            "adcode": 211011,
            "province": "辽宁省",
            "city": "辽阳市",
            "district": "太子河区"
        }
    },
    {
        "id": "8688881311474375470",
        "title": "公共厕所",
        "address": "辽宁省辽阳市灯塔市苑南路康福碧城",
        "tel": "",
        "category": "基础设施:公共设施:公共厕所",
        "type": 0,
        "location": {
            "lat": 41.424953,
            "lng": 123.320074
        },
        "ad_info": {
            "adcode": 211081,
            "province": "辽宁省",
            "city": "辽阳市",
            "district": "灯塔市"
        }
    },
    {
        "id": "7092379469106317733",
        "title": "公共厕所",
        "address": "辽宁省辽阳市白塔区光明路与劳动街交叉口东南方向146米左右",
        "tel": "",
        "category": "基础设施:公共设施:公共厕所",
        "type": 0,
        "location": {
            "lat": 41.274817,
            "lng": 123.169638
        },
        "ad_info": {
            "adcode": 211002,
            "province": "辽宁省",
            "city": "辽阳市",
            "district": "白塔区"
        }
    },
    {
        "id": "730106993076291321",
        "title": "公共厕所",
        "address": "辽宁省辽阳市白塔区劳动街与民主路交叉口正北方向69米左右",
        "tel": "",
        "category": "基础设施:公共设施:公共厕所",
        "type": 0,
        "location": {
            "lat": 41.271818,
            "lng": 123.174079
        },
        "ad_info": {
            "adcode": 211002,
            "province": "辽宁省",
            "city": "辽阳市",
            "district": "白塔区"
        }
    },
    {
        "id": "1747660205140411233",
        "title": "洪茂稻田大舞台公共卫生间",
        "address": "辽宁省辽阳市太子河区",
        "tel": "",
        "category": "基础设施:公共设施:公共厕所",
        "type": 0,
        "location": {
            "lat": 41.283559,
            "lng": 123.004962
        },
        "ad_info": {
            "adcode": 211011,
            "province": "辽宁省",
            "city": "辽阳市",
            "district": "太子河区"
        }
    },
    {
        "id": "10671435528931870477",
        "title": "公共厕所",
        "address": "辽宁省辽阳市辽阳县人民街与繁荣街交叉口正南方向22米左右",
        "tel": "",
        "category": "基础设施:公共设施:公共厕所",
        "type": 0,
        "location": {
            "lat": 41.213568,
            "lng": 123.08775
        },
        "ad_info": {
            "adcode": 211021,
            "province": "辽宁省",
            "city": "辽阳市",
            "district": "辽阳县"
        }
    },
    {
        "id": "7289545402832093040",
        "title": "公共厕所",
        "address": "辽宁省辽阳市白塔区武圣路与硝堡街交叉口西北方向82米左右",
        "tel": "",
        "category": "基础设施:公共设施:公共厕所",
        "type": 0,
        "location": {
            "lat": 41.279158,
            "lng": 123.181456
        },
        "ad_info": {
            "adcode": 211002,
            "province": "辽宁省",
            "city": "辽阳市",
            "district": "白塔区"
        }
    },
    {
        "id": "1272265539663683172",
        "title": "灯塔市柳条寨镇连三台村公共卫生间",
        "address": "辽宁省辽阳市灯塔市罗金线",
        "tel": "",
        "category": "基础设施:公共设施:公共厕所",
        "type": 0,
        "location": {
            "lat": 41.518444,
            "lng": 123.177658
        },
        "ad_info": {
            "adcode": 211081,
            "province": "辽宁省",
            "city": "辽阳市",
            "district": "灯塔市"
        }
    },
    {
        "id": "14892452676248741003",
        "title": "公共厕所",
        "address": "辽宁省辽阳市辽阳县明星路与润泽街交叉口正北方向121米左右",
        "tel": "",
        "category": "基础设施:公共设施:公共厕所",
        "type": 0,
        "location": {
            "lat": 41.215007,
            "lng": 123.078691
        },
        "ad_info": {
            "adcode": 211021,
            "province": "辽宁省",
            "city": "辽阳市",
            "district": "辽阳县"
        }
    },
    {
        "id": "11970652857218981885",
        "title": "公共厕所",
        "address": "辽宁省辽阳市白塔区东门路与八一街交叉口正南方向334米左右",
        "tel": "",
        "category": "基础设施:公共设施:公共厕所",
        "type": 0,
        "location": {
            "lat": 41.247549,
            "lng": 123.215001
        },
        "ad_info": {
            "adcode": 211002,
            "province": "辽宁省",
            "city": "辽阳市",
            "district": "白塔区"
        }
    },
    {
        "id": "11603873764428990170",
        "title": "公共厕所",
        "address": "辽宁省辽阳市白塔区东门路与八一街交叉口正南方向40米左右",
        "tel": "",
        "category": "基础设施:公共设施:公共厕所",
        "type": 0,
        "location": {
            "lat": 41.25013,
            "lng": 123.215806
        },
        "ad_info": {
            "adcode": 211002,
            "province": "辽宁省",
            "city": "辽阳市",
            "district": "白塔区"
        }
    },
    {
        "id": "13680218246123283624",
        "title": "公共厕所",
        "address": "辽宁省辽阳市白塔区东门路与八一街交叉口正南方向377米左右",
        "tel": "",
        "category": "基础设施:公共设施:公共厕所",
        "type": 0,
        "location": {
            "lat": 41.247187,
            "lng": 123.214785
        },
        "ad_info": {
            "adcode": 211002,
            "province": "辽宁省",
            "city": "辽阳市",
            "district": "白塔区"
        }
    },
    {
        "id": "7025958798178380713",
        "title": "崔南沟公共厕所",
        "address": "辽宁省辽阳市弓长岭区峨瓦线",
        "tel": "",
        "category": "基础设施:公共设施:公共厕所",
        "type": 0,
        "location": {
            "lat": 41.104745,
            "lng": 123.323037
        },
        "ad_info": {
            "adcode": 211005,
            "province": "辽宁省",
            "city": "辽阳市",
            "district": "弓长岭区"
        }
    },
    {
        "id": "7496578411356653906",
        "title": "井泉服务区公共厕所",
        "address": "辽宁省辽阳市灯塔市G202与爱大线交叉口东北方向1394米左右",
        "tel": "",
        "category": "基础设施:公共设施:公共厕所",
        "type": 0,
        "location": {
            "lat": 41.397632,
            "lng": 123.253464
        },
        "ad_info": {
            "adcode": 211081,
            "province": "辽宁省",
            "city": "辽阳市",
            "district": "灯塔市"
        }
    },
    {
        "id": "6619865513410052475",
        "title": "井泉服务区公共厕所",
        "address": "辽宁省辽阳市灯塔市G202与爱大线交叉口正东方向1396米左右",
        "tel": "",
        "category": "基础设施:公共设施:公共厕所",
        "type": 0,
        "location": {
            "lat": 41.394541,
            "lng": 123.254768
        },
        "ad_info": {
            "adcode": 211081,
            "province": "辽宁省",
            "city": "辽阳市",
            "district": "灯塔市"
        }
    },
    {
        "id": "10087044755878622272",
        "title": "公共厕所",
        "address": "辽宁省辽阳市文圣区中大线与罗华线交叉口正西方向816米左右",
        "tel": "",
        "category": "基础设施:公共设施:公共厕所",
        "type": 0,
        "location": {
            "lat": 41.330946,
            "lng": 123.365062
        },
        "ad_info": {
            "adcode": 211003,
            "province": "辽宁省",
            "city": "辽阳市",
            "district": "文圣区"
        }
    },
    {
        "id": "10110242175642442668",
        "title": "公共厕所",
        "address": "辽宁省辽阳市文圣区沈营线与罗华线交叉口西南方向1207米左右",
        "tel": "",
        "category": "基础设施:公共设施:公共厕所",
        "type": 0,
        "location": {
            "lat": 41.321048,
            "lng": 123.285783
        },
        "ad_info": {
            "adcode": 211003,
            "province": "辽宁省",
            "city": "辽阳市",
            "district": "文圣区"
        }
    },
    {
        "id": "10431381752770397953",
        "title": "首山服务区公共厕所",
        "address": "辽宁省辽阳市太子河区辽中环线高速首山服务区",
        "tel": "",
        "category": "基础设施:公共设施:公共厕所",
        "type": 0,
        "location": {
            "lat": 41.199915,
            "lng": 123.133596
        },
        "ad_info": {
            "adcode": 211011,
            "province": "辽宁省",
            "city": "辽阳市",
            "district": "太子河区"
        }
    },
    {
        "id": "7564914023848787506",
        "title": "公共厕所",
        "address": "辽宁省辽阳市文圣区沈营线与罗华线交叉口西南方向1339米左右",
        "tel": "",
        "category": "基础设施:公共设施:公共厕所",
        "type": 0,
        "location": {
            "lat": 41.319767,
            "lng": 123.285124
        },
        "ad_info": {
            "adcode": 211003,
            "province": "辽宁省",
            "city": "辽阳市",
            "district": "文圣区"
        }
    },
    {
        "id": "4987086722174506364",
        "title": "公共厕所",
        "address": "辽宁省辽阳市宏伟区昌盛街南段石油化纤公司六区幼儿园",
        "tel": "",
        "category": "基础设施:公共设施:公共厕所",
        "type": 0,
        "location": {
            "lat": 41.199812,
            "lng": 123.210501
        },
        "ad_info": {
            "adcode": 211004,
            "province": "辽宁省",
            "city": "辽阳市",
            "district": "宏伟区"
        }
    },
    {
        "id": "2865975344050467161",
        "title": "唐马公共厕所",
        "address": "辽宁省辽阳市辽阳县兰唐线与腾于线交叉口正北方向89米左右",
        "tel": "",
        "category": "基础设施:公共设施:公共厕所",
        "type": 0,
        "location": {
            "lat": 41.182802,
            "lng": 122.728938
        },
        "ad_info": {
            "adcode": 211021,
            "province": "辽宁省",
            "city": "辽阳市",
            "district": "辽阳县"
        }
    },
    {
        "id": "12763409183024570287",
        "title": "沙岭镇农村户厕建设管护站",
        "address": "辽宁省辽阳市太子河区沙岭镇卫生院东南侧110米",
        "tel": "",
        "category": "基础设施:公共设施:公共厕所",
        "type": 0,
        "location": {
            "lat": 41.339152,
            "lng": 123.030031
        },
        "ad_info": {
            "adcode": 211011,
            "province": "辽宁省",
            "city": "辽阳市",
            "district": "太子河区"
        }
    },
    {
        "id": "14884631466122314847",
        "title": "公共厕所",
        "address": "辽宁省辽阳市辽阳县辽凤线与辽庄线交叉口西南方向50米左右",
        "tel": "",
        "category": "基础设施:公共设施:公共厕所",
        "type": 0,
        "location": {
            "lat": 41.126401,
            "lng": 123.204594
        },
        "ad_info": {
            "adcode": 211021,
            "province": "辽宁省",
            "city": "辽阳市",
            "district": "辽阳县"
        }
    },
    {
        "id": "13099430214491155365",
        "title": "栗子园村公厕",
        "address": "辽宁省辽阳市辽阳县",
        "tel": "",
        "category": "基础设施:公共设施:公共厕所",
        "type": 0,
        "location": {
            "lat": 41.196949,
            "lng": 123.515136
        },
        "ad_info": {
            "adcode": 211021,
            "province": "辽宁省",
            "city": "辽阳市",
            "district": "辽阳县"
        }
    },
    {
        "id": "6118004033153666888",
        "title": "白塔公园公共厕所",
        "address": "辽宁省辽阳市白塔区中华大街与光明路交叉口东260米",
        "tel": "",
        "category": "基础设施:公共设施:公共厕所",
        "type": 0,
        "location": {
            "lat": 41.278622,
            "lng": 123.175507
        },
        "ad_info": {
            "adcode": 211002,
            "province": "辽宁省",
            "city": "辽阳市",
            "district": "白塔区"
        }
    },
    {
        "id": "2274032249109769772",
        "title": "黎明社区公厕",
        "address": "辽宁省辽阳市文圣区望水大街",
        "tel": "",
        "category": "基础设施:公共设施:公共厕所",
        "type": 0,
        "location": {
            "lat": 41.291664,
            "lng": 123.269004
        },
        "ad_info": {
            "adcode": 211003,
            "province": "辽宁省",
            "city": "辽阳市",
            "district": "文圣区"
        }
    },
    {
        "id": "12211255435515124797",
        "title": "公共厕所",
        "address": "辽宁省辽阳市白塔区第九中学(武圣路西)",
        "tel": "",
        "category": "基础设施:公共设施:公共厕所",
        "type": 0,
        "location": {
            "lat": 41.260608,
            "lng": 123.177395
        },
        "ad_info": {
            "adcode": 211002,
            "province": "辽宁省",
            "city": "辽阳市",
            "district": "白塔区"
        }
    },
    {
        "id": "7117450771490702451",
        "title": "立沿沟村公共厕所",
        "address": "辽宁省辽阳市文圣区",
        "tel": "",
        "category": "基础设施:公共设施:公共厕所",
        "type": 0,
        "location": {
            "lat": 41.365555,
            "lng": 123.377083
        },
        "ad_info": {
            "adcode": 211003,
            "province": "辽宁省",
            "city": "辽阳市",
            "district": "文圣区"
        }
    },
    {
        "id": "12828016323083295290",
        "title": "公共厕所",
        "address": "辽宁省辽阳市白塔区新运大街与胜利路交叉口东北方向109米左右",
        "tel": "",
        "category": "基础设施:公共设施:公共厕所",
        "type": 0,
        "location": {
            "lat": 41.27576,
            "lng": 123.162354
        },
        "ad_info": {
            "adcode": 211002,
            "province": "辽宁省",
            "city": "辽阳市",
            "district": "白塔区"
        }
    },
    {
        "id": "17817095332304046292",
        "title": "公共厕所",
        "address": "辽宁省辽阳市白塔区滨河路与西三道街交叉口正北方向44米左右",
        "tel": "",
        "category": "基础设施:公共设施:公共厕所",
        "type": 0,
        "location": {
            "lat": 41.271281,
            "lng": 123.17634
        },
        "ad_info": {
            "adcode": 211002,
            "province": "辽宁省",
            "city": "辽阳市",
            "district": "白塔区"
        }
    },
    {
        "id": "3735436185846894459",
        "title": "公共厕所",
        "address": "辽宁省辽阳市白塔区光明路与六一街交叉口东南方向61米左右",
        "tel": "",
        "category": "基础设施:公共设施:公共厕所",
        "type": 0,
        "location": {
            "lat": 41.276491,
            "lng": 123.17068
        },
        "ad_info": {
            "adcode": 211002,
            "province": "辽宁省",
            "city": "辽阳市",
            "district": "白塔区"
        }
    },
    {
        "id": "5029236956999436092",
        "title": "公共厕所",
        "address": "辽宁省辽阳市白塔区东门路与八一街交叉口正南方向256米左右",
        "tel": "",
        "category": "基础设施:公共设施:公共厕所",
        "type": 0,
        "location": {
            "lat": 41.248208,
            "lng": 123.215375
        },
        "ad_info": {
            "adcode": 211002,
            "province": "辽宁省",
            "city": "辽阳市",
            "district": "白塔区"
        }
    },
    {
        "id": "15326550221053863306",
        "title": "公共厕所",
        "address": "辽宁省辽阳市白塔区西四道街科普公园内",
        "tel": "",
        "category": "基础设施:公共设施:公共厕所",
        "type": 0,
        "location": {
            "lat": 41.272334,
            "lng": 123.181074
        },
        "ad_info": {
            "adcode": 211002,
            "province": "辽宁省",
            "city": "辽阳市",
            "district": "白塔区"
        }
    },
    {
        "id": "15678086388673005555",
        "title": "井泉服务区公共厕所",
        "address": "辽宁省辽阳市灯塔市G202与爱大线交叉口东北方向1319米左右",
        "tel": "",
        "category": "基础设施:公共设施:公共厕所",
        "type": 0,
        "location": {
            "lat": 41.397147,
            "lng": 123.252773
        },
        "ad_info": {
            "adcode": 211081,
            "province": "辽宁省",
            "city": "辽阳市",
            "district": "灯塔市"
        }
    },
    {
        "id": "146476954810333926",
        "title": "首山服务区公共厕所",
        "address": "辽宁省辽阳市太子河区辽中环线高速公路首山服务区",
        "tel": "",
        "category": "基础设施:公共设施:公共厕所",
        "type": 0,
        "location": {
            "lat": 41.198133,
            "lng": 123.131905
        },
        "ad_info": {
            "adcode": 211011,
            "province": "辽宁省",
            "city": "辽阳市",
            "district": "太子河区"
        }
    },
    {
        "id": "5284862746592956164",
        "title": "公共厕所",
        "address": "辽宁省辽阳市白塔区三里街与文圣路交叉口正东方向506米左右",
        "tel": "",
        "category": "基础设施:公共设施:公共厕所",
        "type": 0,
        "location": {
            "lat": 41.245182,
            "lng": 123.199501
        },
        "ad_info": {
            "adcode": 211002,
            "province": "辽宁省",
            "city": "辽阳市",
            "district": "白塔区"
        }
    },
    {
        "id": "14331508071395861326",
        "title": "公共厕所",
        "address": "辽宁省辽阳市弓长岭区华表路与姑小线交叉口西北方向132米左右",
        "tel": "",
        "category": "基础设施:公共设施:公共厕所",
        "type": 0,
        "location": {
            "lat": 41.195808,
            "lng": 123.427314
        },
        "ad_info": {
            "adcode": 211005,
            "province": "辽宁省",
            "city": "辽阳市",
            "district": "弓长岭区"
        }
    },
    {
        "id": "11990582278019644451",
        "title": "公共厕所",
        "address": "辽宁省辽阳市辽阳县沈营线与鞍腾路交叉口西北方向1123米左右",
        "tel": "",
        "category": "基础设施:公共设施:公共厕所",
        "type": 0,
        "location": {
            "lat": 41.091735,
            "lng": 122.821949
        },
        "ad_info": {
            "adcode": 211021,
            "province": "辽宁省",
            "city": "辽阳市",
            "district": "辽阳县"
        }
    },
    {
        "id": "13198946539176539734",
        "title": "公共厕所",
        "address": "辽宁省辽阳市太子河区东盛路与富名街交叉口西北方向174米左右",
        "tel": "",
        "category": "基础设施:公共设施:公共厕所",
        "type": 0,
        "location": {
            "lat": 41.328359,
            "lng": 123.169803
        },
        "ad_info": {
            "adcode": 211011,
            "province": "辽宁省",
            "city": "辽阳市",
            "district": "太子河区"
        }
    },
    {
        "id": "94154273171832287",
        "title": "公共厕所",
        "address": "辽宁省辽阳市太子河区大林子小学东南侧210米",
        "tel": "",
        "category": "基础设施:公共设施:公共厕所",
        "type": 0,
        "location": {
            "lat": 41.287934,
            "lng": 123.175701
        },
        "ad_info": {
            "adcode": 211011,
            "province": "辽宁省",
            "city": "辽阳市",
            "district": "太子河区"
        }
    },
    {
        "id": "9431570767397145542",
        "title": "公共厕所",
        "address": "辽宁省辽阳市白塔区东门路与八一街交叉口正南方向285米左右",
        "tel": "",
        "category": "基础设施:公共设施:公共厕所",
        "type": 0,
        "location": {
            "lat": 41.247954,
            "lng": 123.215324
        },
        "ad_info": {
            "adcode": 211002,
            "province": "辽宁省",
            "city": "辽阳市",
            "district": "白塔区"
        }
    },
    {
        "id": "1196871740850672507",
        "title": "公共厕所",
        "address": "辽宁省辽阳市文圣区太子河路与衍水大街交叉口正北方向551米左右",
        "tel": "",
        "category": "基础设施:公共设施:公共厕所",
        "type": 0,
        "location": {
            "lat": 41.290108,
            "lng": 123.21201
        },
        "ad_info": {
            "adcode": 211003,
            "province": "辽宁省",
            "city": "辽阳市",
            "district": "文圣区"
        }
    },
    {
        "id": "14437137632276583873",
        "title": "公共厕所",
        "address": "辽宁省辽阳市弓长岭区泉眼路与苏安大街交叉口正东方向30米左右",
        "tel": "",
        "category": "基础设施:公共设施:公共厕所",
        "type": 0,
        "location": {
            "lat": 41.121873,
            "lng": 123.470807
        },
        "ad_info": {
            "adcode": 211005,
            "province": "辽宁省",
            "city": "辽阳市",
            "district": "弓长岭区"
        }
    },
    {
        "id": "6686446400771943496",
        "title": "公共厕所",
        "address": "辽宁省辽阳市文圣区太子河路与德盛街交叉口正西方向207米左右",
        "tel": "",
        "category": "基础设施:公共设施:公共厕所",
        "type": 0,
        "location": {
            "lat": 41.26647,
            "lng": 123.214352
        },
        "ad_info": {
            "adcode": 211003,
            "province": "辽宁省",
            "city": "辽阳市",
            "district": "文圣区"
        }
    },
    {
        "id": "527423451877753564",
        "title": "公共厕所",
        "address": "辽宁省辽阳市辽阳县",
        "tel": "",
        "category": "基础设施:公共设施:公共厕所",
        "type": 0,
        "location": {
            "lat": 40.906781,
            "lng": 123.286896
        },
        "ad_info": {
            "adcode": 211021,
            "province": "辽宁省",
            "city": "辽阳市",
            "district": "辽阳县"
        }
    },
    {
        "id": "16345063298715563670",
        "title": "公共厕所",
        "address": "辽宁省辽阳市白塔区南环街与梅园西路交叉口正北方向543米左右",
        "tel": "",
        "category": "基础设施:公共设施:公共厕所",
        "type": 0,
        "location": {
            "lat": 41.245513,
            "lng": 123.210058
        },
        "ad_info": {
            "adcode": 211002,
            "province": "辽宁省",
            "city": "辽阳市",
            "district": "白塔区"
        }
    },
    {
        "id": "4937009276477716107",
        "title": "公共厕所",
        "address": "辽宁省辽阳市白塔区东门路与青年大街交叉口正西方向422米左右",
        "tel": "",
        "category": "基础设施:公共设施:公共厕所",
        "type": 0,
        "location": {
            "lat": 41.253674,
            "lng": 123.206978
        },
        "ad_info": {
            "adcode": 211002,
            "province": "辽宁省",
            "city": "辽阳市",
            "district": "白塔区"
        }
    },
    {
        "id": "7777956223088481981",
        "title": "公共厕所",
        "address": "辽宁省辽阳市太子河区钟林子街与铁西路交叉口西北方向175米左右",
        "tel": "",
        "category": "基础设施:公共设施:公共厕所",
        "type": 0,
        "location": {
            "lat": 41.295393,
            "lng": 123.175784
        },
        "ad_info": {
            "adcode": 211011,
            "province": "辽宁省",
            "city": "辽阳市",
            "district": "太子河区"
        }
    },
    {
        "id": "1102040277175825193",
        "title": "公共厕所",
        "address": "辽宁省辽阳市文圣区东平街与太子河路交叉口正西方向219米左右",
        "tel": "",
        "category": "基础设施:公共设施:公共厕所",
        "type": 0,
        "location": {
            "lat": 41.293885,
            "lng": 123.214263
        },
        "ad_info": {
            "adcode": 211003,
            "province": "辽宁省",
            "city": "辽阳市",
            "district": "文圣区"
        }
    },
    {
        "id": "17179878238370185042",
        "title": "公共厕所",
        "address": "辽宁省辽阳市灯塔市和谐街与沈营线交叉口正西方向43米左右",
        "tel": "",
        "category": "基础设施:公共设施:公共厕所",
        "type": 0,
        "location": {
            "lat": 41.34675,
            "lng": 123.300247
        },
        "ad_info": {
            "adcode": 211081,
            "province": "辽宁省",
            "city": "辽阳市",
            "district": "灯塔市"
        }
    },
    {
        "id": "6700299354215848",
        "title": "公共厕所",
        "address": "辽宁省辽阳市弓长岭区华表路与姑小线交叉口正西方向636米左右",
        "tel": "",
        "category": "基础设施:公共设施:公共厕所",
        "type": 0,
        "location": {
            "lat": 41.203584,
            "lng": 123.428816
        },
        "ad_info": {
            "adcode": 211005,
            "province": "辽宁省",
            "city": "辽阳市",
            "district": "弓长岭区"
        }
    },
    {
        "id": "11192735956227423196",
        "title": "公共厕所",
        "address": "辽宁省辽阳市白塔区东门路与新运大街交叉口正南方向496米左右",
        "tel": "",
        "category": "基础设施:公共设施:公共厕所",
        "type": 0,
        "location": {
            "lat": 41.254865,
            "lng": 123.205365
        },
        "ad_info": {
            "adcode": 211002,
            "province": "辽宁省",
            "city": "辽阳市",
            "district": "白塔区"
        }
    },
    {
        "id": "15329411181702216701",
        "title": "公共厕所",
        "address": "辽宁省辽阳市宏伟区丰乐街与科研路交叉口东南方向60米左右",
        "tel": "",
        "category": "基础设施:公共设施:公共厕所",
        "type": 0,
        "location": {
            "lat": 41.199021,
            "lng": 123.211858
        },
        "ad_info": {
            "adcode": 211004,
            "province": "辽宁省",
            "city": "辽阳市",
            "district": "宏伟区"
        }
    },
    {
        "id": "10970023175203549514",
        "title": "公共厕所",
        "address": "辽宁省辽阳市宏伟区昌盛街南段与康华街交叉口东南140米",
        "tel": "",
        "category": "基础设施:公共设施:公共厕所",
        "type": 0,
        "location": {
            "lat": 41.202042,
            "lng": 123.209791
        },
        "ad_info": {
            "adcode": 211004,
            "province": "辽宁省",
            "city": "辽阳市",
            "district": "宏伟区"
        }
    },
    {
        "id": "9147748266229784106",
        "title": "公共厕所",
        "address": "辽宁省辽阳市弓长岭区小凤经销店东南侧50米",
        "tel": "",
        "category": "基础设施:公共设施:公共厕所",
        "type": 0,
        "location": {
            "lat": 41.276956,
            "lng": 123.495264
        },
        "ad_info": {
            "adcode": 211005,
            "province": "辽宁省",
            "city": "辽阳市",
            "district": "弓长岭区"
        }
    },
    {
        "id": "9287576113631619625",
        "title": "公共厕所",
        "address": "辽宁省辽阳市白塔区中华大街与光明路交叉口东北方向111米左右",
        "tel": "",
        "category": "基础设施:公共设施:公共厕所",
        "type": 0,
        "location": {
            "lat": 41.279011,
            "lng": 123.173588
        },
        "ad_info": {
            "adcode": 211002,
            "province": "辽宁省",
            "city": "辽阳市",
            "district": "白塔区"
        }
    },
    {
        "id": "2333224482281643592",
        "title": "公共厕所",
        "address": "辽宁省辽阳市白塔区三里街兴悦华府小区西北侧约120米",
        "tel": "",
        "category": "基础设施:公共设施:公共厕所",
        "type": 0,
        "location": {
            "lat": 41.245697,
            "lng": 123.186796
        },
        "ad_info": {
            "adcode": 211002,
            "province": "辽宁省",
            "city": "辽阳市",
            "district": "白塔区"
        }
    },
    {
        "id": "2170282056262804520",
        "title": "公共厕所",
        "address": "辽宁省辽阳市太子河区小庄街与粮庄西路交叉口东北方向116米左右",
        "tel": "",
        "category": "基础设施:公共设施:公共厕所",
        "type": 0,
        "location": {
            "lat": 41.285935,
            "lng": 123.1699
        },
        "ad_info": {
            "adcode": 211011,
            "province": "辽宁省",
            "city": "辽阳市",
            "district": "太子河区"
        }
    },
    {
        "id": "14921833424234984896",
        "title": "公共厕所",
        "address": "辽宁省辽阳市弓长岭区景区路与柳河路交叉口正东方向152米左右",
        "tel": "",
        "category": "基础设施:公共设施:公共厕所",
        "type": 0,
        "location": {
            "lat": 41.112033,
            "lng": 123.37158
        },
        "ad_info": {
            "adcode": 211005,
            "province": "辽宁省",
            "city": "辽阳市",
            "district": "弓长岭区"
        }
    },
    {
        "id": "16646697365539740308",
        "title": "公共厕所",
        "address": "辽宁省辽阳市弓长岭区北环路与安平路交叉口正西方向106米左右",
        "tel": "",
        "category": "基础设施:公共设施:公共厕所",
        "type": 0,
        "location": {
            "lat": 41.163869,
            "lng": 123.427724
        },
        "ad_info": {
            "adcode": 211005,
            "province": "辽宁省",
            "city": "辽阳市",
            "district": "弓长岭区"
        }
    },
    {
        "id": "14933257210000842316",
        "title": "公共厕所",
        "address": "辽宁省辽阳市太子河区建设路与瓦窑子路交叉口正东方向343米左右",
        "tel": "",
        "category": "基础设施:公共设施:公共厕所",
        "type": 0,
        "location": {
            "lat": 41.300438,
            "lng": 123.184444
        },
        "ad_info": {
            "adcode": 211011,
            "province": "辽宁省",
            "city": "辽阳市",
            "district": "太子河区"
        }
    },
    {
        "id": "1869699780127785549",
        "title": "公共厕所",
        "address": "辽宁省辽阳市白塔区中心路112号",
        "tel": "",
        "category": "基础设施:公共设施:公共厕所",
        "type": 0,
        "location": {
            "lat": 41.25851,
            "lng": 123.186394
        },
        "ad_info": {
            "adcode": 211002,
            "province": "辽宁省",
            "city": "辽阳市",
            "district": "白塔区"
        }
    }
]