[
    {
        "id": "16775243025010320325",
        "title": "公共厕所",
        "address": "四川省达州市通川区巴渠西路与西金巷交叉口正南方向95米左右",
        "tel": "",
        "category": "基础设施:公共设施:公共厕所",
        "type": 0,
        "location": {
            "lat": 31.200432,
            "lng": 107.456653
        },
        "ad_info": {
            "adcode": 511702,
            "province": "四川省",
            "city": "达州市",
            "district": "通川区"
        }
    },
    {
        "id": "16970755567681077200",
        "title": "公共厕所",
        "address": "四川省达州市通川区朝阳西路与金山顺街交叉口西南方向94米左右",
        "tel": "",
        "category": "基础设施:公共设施:公共厕所",
        "type": 0,
        "location": {
            "lat": 31.197956,
            "lng": 107.454322
        },
        "ad_info": {
            "adcode": 511702,
            "province": "四川省",
            "city": "达州市",
            "district": "通川区"
        }
    },
    {
        "id": "3150434610798243734",
        "title": "公共厕所",
        "address": "四川省达州市通川区博文街与宏文路交叉口正南方向92米左右",
        "tel": "",
        "category": "基础设施:公共设施:公共厕所",
        "type": 0,
        "location": {
            "lat": 31.236578,
            "lng": 107.465196
        },
        "ad_info": {
            "adcode": 511702,
            "province": "四川省",
            "city": "达州市",
            "district": "通川区"
        }
    },
    {
        "id": "15293588976379218509",
        "title": "公共厕所",
        "address": "四川省达州市达川区茂华街与麻柳大道交叉口正西方向66米左右",
        "tel": "",
        "category": "基础设施:公共设施:公共厕所",
        "type": 0,
        "location": {
            "lat": 31.194197,
            "lng": 107.515205
        },
        "ad_info": {
            "adcode": 511703,
            "province": "四川省",
            "city": "达州市",
            "district": "达川区"
        }
    },
    {
        "id": "8446481316416449494",
        "title": "公共卫生间",
        "address": "四川省达州市通川区朝阳东路762号",
        "tel": "",
        "category": "基础设施:公共设施:公共厕所",
        "type": 0,
        "location": {
            "lat": 31.21581,
            "lng": 107.487863
        },
        "ad_info": {
            "adcode": 511702,
            "province": "四川省",
            "city": "达州市",
            "district": "通川区"
        }
    },
    {
        "id": "10085942800333725036",
        "title": "公共厕所",
        "address": "四川省达州市通川区中心广场步行街与来凤路交叉口正北方向72米左右",
        "tel": "",
        "category": "基础设施:公共设施:公共厕所",
        "type": 0,
        "location": {
            "lat": 31.214244,
            "lng": 107.502831
        },
        "ad_info": {
            "adcode": 511702,
            "province": "四川省",
            "city": "达州市",
            "district": "通川区"
        }
    },
    {
        "id": "16490741007361009923",
        "title": "公共厕所",
        "address": "四川省达州市通川区万兴路与永盛大道交叉口东北方向79米左右",
        "tel": "",
        "category": "基础设施:公共设施:公共厕所",
        "type": 0,
        "location": {
            "lat": 31.206854,
            "lng": 107.469109
        },
        "ad_info": {
            "adcode": 511702,
            "province": "四川省",
            "city": "达州市",
            "district": "通川区"
        }
    },
    {
        "id": "5898642424577016961",
        "title": "公共厕所",
        "address": "四川省达州市达川区金龙大道南一段与长盛路交叉口西南方向794米左右",
        "tel": "",
        "category": "基础设施:公共设施:公共厕所",
        "type": 0,
        "location": {
            "lat": 31.164679,
            "lng": 107.46325
        },
        "ad_info": {
            "adcode": 511703,
            "province": "四川省",
            "city": "达州市",
            "district": "达川区"
        }
    },
    {
        "id": "9945698747108635871",
        "title": "公共厕所",
        "address": "四川省达州市通川区万家巷与金龙大道交叉口正西方向54米左右",
        "tel": "",
        "category": "基础设施:公共设施:公共厕所",
        "type": 0,
        "location": {
            "lat": 31.206046,
            "lng": 107.463869
        },
        "ad_info": {
            "adcode": 511702,
            "province": "四川省",
            "city": "达州市",
            "district": "通川区"
        }
    },
    {
        "id": "17317343062522395040",
        "title": "公共厕所",
        "address": "四川省达州市通川区朝凤北路与朝阳东路交叉口东北方向25米左右",
        "tel": "",
        "category": "基础设施:公共设施:公共厕所",
        "type": 0,
        "location": {
            "lat": 31.216203,
            "lng": 107.502232
        },
        "ad_info": {
            "adcode": 511702,
            "province": "四川省",
            "city": "达州市",
            "district": "通川区"
        }
    },
    {
        "id": "14437422011675478164",
        "title": "公共厕所",
        "address": "四川省达州市万源市思源路与红旗路交叉口正南方向36米左右",
        "tel": "",
        "category": "基础设施:公共设施:公共厕所",
        "type": 0,
        "location": {
            "lat": 32.066977,
            "lng": 108.040198
        },
        "ad_info": {
            "adcode": 511781,
            "province": "四川省",
            "city": "达州市",
            "district": "万源市"
        }
    },
    {
        "id": "15401621577215500665",
        "title": "公共厕所",
        "address": "四川省达州市达川区福荣巷62号",
        "tel": "",
        "category": "基础设施:公共设施:公共厕所",
        "type": 0,
        "location": {
            "lat": 31.20189,
            "lng": 107.514404
        },
        "ad_info": {
            "adcode": 511703,
            "province": "四川省",
            "city": "达州市",
            "district": "达川区"
        }
    },
    {
        "id": "7333320268415502217",
        "title": "公共厕所",
        "address": "四川省达州市宣汉县北街与衙墙街交叉口东北方向40米左右",
        "tel": "",
        "category": "基础设施:公共设施:公共厕所",
        "type": 0,
        "location": {
            "lat": 31.35503,
            "lng": 107.728248
        },
        "ad_info": {
            "adcode": 511722,
            "province": "四川省",
            "city": "达州市",
            "district": "宣汉县"
        }
    },
    {
        "id": "688536295942705688",
        "title": "公共厕所",
        "address": "四川省达州市通川区朝阳西路与金山北路交叉口东南方向214米左右",
        "tel": "",
        "category": "基础设施:公共设施:公共厕所",
        "type": 0,
        "location": {
            "lat": 31.19841,
            "lng": 107.459386
        },
        "ad_info": {
            "adcode": 511702,
            "province": "四川省",
            "city": "达州市",
            "district": "通川区"
        }
    },
    {
        "id": "18324008569912492493",
        "title": "公共厕所",
        "address": "四川省达州市通川区永盛大道67号",
        "tel": "",
        "category": "基础设施:公共设施:公共厕所",
        "type": 0,
        "location": {
            "lat": 31.205357,
            "lng": 107.46862
        },
        "ad_info": {
            "adcode": 511702,
            "province": "四川省",
            "city": "达州市",
            "district": "通川区"
        }
    },
    {
        "id": "4887927013458290743",
        "title": "公共厕所",
        "address": "四川省达州市达川区正街与马木街交叉口正北方向293米左右",
        "tel": "",
        "category": "基础设施:公共设施:公共厕所",
        "type": 0,
        "location": {
            "lat": 30.994341,
            "lng": 107.435995
        },
        "ad_info": {
            "adcode": 511703,
            "province": "四川省",
            "city": "达州市",
            "district": "达川区"
        }
    },
    {
        "id": "16805819579373392215",
        "title": "公共厕所",
        "address": "四川省达州市通川区凤翔街319号",
        "tel": "",
        "category": "基础设施:公共设施:公共厕所",
        "type": 0,
        "location": {
            "lat": 31.223191,
            "lng": 107.433322
        },
        "ad_info": {
            "adcode": 511702,
            "province": "四川省",
            "city": "达州市",
            "district": "通川区"
        }
    },
    {
        "id": "6340674976666541402",
        "title": "公共厕所",
        "address": "四川省达州市开江县新宁路与淙城后街交叉口西南方向45米左右",
        "tel": "",
        "category": "基础设施:公共设施:公共厕所",
        "type": 0,
        "location": {
            "lat": 31.084278,
            "lng": 107.864218
        },
        "ad_info": {
            "adcode": 511723,
            "province": "四川省",
            "city": "达州市",
            "district": "开江县"
        }
    },
    {
        "id": "14003649005818409803",
        "title": "公共厕所",
        "address": "四川省达州市通川区山前路与肖公庙路交叉口正南方向189米左右",
        "tel": "",
        "category": "基础设施:公共设施:公共厕所",
        "type": 0,
        "location": {
            "lat": 31.232106,
            "lng": 107.519398
        },
        "ad_info": {
            "adcode": 511702,
            "province": "四川省",
            "city": "达州市",
            "district": "通川区"
        }
    },
    {
        "id": "18377349233292930885",
        "title": "公共厕所",
        "address": "四川省达州市通川区张家湾路与水磨坪巷交叉口正南方向61米左右",
        "tel": "",
        "category": "基础设施:公共设施:公共厕所",
        "type": 0,
        "location": {
            "lat": 31.21753,
            "lng": 107.507526
        },
        "ad_info": {
            "adcode": 511702,
            "province": "四川省",
            "city": "达州市",
            "district": "通川区"
        }
    },
    {
        "id": "15571707288390758152",
        "title": "公共厕所",
        "address": "四川省达州市通川区凤凰大桥与肖公庙路交叉口正西方向195米左右",
        "tel": "",
        "category": "基础设施:公共设施:公共厕所",
        "type": 0,
        "location": {
            "lat": 31.22329,
            "lng": 107.517016
        },
        "ad_info": {
            "adcode": 511702,
            "province": "四川省",
            "city": "达州市",
            "district": "通川区"
        }
    },
    {
        "id": "4557768468607730261",
        "title": "公共厕所",
        "address": "四川省达州市达川区达州客运南站2层",
        "tel": "",
        "category": "基础设施:公共设施:公共厕所",
        "type": 0,
        "location": {
            "lat": 31.191294,
            "lng": 107.516345
        },
        "ad_info": {
            "adcode": 511703,
            "province": "四川省",
            "city": "达州市",
            "district": "达川区"
        }
    },
    {
        "id": "352835598367879007",
        "title": "公共厕所",
        "address": "四川省达州市通川区西胜街与红旗路辅路交叉口西北40米",
        "tel": "",
        "category": "基础设施:公共设施:公共厕所",
        "type": 0,
        "location": {
            "lat": 31.213445,
            "lng": 107.494156
        },
        "ad_info": {
            "adcode": 511702,
            "province": "四川省",
            "city": "达州市",
            "district": "通川区"
        }
    },
    {
        "id": "16254219392695380513",
        "title": "公共厕所",
        "address": "四川省达州市通川区高家坝路649号",
        "tel": "",
        "category": "基础设施:公共设施:公共厕所",
        "type": 0,
        "location": {
            "lat": 31.262958,
            "lng": 107.526184
        },
        "ad_info": {
            "adcode": 511702,
            "province": "四川省",
            "city": "达州市",
            "district": "通川区"
        }
    },
    {
        "id": "5894949198854438344",
        "title": "公共厕所",
        "address": "四川省达州市达川区南滨路与南滨路二段交叉口东北方向27米左右",
        "tel": "",
        "category": "基础设施:公共设施:公共厕所",
        "type": 0,
        "location": {
            "lat": 31.207502,
            "lng": 107.507919
        },
        "ad_info": {
            "adcode": 511703,
            "province": "四川省",
            "city": "达州市",
            "district": "达川区"
        }
    },
    {
        "id": "9384059080082658462",
        "title": "公共厕所",
        "address": "四川省达州市大竹县东湖路与建设路交叉口西南方向143米左右",
        "tel": "",
        "category": "基础设施:公共设施:公共厕所",
        "type": 0,
        "location": {
            "lat": 30.727083,
            "lng": 107.213957
        },
        "ad_info": {
            "adcode": 511724,
            "province": "四川省",
            "city": "达州市",
            "district": "大竹县"
        }
    },
    {
        "id": "9827629253962146666",
        "title": "公共厕所",
        "address": "四川省达州市大竹县G318与迎宾路交叉口正西方向124米左右",
        "tel": "",
        "category": "基础设施:公共设施:公共厕所",
        "type": 0,
        "location": {
            "lat": 30.749847,
            "lng": 107.196089
        },
        "ad_info": {
            "adcode": 511724,
            "province": "四川省",
            "city": "达州市",
            "district": "大竹县"
        }
    },
    {
        "id": "16472162996557270001",
        "title": "公共厕所",
        "address": "四川省达州市渠县芳华街与西岩街交叉口东南方向64米左右",
        "tel": "",
        "category": "基础设施:公共设施:公共厕所",
        "type": 0,
        "location": {
            "lat": 30.837747,
            "lng": 106.96574
        },
        "ad_info": {
            "adcode": 511725,
            "province": "四川省",
            "city": "达州市",
            "district": "渠县"
        }
    },
    {
        "id": "9314968356975181017",
        "title": "公共厕所",
        "address": "四川省达州市达川区G542与S202交叉口正南方向212米左右",
        "tel": "",
        "category": "基础设施:公共设施:公共厕所",
        "type": 0,
        "location": {
            "lat": 31.121216,
            "lng": 107.593034
        },
        "ad_info": {
            "adcode": 511703,
            "province": "四川省",
            "city": "达州市",
            "district": "达川区"
        }
    },
    {
        "id": "11173888219333921927",
        "title": "公共卫生间",
        "address": "四川省达州市通川区大西街达欣苑",
        "tel": "",
        "category": "基础设施:公共设施:公共厕所",
        "type": 0,
        "location": {
            "lat": 31.210627,
            "lng": 107.496827
        },
        "ad_info": {
            "adcode": 511702,
            "province": "四川省",
            "city": "达州市",
            "district": "通川区"
        }
    },
    {
        "id": "13963548041791527491",
        "title": "公共厕所",
        "address": "四川省达州市通川区朝阳西路与金山顺街交叉口西南方向215米左右",
        "tel": "",
        "category": "基础设施:公共设施:公共厕所",
        "type": 0,
        "location": {
            "lat": 31.1975,
            "lng": 107.453117
        },
        "ad_info": {
            "adcode": 511702,
            "province": "四川省",
            "city": "达州市",
            "district": "通川区"
        }
    },
    {
        "id": "9919216336204793260",
        "title": "公共厕所",
        "address": "四川省达州市通川区南岳庙街与肖公庙路交叉口东南方向211米左右",
        "tel": "",
        "category": "基础设施:公共设施:公共厕所",
        "type": 0,
        "location": {
            "lat": 31.220901,
            "lng": 107.520346
        },
        "ad_info": {
            "adcode": 511702,
            "province": "四川省",
            "city": "达州市",
            "district": "通川区"
        }
    },
    {
        "id": "10654969302057753056",
        "title": "公共厕所",
        "address": "四川省达州市通川区凤凰大道西段与通商路交叉口西南方向99米左右",
        "tel": "",
        "category": "基础设施:公共设施:公共厕所",
        "type": 0,
        "location": {
            "lat": 31.21387,
            "lng": 107.438829
        },
        "ad_info": {
            "adcode": 511702,
            "province": "四川省",
            "city": "达州市",
            "district": "通川区"
        }
    },
    {
        "id": "6413405021504925948",
        "title": "公共厕所",
        "address": "四川省达州市达川区南滨路三段与南滨路交叉口正北方向80米左右",
        "tel": "",
        "category": "基础设施:公共设施:公共厕所",
        "type": 0,
        "location": {
            "lat": 31.21027,
            "lng": 107.48453
        },
        "ad_info": {
            "adcode": 511703,
            "province": "四川省",
            "city": "达州市",
            "district": "达川区"
        }
    },
    {
        "id": "4305905850158732864",
        "title": "公共厕所",
        "address": "四川省达州市大竹县云东大道与竹凤大道交叉口西南方向333米左右",
        "tel": "",
        "category": "基础设施:公共设施:公共厕所",
        "type": 0,
        "location": {
            "lat": 30.742094,
            "lng": 107.229469
        },
        "ad_info": {
            "adcode": 511724,
            "province": "四川省",
            "city": "达州市",
            "district": "大竹县"
        }
    },
    {
        "id": "16040245061479875074",
        "title": "公共厕所",
        "address": "四川省达州市达川区万福巷与石家湾路交叉口正北方向170米左右",
        "tel": "",
        "category": "基础设施:公共设施:公共厕所",
        "type": 0,
        "location": {
            "lat": 31.197995,
            "lng": 107.497802
        },
        "ad_info": {
            "adcode": 511703,
            "province": "四川省",
            "city": "达州市",
            "district": "达川区"
        }
    },
    {
        "id": "8347826667558376388",
        "title": "公共厕所",
        "address": "四川省达州市达川区七河路与达州绕城公路交叉口东北方向128米左右",
        "tel": "",
        "category": "基础设施:公共设施:公共厕所",
        "type": 0,
        "location": {
            "lat": 31.154749,
            "lng": 107.451303
        },
        "ad_info": {
            "adcode": 511703,
            "province": "四川省",
            "city": "达州市",
            "district": "达川区"
        }
    },
    {
        "id": "12416276213291471886",
        "title": "公共厕所",
        "address": "四川省达州市通川区大东街与柴市街交叉口西南方向56米左右",
        "tel": "",
        "category": "基础设施:公共设施:公共厕所",
        "type": 0,
        "location": {
            "lat": 31.208641,
            "lng": 107.500679
        },
        "ad_info": {
            "adcode": 511702,
            "province": "四川省",
            "city": "达州市",
            "district": "通川区"
        }
    },
    {
        "id": "7036902814162346836",
        "title": "公共厕所",
        "address": "四川省达州市通川区中心广场步行街与来凤路交叉口正西方向37米左右",
        "tel": "",
        "category": "基础设施:公共设施:公共厕所",
        "type": 0,
        "location": {
            "lat": 31.213569,
            "lng": 107.50221
        },
        "ad_info": {
            "adcode": 511702,
            "province": "四川省",
            "city": "达州市",
            "district": "通川区"
        }
    },
    {
        "id": "18126247478972594376",
        "title": "公共厕所",
        "address": "四川省达州市万源市怡和春熙步行街与红旗路交叉口东南方向29米左右",
        "tel": "",
        "category": "基础设施:公共设施:公共厕所",
        "type": 0,
        "location": {
            "lat": 32.067843,
            "lng": 108.040114
        },
        "ad_info": {
            "adcode": 511781,
            "province": "四川省",
            "city": "达州市",
            "district": "万源市"
        }
    },
    {
        "id": "7607424512740466432",
        "title": "公共厕所",
        "address": "四川省达州市通川区桑树巷与蒲草田巷交叉口西北方向94米左右",
        "tel": "",
        "category": "基础设施:公共设施:公共厕所",
        "type": 0,
        "location": {
            "lat": 31.214101,
            "lng": 107.497027
        },
        "ad_info": {
            "adcode": 511702,
            "province": "四川省",
            "city": "达州市",
            "district": "通川区"
        }
    },
    {
        "id": "1891972270414048484",
        "title": "公共厕所",
        "address": "四川省达州市万源市G65包茂高速与G65包茂高速入口交叉口东北500米",
        "tel": "",
        "category": "基础设施:公共设施:公共厕所",
        "type": 0,
        "location": {
            "lat": 32.054946,
            "lng": 108.067207
        },
        "ad_info": {
            "adcode": 511781,
            "province": "四川省",
            "city": "达州市",
            "district": "万源市"
        }
    },
    {
        "id": "11232535735578968924",
        "title": "公共厕所",
        "address": "四川省达州市达川区新木河路与金龙大道南二段交叉口正南方向295米左右",
        "tel": "",
        "category": "基础设施:公共设施:公共厕所",
        "type": 0,
        "location": {
            "lat": 31.143465,
            "lng": 107.464019
        },
        "ad_info": {
            "adcode": 511703,
            "province": "四川省",
            "city": "达州市",
            "district": "达川区"
        }
    },
    {
        "id": "973828096915305053",
        "title": "公共厕所",
        "address": "四川省达州市渠县渠江西路一段51号",
        "tel": "",
        "category": "基础设施:公共设施:公共厕所",
        "type": 0,
        "location": {
            "lat": 30.838382,
            "lng": 106.974619
        },
        "ad_info": {
            "adcode": 511725,
            "province": "四川省",
            "city": "达州市",
            "district": "渠县"
        }
    },
    {
        "id": "12933121316836065409",
        "title": "公共厕所",
        "address": "四川省达州市渠县渠州大道北段与融合街交叉口正南方向74米左右",
        "tel": "",
        "category": "基础设施:公共设施:公共厕所",
        "type": 0,
        "location": {
            "lat": 30.856692,
            "lng": 106.95779
        },
        "ad_info": {
            "adcode": 511725,
            "province": "四川省",
            "city": "达州市",
            "district": "渠县"
        }
    },
    {
        "id": "17284297132850979130",
        "title": "公共厕所",
        "address": "四川省达州市通川区龙泉路达州市体育中心",
        "tel": "",
        "category": "基础设施:公共设施:公共厕所",
        "type": 0,
        "location": {
            "lat": 31.220203,
            "lng": 107.475624
        },
        "ad_info": {
            "adcode": 511702,
            "province": "四川省",
            "city": "达州市",
            "district": "通川区"
        }
    },
    {
        "id": "8964360185466346324",
        "title": "公共厕所",
        "address": "四川省达州市大竹县学府路与滨河南路交叉口正南方向144米左右",
        "tel": "",
        "category": "基础设施:公共设施:公共厕所",
        "type": 0,
        "location": {
            "lat": 30.730468,
            "lng": 107.200012
        },
        "ad_info": {
            "adcode": 511724,
            "province": "四川省",
            "city": "达州市",
            "district": "大竹县"
        }
    },
    {
        "id": "12355975355499064753",
        "title": "公共厕所",
        "address": "四川省达州市渠县宕渠路中路与宕渠路南路交叉口正北方向185米左右",
        "tel": "",
        "category": "基础设施:公共设施:公共厕所",
        "type": 0,
        "location": {
            "lat": 30.838423,
            "lng": 106.979557
        },
        "ad_info": {
            "adcode": 511725,
            "province": "四川省",
            "city": "达州市",
            "district": "渠县"
        }
    },
    {
        "id": "5113707496217343222",
        "title": "005公共厕所",
        "address": "四川省达州市通川区来凤路通川区中医院",
        "tel": "",
        "category": "基础设施:公共设施:公共厕所",
        "type": 0,
        "location": {
            "lat": 31.213294,
            "lng": 107.502657
        },
        "ad_info": {
            "adcode": 511702,
            "province": "四川省",
            "city": "达州市",
            "district": "通川区"
        }
    },
    {
        "id": "1609287736637015623",
        "title": "公共厕所",
        "address": "四川省达州市渠县福盛路万兴广场(北侧)",
        "tel": "",
        "category": "基础设施:公共设施:公共厕所",
        "type": 0,
        "location": {
            "lat": 30.83293,
            "lng": 106.966439
        },
        "ad_info": {
            "adcode": 511725,
            "province": "四川省",
            "city": "达州市",
            "district": "渠县"
        }
    },
    {
        "id": "14072117138194981490",
        "title": "公共厕所",
        "address": "四川省达州市大竹县竹海路西段与观音阁街交叉口正北方向53米左右",
        "tel": "",
        "category": "基础设施:公共设施:公共厕所",
        "type": 0,
        "location": {
            "lat": 30.741052,
            "lng": 107.211624
        },
        "ad_info": {
            "adcode": 511724,
            "province": "四川省",
            "city": "达州市",
            "district": "大竹县"
        }
    },
    {
        "id": "4925229182888733790",
        "title": "公共厕所",
        "address": "四川省达州市渠县滨河西路与通济街交叉口西北方向39米左右",
        "tel": "",
        "category": "基础设施:公共设施:公共厕所",
        "type": 0,
        "location": {
            "lat": 30.835308,
            "lng": 106.97261
        },
        "ad_info": {
            "adcode": 511725,
            "province": "四川省",
            "city": "达州市",
            "district": "渠县"
        }
    },
    {
        "id": "3458151411802177069",
        "title": "公共厕所",
        "address": "四川省达州市通川区通川北路与野茅溪路交叉口西北方向269米左右",
        "tel": "",
        "category": "基础设施:公共设施:公共厕所",
        "type": 0,
        "location": {
            "lat": 31.222971,
            "lng": 107.514579
        },
        "ad_info": {
            "adcode": 511702,
            "province": "四川省",
            "city": "达州市",
            "district": "通川区"
        }
    },
    {
        "id": "15513799547439713506",
        "title": "公共厕所",
        "address": "四川省达州市达川区XS16与横街交叉口正西方向17米左右",
        "tel": "",
        "category": "基础设施:公共设施:公共厕所",
        "type": 0,
        "location": {
            "lat": 31.046337,
            "lng": 107.585669
        },
        "ad_info": {
            "adcode": 511703,
            "province": "四川省",
            "city": "达州市",
            "district": "达川区"
        }
    },
    {
        "id": "9038423482133336177",
        "title": "公共厕所",
        "address": "四川省达州市通川区金山顺街达州站",
        "tel": "",
        "category": "基础设施:公共设施:公共厕所",
        "type": 0,
        "location": {
            "lat": 31.199512,
            "lng": 107.454458
        },
        "ad_info": {
            "adcode": 511702,
            "province": "四川省",
            "city": "达州市",
            "district": "通川区"
        }
    },
    {
        "id": "11352751292664918460",
        "title": "公共厕所",
        "address": "四川省达州市渠县复兴街与春秋路交叉口正东方向84米左右",
        "tel": "",
        "category": "基础设施:公共设施:公共厕所",
        "type": 0,
        "location": {
            "lat": 30.830931,
            "lng": 106.965891
        },
        "ad_info": {
            "adcode": 511725,
            "province": "四川省",
            "city": "达州市",
            "district": "渠县"
        }
    },
    {
        "id": "8475839203300202099",
        "title": "公共卫生间",
        "address": "四川省达州市通川区通川北路与通惠路交叉口西北方向22米左右",
        "tel": "",
        "category": "基础设施:公共设施:公共厕所",
        "type": 0,
        "location": {
            "lat": 31.220096,
            "lng": 107.512977
        },
        "ad_info": {
            "adcode": 511702,
            "province": "四川省",
            "city": "达州市",
            "district": "通川区"
        }
    },
    {
        "id": "4630389718628683852",
        "title": "公共厕所",
        "address": "四川省达州市大竹县G210与庙坝街交叉口西南方向905米左右",
        "tel": "",
        "category": "基础设施:公共设施:公共厕所",
        "type": 0,
        "location": {
            "lat": 30.592197,
            "lng": 107.09524
        },
        "ad_info": {
            "adcode": 511724,
            "province": "四川省",
            "city": "达州市",
            "district": "大竹县"
        }
    },
    {
        "id": "15532272254762379460",
        "title": "公共厕所",
        "address": "四川省达州市达川区保险街与平安巷交叉口正南方向15米左右",
        "tel": "",
        "category": "基础设施:公共设施:公共厕所",
        "type": 0,
        "location": {
            "lat": 31.19548,
            "lng": 107.506633
        },
        "ad_info": {
            "adcode": 511703,
            "province": "四川省",
            "city": "达州市",
            "district": "达川区"
        }
    },
    {
        "id": "10568134435834080619",
        "title": "公共厕所",
        "address": "四川省达州市达川区文兴街巨林天下城-东区",
        "tel": "",
        "category": "基础设施:公共设施:公共厕所",
        "type": 0,
        "location": {
            "lat": 31.18506,
            "lng": 107.514729
        },
        "ad_info": {
            "adcode": 511703,
            "province": "四川省",
            "city": "达州市",
            "district": "达川区"
        }
    },
    {
        "id": "1607005601153261656",
        "title": "公共厕所",
        "address": "四川省达州市大竹县G318与迎宾路交叉口东南方向211米左右",
        "tel": "",
        "category": "基础设施:公共设施:公共厕所",
        "type": 0,
        "location": {
            "lat": 30.752609,
            "lng": 107.191681
        },
        "ad_info": {
            "adcode": 511724,
            "province": "四川省",
            "city": "达州市",
            "district": "大竹县"
        }
    },
    {
        "id": "7873094172243787554",
        "title": "公共厕所",
        "address": "四川省达州市通川区步行街与金山顺街交叉口正西方向24米左右",
        "tel": "",
        "category": "基础设施:公共设施:公共厕所",
        "type": 0,
        "location": {
            "lat": 31.199209,
            "lng": 107.45479
        },
        "ad_info": {
            "adcode": 511702,
            "province": "四川省",
            "city": "达州市",
            "district": "通川区"
        }
    },
    {
        "id": "3088532263933635027",
        "title": "公共厕所",
        "address": "四川省达州市万源市怡和春熙步行街与裕丰街交叉口正南方向35米左右",
        "tel": "",
        "category": "基础设施:公共设施:公共厕所",
        "type": 0,
        "location": {
            "lat": 32.068206,
            "lng": 108.0409
        },
        "ad_info": {
            "adcode": 511781,
            "province": "四川省",
            "city": "达州市",
            "district": "万源市"
        }
    },
    {
        "id": "17340819437904089289",
        "title": "公共厕所",
        "address": "四川省达州市大竹县一环路东段与一环路南段交叉口西南方向30米左右",
        "tel": "",
        "category": "基础设施:公共设施:公共厕所",
        "type": 0,
        "location": {
            "lat": 30.733672,
            "lng": 107.207046
        },
        "ad_info": {
            "adcode": 511724,
            "province": "四川省",
            "city": "达州市",
            "district": "大竹县"
        }
    },
    {
        "id": "13386057596620839502",
        "title": "公共厕所",
        "address": "四川省达州市开江县正北街与滨河东路交叉口正北方向48米左右",
        "tel": "",
        "category": "基础设施:公共设施:公共厕所",
        "type": 0,
        "location": {
            "lat": 31.085395,
            "lng": 107.871214
        },
        "ad_info": {
            "adcode": 511723,
            "province": "四川省",
            "city": "达州市",
            "district": "开江县"
        }
    },
    {
        "id": "14737812148975436318",
        "title": "公共厕所",
        "address": "四川省达州市开江县临滨街与滨水北路一段交叉口西北方向77米左右",
        "tel": "",
        "category": "基础设施:公共设施:公共厕所",
        "type": 0,
        "location": {
            "lat": 31.095136,
            "lng": 107.858823
        },
        "ad_info": {
            "adcode": 511723,
            "province": "四川省",
            "city": "达州市",
            "district": "开江县"
        }
    },
    {
        "id": "10232148086217494597",
        "title": "公共厕所",
        "address": "四川省达州市渠县和平街与胜利街交叉口正西方向25米左右",
        "tel": "",
        "category": "基础设施:公共设施:公共厕所",
        "type": 0,
        "location": {
            "lat": 30.837039,
            "lng": 106.971532
        },
        "ad_info": {
            "adcode": 511725,
            "province": "四川省",
            "city": "达州市",
            "district": "渠县"
        }
    },
    {
        "id": "15393183356235223800",
        "title": "公共厕所",
        "address": "四川省达州市渠县318国道南50米",
        "tel": "",
        "category": "基础设施:公共设施:公共厕所",
        "type": 0,
        "location": {
            "lat": 30.7667,
            "lng": 107.065438
        },
        "ad_info": {
            "adcode": 511725,
            "province": "四川省",
            "city": "达州市",
            "district": "渠县"
        }
    },
    {
        "id": "16003899708870266931",
        "title": "公共厕所",
        "address": "四川省达州市宣汉县万斛街与张家巷交叉口正西方向1491米左右",
        "tel": "",
        "category": "基础设施:公共设施:公共厕所",
        "type": 0,
        "location": {
            "lat": 31.583464,
            "lng": 108.173856
        },
        "ad_info": {
            "adcode": 511722,
            "province": "四川省",
            "city": "达州市",
            "district": "宣汉县"
        }
    },
    {
        "id": "5679325157582623116",
        "title": "公共厕所",
        "address": "四川省达州市渠县X167与Y632交叉口正南方向539米左右",
        "tel": "",
        "category": "基础设施:公共设施:公共厕所",
        "type": 0,
        "location": {
            "lat": 30.922798,
            "lng": 106.967365
        },
        "ad_info": {
            "adcode": 511725,
            "province": "四川省",
            "city": "达州市",
            "district": "渠县"
        }
    },
    {
        "id": "6745476175357686687",
        "title": "公共厕所",
        "address": "四川省达州市达川区惠安路与达川大道一段交叉口东北方向23米左右",
        "tel": "",
        "category": "基础设施:公共设施:公共厕所",
        "type": 0,
        "location": {
            "lat": 31.204621,
            "lng": 107.50912
        },
        "ad_info": {
            "adcode": 511703,
            "province": "四川省",
            "city": "达州市",
            "district": "达川区"
        }
    },
    {
        "id": "17020671677063910876",
        "title": "公共厕所",
        "address": "四川省达州市万源市福鑫大道与长征路交叉口西北方向121米左右",
        "tel": "",
        "category": "基础设施:公共设施:公共厕所",
        "type": 0,
        "location": {
            "lat": 32.063595,
            "lng": 108.032772
        },
        "ad_info": {
            "adcode": 511781,
            "province": "四川省",
            "city": "达州市",
            "district": "万源市"
        }
    },
    {
        "id": "8329165713779214305",
        "title": "公共厕所",
        "address": "四川省达州市大竹县G318与迎宾路交叉口东南方向127米左右",
        "tel": "",
        "category": "基础设施:公共设施:公共厕所",
        "type": 0,
        "location": {
            "lat": 30.753039,
            "lng": 107.190889
        },
        "ad_info": {
            "adcode": 511724,
            "province": "四川省",
            "city": "达州市",
            "district": "大竹县"
        }
    },
    {
        "id": "18394118484695625937",
        "title": "公共厕所",
        "address": "四川省达州市渠县204省道北50米",
        "tel": "",
        "category": "基础设施:公共设施:公共厕所",
        "type": 0,
        "location": {
            "lat": 30.975515,
            "lng": 106.830578
        },
        "ad_info": {
            "adcode": 511725,
            "province": "四川省",
            "city": "达州市",
            "district": "渠县"
        }
    },
    {
        "id": "1770417599720464560",
        "title": "公共厕所",
        "address": "四川省达州市宣汉县琦云北路与石岭大道交叉口西南方向65米左右",
        "tel": "",
        "category": "基础设施:公共设施:公共厕所",
        "type": 0,
        "location": {
            "lat": 31.360457,
            "lng": 107.706081
        },
        "ad_info": {
            "adcode": 511722,
            "province": "四川省",
            "city": "达州市",
            "district": "宣汉县"
        }
    },
    {
        "id": "17245241212560686733",
        "title": "公共厕所",
        "address": "四川省达州市万源市玉皇阁路与福鑫大道交叉口西南方向455米左右",
        "tel": "",
        "category": "基础设施:公共设施:公共厕所",
        "type": 0,
        "location": {
            "lat": 32.058722,
            "lng": 108.027315
        },
        "ad_info": {
            "adcode": 511781,
            "province": "四川省",
            "city": "达州市",
            "district": "万源市"
        }
    },
    {
        "id": "1882971742145462812",
        "title": "公共厕所",
        "address": "四川省达州市宣汉县后街与新街交叉口正北方向116米左右",
        "tel": "",
        "category": "基础设施:公共设施:公共厕所",
        "type": 0,
        "location": {
            "lat": 31.355251,
            "lng": 107.725327
        },
        "ad_info": {
            "adcode": 511722,
            "province": "四川省",
            "city": "达州市",
            "district": "宣汉县"
        }
    },
    {
        "id": "12317883957940772578",
        "title": "公共厕所",
        "address": "四川省达州市宣汉县新太路与谢生坝路交叉口正南方向1440米左右",
        "tel": "",
        "category": "基础设施:公共设施:公共厕所",
        "type": 0,
        "location": {
            "lat": 31.336767,
            "lng": 107.706356
        },
        "ad_info": {
            "adcode": 511722,
            "province": "四川省",
            "city": "达州市",
            "district": "宣汉县"
        }
    },
    {
        "id": "5641760981755999434",
        "title": "公共厕所",
        "address": "四川省达州市达川区保险街与达川大道二段交叉口正南方向24米左右",
        "tel": "",
        "category": "基础设施:公共设施:公共厕所",
        "type": 0,
        "location": {
            "lat": 31.197859,
            "lng": 107.502851
        },
        "ad_info": {
            "adcode": 511703,
            "province": "四川省",
            "city": "达州市",
            "district": "达川区"
        }
    },
    {
        "id": "13471730015280927783",
        "title": "公共厕所",
        "address": "四川省达州市渠县安北乡平桥村卫生室东北侧80米",
        "tel": "",
        "category": "基础设施:公共设施:公共厕所",
        "type": 0,
        "location": {
            "lat": 31.149196,
            "lng": 107.054842
        },
        "ad_info": {
            "adcode": 511725,
            "province": "四川省",
            "city": "达州市",
            "district": "渠县"
        }
    },
    {
        "id": "16988235448856637708",
        "title": "公共厕所",
        "address": "四川省达州市渠县八一街与和平街交叉口东南方向58米左右",
        "tel": "",
        "category": "基础设施:公共设施:公共厕所",
        "type": 0,
        "location": {
            "lat": 30.836483,
            "lng": 106.972332
        },
        "ad_info": {
            "adcode": 511725,
            "province": "四川省",
            "city": "达州市",
            "district": "渠县"
        }
    },
    {
        "id": "15247576436501375920",
        "title": "公共厕所",
        "address": "四川省达州市宣汉县学苑街与永安大道交叉口正南方向35米左右",
        "tel": "",
        "category": "基础设施:公共设施:公共厕所",
        "type": 0,
        "location": {
            "lat": 31.36114,
            "lng": 107.70354
        },
        "ad_info": {
            "adcode": 511722,
            "province": "四川省",
            "city": "达州市",
            "district": "宣汉县"
        }
    },
    {
        "id": "4007810620051100988",
        "title": "公共厕所",
        "address": "四川省达州市宣汉县新兴大道与滑山路交叉口西南方向102米左右",
        "tel": "",
        "category": "基础设施:公共设施:公共厕所",
        "type": 0,
        "location": {
            "lat": 31.54113,
            "lng": 107.656607
        },
        "ad_info": {
            "adcode": 511722,
            "province": "四川省",
            "city": "达州市",
            "district": "宣汉县"
        }
    },
    {
        "id": "7693190992379616397",
        "title": "公共厕所",
        "address": "四川省达州市宣汉县峨城南路337号",
        "tel": "",
        "category": "基础设施:公共设施:公共厕所",
        "type": 0,
        "location": {
            "lat": 31.252332,
            "lng": 107.751518
        },
        "ad_info": {
            "adcode": 511722,
            "province": "四川省",
            "city": "达州市",
            "district": "宣汉县"
        }
    },
    {
        "id": "6337645642593386404",
        "title": "公共厕所",
        "address": "四川省达州市大竹县G210与牌坊北街交叉口西南方向275米左右",
        "tel": "",
        "category": "基础设施:公共设施:公共厕所",
        "type": 0,
        "location": {
            "lat": 30.630737,
            "lng": 107.114534
        },
        "ad_info": {
            "adcode": 511724,
            "province": "四川省",
            "city": "达州市",
            "district": "大竹县"
        }
    },
    {
        "id": "6735108557324456014",
        "title": "公共厕所",
        "address": "四川省达州市宣汉县万白路与石化路西一段交叉口东北方向208米左右",
        "tel": "",
        "category": "基础设施:公共设施:公共厕所",
        "type": 0,
        "location": {
            "lat": 31.514407,
            "lng": 107.722035
        },
        "ad_info": {
            "adcode": 511722,
            "province": "四川省",
            "city": "达州市",
            "district": "宣汉县"
        }
    },
    {
        "id": "13228034782869438649",
        "title": "公共厕所",
        "address": "四川省达州市通川区来凤路与红旗路交叉口东南方向34米左右",
        "tel": "",
        "category": "基础设施:公共设施:公共厕所",
        "type": 0,
        "location": {
            "lat": 31.21486,
            "lng": 107.496582
        },
        "ad_info": {
            "adcode": 511702,
            "province": "四川省",
            "city": "达州市",
            "district": "通川区"
        }
    },
    {
        "id": "827597322095010485",
        "title": "公共厕所",
        "address": "四川省达州市渠县怡然居东南侧190米",
        "tel": "",
        "category": "基础设施:公共设施:公共厕所",
        "type": 0,
        "location": {
            "lat": 30.834394,
            "lng": 106.955489
        },
        "ad_info": {
            "adcode": 511725,
            "province": "四川省",
            "city": "达州市",
            "district": "渠县"
        }
    },
    {
        "id": "6210580848455662068",
        "title": "公共厕所",
        "address": "四川省达州市通川区金龙大道金利多·青华园",
        "tel": "",
        "category": "基础设施:公共设施:公共厕所",
        "type": 0,
        "location": {
            "lat": 31.219635,
            "lng": 107.465318
        },
        "ad_info": {
            "adcode": 511702,
            "province": "四川省",
            "city": "达州市",
            "district": "通川区"
        }
    },
    {
        "id": "15736762718416869619",
        "title": "公共厕所",
        "address": "四川省达州市渠县賨人大道与賨都大道东段交叉口东南方向143米左右",
        "tel": "",
        "category": "基础设施:公共设施:公共厕所",
        "type": 0,
        "location": {
            "lat": 30.799988,
            "lng": 106.999871
        },
        "ad_info": {
            "adcode": 511725,
            "province": "四川省",
            "city": "达州市",
            "district": "渠县"
        }
    },
    {
        "id": "14031120695022820275",
        "title": "公共厕所",
        "address": "四川省达州市通川区永安街达州市政府",
        "tel": "",
        "category": "基础设施:公共设施:公共厕所",
        "type": 0,
        "location": {
            "lat": 31.209723,
            "lng": 107.469622
        },
        "ad_info": {
            "adcode": 511702,
            "province": "四川省",
            "city": "达州市",
            "district": "通川区"
        }
    },
    {
        "id": "13440171116923716543",
        "title": "公共厕所",
        "address": "四川省达州市通川区小北巷与桑树巷交叉口东北方向25米左右",
        "tel": "",
        "category": "基础设施:公共设施:公共厕所",
        "type": 0,
        "location": {
            "lat": 31.214366,
            "lng": 107.498295
        },
        "ad_info": {
            "adcode": 511702,
            "province": "四川省",
            "city": "达州市",
            "district": "通川区"
        }
    },
    {
        "id": "9070696217768800002",
        "title": "公共厕所",
        "address": "四川省达州市通川区悦和街与龙泉路交叉口西南方向34米左右",
        "tel": "",
        "category": "基础设施:公共设施:公共厕所",
        "type": 0,
        "location": {
            "lat": 31.221197,
            "lng": 107.467104
        },
        "ad_info": {
            "adcode": 511702,
            "province": "四川省",
            "city": "达州市",
            "district": "通川区"
        }
    },
    {
        "id": "16777496862684688251",
        "title": "公共厕所",
        "address": "四川省达州市宣汉县X029与新桥街交叉口正南方向803米左右",
        "tel": "",
        "category": "基础设施:公共设施:公共厕所",
        "type": 0,
        "location": {
            "lat": 31.467825,
            "lng": 108.060586
        },
        "ad_info": {
            "adcode": 511722,
            "province": "四川省",
            "city": "达州市",
            "district": "宣汉县"
        }
    },
    {
        "id": "18025074314837101981",
        "title": "公共厕所",
        "address": "四川省达州市宣汉县X029与新桥街交叉口正北方向397米左右",
        "tel": "",
        "category": "基础设施:公共设施:公共厕所",
        "type": 0,
        "location": {
            "lat": 31.47842,
            "lng": 108.06312
        },
        "ad_info": {
            "adcode": 511722,
            "province": "四川省",
            "city": "达州市",
            "district": "宣汉县"
        }
    },
    {
        "id": "2178682750531495790",
        "title": "公共厕所",
        "address": "四川省达州市通川区文化北巷与文化巷交叉口正西方向33米左右",
        "tel": "",
        "category": "基础设施:公共设施:公共厕所",
        "type": 0,
        "location": {
            "lat": 31.21723,
            "lng": 107.499138
        },
        "ad_info": {
            "adcode": 511702,
            "province": "四川省",
            "city": "达州市",
            "district": "通川区"
        }
    },
    {
        "id": "5027954143216169014",
        "title": "公共厕所",
        "address": "四川省达州市通川区体育路与凤凰大道交叉口正南方向62米左右",
        "tel": "",
        "category": "基础设施:公共设施:公共厕所",
        "type": 0,
        "location": {
            "lat": 31.216115,
            "lng": 107.470804
        },
        "ad_info": {
            "adcode": 511702,
            "province": "四川省",
            "city": "达州市",
            "district": "通川区"
        }
    },
    {
        "id": "3926757292234476754",
        "title": "公共厕所",
        "address": "四川省达州市开江县S102与任新街交叉口西南方向123米左右",
        "tel": "",
        "category": "基础设施:公共设施:公共厕所",
        "type": 0,
        "location": {
            "lat": 30.892694,
            "lng": 107.782149
        },
        "ad_info": {
            "adcode": 511723,
            "province": "四川省",
            "city": "达州市",
            "district": "开江县"
        }
    },
    {
        "id": "6758292470274198757",
        "title": "公共厕所",
        "address": "四川省达州市开江县G542与X169交叉口正西方向126米左右",
        "tel": "",
        "category": "基础设施:公共设施:公共厕所",
        "type": 0,
        "location": {
            "lat": 31.109069,
            "lng": 107.810205
        },
        "ad_info": {
            "adcode": 511723,
            "province": "四川省",
            "city": "达州市",
            "district": "开江县"
        }
    },
    {
        "id": "9186148905892008866",
        "title": "公共厕所",
        "address": "四川省达州市开江县X028与新街交叉口正东方向190米左右",
        "tel": "",
        "category": "基础设施:公共设施:公共厕所",
        "type": 0,
        "location": {
            "lat": 31.097522,
            "lng": 107.837156
        },
        "ad_info": {
            "adcode": 511723,
            "province": "四川省",
            "city": "达州市",
            "district": "开江县"
        }
    },
    {
        "id": "6274071157050064571",
        "title": "公共厕所",
        "address": "四川省达州市大竹县竹阳北路90号",
        "tel": "",
        "category": "基础设施:公共设施:公共厕所",
        "type": 0,
        "location": {
            "lat": 30.734409,
            "lng": 107.211784
        },
        "ad_info": {
            "adcode": 511724,
            "province": "四川省",
            "city": "达州市",
            "district": "大竹县"
        }
    },
    {
        "id": "5552574086681570574",
        "title": "公共厕所",
        "address": "四川省达州市宣汉县解放北路196号",
        "tel": "",
        "category": "基础设施:公共设施:公共厕所",
        "type": 0,
        "location": {
            "lat": 31.358724,
            "lng": 107.721273
        },
        "ad_info": {
            "adcode": 511722,
            "province": "四川省",
            "city": "达州市",
            "district": "宣汉县"
        }
    },
    {
        "id": "16772587968535222632",
        "title": "公共厕所",
        "address": "四川省达州市宣汉县滨河路与琦云南路交叉口正东方向86米左右",
        "tel": "",
        "category": "基础设施:公共设施:公共厕所",
        "type": 0,
        "location": {
            "lat": 31.35432,
            "lng": 107.709044
        },
        "ad_info": {
            "adcode": 511722,
            "province": "四川省",
            "city": "达州市",
            "district": "宣汉县"
        }
    },
    {
        "id": "5444871235759910251",
        "title": "公共厕所",
        "address": "四川省达州市通川区柴市街71号",
        "tel": "",
        "category": "基础设施:公共设施:公共厕所",
        "type": 0,
        "location": {
            "lat": 31.210276,
            "lng": 107.501718
        },
        "ad_info": {
            "adcode": 511702,
            "province": "四川省",
            "city": "达州市",
            "district": "通川区"
        }
    },
    {
        "id": "13916704313326890983",
        "title": "管村服务区公共厕所",
        "address": "四川省达州市达川区S26达阆高速与管村服务区交叉口西360米",
        "tel": "",
        "category": "基础设施:公共设施:公共厕所",
        "type": 0,
        "location": {
            "lat": 31.151807,
            "lng": 107.257053
        },
        "ad_info": {
            "adcode": 511703,
            "province": "四川省",
            "city": "达州市",
            "district": "达川区"
        }
    },
    {
        "id": "11336786471492604276",
        "title": "鸿运华都公共厕所",
        "address": "四川省达州市万源市驮山南路109号",
        "tel": "",
        "category": "基础设施:公共设施:公共厕所",
        "type": 0,
        "location": {
            "lat": 32.067779,
            "lng": 108.046083
        },
        "ad_info": {
            "adcode": 511781,
            "province": "四川省",
            "city": "达州市",
            "district": "万源市"
        }
    },
    {
        "id": "14747585136231959693",
        "title": "公共厕所",
        "address": "四川省达州市开江县双牛路与宝石路交叉口正南方向20米左右",
        "tel": "",
        "category": "基础设施:公共设施:公共厕所",
        "type": 0,
        "location": {
            "lat": 31.091577,
            "lng": 107.863402
        },
        "ad_info": {
            "adcode": 511723,
            "province": "四川省",
            "city": "达州市",
            "district": "开江县"
        }
    },
    {
        "id": "9149929921757027492",
        "title": "私人厕所",
        "address": "四川省达州市通川区大北街与小北巷交叉口正南方向37米左右",
        "tel": "",
        "category": "基础设施:公共设施:公共厕所",
        "type": 0,
        "location": {
            "lat": 31.21293,
            "lng": 107.50009
        },
        "ad_info": {
            "adcode": 511702,
            "province": "四川省",
            "city": "达州市",
            "district": "通川区"
        }
    },
    {
        "id": "464380917466835278",
        "title": "公共厕所",
        "address": "四川省达州市宣汉县巴山大峡谷大象洞景区西南侧",
        "tel": "",
        "category": "基础设施:公共设施:公共厕所",
        "type": 0,
        "location": {
            "lat": 31.661752,
            "lng": 108.294942
        },
        "ad_info": {
            "adcode": 511722,
            "province": "四川省",
            "city": "达州市",
            "district": "宣汉县"
        }
    },
    {
        "id": "7749919327917568894",
        "title": "达州西服务区公共厕所",
        "address": "四川省达州市通川区恩广高速附近",
        "tel": "",
        "category": "基础设施:公共设施:公共厕所",
        "type": 0,
        "location": {
            "lat": 31.365468,
            "lng": 107.48645
        },
        "ad_info": {
            "adcode": 511702,
            "province": "四川省",
            "city": "达州市",
            "district": "通川区"
        }
    },
    {
        "id": "13003145198557001909",
        "title": "大竹服务区公共厕所",
        "address": "四川省达州市大竹县G318与周家作坊中桥交叉口西北方向175米左右",
        "tel": "",
        "category": "基础设施:公共设施:公共厕所",
        "type": 0,
        "location": {
            "lat": 30.726279,
            "lng": 107.188333
        },
        "ad_info": {
            "adcode": 511724,
            "province": "四川省",
            "city": "达州市",
            "district": "大竹县"
        }
    },
    {
        "id": "3625508595051923009",
        "title": "渠县服务区公共厕所",
        "address": "四川省达州市渠县X167与Y632交叉口西南方向1773米左右",
        "tel": "",
        "category": "基础设施:公共设施:公共厕所",
        "type": 0,
        "location": {
            "lat": 30.913003,
            "lng": 106.958307
        },
        "ad_info": {
            "adcode": 511725,
            "province": "四川省",
            "city": "达州市",
            "district": "渠县"
        }
    },
    {
        "id": "15012662098261009393",
        "title": "华景镇旅游公共厕所",
        "address": "四川省达州市宣汉县X029与平溪口桥交叉口正南方向1143米左右",
        "tel": "",
        "category": "基础设施:公共设施:公共厕所",
        "type": 0,
        "location": {
            "lat": 31.565464,
            "lng": 108.118034
        },
        "ad_info": {
            "adcode": 511722,
            "province": "四川省",
            "city": "达州市",
            "district": "宣汉县"
        }
    },
    {
        "id": "9216492702807961971",
        "title": "万源南服务区公共厕所",
        "address": "四川省达州市万源市G65包茂高速与万源南服务区交叉口西南240米",
        "tel": "",
        "category": "基础设施:公共设施:公共厕所",
        "type": 0,
        "location": {
            "lat": 31.850856,
            "lng": 108.081787
        },
        "ad_info": {
            "adcode": 511781,
            "province": "四川省",
            "city": "达州市",
            "district": "万源市"
        }
    },
    {
        "id": "9666195908477232083",
        "title": "达州北服务区第二公共厕所",
        "address": "四川省达州市宣汉县Y307与魏王公路交叉口正北方向943米左右",
        "tel": "",
        "category": "基础设施:公共设施:公共厕所",
        "type": 0,
        "location": {
            "lat": 31.39999,
            "lng": 107.630134
        },
        "ad_info": {
            "adcode": 511722,
            "province": "四川省",
            "city": "达州市",
            "district": "宣汉县"
        }
    },
    {
        "id": "3456058208862691131",
        "title": "达州北服务区公共厕所",
        "address": "四川省达州市宣汉县达州北服务区与G65包茂高速交叉口北150米",
        "tel": "",
        "category": "基础设施:公共设施:公共厕所",
        "type": 0,
        "location": {
            "lat": 31.400644,
            "lng": 107.627567
        },
        "ad_info": {
            "adcode": 511722,
            "province": "四川省",
            "city": "达州市",
            "district": "宣汉县"
        }
    },
    {
        "id": "12728389110744949365",
        "title": "达州北服务区第一公共厕所",
        "address": "四川省达州市宣汉县Y307与魏王公路交叉口正北方向895米左右",
        "tel": "",
        "category": "基础设施:公共设施:公共厕所",
        "type": 0,
        "location": {
            "lat": 31.399487,
            "lng": 107.629907
        },
        "ad_info": {
            "adcode": 511722,
            "province": "四川省",
            "city": "达州市",
            "district": "宣汉县"
        }
    },
    {
        "id": "18254203260496051458",
        "title": "公共厕所",
        "address": "四川省达州市大竹县荷花池巷163号",
        "tel": "",
        "category": "基础设施:公共设施:公共厕所",
        "type": 0,
        "location": {
            "lat": 30.73211,
            "lng": 107.207077
        },
        "ad_info": {
            "adcode": 511724,
            "province": "四川省",
            "city": "达州市",
            "district": "大竹县"
        }
    },
    {
        "id": "1865845461207291092",
        "title": "公共厕所",
        "address": "四川省达州市渠县八一街与解放街交叉口正北方向231米左右",
        "tel": "",
        "category": "基础设施:公共设施:公共厕所",
        "type": 0,
        "location": {
            "lat": 30.840933,
            "lng": 106.973003
        },
        "ad_info": {
            "adcode": 511725,
            "province": "四川省",
            "city": "达州市",
            "district": "渠县"
        }
    },
    {
        "id": "2279697452572326330",
        "title": "公共厕所",
        "address": "四川省达州市达川区斌郎公园西侧170米",
        "tel": "",
        "category": "基础设施:公共设施:公共厕所",
        "type": 0,
        "location": {
            "lat": 31.094287,
            "lng": 107.48577
        },
        "ad_info": {
            "adcode": 511703,
            "province": "四川省",
            "city": "达州市",
            "district": "达川区"
        }
    },
    {
        "id": "13418191306616846685",
        "title": "公共厕所",
        "address": "四川省达州市大竹县滨河北路与黄滩路交叉口正北方向101米左右",
        "tel": "",
        "category": "基础设施:公共设施:公共厕所",
        "type": 0,
        "location": {
            "lat": 30.753235,
            "lng": 107.207697
        },
        "ad_info": {
            "adcode": 511724,
            "province": "四川省",
            "city": "达州市",
            "district": "大竹县"
        }
    },
    {
        "id": "7267219498364404670",
        "title": "公共厕所",
        "address": "四川省达州市通川区马家沟路与黑沟路交叉口正南方向164米左右",
        "tel": "",
        "category": "基础设施:公共设施:公共厕所",
        "type": 0,
        "location": {
            "lat": 31.218347,
            "lng": 107.493309
        },
        "ad_info": {
            "adcode": 511702,
            "province": "四川省",
            "city": "达州市",
            "district": "通川区"
        }
    },
    {
        "id": "17688622051491617460",
        "title": "公共厕所",
        "address": "四川省达州市达川区南滨路与和祥街交叉口正北方向38米左右",
        "tel": "",
        "category": "基础设施:公共设施:公共厕所",
        "type": 0,
        "location": {
            "lat": 31.207734,
            "lng": 107.508213
        },
        "ad_info": {
            "adcode": 511703,
            "province": "四川省",
            "city": "达州市",
            "district": "达川区"
        }
    },
    {
        "id": "17423842553087664103",
        "title": "公共厕所",
        "address": "四川省达州市通川区人民公园与通川中路交叉口东北方向52米左右",
        "tel": "",
        "category": "基础设施:公共设施:公共厕所",
        "type": 0,
        "location": {
            "lat": 31.213299,
            "lng": 107.504762
        },
        "ad_info": {
            "adcode": 511702,
            "province": "四川省",
            "city": "达州市",
            "district": "通川区"
        }
    },
    {
        "id": "5803309703276521788",
        "title": "公共厕所",
        "address": "四川省达州市大竹县Y511与竹庞路交叉口正东方向911米左右",
        "tel": "",
        "category": "基础设施:公共设施:公共厕所",
        "type": 0,
        "location": {
            "lat": 30.943273,
            "lng": 107.246704
        },
        "ad_info": {
            "adcode": 511724,
            "province": "四川省",
            "city": "达州市",
            "district": "大竹县"
        }
    },
    {
        "id": "12853764547638769049",
        "title": "公共厕所",
        "address": "四川省达州市大竹县东大街与紫荆桥巷交叉口正北方向41米左右",
        "tel": "",
        "category": "基础设施:公共设施:公共厕所",
        "type": 0,
        "location": {
            "lat": 30.734705,
            "lng": 107.209482
        },
        "ad_info": {
            "adcode": 511724,
            "province": "四川省",
            "city": "达州市",
            "district": "大竹县"
        }
    },
    {
        "id": "11584457014667511332",
        "title": "公共厕所",
        "address": "四川省达州市达川区经开大道与长田大道中段交叉口正北方向137米左右",
        "tel": "",
        "category": "基础设施:公共设施:公共厕所",
        "type": 0,
        "location": {
            "lat": 31.167377,
            "lng": 107.479686
        },
        "ad_info": {
            "adcode": 511703,
            "province": "四川省",
            "city": "达州市",
            "district": "达川区"
        }
    },
    {
        "id": "3034035291537313868",
        "title": "公共厕所",
        "address": "四川省达州市渠县南大街与春风街交叉口正南方向56米左右",
        "tel": "",
        "category": "基础设施:公共设施:公共厕所",
        "type": 0,
        "location": {
            "lat": 30.831366,
            "lng": 106.970975
        },
        "ad_info": {
            "adcode": 511725,
            "province": "四川省",
            "city": "达州市",
            "district": "渠县"
        }
    },
    {
        "id": "13922502559610128831",
        "title": "公共卫生间",
        "address": "四川省达州市达川区石家湾路恒大青年城",
        "tel": "",
        "category": "基础设施:公共设施:公共厕所",
        "type": 0,
        "location": {
            "lat": 31.196109,
            "lng": 107.500145
        },
        "ad_info": {
            "adcode": 511703,
            "province": "四川省",
            "city": "达州市",
            "district": "达川区"
        }
    },
    {
        "id": "9862131763305274196",
        "title": "公共厕所",
        "address": "四川省达州市渠县后溪街与志远街交叉口正南方向31米左右",
        "tel": "",
        "category": "基础设施:公共设施:公共厕所",
        "type": 0,
        "location": {
            "lat": 30.83594,
            "lng": 106.969977
        },
        "ad_info": {
            "adcode": 511725,
            "province": "四川省",
            "city": "达州市",
            "district": "渠县"
        }
    },
    {
        "id": "6680382844129017772",
        "title": "公共厕所",
        "address": "四川省达州市通川区体育路达州市体育中心",
        "tel": "",
        "category": "基础设施:公共设施:公共厕所",
        "type": 0,
        "location": {
            "lat": 31.217678,
            "lng": 107.47233
        },
        "ad_info": {
            "adcode": 511702,
            "province": "四川省",
            "city": "达州市",
            "district": "通川区"
        }
    },
    {
        "id": "237576569706645127",
        "title": "公共厕所",
        "address": "四川省达州市达川区南滨路三段与南滨路二段交叉口正东方向60米左右",
        "tel": "",
        "category": "基础设施:公共设施:公共厕所",
        "type": 0,
        "location": {
            "lat": 31.204247,
            "lng": 107.501237
        },
        "ad_info": {
            "adcode": 511703,
            "province": "四川省",
            "city": "达州市",
            "district": "达川区"
        }
    },
    {
        "id": "6782506104371837188",
        "title": "公共厕所",
        "address": "四川省达州市通川区二马路与滨河东路交叉口西南方向33米左右",
        "tel": "",
        "category": "基础设施:公共设施:公共厕所",
        "type": 0,
        "location": {
            "lat": 31.210208,
            "lng": 107.508342
        },
        "ad_info": {
            "adcode": 511702,
            "province": "四川省",
            "city": "达州市",
            "district": "通川区"
        }
    },
    {
        "id": "12265097266804742479",
        "title": "公共厕所",
        "address": "四川省达州市大竹县一环路西段9号",
        "tel": "",
        "category": "基础设施:公共设施:公共厕所",
        "type": 0,
        "location": {
            "lat": 30.7332,
            "lng": 107.203244
        },
        "ad_info": {
            "adcode": 511724,
            "province": "四川省",
            "city": "达州市",
            "district": "大竹县"
        }
    },
    {
        "id": "14002069289899038521",
        "title": "公共厕所",
        "address": "四川省达州市渠县叶家巷与四合街交叉口东南方向276米左右",
        "tel": "",
        "category": "基础设施:公共设施:公共厕所",
        "type": 0,
        "location": {
            "lat": 30.841527,
            "lng": 106.973437
        },
        "ad_info": {
            "adcode": 511725,
            "province": "四川省",
            "city": "达州市",
            "district": "渠县"
        }
    },
    {
        "id": "10983676655692920473",
        "title": "公共厕所",
        "address": "四川省达州市通川区文华街与荷叶街交叉口正西方向81米左右",
        "tel": "",
        "category": "基础设施:公共设施:公共厕所",
        "type": 0,
        "location": {
            "lat": 31.211328,
            "lng": 107.500927
        },
        "ad_info": {
            "adcode": 511702,
            "province": "四川省",
            "city": "达州市",
            "district": "通川区"
        }
    },
    {
        "id": "12290072292341047985",
        "title": "公共厕所",
        "address": "四川省达州市万源市将军大道与祥和街交叉口正西方向72米左右",
        "tel": "",
        "category": "基础设施:公共设施:公共厕所",
        "type": 0,
        "location": {
            "lat": 32.077203,
            "lng": 108.035581
        },
        "ad_info": {
            "adcode": 511781,
            "province": "四川省",
            "city": "达州市",
            "district": "万源市"
        }
    },
    {
        "id": "7878281189916674771",
        "title": "公共厕所",
        "address": "四川省达州市万源市万白路与裕丰街交叉口正北方向18米左右",
        "tel": "",
        "category": "基础设施:公共设施:公共厕所",
        "type": 0,
        "location": {
            "lat": 32.066465,
            "lng": 108.043414
        },
        "ad_info": {
            "adcode": 511781,
            "province": "四川省",
            "city": "达州市",
            "district": "万源市"
        }
    },
    {
        "id": "13604520321949097684",
        "title": "公共厕所",
        "address": "四川省达州市通川区永祥街与金龙大道辅路交叉口东北方向13米左右",
        "tel": "",
        "category": "基础设施:公共设施:公共厕所",
        "type": 0,
        "location": {
            "lat": 31.211145,
            "lng": 107.464832
        },
        "ad_info": {
            "adcode": 511702,
            "province": "四川省",
            "city": "达州市",
            "district": "通川区"
        }
    },
    {
        "id": "16564340006997683935",
        "title": "公共厕所",
        "address": "四川省达州市万源市裕丰街与阳光花园步行街交叉口西南方向49米左右",
        "tel": "",
        "category": "基础设施:公共设施:公共厕所",
        "type": 0,
        "location": {
            "lat": 32.06901,
            "lng": 108.039846
        },
        "ad_info": {
            "adcode": 511781,
            "province": "四川省",
            "city": "达州市",
            "district": "万源市"
        }
    },
    {
        "id": "12712238861814041300",
        "title": "公共厕所",
        "address": "四川省达州市达川区南滨大厦西侧90米",
        "tel": "",
        "category": "基础设施:公共设施:公共厕所",
        "type": 0,
        "location": {
            "lat": 31.21155,
            "lng": 107.515582
        },
        "ad_info": {
            "adcode": 511703,
            "province": "四川省",
            "city": "达州市",
            "district": "达川区"
        }
    },
    {
        "id": "90753008594056617",
        "title": "公共厕所",
        "address": "四川省达州市大竹县北大街与精品市场街交叉口东北方向100米左右",
        "tel": "",
        "category": "基础设施:公共设施:公共厕所",
        "type": 0,
        "location": {
            "lat": 30.739494,
            "lng": 107.208231
        },
        "ad_info": {
            "adcode": 511724,
            "province": "四川省",
            "city": "达州市",
            "district": "大竹县"
        }
    },
    {
        "id": "11370099867666847488",
        "title": "公共卫生间",
        "address": "四川省达州市万源市万兴路玉龙苑",
        "tel": "",
        "category": "基础设施:公共设施:公共厕所",
        "type": 0,
        "location": {
            "lat": 32.082379,
            "lng": 108.03666
        },
        "ad_info": {
            "adcode": 511781,
            "province": "四川省",
            "city": "达州市",
            "district": "万源市"
        }
    },
    {
        "id": "11890161060041112410",
        "title": "公共厕所",
        "address": "四川省达州市渠县G318与S203交叉口西北方向206米左右",
        "tel": "",
        "category": "基础设施:公共设施:公共厕所",
        "type": 0,
        "location": {
            "lat": 30.781059,
            "lng": 107.030461
        },
        "ad_info": {
            "adcode": 511725,
            "province": "四川省",
            "city": "达州市",
            "district": "渠县"
        }
    },
    {
        "id": "6045467087525566025",
        "title": "大竹服务区公共厕所",
        "address": "四川省达州市大竹县G65包茂高速与大竹服务区交叉口西北240米",
        "tel": "",
        "category": "基础设施:公共设施:公共厕所",
        "type": 0,
        "location": {
            "lat": 30.726945,
            "lng": 107.186076
        },
        "ad_info": {
            "adcode": 511724,
            "province": "四川省",
            "city": "达州市",
            "district": "大竹县"
        }
    },
    {
        "id": "15041914495024673525",
        "title": "公共厕所",
        "address": "四川省达州市开江县金山大道中国石油(开江县公路运输管理所西北)",
        "tel": "",
        "category": "基础设施:公共设施:公共厕所",
        "type": 0,
        "location": {
            "lat": 31.089362,
            "lng": 107.855156
        },
        "ad_info": {
            "adcode": 511723,
            "province": "四川省",
            "city": "达州市",
            "district": "开江县"
        }
    },
    {
        "id": "10017794301210470797",
        "title": "公共厕所",
        "address": "四川省达州市大竹县G318与竹阳南路交叉口正北方向378米左右",
        "tel": "",
        "category": "基础设施:公共设施:公共厕所",
        "type": 0,
        "location": {
            "lat": 30.714989,
            "lng": 107.203717
        },
        "ad_info": {
            "adcode": 511724,
            "province": "四川省",
            "city": "达州市",
            "district": "大竹县"
        }
    },
    {
        "id": "8046674727427278608",
        "title": "公共厕所",
        "address": "四川省达州市宣汉县八庙河大桥与杨河路交叉口东北方向957米左右",
        "tel": "",
        "category": "基础设施:公共设施:公共厕所",
        "type": 0,
        "location": {
            "lat": 31.326612,
            "lng": 107.649669
        },
        "ad_info": {
            "adcode": 511722,
            "province": "四川省",
            "city": "达州市",
            "district": "宣汉县"
        }
    },
    {
        "id": "10357555456755278185",
        "title": "公共厕所",
        "address": "四川省达州市通川区朝阳巷与来凤路交叉口西北方向31米左右",
        "tel": "",
        "category": "基础设施:公共设施:公共厕所",
        "type": 0,
        "location": {
            "lat": 31.215161,
            "lng": 107.500097
        },
        "ad_info": {
            "adcode": 511702,
            "province": "四川省",
            "city": "达州市",
            "district": "通川区"
        }
    },
    {
        "id": "10281372818525418411",
        "title": "公共厕所",
        "address": "四川省达州市达川区南大街与大兴街交叉口东南方向60米左右",
        "tel": "",
        "category": "基础设施:公共设施:公共厕所",
        "type": 0,
        "location": {
            "lat": 31.13407,
            "lng": 107.43249
        },
        "ad_info": {
            "adcode": 511703,
            "province": "四川省",
            "city": "达州市",
            "district": "达川区"
        }
    },
    {
        "id": "17831338372540304856",
        "title": "公共厕所",
        "address": "四川省达州市通川区裕溪街与黄马湾路交叉口东南方向29米左右",
        "tel": "",
        "category": "基础设施:公共设施:公共厕所",
        "type": 0,
        "location": {
            "lat": 31.216648,
            "lng": 107.514228
        },
        "ad_info": {
            "adcode": 511702,
            "province": "四川省",
            "city": "达州市",
            "district": "通川区"
        }
    },
    {
        "id": "13363401150659886184",
        "title": "大竹服务区公共厕所",
        "address": "四川省达州市大竹县张南高速大竹服务区",
        "tel": "",
        "category": "基础设施:公共设施:公共厕所",
        "type": 0,
        "location": {
            "lat": 30.789903,
            "lng": 107.454742
        },
        "ad_info": {
            "adcode": 511724,
            "province": "四川省",
            "city": "达州市",
            "district": "大竹县"
        }
    },
    {
        "id": "5673995996854998260",
        "title": "公共厕所",
        "address": "四川省达州市大竹县凤竹路与滨河北路交叉口正北方向63米左右",
        "tel": "",
        "category": "基础设施:公共设施:公共厕所",
        "type": 0,
        "location": {
            "lat": 30.745371,
            "lng": 107.207702
        },
        "ad_info": {
            "adcode": 511724,
            "province": "四川省",
            "city": "达州市",
            "district": "大竹县"
        }
    },
    {
        "id": "8039916838882738153",
        "title": "公共厕所",
        "address": "四川省达州市大竹县G318与迎宾路交叉口正西方向134米左右",
        "tel": "",
        "category": "基础设施:公共设施:公共厕所",
        "type": 0,
        "location": {
            "lat": 30.749515,
            "lng": 107.195946
        },
        "ad_info": {
            "adcode": 511724,
            "province": "四川省",
            "city": "达州市",
            "district": "大竹县"
        }
    },
    {
        "id": "13908786427027368996",
        "title": "达州北服务区第二公共厕所",
        "address": "四川省达州市宣汉县达州北服务区与G65包茂高速交叉口东北160米",
        "tel": "",
        "category": "基础设施:公共设施:公共厕所",
        "type": 0,
        "location": {
            "lat": 31.40035,
            "lng": 107.627456
        },
        "ad_info": {
            "adcode": 511722,
            "province": "四川省",
            "city": "达州市",
            "district": "宣汉县"
        }
    },
    {
        "id": "34178130208216788",
        "title": "公共厕所",
        "address": "四川省达州市渠县賨人大道与賨都大道东段交叉口东南方向164米左右",
        "tel": "",
        "category": "基础设施:公共设施:公共厕所",
        "type": 0,
        "location": {
            "lat": 30.799751,
            "lng": 106.999823
        },
        "ad_info": {
            "adcode": 511725,
            "province": "四川省",
            "city": "达州市",
            "district": "渠县"
        }
    },
    {
        "id": "17060000181847146211",
        "title": "公共厕所",
        "address": "四川省达州市宣汉县小吴汽车修理店东北侧50米",
        "tel": "",
        "category": "基础设施:公共设施:公共厕所",
        "type": 0,
        "location": {
            "lat": 31.346625,
            "lng": 107.953464
        },
        "ad_info": {
            "adcode": 511722,
            "province": "四川省",
            "city": "达州市",
            "district": "宣汉县"
        }
    },
    {
        "id": "6558998857677268931",
        "title": "公共厕所",
        "address": "四川省达州市通川区朝阳中路460号",
        "tel": "",
        "category": "基础设施:公共设施:公共厕所",
        "type": 0,
        "location": {
            "lat": 31.203207,
            "lng": 107.477555
        },
        "ad_info": {
            "adcode": 511702,
            "province": "四川省",
            "city": "达州市",
            "district": "通川区"
        }
    },
    {
        "id": "1448654104752878350",
        "title": "公共厕所",
        "address": "四川省达州市通川区东城壕巷与观草巷交叉口西南方向29米左右",
        "tel": "",
        "category": "基础设施:公共设施:公共厕所",
        "type": 0,
        "location": {
            "lat": 31.208387,
            "lng": 107.499537
        },
        "ad_info": {
            "adcode": 511702,
            "province": "四川省",
            "city": "达州市",
            "district": "通川区"
        }
    },
    {
        "id": "9531819050330975537",
        "title": "公共厕所",
        "address": "四川省达州市渠县华中路与后溪街交叉口正南方向96米左右",
        "tel": "",
        "category": "基础设施:公共设施:公共厕所",
        "type": 0,
        "location": {
            "lat": 30.83777,
            "lng": 106.968575
        },
        "ad_info": {
            "adcode": 511725,
            "province": "四川省",
            "city": "达州市",
            "district": "渠县"
        }
    },
    {
        "id": "15979761432528838304",
        "title": "公共厕所",
        "address": "四川省达州市万源市罗通路东50米",
        "tel": "",
        "category": "基础设施:公共设施:公共厕所",
        "type": 0,
        "location": {
            "lat": 31.871288,
            "lng": 107.69288
        },
        "ad_info": {
            "adcode": 511781,
            "province": "四川省",
            "city": "达州市",
            "district": "万源市"
        }
    },
    {
        "id": "6143680859833324242",
        "title": "公共厕所",
        "address": "四川省达州市通川区金兰路105号罗浮广场4F",
        "tel": "",
        "category": "基础设施:公共设施:公共厕所",
        "type": 0,
        "location": {
            "lat": 31.207393,
            "lng": 107.470946
        },
        "ad_info": {
            "adcode": 511702,
            "province": "四川省",
            "city": "达州市",
            "district": "通川区"
        }
    },
    {
        "id": "7463887535375281373",
        "title": "杨家停车区公共厕所",
        "address": "四川省达州市大竹县杨家停车区与G5515张南高速交叉口西北320米",
        "tel": "",
        "category": "基础设施:公共设施:公共厕所",
        "type": 0,
        "location": {
            "lat": 30.85266,
            "lng": 107.20914
        },
        "ad_info": {
            "adcode": 511724,
            "province": "四川省",
            "city": "达州市",
            "district": "大竹县"
        }
    },
    {
        "id": "793704302818839802",
        "title": "体育馆公共厕所",
        "address": "四川省达州市万源市万和路与体育街交叉口正北方向17米左右",
        "tel": "",
        "category": "基础设施:公共设施:公共厕所",
        "type": 0,
        "location": {
            "lat": 32.084243,
            "lng": 108.036588
        },
        "ad_info": {
            "adcode": 511781,
            "province": "四川省",
            "city": "达州市",
            "district": "万源市"
        }
    },
    {
        "id": "11709507084459075429",
        "title": "公共厕所",
        "address": "四川省达州市通川区柴市街与院棚巷交叉口正南方向20米左右",
        "tel": "",
        "category": "基础设施:公共设施:公共厕所",
        "type": 0,
        "location": {
            "lat": 31.209905,
            "lng": 107.501712
        },
        "ad_info": {
            "adcode": 511702,
            "province": "四川省",
            "city": "达州市",
            "district": "通川区"
        }
    },
    {
        "id": "8067835177359520233",
        "title": "公共厕所",
        "address": "四川省达州市通川区朝阳东路与通川中路交叉口正北方向49米左右",
        "tel": "",
        "category": "基础设施:公共设施:公共厕所",
        "type": 0,
        "location": {
            "lat": 31.215963,
            "lng": 107.504478
        },
        "ad_info": {
            "adcode": 511702,
            "province": "四川省",
            "city": "达州市",
            "district": "通川区"
        }
    },
    {
        "id": "15657712974595458997",
        "title": "公共厕所",
        "address": "四川省达州市通川区金兰路105号罗浮广场3F",
        "tel": "",
        "category": "基础设施:公共设施:公共厕所",
        "type": 0,
        "location": {
            "lat": 31.207228,
            "lng": 107.469653
        },
        "ad_info": {
            "adcode": 511702,
            "province": "四川省",
            "city": "达州市",
            "district": "通川区"
        }
    },
    {
        "id": "1525179440502912635",
        "title": "大竹服务区公共厕所",
        "address": "四川省达州市大竹县上聂路东段与光华街交叉口正北方向1910米左右",
        "tel": "",
        "category": "基础设施:公共设施:公共厕所",
        "type": 0,
        "location": {
            "lat": 30.788808,
            "lng": 107.451539
        },
        "ad_info": {
            "adcode": 511724,
            "province": "四川省",
            "city": "达州市",
            "district": "大竹县"
        }
    },
    {
        "id": "2983052449569816093",
        "title": "公共厕所",
        "address": "四川省达州市宣汉县南昆大桥与昆甄西路交叉口西北方向929米左右",
        "tel": "",
        "category": "基础设施:公共设施:公共厕所",
        "type": 0,
        "location": {
            "lat": 31.366546,
            "lng": 107.996151
        },
        "ad_info": {
            "adcode": 511722,
            "province": "四川省",
            "city": "达州市",
            "district": "宣汉县"
        }
    },
    {
        "id": "17911915707760686672",
        "title": "涌兴服务区公共厕所",
        "address": "四川省达州市渠县S26达阆高速与涌兴服务区交叉口西400米",
        "tel": "",
        "category": "基础设施:公共设施:公共厕所",
        "type": 0,
        "location": {
            "lat": 31.113868,
            "lng": 107.042347
        },
        "ad_info": {
            "adcode": 511725,
            "province": "四川省",
            "city": "达州市",
            "district": "渠县"
        }
    },
    {
        "id": "13598904589689139325",
        "title": "公共厕所",
        "address": "四川省达州市达川区达州理工职业技术学校东北侧190米",
        "tel": "",
        "category": "基础设施:公共设施:公共厕所",
        "type": 0,
        "location": {
            "lat": 31.137036,
            "lng": 107.491654
        },
        "ad_info": {
            "adcode": 511703,
            "province": "四川省",
            "city": "达州市",
            "district": "达川区"
        }
    },
    {
        "id": "8248819029406004539",
        "title": "卫生间",
        "address": "四川省达州市达川区汉兴大道二段与黄石岭街交叉口东北180米达州升华广场5F",
        "tel": "",
        "category": "基础设施:公共设施:公共厕所",
        "type": 0,
        "location": {
            "lat": 31.183319,
            "lng": 107.512233
        },
        "ad_info": {
            "adcode": 511703,
            "province": "四川省",
            "city": "达州市",
            "district": "达川区"
        }
    },
    {
        "id": "7160984675773924654",
        "title": "公共厕所",
        "address": "四川省达州市渠县文峰东路与长青路交叉口正西方向142米左右",
        "tel": "",
        "category": "基础设施:公共设施:公共厕所",
        "type": 0,
        "location": {
            "lat": 30.82175,
            "lng": 106.977523
        },
        "ad_info": {
            "adcode": 511725,
            "province": "四川省",
            "city": "达州市",
            "district": "渠县"
        }
    },
    {
        "id": "13258373001148631326",
        "title": "公共厕所",
        "address": "四川省达州市通川区凤凰大道西段与巴渠西路交叉口西北方向92米左右",
        "tel": "",
        "category": "基础设施:公共设施:公共厕所",
        "type": 0,
        "location": {
            "lat": 31.220048,
            "lng": 107.457409
        },
        "ad_info": {
            "adcode": 511702,
            "province": "四川省",
            "city": "达州市",
            "district": "通川区"
        }
    },
    {
        "id": "9225134632008474395",
        "title": "公共厕所",
        "address": "四川省达州市通川区金兰路105号罗浮广场B1",
        "tel": "",
        "category": "基础设施:公共设施:公共厕所",
        "type": 0,
        "location": {
            "lat": 31.207511,
            "lng": 107.469449
        },
        "ad_info": {
            "adcode": 511702,
            "province": "四川省",
            "city": "达州市",
            "district": "通川区"
        }
    },
    {
        "id": "17448229611312457971",
        "title": "公共厕所",
        "address": "四川省达州市达川区正街与滨河路交叉口东南方向156米左右",
        "tel": "",
        "category": "基础设施:公共设施:公共厕所",
        "type": 0,
        "location": {
            "lat": 31.139191,
            "lng": 107.438545
        },
        "ad_info": {
            "adcode": 511703,
            "province": "四川省",
            "city": "达州市",
            "district": "达川区"
        }
    },
    {
        "id": "12839495808345890090",
        "title": "公共厕所",
        "address": "四川省达州市大竹县庙坝街与G65包茂高速出口交叉口东北80米",
        "tel": "",
        "category": "基础设施:公共设施:公共厕所",
        "type": 0,
        "location": {
            "lat": 30.591988,
            "lng": 107.095087
        },
        "ad_info": {
            "adcode": 511724,
            "province": "四川省",
            "city": "达州市",
            "district": "大竹县"
        }
    },
    {
        "id": "11547339343969358316",
        "title": "公共厕所",
        "address": "四川省达州市通川区朝阳西路与西河路交叉口西南方向68米左右",
        "tel": "",
        "category": "基础设施:公共设施:公共厕所",
        "type": 0,
        "location": {
            "lat": 31.198102,
            "lng": 107.455913
        },
        "ad_info": {
            "adcode": 511702,
            "province": "四川省",
            "city": "达州市",
            "district": "通川区"
        }
    },
    {
        "id": "7830443941586599758",
        "title": "公共厕所",
        "address": "四川省达州市通川区金兰路105号罗浮广场3F",
        "tel": "",
        "category": "基础设施:公共设施:公共厕所",
        "type": 0,
        "location": {
            "lat": 31.206212,
            "lng": 107.471128
        },
        "ad_info": {
            "adcode": 511702,
            "province": "四川省",
            "city": "达州市",
            "district": "通川区"
        }
    },
    {
        "id": "4282028272573731915",
        "title": "公共厕所",
        "address": "四川省达州市通川区金兰路105号罗浮广场B1",
        "tel": "",
        "category": "基础设施:公共设施:公共厕所",
        "type": 0,
        "location": {
            "lat": 31.206168,
            "lng": 107.471103
        },
        "ad_info": {
            "adcode": 511702,
            "province": "四川省",
            "city": "达州市",
            "district": "通川区"
        }
    },
    {
        "id": "17826307150624701446",
        "title": "公共厕所",
        "address": "四川省达州市通川区马家沟路与黑沟路交叉口西南方向131米左右",
        "tel": "",
        "category": "基础设施:公共设施:公共厕所",
        "type": 0,
        "location": {
            "lat": 31.218733,
            "lng": 107.493149
        },
        "ad_info": {
            "adcode": 511702,
            "province": "四川省",
            "city": "达州市",
            "district": "通川区"
        }
    },
    {
        "id": "13767663891309758280",
        "title": "磐石停车区公共厕所",
        "address": "四川省达州市通川区磐石停车区与G5012恩广高速交叉口南120米",
        "tel": "",
        "category": "基础设施:公共设施:公共厕所",
        "type": 0,
        "location": {
            "lat": 31.257967,
            "lng": 107.611563
        },
        "ad_info": {
            "adcode": 511702,
            "province": "四川省",
            "city": "达州市",
            "district": "通川区"
        }
    },
    {
        "id": "3830118799826347662",
        "title": "卫生间",
        "address": "四川省达州市达川区汉兴大道二段与黄石岭街交叉口东北180米达州升华广场2F",
        "tel": "",
        "category": "基础设施:公共设施:公共厕所",
        "type": 0,
        "location": {
            "lat": 31.184123,
            "lng": 107.512309
        },
        "ad_info": {
            "adcode": 511703,
            "province": "四川省",
            "city": "达州市",
            "district": "达川区"
        }
    },
    {
        "id": "11836891750789855061",
        "title": "公共厕所",
        "address": "四川省达州市开江县西大街与建设街交叉口东南140米",
        "tel": "",
        "category": "基础设施:公共设施:公共厕所",
        "type": 0,
        "location": {
            "lat": 31.082415,
            "lng": 107.861647
        },
        "ad_info": {
            "adcode": 511723,
            "province": "四川省",
            "city": "达州市",
            "district": "开江县"
        }
    },
    {
        "id": "6944048151285829706",
        "title": "卫生间",
        "address": "四川省达州市达川区汉兴大道二段与黄石岭街交叉口东北180米达州升华广场3F",
        "tel": "",
        "category": "基础设施:公共设施:公共厕所",
        "type": 0,
        "location": {
            "lat": 31.184128,
            "lng": 107.512313
        },
        "ad_info": {
            "adcode": 511703,
            "province": "四川省",
            "city": "达州市",
            "district": "达川区"
        }
    },
    {
        "id": "12025789575488261640",
        "title": "公共厕所",
        "address": "四川省达州市达川区中心街与教师街交叉口正南方向40米左右",
        "tel": "",
        "category": "基础设施:公共设施:公共厕所",
        "type": 0,
        "location": {
            "lat": 31.020069,
            "lng": 107.452038
        },
        "ad_info": {
            "adcode": 511703,
            "province": "四川省",
            "city": "达州市",
            "district": "达川区"
        }
    },
    {
        "id": "8895682049440171108",
        "title": "公共厕所",
        "address": "四川省达州市通川区金兰路105号罗浮广场3F",
        "tel": "",
        "category": "基础设施:公共设施:公共厕所",
        "type": 0,
        "location": {
            "lat": 31.206374,
            "lng": 107.471573
        },
        "ad_info": {
            "adcode": 511702,
            "province": "四川省",
            "city": "达州市",
            "district": "通川区"
        }
    },
    {
        "id": "295323541547879366",
        "title": "公共厕所",
        "address": "四川省达州市通川区金兰路105号罗浮广场4F",
        "tel": "",
        "category": "基础设施:公共设施:公共厕所",
        "type": 0,
        "location": {
            "lat": 31.206211,
            "lng": 107.471124
        },
        "ad_info": {
            "adcode": 511702,
            "province": "四川省",
            "city": "达州市",
            "district": "通川区"
        }
    },
    {
        "id": "4814020657749346456",
        "title": "公共厕所",
        "address": "四川省达州市通川区九凤路与凤凰大桥交叉口西北方向264米左右",
        "tel": "",
        "category": "基础设施:公共设施:公共厕所",
        "type": 0,
        "location": {
            "lat": 31.223425,
            "lng": 107.521781
        },
        "ad_info": {
            "adcode": 511702,
            "province": "四川省",
            "city": "达州市",
            "district": "通川区"
        }
    },
    {
        "id": "2478853514418094756",
        "title": "公共厕所",
        "address": "四川省达州市大竹县垃圾中转站旁",
        "tel": "",
        "category": "基础设施:公共设施:公共厕所",
        "type": 0,
        "location": {
            "lat": 30.738855,
            "lng": 107.247365
        },
        "ad_info": {
            "adcode": 511724,
            "province": "四川省",
            "city": "达州市",
            "district": "大竹县"
        }
    },
    {
        "id": "8627039368398503420",
        "title": "公共厕所",
        "address": "四川省达州市万源市将军大道与福鑫大道交叉口东南方向216米左右",
        "tel": "",
        "category": "基础设施:公共设施:公共厕所",
        "type": 0,
        "location": {
            "lat": 32.060861,
            "lng": 108.034622
        },
        "ad_info": {
            "adcode": 511781,
            "province": "四川省",
            "city": "达州市",
            "district": "万源市"
        }
    },
    {
        "id": "3963153343178169788",
        "title": "碑庙停车区公共厕所",
        "address": "四川省达州市通川区G5012恩广高速与碑庙停车区交叉口西北160米",
        "tel": "",
        "category": "基础设施:公共设施:公共厕所",
        "type": 0,
        "location": {
            "lat": 31.441718,
            "lng": 107.333135
        },
        "ad_info": {
            "adcode": 511702,
            "province": "四川省",
            "city": "达州市",
            "district": "通川区"
        }
    },
    {
        "id": "5279570953234553872",
        "title": "公共厕所",
        "address": "四川省达州市渠县下河街与河街交叉口正北方向461米左右",
        "tel": "",
        "category": "基础设施:公共设施:公共厕所",
        "type": 0,
        "location": {
            "lat": 31.131409,
            "lng": 107.076098
        },
        "ad_info": {
            "adcode": 511725,
            "province": "四川省",
            "city": "达州市",
            "district": "渠县"
        }
    },
    {
        "id": "3333659513379406618",
        "title": "公共厕所",
        "address": "四川省达州市达川区乌梅山庄南侧120米",
        "tel": "",
        "category": "基础设施:公共设施:公共厕所",
        "type": 0,
        "location": {
            "lat": 30.971201,
            "lng": 107.488424
        },
        "ad_info": {
            "adcode": 511703,
            "province": "四川省",
            "city": "达州市",
            "district": "达川区"
        }
    },
    {
        "id": "7690036753144882075",
        "title": "公共厕所",
        "address": "四川省达州市通川区东莲路与莲湖东路交叉口西南方向172米左右",
        "tel": "",
        "category": "基础设施:公共设施:公共厕所",
        "type": 0,
        "location": {
            "lat": 31.251291,
            "lng": 107.46613
        },
        "ad_info": {
            "adcode": 511702,
            "province": "四川省",
            "city": "达州市",
            "district": "通川区"
        }
    },
    {
        "id": "263859497187705914",
        "title": "卫生间",
        "address": "四川省达州市宣汉县太和街与金川路交叉口东北方向33米左右",
        "tel": "",
        "category": "基础设施:公共设施:公共厕所",
        "type": 0,
        "location": {
            "lat": 31.356885,
            "lng": 107.705879
        },
        "ad_info": {
            "adcode": 511722,
            "province": "四川省",
            "city": "达州市",
            "district": "宣汉县"
        }
    },
    {
        "id": "2142719883190032055",
        "title": "公共厕所",
        "address": "四川省达州市通川区塔石路1056号莲子宝宝乐园",
        "tel": "",
        "category": "基础设施:公共设施:公共厕所",
        "type": 0,
        "location": {
            "lat": 31.252896,
            "lng": 107.463764
        },
        "ad_info": {
            "adcode": 511702,
            "province": "四川省",
            "city": "达州市",
            "district": "通川区"
        }
    },
    {
        "id": "11174853852554013171",
        "title": "公共厕所",
        "address": "四川省达州市渠县宕渠路南路与賨都大道西段交叉口西北方向177米左右",
        "tel": "",
        "category": "基础设施:公共设施:公共厕所",
        "type": 0,
        "location": {
            "lat": 30.83429,
            "lng": 106.978187
        },
        "ad_info": {
            "adcode": 511725,
            "province": "四川省",
            "city": "达州市",
            "district": "渠县"
        }
    },
    {
        "id": "11143272842123473878",
        "title": "工会驿站(山前路桔乐园段公共厕所)",
        "address": "四川省达州市通川区北牌路26号",
        "tel": "",
        "category": "基础设施:公共设施:公共厕所",
        "type": 0,
        "location": {
            "lat": 31.220884,
            "lng": 107.499609
        },
        "ad_info": {
            "adcode": 511702,
            "province": "四川省",
            "city": "达州市",
            "district": "通川区"
        }
    },
    {
        "id": "3348839671091165079",
        "title": "公共厕所",
        "address": "四川省达州市达川区通达东路与G65包茂高速出口交叉口东北200米",
        "tel": "",
        "category": "基础设施:公共设施:公共厕所",
        "type": 0,
        "location": {
            "lat": 31.196486,
            "lng": 107.517772
        },
        "ad_info": {
            "adcode": 511703,
            "province": "四川省",
            "city": "达州市",
            "district": "达川区"
        }
    },
    {
        "id": "17826307150624701446",
        "title": "公共厕所",
        "address": "四川省达州市通川区马家沟路与黑沟路交叉口西南方向131米左右",
        "tel": "",
        "category": "基础设施:公共设施:公共厕所",
        "type": 0,
        "location": {
            "lat": 31.218733,
            "lng": 107.493149
        },
        "ad_info": {
            "adcode": 511702,
            "province": "四川省",
            "city": "达州市",
            "district": "通川区"
        }
    },
    {
        "id": "13767663891309758280",
        "title": "磐石停车区公共厕所",
        "address": "四川省达州市通川区磐石停车区与G5012恩广高速交叉口南120米",
        "tel": "",
        "category": "基础设施:公共设施:公共厕所",
        "type": 0,
        "location": {
            "lat": 31.257967,
            "lng": 107.611563
        },
        "ad_info": {
            "adcode": 511702,
            "province": "四川省",
            "city": "达州市",
            "district": "通川区"
        }
    },
    {
        "id": "3830118799826347662",
        "title": "卫生间",
        "address": "四川省达州市达川区汉兴大道二段与黄石岭街交叉口东北180米达州升华广场2F",
        "tel": "",
        "category": "基础设施:公共设施:公共厕所",
        "type": 0,
        "location": {
            "lat": 31.184123,
            "lng": 107.512309
        },
        "ad_info": {
            "adcode": 511703,
            "province": "四川省",
            "city": "达州市",
            "district": "达川区"
        }
    },
    {
        "id": "11836891750789855061",
        "title": "公共厕所",
        "address": "四川省达州市开江县西大街与建设街交叉口东南140米",
        "tel": "",
        "category": "基础设施:公共设施:公共厕所",
        "type": 0,
        "location": {
            "lat": 31.082415,
            "lng": 107.861647
        },
        "ad_info": {
            "adcode": 511723,
            "province": "四川省",
            "city": "达州市",
            "district": "开江县"
        }
    },
    {
        "id": "6944048151285829706",
        "title": "卫生间",
        "address": "四川省达州市达川区汉兴大道二段与黄石岭街交叉口东北180米达州升华广场3F",
        "tel": "",
        "category": "基础设施:公共设施:公共厕所",
        "type": 0,
        "location": {
            "lat": 31.184128,
            "lng": 107.512313
        },
        "ad_info": {
            "adcode": 511703,
            "province": "四川省",
            "city": "达州市",
            "district": "达川区"
        }
    },
    {
        "id": "12025789575488261640",
        "title": "公共厕所",
        "address": "四川省达州市达川区中心街与教师街交叉口正南方向40米左右",
        "tel": "",
        "category": "基础设施:公共设施:公共厕所",
        "type": 0,
        "location": {
            "lat": 31.020069,
            "lng": 107.452038
        },
        "ad_info": {
            "adcode": 511703,
            "province": "四川省",
            "city": "达州市",
            "district": "达川区"
        }
    },
    {
        "id": "8895682049440171108",
        "title": "公共厕所",
        "address": "四川省达州市通川区金兰路105号罗浮广场3F",
        "tel": "",
        "category": "基础设施:公共设施:公共厕所",
        "type": 0,
        "location": {
            "lat": 31.206374,
            "lng": 107.471573
        },
        "ad_info": {
            "adcode": 511702,
            "province": "四川省",
            "city": "达州市",
            "district": "通川区"
        }
    },
    {
        "id": "295323541547879366",
        "title": "公共厕所",
        "address": "四川省达州市通川区金兰路105号罗浮广场4F",
        "tel": "",
        "category": "基础设施:公共设施:公共厕所",
        "type": 0,
        "location": {
            "lat": 31.206211,
            "lng": 107.471124
        },
        "ad_info": {
            "adcode": 511702,
            "province": "四川省",
            "city": "达州市",
            "district": "通川区"
        }
    },
    {
        "id": "4814020657749346456",
        "title": "公共厕所",
        "address": "四川省达州市通川区九凤路与凤凰大桥交叉口西北方向264米左右",
        "tel": "",
        "category": "基础设施:公共设施:公共厕所",
        "type": 0,
        "location": {
            "lat": 31.223425,
            "lng": 107.521781
        },
        "ad_info": {
            "adcode": 511702,
            "province": "四川省",
            "city": "达州市",
            "district": "通川区"
        }
    },
    {
        "id": "2478853514418094756",
        "title": "公共厕所",
        "address": "四川省达州市大竹县垃圾中转站旁",
        "tel": "",
        "category": "基础设施:公共设施:公共厕所",
        "type": 0,
        "location": {
            "lat": 30.738855,
            "lng": 107.247365
        },
        "ad_info": {
            "adcode": 511724,
            "province": "四川省",
            "city": "达州市",
            "district": "大竹县"
        }
    },
    {
        "id": "8627039368398503420",
        "title": "公共厕所",
        "address": "四川省达州市万源市将军大道与福鑫大道交叉口东南方向216米左右",
        "tel": "",
        "category": "基础设施:公共设施:公共厕所",
        "type": 0,
        "location": {
            "lat": 32.060861,
            "lng": 108.034622
        },
        "ad_info": {
            "adcode": 511781,
            "province": "四川省",
            "city": "达州市",
            "district": "万源市"
        }
    },
    {
        "id": "3963153343178169788",
        "title": "碑庙停车区公共厕所",
        "address": "四川省达州市通川区G5012恩广高速与碑庙停车区交叉口西北160米",
        "tel": "",
        "category": "基础设施:公共设施:公共厕所",
        "type": 0,
        "location": {
            "lat": 31.441718,
            "lng": 107.333135
        },
        "ad_info": {
            "adcode": 511702,
            "province": "四川省",
            "city": "达州市",
            "district": "通川区"
        }
    },
    {
        "id": "5279570953234553872",
        "title": "公共厕所",
        "address": "四川省达州市渠县下河街与河街交叉口正北方向461米左右",
        "tel": "",
        "category": "基础设施:公共设施:公共厕所",
        "type": 0,
        "location": {
            "lat": 31.131409,
            "lng": 107.076098
        },
        "ad_info": {
            "adcode": 511725,
            "province": "四川省",
            "city": "达州市",
            "district": "渠县"
        }
    },
    {
        "id": "3333659513379406618",
        "title": "公共厕所",
        "address": "四川省达州市达川区乌梅山庄南侧120米",
        "tel": "",
        "category": "基础设施:公共设施:公共厕所",
        "type": 0,
        "location": {
            "lat": 30.971201,
            "lng": 107.488424
        },
        "ad_info": {
            "adcode": 511703,
            "province": "四川省",
            "city": "达州市",
            "district": "达川区"
        }
    },
    {
        "id": "7690036753144882075",
        "title": "公共厕所",
        "address": "四川省达州市通川区东莲路与莲湖东路交叉口西南方向172米左右",
        "tel": "",
        "category": "基础设施:公共设施:公共厕所",
        "type": 0,
        "location": {
            "lat": 31.251291,
            "lng": 107.46613
        },
        "ad_info": {
            "adcode": 511702,
            "province": "四川省",
            "city": "达州市",
            "district": "通川区"
        }
    },
    {
        "id": "263859497187705914",
        "title": "卫生间",
        "address": "四川省达州市宣汉县太和街与金川路交叉口东北方向33米左右",
        "tel": "",
        "category": "基础设施:公共设施:公共厕所",
        "type": 0,
        "location": {
            "lat": 31.356885,
            "lng": 107.705879
        },
        "ad_info": {
            "adcode": 511722,
            "province": "四川省",
            "city": "达州市",
            "district": "宣汉县"
        }
    },
    {
        "id": "2142719883190032055",
        "title": "公共厕所",
        "address": "四川省达州市通川区塔石路1056号莲子宝宝乐园",
        "tel": "",
        "category": "基础设施:公共设施:公共厕所",
        "type": 0,
        "location": {
            "lat": 31.252896,
            "lng": 107.463764
        },
        "ad_info": {
            "adcode": 511702,
            "province": "四川省",
            "city": "达州市",
            "district": "通川区"
        }
    },
    {
        "id": "11174853852554013171",
        "title": "公共厕所",
        "address": "四川省达州市渠县宕渠路南路与賨都大道西段交叉口西北方向177米左右",
        "tel": "",
        "category": "基础设施:公共设施:公共厕所",
        "type": 0,
        "location": {
            "lat": 30.83429,
            "lng": 106.978187
        },
        "ad_info": {
            "adcode": 511725,
            "province": "四川省",
            "city": "达州市",
            "district": "渠县"
        }
    },
    {
        "id": "11143272842123473878",
        "title": "工会驿站(山前路桔乐园段公共厕所)",
        "address": "四川省达州市通川区北牌路26号",
        "tel": "",
        "category": "基础设施:公共设施:公共厕所",
        "type": 0,
        "location": {
            "lat": 31.220884,
            "lng": 107.499609
        },
        "ad_info": {
            "adcode": 511702,
            "province": "四川省",
            "city": "达州市",
            "district": "通川区"
        }
    },
    {
        "id": "3348839671091165079",
        "title": "公共厕所",
        "address": "四川省达州市达川区通达东路与G65包茂高速出口交叉口东北200米",
        "tel": "",
        "category": "基础设施:公共设施:公共厕所",
        "type": 0,
        "location": {
            "lat": 31.196486,
            "lng": 107.517772
        },
        "ad_info": {
            "adcode": 511703,
            "province": "四川省",
            "city": "达州市",
            "district": "达川区"
        }
    },
    {
        "id": "17826307150624701446",
        "title": "公共厕所",
        "address": "四川省达州市通川区马家沟路与黑沟路交叉口西南方向131米左右",
        "tel": "",
        "category": "基础设施:公共设施:公共厕所",
        "type": 0,
        "location": {
            "lat": 31.218733,
            "lng": 107.493149
        },
        "ad_info": {
            "adcode": 511702,
            "province": "四川省",
            "city": "达州市",
            "district": "通川区"
        }
    },
    {
        "id": "13767663891309758280",
        "title": "磐石停车区公共厕所",
        "address": "四川省达州市通川区磐石停车区与G5012恩广高速交叉口南120米",
        "tel": "",
        "category": "基础设施:公共设施:公共厕所",
        "type": 0,
        "location": {
            "lat": 31.257967,
            "lng": 107.611563
        },
        "ad_info": {
            "adcode": 511702,
            "province": "四川省",
            "city": "达州市",
            "district": "通川区"
        }
    },
    {
        "id": "3830118799826347662",
        "title": "卫生间",
        "address": "四川省达州市达川区汉兴大道二段与黄石岭街交叉口东北180米达州升华广场2F",
        "tel": "",
        "category": "基础设施:公共设施:公共厕所",
        "type": 0,
        "location": {
            "lat": 31.184123,
            "lng": 107.512309
        },
        "ad_info": {
            "adcode": 511703,
            "province": "四川省",
            "city": "达州市",
            "district": "达川区"
        }
    },
    {
        "id": "11836891750789855061",
        "title": "公共厕所",
        "address": "四川省达州市开江县西大街与建设街交叉口东南140米",
        "tel": "",
        "category": "基础设施:公共设施:公共厕所",
        "type": 0,
        "location": {
            "lat": 31.082415,
            "lng": 107.861647
        },
        "ad_info": {
            "adcode": 511723,
            "province": "四川省",
            "city": "达州市",
            "district": "开江县"
        }
    },
    {
        "id": "6944048151285829706",
        "title": "卫生间",
        "address": "四川省达州市达川区汉兴大道二段与黄石岭街交叉口东北180米达州升华广场3F",
        "tel": "",
        "category": "基础设施:公共设施:公共厕所",
        "type": 0,
        "location": {
            "lat": 31.184128,
            "lng": 107.512313
        },
        "ad_info": {
            "adcode": 511703,
            "province": "四川省",
            "city": "达州市",
            "district": "达川区"
        }
    },
    {
        "id": "12025789575488261640",
        "title": "公共厕所",
        "address": "四川省达州市达川区中心街与教师街交叉口正南方向40米左右",
        "tel": "",
        "category": "基础设施:公共设施:公共厕所",
        "type": 0,
        "location": {
            "lat": 31.020069,
            "lng": 107.452038
        },
        "ad_info": {
            "adcode": 511703,
            "province": "四川省",
            "city": "达州市",
            "district": "达川区"
        }
    },
    {
        "id": "8895682049440171108",
        "title": "公共厕所",
        "address": "四川省达州市通川区金兰路105号罗浮广场3F",
        "tel": "",
        "category": "基础设施:公共设施:公共厕所",
        "type": 0,
        "location": {
            "lat": 31.206374,
            "lng": 107.471573
        },
        "ad_info": {
            "adcode": 511702,
            "province": "四川省",
            "city": "达州市",
            "district": "通川区"
        }
    },
    {
        "id": "295323541547879366",
        "title": "公共厕所",
        "address": "四川省达州市通川区金兰路105号罗浮广场4F",
        "tel": "",
        "category": "基础设施:公共设施:公共厕所",
        "type": 0,
        "location": {
            "lat": 31.206211,
            "lng": 107.471124
        },
        "ad_info": {
            "adcode": 511702,
            "province": "四川省",
            "city": "达州市",
            "district": "通川区"
        }
    },
    {
        "id": "4814020657749346456",
        "title": "公共厕所",
        "address": "四川省达州市通川区九凤路与凤凰大桥交叉口西北方向264米左右",
        "tel": "",
        "category": "基础设施:公共设施:公共厕所",
        "type": 0,
        "location": {
            "lat": 31.223425,
            "lng": 107.521781
        },
        "ad_info": {
            "adcode": 511702,
            "province": "四川省",
            "city": "达州市",
            "district": "通川区"
        }
    },
    {
        "id": "2478853514418094756",
        "title": "公共厕所",
        "address": "四川省达州市大竹县垃圾中转站旁",
        "tel": "",
        "category": "基础设施:公共设施:公共厕所",
        "type": 0,
        "location": {
            "lat": 30.738855,
            "lng": 107.247365
        },
        "ad_info": {
            "adcode": 511724,
            "province": "四川省",
            "city": "达州市",
            "district": "大竹县"
        }
    },
    {
        "id": "8627039368398503420",
        "title": "公共厕所",
        "address": "四川省达州市万源市将军大道与福鑫大道交叉口东南方向216米左右",
        "tel": "",
        "category": "基础设施:公共设施:公共厕所",
        "type": 0,
        "location": {
            "lat": 32.060861,
            "lng": 108.034622
        },
        "ad_info": {
            "adcode": 511781,
            "province": "四川省",
            "city": "达州市",
            "district": "万源市"
        }
    },
    {
        "id": "3963153343178169788",
        "title": "碑庙停车区公共厕所",
        "address": "四川省达州市通川区G5012恩广高速与碑庙停车区交叉口西北160米",
        "tel": "",
        "category": "基础设施:公共设施:公共厕所",
        "type": 0,
        "location": {
            "lat": 31.441718,
            "lng": 107.333135
        },
        "ad_info": {
            "adcode": 511702,
            "province": "四川省",
            "city": "达州市",
            "district": "通川区"
        }
    },
    {
        "id": "5279570953234553872",
        "title": "公共厕所",
        "address": "四川省达州市渠县下河街与河街交叉口正北方向461米左右",
        "tel": "",
        "category": "基础设施:公共设施:公共厕所",
        "type": 0,
        "location": {
            "lat": 31.131409,
            "lng": 107.076098
        },
        "ad_info": {
            "adcode": 511725,
            "province": "四川省",
            "city": "达州市",
            "district": "渠县"
        }
    },
    {
        "id": "3333659513379406618",
        "title": "公共厕所",
        "address": "四川省达州市达川区乌梅山庄南侧120米",
        "tel": "",
        "category": "基础设施:公共设施:公共厕所",
        "type": 0,
        "location": {
            "lat": 30.971201,
            "lng": 107.488424
        },
        "ad_info": {
            "adcode": 511703,
            "province": "四川省",
            "city": "达州市",
            "district": "达川区"
        }
    },
    {
        "id": "7690036753144882075",
        "title": "公共厕所",
        "address": "四川省达州市通川区东莲路与莲湖东路交叉口西南方向172米左右",
        "tel": "",
        "category": "基础设施:公共设施:公共厕所",
        "type": 0,
        "location": {
            "lat": 31.251291,
            "lng": 107.46613
        },
        "ad_info": {
            "adcode": 511702,
            "province": "四川省",
            "city": "达州市",
            "district": "通川区"
        }
    },
    {
        "id": "263859497187705914",
        "title": "卫生间",
        "address": "四川省达州市宣汉县太和街与金川路交叉口东北方向33米左右",
        "tel": "",
        "category": "基础设施:公共设施:公共厕所",
        "type": 0,
        "location": {
            "lat": 31.356885,
            "lng": 107.705879
        },
        "ad_info": {
            "adcode": 511722,
            "province": "四川省",
            "city": "达州市",
            "district": "宣汉县"
        }
    },
    {
        "id": "2142719883190032055",
        "title": "公共厕所",
        "address": "四川省达州市通川区塔石路1056号莲子宝宝乐园",
        "tel": "",
        "category": "基础设施:公共设施:公共厕所",
        "type": 0,
        "location": {
            "lat": 31.252896,
            "lng": 107.463764
        },
        "ad_info": {
            "adcode": 511702,
            "province": "四川省",
            "city": "达州市",
            "district": "通川区"
        }
    },
    {
        "id": "11174853852554013171",
        "title": "公共厕所",
        "address": "四川省达州市渠县宕渠路南路与賨都大道西段交叉口西北方向177米左右",
        "tel": "",
        "category": "基础设施:公共设施:公共厕所",
        "type": 0,
        "location": {
            "lat": 30.83429,
            "lng": 106.978187
        },
        "ad_info": {
            "adcode": 511725,
            "province": "四川省",
            "city": "达州市",
            "district": "渠县"
        }
    },
    {
        "id": "11143272842123473878",
        "title": "工会驿站(山前路桔乐园段公共厕所)",
        "address": "四川省达州市通川区北牌路26号",
        "tel": "",
        "category": "基础设施:公共设施:公共厕所",
        "type": 0,
        "location": {
            "lat": 31.220884,
            "lng": 107.499609
        },
        "ad_info": {
            "adcode": 511702,
            "province": "四川省",
            "city": "达州市",
            "district": "通川区"
        }
    },
    {
        "id": "3348839671091165079",
        "title": "公共厕所",
        "address": "四川省达州市达川区通达东路与G65包茂高速出口交叉口东北200米",
        "tel": "",
        "category": "基础设施:公共设施:公共厕所",
        "type": 0,
        "location": {
            "lat": 31.196486,
            "lng": 107.517772
        },
        "ad_info": {
            "adcode": 511703,
            "province": "四川省",
            "city": "达州市",
            "district": "达川区"
        }
    },
    {
        "id": "17826307150624701446",
        "title": "公共厕所",
        "address": "四川省达州市通川区马家沟路与黑沟路交叉口西南方向131米左右",
        "tel": "",
        "category": "基础设施:公共设施:公共厕所",
        "type": 0,
        "location": {
            "lat": 31.218733,
            "lng": 107.493149
        },
        "ad_info": {
            "adcode": 511702,
            "province": "四川省",
            "city": "达州市",
            "district": "通川区"
        }
    },
    {
        "id": "13767663891309758280",
        "title": "磐石停车区公共厕所",
        "address": "四川省达州市通川区磐石停车区与G5012恩广高速交叉口南120米",
        "tel": "",
        "category": "基础设施:公共设施:公共厕所",
        "type": 0,
        "location": {
            "lat": 31.257967,
            "lng": 107.611563
        },
        "ad_info": {
            "adcode": 511702,
            "province": "四川省",
            "city": "达州市",
            "district": "通川区"
        }
    },
    {
        "id": "3830118799826347662",
        "title": "卫生间",
        "address": "四川省达州市达川区汉兴大道二段与黄石岭街交叉口东北180米达州升华广场2F",
        "tel": "",
        "category": "基础设施:公共设施:公共厕所",
        "type": 0,
        "location": {
            "lat": 31.184123,
            "lng": 107.512309
        },
        "ad_info": {
            "adcode": 511703,
            "province": "四川省",
            "city": "达州市",
            "district": "达川区"
        }
    },
    {
        "id": "11836891750789855061",
        "title": "公共厕所",
        "address": "四川省达州市开江县西大街与建设街交叉口东南140米",
        "tel": "",
        "category": "基础设施:公共设施:公共厕所",
        "type": 0,
        "location": {
            "lat": 31.082415,
            "lng": 107.861647
        },
        "ad_info": {
            "adcode": 511723,
            "province": "四川省",
            "city": "达州市",
            "district": "开江县"
        }
    },
    {
        "id": "6944048151285829706",
        "title": "卫生间",
        "address": "四川省达州市达川区汉兴大道二段与黄石岭街交叉口东北180米达州升华广场3F",
        "tel": "",
        "category": "基础设施:公共设施:公共厕所",
        "type": 0,
        "location": {
            "lat": 31.184128,
            "lng": 107.512313
        },
        "ad_info": {
            "adcode": 511703,
            "province": "四川省",
            "city": "达州市",
            "district": "达川区"
        }
    },
    {
        "id": "12025789575488261640",
        "title": "公共厕所",
        "address": "四川省达州市达川区中心街与教师街交叉口正南方向40米左右",
        "tel": "",
        "category": "基础设施:公共设施:公共厕所",
        "type": 0,
        "location": {
            "lat": 31.020069,
            "lng": 107.452038
        },
        "ad_info": {
            "adcode": 511703,
            "province": "四川省",
            "city": "达州市",
            "district": "达川区"
        }
    },
    {
        "id": "8895682049440171108",
        "title": "公共厕所",
        "address": "四川省达州市通川区金兰路105号罗浮广场3F",
        "tel": "",
        "category": "基础设施:公共设施:公共厕所",
        "type": 0,
        "location": {
            "lat": 31.206374,
            "lng": 107.471573
        },
        "ad_info": {
            "adcode": 511702,
            "province": "四川省",
            "city": "达州市",
            "district": "通川区"
        }
    },
    {
        "id": "295323541547879366",
        "title": "公共厕所",
        "address": "四川省达州市通川区金兰路105号罗浮广场4F",
        "tel": "",
        "category": "基础设施:公共设施:公共厕所",
        "type": 0,
        "location": {
            "lat": 31.206211,
            "lng": 107.471124
        },
        "ad_info": {
            "adcode": 511702,
            "province": "四川省",
            "city": "达州市",
            "district": "通川区"
        }
    },
    {
        "id": "4814020657749346456",
        "title": "公共厕所",
        "address": "四川省达州市通川区九凤路与凤凰大桥交叉口西北方向264米左右",
        "tel": "",
        "category": "基础设施:公共设施:公共厕所",
        "type": 0,
        "location": {
            "lat": 31.223425,
            "lng": 107.521781
        },
        "ad_info": {
            "adcode": 511702,
            "province": "四川省",
            "city": "达州市",
            "district": "通川区"
        }
    },
    {
        "id": "2478853514418094756",
        "title": "公共厕所",
        "address": "四川省达州市大竹县垃圾中转站旁",
        "tel": "",
        "category": "基础设施:公共设施:公共厕所",
        "type": 0,
        "location": {
            "lat": 30.738855,
            "lng": 107.247365
        },
        "ad_info": {
            "adcode": 511724,
            "province": "四川省",
            "city": "达州市",
            "district": "大竹县"
        }
    },
    {
        "id": "8627039368398503420",
        "title": "公共厕所",
        "address": "四川省达州市万源市将军大道与福鑫大道交叉口东南方向216米左右",
        "tel": "",
        "category": "基础设施:公共设施:公共厕所",
        "type": 0,
        "location": {
            "lat": 32.060861,
            "lng": 108.034622
        },
        "ad_info": {
            "adcode": 511781,
            "province": "四川省",
            "city": "达州市",
            "district": "万源市"
        }
    },
    {
        "id": "3963153343178169788",
        "title": "碑庙停车区公共厕所",
        "address": "四川省达州市通川区G5012恩广高速与碑庙停车区交叉口西北160米",
        "tel": "",
        "category": "基础设施:公共设施:公共厕所",
        "type": 0,
        "location": {
            "lat": 31.441718,
            "lng": 107.333135
        },
        "ad_info": {
            "adcode": 511702,
            "province": "四川省",
            "city": "达州市",
            "district": "通川区"
        }
    },
    {
        "id": "5279570953234553872",
        "title": "公共厕所",
        "address": "四川省达州市渠县下河街与河街交叉口正北方向461米左右",
        "tel": "",
        "category": "基础设施:公共设施:公共厕所",
        "type": 0,
        "location": {
            "lat": 31.131409,
            "lng": 107.076098
        },
        "ad_info": {
            "adcode": 511725,
            "province": "四川省",
            "city": "达州市",
            "district": "渠县"
        }
    },
    {
        "id": "3333659513379406618",
        "title": "公共厕所",
        "address": "四川省达州市达川区乌梅山庄南侧120米",
        "tel": "",
        "category": "基础设施:公共设施:公共厕所",
        "type": 0,
        "location": {
            "lat": 30.971201,
            "lng": 107.488424
        },
        "ad_info": {
            "adcode": 511703,
            "province": "四川省",
            "city": "达州市",
            "district": "达川区"
        }
    },
    {
        "id": "7690036753144882075",
        "title": "公共厕所",
        "address": "四川省达州市通川区东莲路与莲湖东路交叉口西南方向172米左右",
        "tel": "",
        "category": "基础设施:公共设施:公共厕所",
        "type": 0,
        "location": {
            "lat": 31.251291,
            "lng": 107.46613
        },
        "ad_info": {
            "adcode": 511702,
            "province": "四川省",
            "city": "达州市",
            "district": "通川区"
        }
    },
    {
        "id": "263859497187705914",
        "title": "卫生间",
        "address": "四川省达州市宣汉县太和街与金川路交叉口东北方向33米左右",
        "tel": "",
        "category": "基础设施:公共设施:公共厕所",
        "type": 0,
        "location": {
            "lat": 31.356885,
            "lng": 107.705879
        },
        "ad_info": {
            "adcode": 511722,
            "province": "四川省",
            "city": "达州市",
            "district": "宣汉县"
        }
    },
    {
        "id": "2142719883190032055",
        "title": "公共厕所",
        "address": "四川省达州市通川区塔石路1056号莲子宝宝乐园",
        "tel": "",
        "category": "基础设施:公共设施:公共厕所",
        "type": 0,
        "location": {
            "lat": 31.252896,
            "lng": 107.463764
        },
        "ad_info": {
            "adcode": 511702,
            "province": "四川省",
            "city": "达州市",
            "district": "通川区"
        }
    },
    {
        "id": "11174853852554013171",
        "title": "公共厕所",
        "address": "四川省达州市渠县宕渠路南路与賨都大道西段交叉口西北方向177米左右",
        "tel": "",
        "category": "基础设施:公共设施:公共厕所",
        "type": 0,
        "location": {
            "lat": 30.83429,
            "lng": 106.978187
        },
        "ad_info": {
            "adcode": 511725,
            "province": "四川省",
            "city": "达州市",
            "district": "渠县"
        }
    },
    {
        "id": "11143272842123473878",
        "title": "工会驿站(山前路桔乐园段公共厕所)",
        "address": "四川省达州市通川区北牌路26号",
        "tel": "",
        "category": "基础设施:公共设施:公共厕所",
        "type": 0,
        "location": {
            "lat": 31.220884,
            "lng": 107.499609
        },
        "ad_info": {
            "adcode": 511702,
            "province": "四川省",
            "city": "达州市",
            "district": "通川区"
        }
    },
    {
        "id": "3348839671091165079",
        "title": "公共厕所",
        "address": "四川省达州市达川区通达东路与G65包茂高速出口交叉口东北200米",
        "tel": "",
        "category": "基础设施:公共设施:公共厕所",
        "type": 0,
        "location": {
            "lat": 31.196486,
            "lng": 107.517772
        },
        "ad_info": {
            "adcode": 511703,
            "province": "四川省",
            "city": "达州市",
            "district": "达川区"
        }
    },
    {
        "id": "17826307150624701446",
        "title": "公共厕所",
        "address": "四川省达州市通川区马家沟路与黑沟路交叉口西南方向131米左右",
        "tel": "",
        "category": "基础设施:公共设施:公共厕所",
        "type": 0,
        "location": {
            "lat": 31.218733,
            "lng": 107.493149
        },
        "ad_info": {
            "adcode": 511702,
            "province": "四川省",
            "city": "达州市",
            "district": "通川区"
        }
    },
    {
        "id": "13767663891309758280",
        "title": "磐石停车区公共厕所",
        "address": "四川省达州市通川区磐石停车区与G5012恩广高速交叉口南120米",
        "tel": "",
        "category": "基础设施:公共设施:公共厕所",
        "type": 0,
        "location": {
            "lat": 31.257967,
            "lng": 107.611563
        },
        "ad_info": {
            "adcode": 511702,
            "province": "四川省",
            "city": "达州市",
            "district": "通川区"
        }
    },
    {
        "id": "3830118799826347662",
        "title": "卫生间",
        "address": "四川省达州市达川区汉兴大道二段与黄石岭街交叉口东北180米达州升华广场2F",
        "tel": "",
        "category": "基础设施:公共设施:公共厕所",
        "type": 0,
        "location": {
            "lat": 31.184123,
            "lng": 107.512309
        },
        "ad_info": {
            "adcode": 511703,
            "province": "四川省",
            "city": "达州市",
            "district": "达川区"
        }
    },
    {
        "id": "11836891750789855061",
        "title": "公共厕所",
        "address": "四川省达州市开江县西大街与建设街交叉口东南140米",
        "tel": "",
        "category": "基础设施:公共设施:公共厕所",
        "type": 0,
        "location": {
            "lat": 31.082415,
            "lng": 107.861647
        },
        "ad_info": {
            "adcode": 511723,
            "province": "四川省",
            "city": "达州市",
            "district": "开江县"
        }
    },
    {
        "id": "6944048151285829706",
        "title": "卫生间",
        "address": "四川省达州市达川区汉兴大道二段与黄石岭街交叉口东北180米达州升华广场3F",
        "tel": "",
        "category": "基础设施:公共设施:公共厕所",
        "type": 0,
        "location": {
            "lat": 31.184128,
            "lng": 107.512313
        },
        "ad_info": {
            "adcode": 511703,
            "province": "四川省",
            "city": "达州市",
            "district": "达川区"
        }
    },
    {
        "id": "12025789575488261640",
        "title": "公共厕所",
        "address": "四川省达州市达川区中心街与教师街交叉口正南方向40米左右",
        "tel": "",
        "category": "基础设施:公共设施:公共厕所",
        "type": 0,
        "location": {
            "lat": 31.020069,
            "lng": 107.452038
        },
        "ad_info": {
            "adcode": 511703,
            "province": "四川省",
            "city": "达州市",
            "district": "达川区"
        }
    },
    {
        "id": "8895682049440171108",
        "title": "公共厕所",
        "address": "四川省达州市通川区金兰路105号罗浮广场3F",
        "tel": "",
        "category": "基础设施:公共设施:公共厕所",
        "type": 0,
        "location": {
            "lat": 31.206374,
            "lng": 107.471573
        },
        "ad_info": {
            "adcode": 511702,
            "province": "四川省",
            "city": "达州市",
            "district": "通川区"
        }
    },
    {
        "id": "295323541547879366",
        "title": "公共厕所",
        "address": "四川省达州市通川区金兰路105号罗浮广场4F",
        "tel": "",
        "category": "基础设施:公共设施:公共厕所",
        "type": 0,
        "location": {
            "lat": 31.206211,
            "lng": 107.471124
        },
        "ad_info": {
            "adcode": 511702,
            "province": "四川省",
            "city": "达州市",
            "district": "通川区"
        }
    },
    {
        "id": "4814020657749346456",
        "title": "公共厕所",
        "address": "四川省达州市通川区九凤路与凤凰大桥交叉口西北方向264米左右",
        "tel": "",
        "category": "基础设施:公共设施:公共厕所",
        "type": 0,
        "location": {
            "lat": 31.223425,
            "lng": 107.521781
        },
        "ad_info": {
            "adcode": 511702,
            "province": "四川省",
            "city": "达州市",
            "district": "通川区"
        }
    },
    {
        "id": "2478853514418094756",
        "title": "公共厕所",
        "address": "四川省达州市大竹县垃圾中转站旁",
        "tel": "",
        "category": "基础设施:公共设施:公共厕所",
        "type": 0,
        "location": {
            "lat": 30.738855,
            "lng": 107.247365
        },
        "ad_info": {
            "adcode": 511724,
            "province": "四川省",
            "city": "达州市",
            "district": "大竹县"
        }
    },
    {
        "id": "8627039368398503420",
        "title": "公共厕所",
        "address": "四川省达州市万源市将军大道与福鑫大道交叉口东南方向216米左右",
        "tel": "",
        "category": "基础设施:公共设施:公共厕所",
        "type": 0,
        "location": {
            "lat": 32.060861,
            "lng": 108.034622
        },
        "ad_info": {
            "adcode": 511781,
            "province": "四川省",
            "city": "达州市",
            "district": "万源市"
        }
    },
    {
        "id": "3963153343178169788",
        "title": "碑庙停车区公共厕所",
        "address": "四川省达州市通川区G5012恩广高速与碑庙停车区交叉口西北160米",
        "tel": "",
        "category": "基础设施:公共设施:公共厕所",
        "type": 0,
        "location": {
            "lat": 31.441718,
            "lng": 107.333135
        },
        "ad_info": {
            "adcode": 511702,
            "province": "四川省",
            "city": "达州市",
            "district": "通川区"
        }
    },
    {
        "id": "5279570953234553872",
        "title": "公共厕所",
        "address": "四川省达州市渠县下河街与河街交叉口正北方向461米左右",
        "tel": "",
        "category": "基础设施:公共设施:公共厕所",
        "type": 0,
        "location": {
            "lat": 31.131409,
            "lng": 107.076098
        },
        "ad_info": {
            "adcode": 511725,
            "province": "四川省",
            "city": "达州市",
            "district": "渠县"
        }
    },
    {
        "id": "3333659513379406618",
        "title": "公共厕所",
        "address": "四川省达州市达川区乌梅山庄南侧120米",
        "tel": "",
        "category": "基础设施:公共设施:公共厕所",
        "type": 0,
        "location": {
            "lat": 30.971201,
            "lng": 107.488424
        },
        "ad_info": {
            "adcode": 511703,
            "province": "四川省",
            "city": "达州市",
            "district": "达川区"
        }
    },
    {
        "id": "7690036753144882075",
        "title": "公共厕所",
        "address": "四川省达州市通川区东莲路与莲湖东路交叉口西南方向172米左右",
        "tel": "",
        "category": "基础设施:公共设施:公共厕所",
        "type": 0,
        "location": {
            "lat": 31.251291,
            "lng": 107.46613
        },
        "ad_info": {
            "adcode": 511702,
            "province": "四川省",
            "city": "达州市",
            "district": "通川区"
        }
    },
    {
        "id": "263859497187705914",
        "title": "卫生间",
        "address": "四川省达州市宣汉县太和街与金川路交叉口东北方向33米左右",
        "tel": "",
        "category": "基础设施:公共设施:公共厕所",
        "type": 0,
        "location": {
            "lat": 31.356885,
            "lng": 107.705879
        },
        "ad_info": {
            "adcode": 511722,
            "province": "四川省",
            "city": "达州市",
            "district": "宣汉县"
        }
    },
    {
        "id": "2142719883190032055",
        "title": "公共厕所",
        "address": "四川省达州市通川区塔石路1056号莲子宝宝乐园",
        "tel": "",
        "category": "基础设施:公共设施:公共厕所",
        "type": 0,
        "location": {
            "lat": 31.252896,
            "lng": 107.463764
        },
        "ad_info": {
            "adcode": 511702,
            "province": "四川省",
            "city": "达州市",
            "district": "通川区"
        }
    },
    {
        "id": "11174853852554013171",
        "title": "公共厕所",
        "address": "四川省达州市渠县宕渠路南路与賨都大道西段交叉口西北方向177米左右",
        "tel": "",
        "category": "基础设施:公共设施:公共厕所",
        "type": 0,
        "location": {
            "lat": 30.83429,
            "lng": 106.978187
        },
        "ad_info": {
            "adcode": 511725,
            "province": "四川省",
            "city": "达州市",
            "district": "渠县"
        }
    },
    {
        "id": "11143272842123473878",
        "title": "工会驿站(山前路桔乐园段公共厕所)",
        "address": "四川省达州市通川区北牌路26号",
        "tel": "",
        "category": "基础设施:公共设施:公共厕所",
        "type": 0,
        "location": {
            "lat": 31.220884,
            "lng": 107.499609
        },
        "ad_info": {
            "adcode": 511702,
            "province": "四川省",
            "city": "达州市",
            "district": "通川区"
        }
    },
    {
        "id": "3348839671091165079",
        "title": "公共厕所",
        "address": "四川省达州市达川区通达东路与G65包茂高速出口交叉口东北200米",
        "tel": "",
        "category": "基础设施:公共设施:公共厕所",
        "type": 0,
        "location": {
            "lat": 31.196486,
            "lng": 107.517772
        },
        "ad_info": {
            "adcode": 511703,
            "province": "四川省",
            "city": "达州市",
            "district": "达川区"
        }
    },
    {
        "id": "17826307150624701446",
        "title": "公共厕所",
        "address": "四川省达州市通川区马家沟路与黑沟路交叉口西南方向131米左右",
        "tel": "",
        "category": "基础设施:公共设施:公共厕所",
        "type": 0,
        "location": {
            "lat": 31.218733,
            "lng": 107.493149
        },
        "ad_info": {
            "adcode": 511702,
            "province": "四川省",
            "city": "达州市",
            "district": "通川区"
        }
    },
    {
        "id": "13767663891309758280",
        "title": "磐石停车区公共厕所",
        "address": "四川省达州市通川区磐石停车区与G5012恩广高速交叉口南120米",
        "tel": "",
        "category": "基础设施:公共设施:公共厕所",
        "type": 0,
        "location": {
            "lat": 31.257967,
            "lng": 107.611563
        },
        "ad_info": {
            "adcode": 511702,
            "province": "四川省",
            "city": "达州市",
            "district": "通川区"
        }
    },
    {
        "id": "3830118799826347662",
        "title": "卫生间",
        "address": "四川省达州市达川区汉兴大道二段与黄石岭街交叉口东北180米达州升华广场2F",
        "tel": "",
        "category": "基础设施:公共设施:公共厕所",
        "type": 0,
        "location": {
            "lat": 31.184123,
            "lng": 107.512309
        },
        "ad_info": {
            "adcode": 511703,
            "province": "四川省",
            "city": "达州市",
            "district": "达川区"
        }
    },
    {
        "id": "11836891750789855061",
        "title": "公共厕所",
        "address": "四川省达州市开江县西大街与建设街交叉口东南140米",
        "tel": "",
        "category": "基础设施:公共设施:公共厕所",
        "type": 0,
        "location": {
            "lat": 31.082415,
            "lng": 107.861647
        },
        "ad_info": {
            "adcode": 511723,
            "province": "四川省",
            "city": "达州市",
            "district": "开江县"
        }
    },
    {
        "id": "6944048151285829706",
        "title": "卫生间",
        "address": "四川省达州市达川区汉兴大道二段与黄石岭街交叉口东北180米达州升华广场3F",
        "tel": "",
        "category": "基础设施:公共设施:公共厕所",
        "type": 0,
        "location": {
            "lat": 31.184128,
            "lng": 107.512313
        },
        "ad_info": {
            "adcode": 511703,
            "province": "四川省",
            "city": "达州市",
            "district": "达川区"
        }
    },
    {
        "id": "12025789575488261640",
        "title": "公共厕所",
        "address": "四川省达州市达川区中心街与教师街交叉口正南方向40米左右",
        "tel": "",
        "category": "基础设施:公共设施:公共厕所",
        "type": 0,
        "location": {
            "lat": 31.020069,
            "lng": 107.452038
        },
        "ad_info": {
            "adcode": 511703,
            "province": "四川省",
            "city": "达州市",
            "district": "达川区"
        }
    },
    {
        "id": "8895682049440171108",
        "title": "公共厕所",
        "address": "四川省达州市通川区金兰路105号罗浮广场3F",
        "tel": "",
        "category": "基础设施:公共设施:公共厕所",
        "type": 0,
        "location": {
            "lat": 31.206374,
            "lng": 107.471573
        },
        "ad_info": {
            "adcode": 511702,
            "province": "四川省",
            "city": "达州市",
            "district": "通川区"
        }
    },
    {
        "id": "295323541547879366",
        "title": "公共厕所",
        "address": "四川省达州市通川区金兰路105号罗浮广场4F",
        "tel": "",
        "category": "基础设施:公共设施:公共厕所",
        "type": 0,
        "location": {
            "lat": 31.206211,
            "lng": 107.471124
        },
        "ad_info": {
            "adcode": 511702,
            "province": "四川省",
            "city": "达州市",
            "district": "通川区"
        }
    },
    {
        "id": "4814020657749346456",
        "title": "公共厕所",
        "address": "四川省达州市通川区九凤路与凤凰大桥交叉口西北方向264米左右",
        "tel": "",
        "category": "基础设施:公共设施:公共厕所",
        "type": 0,
        "location": {
            "lat": 31.223425,
            "lng": 107.521781
        },
        "ad_info": {
            "adcode": 511702,
            "province": "四川省",
            "city": "达州市",
            "district": "通川区"
        }
    },
    {
        "id": "2478853514418094756",
        "title": "公共厕所",
        "address": "四川省达州市大竹县垃圾中转站旁",
        "tel": "",
        "category": "基础设施:公共设施:公共厕所",
        "type": 0,
        "location": {
            "lat": 30.738855,
            "lng": 107.247365
        },
        "ad_info": {
            "adcode": 511724,
            "province": "四川省",
            "city": "达州市",
            "district": "大竹县"
        }
    },
    {
        "id": "8627039368398503420",
        "title": "公共厕所",
        "address": "四川省达州市万源市将军大道与福鑫大道交叉口东南方向216米左右",
        "tel": "",
        "category": "基础设施:公共设施:公共厕所",
        "type": 0,
        "location": {
            "lat": 32.060861,
            "lng": 108.034622
        },
        "ad_info": {
            "adcode": 511781,
            "province": "四川省",
            "city": "达州市",
            "district": "万源市"
        }
    },
    {
        "id": "3963153343178169788",
        "title": "碑庙停车区公共厕所",
        "address": "四川省达州市通川区G5012恩广高速与碑庙停车区交叉口西北160米",
        "tel": "",
        "category": "基础设施:公共设施:公共厕所",
        "type": 0,
        "location": {
            "lat": 31.441718,
            "lng": 107.333135
        },
        "ad_info": {
            "adcode": 511702,
            "province": "四川省",
            "city": "达州市",
            "district": "通川区"
        }
    },
    {
        "id": "5279570953234553872",
        "title": "公共厕所",
        "address": "四川省达州市渠县下河街与河街交叉口正北方向461米左右",
        "tel": "",
        "category": "基础设施:公共设施:公共厕所",
        "type": 0,
        "location": {
            "lat": 31.131409,
            "lng": 107.076098
        },
        "ad_info": {
            "adcode": 511725,
            "province": "四川省",
            "city": "达州市",
            "district": "渠县"
        }
    },
    {
        "id": "3333659513379406618",
        "title": "公共厕所",
        "address": "四川省达州市达川区乌梅山庄南侧120米",
        "tel": "",
        "category": "基础设施:公共设施:公共厕所",
        "type": 0,
        "location": {
            "lat": 30.971201,
            "lng": 107.488424
        },
        "ad_info": {
            "adcode": 511703,
            "province": "四川省",
            "city": "达州市",
            "district": "达川区"
        }
    },
    {
        "id": "7690036753144882075",
        "title": "公共厕所",
        "address": "四川省达州市通川区东莲路与莲湖东路交叉口西南方向172米左右",
        "tel": "",
        "category": "基础设施:公共设施:公共厕所",
        "type": 0,
        "location": {
            "lat": 31.251291,
            "lng": 107.46613
        },
        "ad_info": {
            "adcode": 511702,
            "province": "四川省",
            "city": "达州市",
            "district": "通川区"
        }
    },
    {
        "id": "263859497187705914",
        "title": "卫生间",
        "address": "四川省达州市宣汉县太和街与金川路交叉口东北方向33米左右",
        "tel": "",
        "category": "基础设施:公共设施:公共厕所",
        "type": 0,
        "location": {
            "lat": 31.356885,
            "lng": 107.705879
        },
        "ad_info": {
            "adcode": 511722,
            "province": "四川省",
            "city": "达州市",
            "district": "宣汉县"
        }
    },
    {
        "id": "2142719883190032055",
        "title": "公共厕所",
        "address": "四川省达州市通川区塔石路1056号莲子宝宝乐园",
        "tel": "",
        "category": "基础设施:公共设施:公共厕所",
        "type": 0,
        "location": {
            "lat": 31.252896,
            "lng": 107.463764
        },
        "ad_info": {
            "adcode": 511702,
            "province": "四川省",
            "city": "达州市",
            "district": "通川区"
        }
    },
    {
        "id": "11174853852554013171",
        "title": "公共厕所",
        "address": "四川省达州市渠县宕渠路南路与賨都大道西段交叉口西北方向177米左右",
        "tel": "",
        "category": "基础设施:公共设施:公共厕所",
        "type": 0,
        "location": {
            "lat": 30.83429,
            "lng": 106.978187
        },
        "ad_info": {
            "adcode": 511725,
            "province": "四川省",
            "city": "达州市",
            "district": "渠县"
        }
    },
    {
        "id": "11143272842123473878",
        "title": "工会驿站(山前路桔乐园段公共厕所)",
        "address": "四川省达州市通川区北牌路26号",
        "tel": "",
        "category": "基础设施:公共设施:公共厕所",
        "type": 0,
        "location": {
            "lat": 31.220884,
            "lng": 107.499609
        },
        "ad_info": {
            "adcode": 511702,
            "province": "四川省",
            "city": "达州市",
            "district": "通川区"
        }
    },
    {
        "id": "3348839671091165079",
        "title": "公共厕所",
        "address": "四川省达州市达川区通达东路与G65包茂高速出口交叉口东北200米",
        "tel": "",
        "category": "基础设施:公共设施:公共厕所",
        "type": 0,
        "location": {
            "lat": 31.196486,
            "lng": 107.517772
        },
        "ad_info": {
            "adcode": 511703,
            "province": "四川省",
            "city": "达州市",
            "district": "达川区"
        }
    },
    {
        "id": "17826307150624701446",
        "title": "公共厕所",
        "address": "四川省达州市通川区马家沟路与黑沟路交叉口西南方向131米左右",
        "tel": "",
        "category": "基础设施:公共设施:公共厕所",
        "type": 0,
        "location": {
            "lat": 31.218733,
            "lng": 107.493149
        },
        "ad_info": {
            "adcode": 511702,
            "province": "四川省",
            "city": "达州市",
            "district": "通川区"
        }
    },
    {
        "id": "13767663891309758280",
        "title": "磐石停车区公共厕所",
        "address": "四川省达州市通川区磐石停车区与G5012恩广高速交叉口南120米",
        "tel": "",
        "category": "基础设施:公共设施:公共厕所",
        "type": 0,
        "location": {
            "lat": 31.257967,
            "lng": 107.611563
        },
        "ad_info": {
            "adcode": 511702,
            "province": "四川省",
            "city": "达州市",
            "district": "通川区"
        }
    },
    {
        "id": "3830118799826347662",
        "title": "卫生间",
        "address": "四川省达州市达川区汉兴大道二段与黄石岭街交叉口东北180米达州升华广场2F",
        "tel": "",
        "category": "基础设施:公共设施:公共厕所",
        "type": 0,
        "location": {
            "lat": 31.184123,
            "lng": 107.512309
        },
        "ad_info": {
            "adcode": 511703,
            "province": "四川省",
            "city": "达州市",
            "district": "达川区"
        }
    },
    {
        "id": "11836891750789855061",
        "title": "公共厕所",
        "address": "四川省达州市开江县西大街与建设街交叉口东南140米",
        "tel": "",
        "category": "基础设施:公共设施:公共厕所",
        "type": 0,
        "location": {
            "lat": 31.082415,
            "lng": 107.861647
        },
        "ad_info": {
            "adcode": 511723,
            "province": "四川省",
            "city": "达州市",
            "district": "开江县"
        }
    },
    {
        "id": "6944048151285829706",
        "title": "卫生间",
        "address": "四川省达州市达川区汉兴大道二段与黄石岭街交叉口东北180米达州升华广场3F",
        "tel": "",
        "category": "基础设施:公共设施:公共厕所",
        "type": 0,
        "location": {
            "lat": 31.184128,
            "lng": 107.512313
        },
        "ad_info": {
            "adcode": 511703,
            "province": "四川省",
            "city": "达州市",
            "district": "达川区"
        }
    },
    {
        "id": "12025789575488261640",
        "title": "公共厕所",
        "address": "四川省达州市达川区中心街与教师街交叉口正南方向40米左右",
        "tel": "",
        "category": "基础设施:公共设施:公共厕所",
        "type": 0,
        "location": {
            "lat": 31.020069,
            "lng": 107.452038
        },
        "ad_info": {
            "adcode": 511703,
            "province": "四川省",
            "city": "达州市",
            "district": "达川区"
        }
    },
    {
        "id": "8895682049440171108",
        "title": "公共厕所",
        "address": "四川省达州市通川区金兰路105号罗浮广场3F",
        "tel": "",
        "category": "基础设施:公共设施:公共厕所",
        "type": 0,
        "location": {
            "lat": 31.206374,
            "lng": 107.471573
        },
        "ad_info": {
            "adcode": 511702,
            "province": "四川省",
            "city": "达州市",
            "district": "通川区"
        }
    },
    {
        "id": "295323541547879366",
        "title": "公共厕所",
        "address": "四川省达州市通川区金兰路105号罗浮广场4F",
        "tel": "",
        "category": "基础设施:公共设施:公共厕所",
        "type": 0,
        "location": {
            "lat": 31.206211,
            "lng": 107.471124
        },
        "ad_info": {
            "adcode": 511702,
            "province": "四川省",
            "city": "达州市",
            "district": "通川区"
        }
    },
    {
        "id": "4814020657749346456",
        "title": "公共厕所",
        "address": "四川省达州市通川区九凤路与凤凰大桥交叉口西北方向264米左右",
        "tel": "",
        "category": "基础设施:公共设施:公共厕所",
        "type": 0,
        "location": {
            "lat": 31.223425,
            "lng": 107.521781
        },
        "ad_info": {
            "adcode": 511702,
            "province": "四川省",
            "city": "达州市",
            "district": "通川区"
        }
    },
    {
        "id": "2478853514418094756",
        "title": "公共厕所",
        "address": "四川省达州市大竹县垃圾中转站旁",
        "tel": "",
        "category": "基础设施:公共设施:公共厕所",
        "type": 0,
        "location": {
            "lat": 30.738855,
            "lng": 107.247365
        },
        "ad_info": {
            "adcode": 511724,
            "province": "四川省",
            "city": "达州市",
            "district": "大竹县"
        }
    },
    {
        "id": "8627039368398503420",
        "title": "公共厕所",
        "address": "四川省达州市万源市将军大道与福鑫大道交叉口东南方向216米左右",
        "tel": "",
        "category": "基础设施:公共设施:公共厕所",
        "type": 0,
        "location": {
            "lat": 32.060861,
            "lng": 108.034622
        },
        "ad_info": {
            "adcode": 511781,
            "province": "四川省",
            "city": "达州市",
            "district": "万源市"
        }
    },
    {
        "id": "3963153343178169788",
        "title": "碑庙停车区公共厕所",
        "address": "四川省达州市通川区G5012恩广高速与碑庙停车区交叉口西北160米",
        "tel": "",
        "category": "基础设施:公共设施:公共厕所",
        "type": 0,
        "location": {
            "lat": 31.441718,
            "lng": 107.333135
        },
        "ad_info": {
            "adcode": 511702,
            "province": "四川省",
            "city": "达州市",
            "district": "通川区"
        }
    },
    {
        "id": "5279570953234553872",
        "title": "公共厕所",
        "address": "四川省达州市渠县下河街与河街交叉口正北方向461米左右",
        "tel": "",
        "category": "基础设施:公共设施:公共厕所",
        "type": 0,
        "location": {
            "lat": 31.131409,
            "lng": 107.076098
        },
        "ad_info": {
            "adcode": 511725,
            "province": "四川省",
            "city": "达州市",
            "district": "渠县"
        }
    },
    {
        "id": "3333659513379406618",
        "title": "公共厕所",
        "address": "四川省达州市达川区乌梅山庄南侧120米",
        "tel": "",
        "category": "基础设施:公共设施:公共厕所",
        "type": 0,
        "location": {
            "lat": 30.971201,
            "lng": 107.488424
        },
        "ad_info": {
            "adcode": 511703,
            "province": "四川省",
            "city": "达州市",
            "district": "达川区"
        }
    },
    {
        "id": "7690036753144882075",
        "title": "公共厕所",
        "address": "四川省达州市通川区东莲路与莲湖东路交叉口西南方向172米左右",
        "tel": "",
        "category": "基础设施:公共设施:公共厕所",
        "type": 0,
        "location": {
            "lat": 31.251291,
            "lng": 107.46613
        },
        "ad_info": {
            "adcode": 511702,
            "province": "四川省",
            "city": "达州市",
            "district": "通川区"
        }
    },
    {
        "id": "263859497187705914",
        "title": "卫生间",
        "address": "四川省达州市宣汉县太和街与金川路交叉口东北方向33米左右",
        "tel": "",
        "category": "基础设施:公共设施:公共厕所",
        "type": 0,
        "location": {
            "lat": 31.356885,
            "lng": 107.705879
        },
        "ad_info": {
            "adcode": 511722,
            "province": "四川省",
            "city": "达州市",
            "district": "宣汉县"
        }
    },
    {
        "id": "2142719883190032055",
        "title": "公共厕所",
        "address": "四川省达州市通川区塔石路1056号莲子宝宝乐园",
        "tel": "",
        "category": "基础设施:公共设施:公共厕所",
        "type": 0,
        "location": {
            "lat": 31.252896,
            "lng": 107.463764
        },
        "ad_info": {
            "adcode": 511702,
            "province": "四川省",
            "city": "达州市",
            "district": "通川区"
        }
    },
    {
        "id": "11174853852554013171",
        "title": "公共厕所",
        "address": "四川省达州市渠县宕渠路南路与賨都大道西段交叉口西北方向177米左右",
        "tel": "",
        "category": "基础设施:公共设施:公共厕所",
        "type": 0,
        "location": {
            "lat": 30.83429,
            "lng": 106.978187
        },
        "ad_info": {
            "adcode": 511725,
            "province": "四川省",
            "city": "达州市",
            "district": "渠县"
        }
    },
    {
        "id": "11143272842123473878",
        "title": "工会驿站(山前路桔乐园段公共厕所)",
        "address": "四川省达州市通川区北牌路26号",
        "tel": "",
        "category": "基础设施:公共设施:公共厕所",
        "type": 0,
        "location": {
            "lat": 31.220884,
            "lng": 107.499609
        },
        "ad_info": {
            "adcode": 511702,
            "province": "四川省",
            "city": "达州市",
            "district": "通川区"
        }
    },
    {
        "id": "3348839671091165079",
        "title": "公共厕所",
        "address": "四川省达州市达川区通达东路与G65包茂高速出口交叉口东北200米",
        "tel": "",
        "category": "基础设施:公共设施:公共厕所",
        "type": 0,
        "location": {
            "lat": 31.196486,
            "lng": 107.517772
        },
        "ad_info": {
            "adcode": 511703,
            "province": "四川省",
            "city": "达州市",
            "district": "达川区"
        }
    },
    {
        "id": "17826307150624701446",
        "title": "公共厕所",
        "address": "四川省达州市通川区马家沟路与黑沟路交叉口西南方向131米左右",
        "tel": "",
        "category": "基础设施:公共设施:公共厕所",
        "type": 0,
        "location": {
            "lat": 31.218733,
            "lng": 107.493149
        },
        "ad_info": {
            "adcode": 511702,
            "province": "四川省",
            "city": "达州市",
            "district": "通川区"
        }
    },
    {
        "id": "13767663891309758280",
        "title": "磐石停车区公共厕所",
        "address": "四川省达州市通川区磐石停车区与G5012恩广高速交叉口南120米",
        "tel": "",
        "category": "基础设施:公共设施:公共厕所",
        "type": 0,
        "location": {
            "lat": 31.257967,
            "lng": 107.611563
        },
        "ad_info": {
            "adcode": 511702,
            "province": "四川省",
            "city": "达州市",
            "district": "通川区"
        }
    },
    {
        "id": "3830118799826347662",
        "title": "卫生间",
        "address": "四川省达州市达川区汉兴大道二段与黄石岭街交叉口东北180米达州升华广场2F",
        "tel": "",
        "category": "基础设施:公共设施:公共厕所",
        "type": 0,
        "location": {
            "lat": 31.184123,
            "lng": 107.512309
        },
        "ad_info": {
            "adcode": 511703,
            "province": "四川省",
            "city": "达州市",
            "district": "达川区"
        }
    },
    {
        "id": "11836891750789855061",
        "title": "公共厕所",
        "address": "四川省达州市开江县西大街与建设街交叉口东南140米",
        "tel": "",
        "category": "基础设施:公共设施:公共厕所",
        "type": 0,
        "location": {
            "lat": 31.082415,
            "lng": 107.861647
        },
        "ad_info": {
            "adcode": 511723,
            "province": "四川省",
            "city": "达州市",
            "district": "开江县"
        }
    },
    {
        "id": "6944048151285829706",
        "title": "卫生间",
        "address": "四川省达州市达川区汉兴大道二段与黄石岭街交叉口东北180米达州升华广场3F",
        "tel": "",
        "category": "基础设施:公共设施:公共厕所",
        "type": 0,
        "location": {
            "lat": 31.184128,
            "lng": 107.512313
        },
        "ad_info": {
            "adcode": 511703,
            "province": "四川省",
            "city": "达州市",
            "district": "达川区"
        }
    },
    {
        "id": "12025789575488261640",
        "title": "公共厕所",
        "address": "四川省达州市达川区中心街与教师街交叉口正南方向40米左右",
        "tel": "",
        "category": "基础设施:公共设施:公共厕所",
        "type": 0,
        "location": {
            "lat": 31.020069,
            "lng": 107.452038
        },
        "ad_info": {
            "adcode": 511703,
            "province": "四川省",
            "city": "达州市",
            "district": "达川区"
        }
    },
    {
        "id": "8895682049440171108",
        "title": "公共厕所",
        "address": "四川省达州市通川区金兰路105号罗浮广场3F",
        "tel": "",
        "category": "基础设施:公共设施:公共厕所",
        "type": 0,
        "location": {
            "lat": 31.206374,
            "lng": 107.471573
        },
        "ad_info": {
            "adcode": 511702,
            "province": "四川省",
            "city": "达州市",
            "district": "通川区"
        }
    },
    {
        "id": "295323541547879366",
        "title": "公共厕所",
        "address": "四川省达州市通川区金兰路105号罗浮广场4F",
        "tel": "",
        "category": "基础设施:公共设施:公共厕所",
        "type": 0,
        "location": {
            "lat": 31.206211,
            "lng": 107.471124
        },
        "ad_info": {
            "adcode": 511702,
            "province": "四川省",
            "city": "达州市",
            "district": "通川区"
        }
    },
    {
        "id": "4814020657749346456",
        "title": "公共厕所",
        "address": "四川省达州市通川区九凤路与凤凰大桥交叉口西北方向264米左右",
        "tel": "",
        "category": "基础设施:公共设施:公共厕所",
        "type": 0,
        "location": {
            "lat": 31.223425,
            "lng": 107.521781
        },
        "ad_info": {
            "adcode": 511702,
            "province": "四川省",
            "city": "达州市",
            "district": "通川区"
        }
    },
    {
        "id": "2478853514418094756",
        "title": "公共厕所",
        "address": "四川省达州市大竹县垃圾中转站旁",
        "tel": "",
        "category": "基础设施:公共设施:公共厕所",
        "type": 0,
        "location": {
            "lat": 30.738855,
            "lng": 107.247365
        },
        "ad_info": {
            "adcode": 511724,
            "province": "四川省",
            "city": "达州市",
            "district": "大竹县"
        }
    },
    {
        "id": "8627039368398503420",
        "title": "公共厕所",
        "address": "四川省达州市万源市将军大道与福鑫大道交叉口东南方向216米左右",
        "tel": "",
        "category": "基础设施:公共设施:公共厕所",
        "type": 0,
        "location": {
            "lat": 32.060861,
            "lng": 108.034622
        },
        "ad_info": {
            "adcode": 511781,
            "province": "四川省",
            "city": "达州市",
            "district": "万源市"
        }
    },
    {
        "id": "3963153343178169788",
        "title": "碑庙停车区公共厕所",
        "address": "四川省达州市通川区G5012恩广高速与碑庙停车区交叉口西北160米",
        "tel": "",
        "category": "基础设施:公共设施:公共厕所",
        "type": 0,
        "location": {
            "lat": 31.441718,
            "lng": 107.333135
        },
        "ad_info": {
            "adcode": 511702,
            "province": "四川省",
            "city": "达州市",
            "district": "通川区"
        }
    },
    {
        "id": "5279570953234553872",
        "title": "公共厕所",
        "address": "四川省达州市渠县下河街与河街交叉口正北方向461米左右",
        "tel": "",
        "category": "基础设施:公共设施:公共厕所",
        "type": 0,
        "location": {
            "lat": 31.131409,
            "lng": 107.076098
        },
        "ad_info": {
            "adcode": 511725,
            "province": "四川省",
            "city": "达州市",
            "district": "渠县"
        }
    },
    {
        "id": "3333659513379406618",
        "title": "公共厕所",
        "address": "四川省达州市达川区乌梅山庄南侧120米",
        "tel": "",
        "category": "基础设施:公共设施:公共厕所",
        "type": 0,
        "location": {
            "lat": 30.971201,
            "lng": 107.488424
        },
        "ad_info": {
            "adcode": 511703,
            "province": "四川省",
            "city": "达州市",
            "district": "达川区"
        }
    },
    {
        "id": "7690036753144882075",
        "title": "公共厕所",
        "address": "四川省达州市通川区东莲路与莲湖东路交叉口西南方向172米左右",
        "tel": "",
        "category": "基础设施:公共设施:公共厕所",
        "type": 0,
        "location": {
            "lat": 31.251291,
            "lng": 107.46613
        },
        "ad_info": {
            "adcode": 511702,
            "province": "四川省",
            "city": "达州市",
            "district": "通川区"
        }
    },
    {
        "id": "263859497187705914",
        "title": "卫生间",
        "address": "四川省达州市宣汉县太和街与金川路交叉口东北方向33米左右",
        "tel": "",
        "category": "基础设施:公共设施:公共厕所",
        "type": 0,
        "location": {
            "lat": 31.356885,
            "lng": 107.705879
        },
        "ad_info": {
            "adcode": 511722,
            "province": "四川省",
            "city": "达州市",
            "district": "宣汉县"
        }
    },
    {
        "id": "2142719883190032055",
        "title": "公共厕所",
        "address": "四川省达州市通川区塔石路1056号莲子宝宝乐园",
        "tel": "",
        "category": "基础设施:公共设施:公共厕所",
        "type": 0,
        "location": {
            "lat": 31.252896,
            "lng": 107.463764
        },
        "ad_info": {
            "adcode": 511702,
            "province": "四川省",
            "city": "达州市",
            "district": "通川区"
        }
    },
    {
        "id": "11174853852554013171",
        "title": "公共厕所",
        "address": "四川省达州市渠县宕渠路南路与賨都大道西段交叉口西北方向177米左右",
        "tel": "",
        "category": "基础设施:公共设施:公共厕所",
        "type": 0,
        "location": {
            "lat": 30.83429,
            "lng": 106.978187
        },
        "ad_info": {
            "adcode": 511725,
            "province": "四川省",
            "city": "达州市",
            "district": "渠县"
        }
    },
    {
        "id": "11143272842123473878",
        "title": "工会驿站(山前路桔乐园段公共厕所)",
        "address": "四川省达州市通川区北牌路26号",
        "tel": "",
        "category": "基础设施:公共设施:公共厕所",
        "type": 0,
        "location": {
            "lat": 31.220884,
            "lng": 107.499609
        },
        "ad_info": {
            "adcode": 511702,
            "province": "四川省",
            "city": "达州市",
            "district": "通川区"
        }
    },
    {
        "id": "3348839671091165079",
        "title": "公共厕所",
        "address": "四川省达州市达川区通达东路与G65包茂高速出口交叉口东北200米",
        "tel": "",
        "category": "基础设施:公共设施:公共厕所",
        "type": 0,
        "location": {
            "lat": 31.196486,
            "lng": 107.517772
        },
        "ad_info": {
            "adcode": 511703,
            "province": "四川省",
            "city": "达州市",
            "district": "达川区"
        }
    },
    {
        "id": "17826307150624701446",
        "title": "公共厕所",
        "address": "四川省达州市通川区马家沟路与黑沟路交叉口西南方向131米左右",
        "tel": "",
        "category": "基础设施:公共设施:公共厕所",
        "type": 0,
        "location": {
            "lat": 31.218733,
            "lng": 107.493149
        },
        "ad_info": {
            "adcode": 511702,
            "province": "四川省",
            "city": "达州市",
            "district": "通川区"
        }
    },
    {
        "id": "13767663891309758280",
        "title": "磐石停车区公共厕所",
        "address": "四川省达州市通川区磐石停车区与G5012恩广高速交叉口南120米",
        "tel": "",
        "category": "基础设施:公共设施:公共厕所",
        "type": 0,
        "location": {
            "lat": 31.257967,
            "lng": 107.611563
        },
        "ad_info": {
            "adcode": 511702,
            "province": "四川省",
            "city": "达州市",
            "district": "通川区"
        }
    },
    {
        "id": "3830118799826347662",
        "title": "卫生间",
        "address": "四川省达州市达川区汉兴大道二段与黄石岭街交叉口东北180米达州升华广场2F",
        "tel": "",
        "category": "基础设施:公共设施:公共厕所",
        "type": 0,
        "location": {
            "lat": 31.184123,
            "lng": 107.512309
        },
        "ad_info": {
            "adcode": 511703,
            "province": "四川省",
            "city": "达州市",
            "district": "达川区"
        }
    },
    {
        "id": "11836891750789855061",
        "title": "公共厕所",
        "address": "四川省达州市开江县西大街与建设街交叉口东南140米",
        "tel": "",
        "category": "基础设施:公共设施:公共厕所",
        "type": 0,
        "location": {
            "lat": 31.082415,
            "lng": 107.861647
        },
        "ad_info": {
            "adcode": 511723,
            "province": "四川省",
            "city": "达州市",
            "district": "开江县"
        }
    },
    {
        "id": "6944048151285829706",
        "title": "卫生间",
        "address": "四川省达州市达川区汉兴大道二段与黄石岭街交叉口东北180米达州升华广场3F",
        "tel": "",
        "category": "基础设施:公共设施:公共厕所",
        "type": 0,
        "location": {
            "lat": 31.184128,
            "lng": 107.512313
        },
        "ad_info": {
            "adcode": 511703,
            "province": "四川省",
            "city": "达州市",
            "district": "达川区"
        }
    },
    {
        "id": "12025789575488261640",
        "title": "公共厕所",
        "address": "四川省达州市达川区中心街与教师街交叉口正南方向40米左右",
        "tel": "",
        "category": "基础设施:公共设施:公共厕所",
        "type": 0,
        "location": {
            "lat": 31.020069,
            "lng": 107.452038
        },
        "ad_info": {
            "adcode": 511703,
            "province": "四川省",
            "city": "达州市",
            "district": "达川区"
        }
    },
    {
        "id": "8895682049440171108",
        "title": "公共厕所",
        "address": "四川省达州市通川区金兰路105号罗浮广场3F",
        "tel": "",
        "category": "基础设施:公共设施:公共厕所",
        "type": 0,
        "location": {
            "lat": 31.206374,
            "lng": 107.471573
        },
        "ad_info": {
            "adcode": 511702,
            "province": "四川省",
            "city": "达州市",
            "district": "通川区"
        }
    },
    {
        "id": "295323541547879366",
        "title": "公共厕所",
        "address": "四川省达州市通川区金兰路105号罗浮广场4F",
        "tel": "",
        "category": "基础设施:公共设施:公共厕所",
        "type": 0,
        "location": {
            "lat": 31.206211,
            "lng": 107.471124
        },
        "ad_info": {
            "adcode": 511702,
            "province": "四川省",
            "city": "达州市",
            "district": "通川区"
        }
    },
    {
        "id": "4814020657749346456",
        "title": "公共厕所",
        "address": "四川省达州市通川区九凤路与凤凰大桥交叉口西北方向264米左右",
        "tel": "",
        "category": "基础设施:公共设施:公共厕所",
        "type": 0,
        "location": {
            "lat": 31.223425,
            "lng": 107.521781
        },
        "ad_info": {
            "adcode": 511702,
            "province": "四川省",
            "city": "达州市",
            "district": "通川区"
        }
    },
    {
        "id": "2478853514418094756",
        "title": "公共厕所",
        "address": "四川省达州市大竹县垃圾中转站旁",
        "tel": "",
        "category": "基础设施:公共设施:公共厕所",
        "type": 0,
        "location": {
            "lat": 30.738855,
            "lng": 107.247365
        },
        "ad_info": {
            "adcode": 511724,
            "province": "四川省",
            "city": "达州市",
            "district": "大竹县"
        }
    },
    {
        "id": "8627039368398503420",
        "title": "公共厕所",
        "address": "四川省达州市万源市将军大道与福鑫大道交叉口东南方向216米左右",
        "tel": "",
        "category": "基础设施:公共设施:公共厕所",
        "type": 0,
        "location": {
            "lat": 32.060861,
            "lng": 108.034622
        },
        "ad_info": {
            "adcode": 511781,
            "province": "四川省",
            "city": "达州市",
            "district": "万源市"
        }
    },
    {
        "id": "3963153343178169788",
        "title": "碑庙停车区公共厕所",
        "address": "四川省达州市通川区G5012恩广高速与碑庙停车区交叉口西北160米",
        "tel": "",
        "category": "基础设施:公共设施:公共厕所",
        "type": 0,
        "location": {
            "lat": 31.441718,
            "lng": 107.333135
        },
        "ad_info": {
            "adcode": 511702,
            "province": "四川省",
            "city": "达州市",
            "district": "通川区"
        }
    },
    {
        "id": "5279570953234553872",
        "title": "公共厕所",
        "address": "四川省达州市渠县下河街与河街交叉口正北方向461米左右",
        "tel": "",
        "category": "基础设施:公共设施:公共厕所",
        "type": 0,
        "location": {
            "lat": 31.131409,
            "lng": 107.076098
        },
        "ad_info": {
            "adcode": 511725,
            "province": "四川省",
            "city": "达州市",
            "district": "渠县"
        }
    },
    {
        "id": "3333659513379406618",
        "title": "公共厕所",
        "address": "四川省达州市达川区乌梅山庄南侧120米",
        "tel": "",
        "category": "基础设施:公共设施:公共厕所",
        "type": 0,
        "location": {
            "lat": 30.971201,
            "lng": 107.488424
        },
        "ad_info": {
            "adcode": 511703,
            "province": "四川省",
            "city": "达州市",
            "district": "达川区"
        }
    },
    {
        "id": "7690036753144882075",
        "title": "公共厕所",
        "address": "四川省达州市通川区东莲路与莲湖东路交叉口西南方向172米左右",
        "tel": "",
        "category": "基础设施:公共设施:公共厕所",
        "type": 0,
        "location": {
            "lat": 31.251291,
            "lng": 107.46613
        },
        "ad_info": {
            "adcode": 511702,
            "province": "四川省",
            "city": "达州市",
            "district": "通川区"
        }
    },
    {
        "id": "263859497187705914",
        "title": "卫生间",
        "address": "四川省达州市宣汉县太和街与金川路交叉口东北方向33米左右",
        "tel": "",
        "category": "基础设施:公共设施:公共厕所",
        "type": 0,
        "location": {
            "lat": 31.356885,
            "lng": 107.705879
        },
        "ad_info": {
            "adcode": 511722,
            "province": "四川省",
            "city": "达州市",
            "district": "宣汉县"
        }
    },
    {
        "id": "2142719883190032055",
        "title": "公共厕所",
        "address": "四川省达州市通川区塔石路1056号莲子宝宝乐园",
        "tel": "",
        "category": "基础设施:公共设施:公共厕所",
        "type": 0,
        "location": {
            "lat": 31.252896,
            "lng": 107.463764
        },
        "ad_info": {
            "adcode": 511702,
            "province": "四川省",
            "city": "达州市",
            "district": "通川区"
        }
    },
    {
        "id": "11174853852554013171",
        "title": "公共厕所",
        "address": "四川省达州市渠县宕渠路南路与賨都大道西段交叉口西北方向177米左右",
        "tel": "",
        "category": "基础设施:公共设施:公共厕所",
        "type": 0,
        "location": {
            "lat": 30.83429,
            "lng": 106.978187
        },
        "ad_info": {
            "adcode": 511725,
            "province": "四川省",
            "city": "达州市",
            "district": "渠县"
        }
    },
    {
        "id": "11143272842123473878",
        "title": "工会驿站(山前路桔乐园段公共厕所)",
        "address": "四川省达州市通川区北牌路26号",
        "tel": "",
        "category": "基础设施:公共设施:公共厕所",
        "type": 0,
        "location": {
            "lat": 31.220884,
            "lng": 107.499609
        },
        "ad_info": {
            "adcode": 511702,
            "province": "四川省",
            "city": "达州市",
            "district": "通川区"
        }
    },
    {
        "id": "3348839671091165079",
        "title": "公共厕所",
        "address": "四川省达州市达川区通达东路与G65包茂高速出口交叉口东北200米",
        "tel": "",
        "category": "基础设施:公共设施:公共厕所",
        "type": 0,
        "location": {
            "lat": 31.196486,
            "lng": 107.517772
        },
        "ad_info": {
            "adcode": 511703,
            "province": "四川省",
            "city": "达州市",
            "district": "达川区"
        }
    }
]