[
    {
        "id": "8572223145327559331",
        "title": "公共厕所",
        "address": "云南省迪庆藏族自治州香格里拉市勒波多廊与金龙街交叉口正西方向209米左右",
        "tel": "",
        "category": "基础设施:公共设施:公共厕所",
        "type": 0,
        "location": {
            "lat": 27.810427,
            "lng": 99.708063
        },
        "ad_info": {
            "adcode": 533401,
            "province": "云南省",
            "city": "迪庆藏族自治州",
            "district": "香格里拉市"
        }
    },
    {
        "id": "17152844107473300266",
        "title": "公共厕所",
        "address": "云南省迪庆藏族自治州香格里拉市安定路与香格里拉路交叉口西北方向97米左右",
        "tel": "",
        "category": "基础设施:公共设施:公共厕所",
        "type": 0,
        "location": {
            "lat": 27.834665,
            "lng": 99.726937
        },
        "ad_info": {
            "adcode": 533401,
            "province": "云南省",
            "city": "迪庆藏族自治州",
            "district": "香格里拉市"
        }
    },
    {
        "id": "9065014775030880582",
        "title": "公共厕所",
        "address": "云南省迪庆藏族自治州香格里拉市环城南路与纳举廊交叉口正北方向351米左右",
        "tel": "",
        "category": "基础设施:公共设施:公共厕所",
        "type": 0,
        "location": {
            "lat": 27.809761,
            "lng": 99.714019
        },
        "ad_info": {
            "adcode": 533401,
            "province": "云南省",
            "city": "迪庆藏族自治州",
            "district": "香格里拉市"
        }
    },
    {
        "id": "4953915139417225637",
        "title": "公共厕所",
        "address": "云南省迪庆藏族自治州香格里拉市长征大道3号",
        "tel": "",
        "category": "基础设施:公共设施:公共厕所",
        "type": 0,
        "location": {
            "lat": 27.815349,
            "lng": 99.703266
        },
        "ad_info": {
            "adcode": 533401,
            "province": "云南省",
            "city": "迪庆藏族自治州",
            "district": "香格里拉市"
        }
    },
    {
        "id": "11916942602557440877",
        "title": "公共厕所",
        "address": "云南省迪庆藏族自治州香格里拉市仁安路与香巴拉大道交叉口正东方向68米左右",
        "tel": "",
        "category": "基础设施:公共设施:公共厕所",
        "type": 0,
        "location": {
            "lat": 27.82541,
            "lng": 99.71076
        },
        "ad_info": {
            "adcode": 533401,
            "province": "云南省",
            "city": "迪庆藏族自治州",
            "district": "香格里拉市"
        }
    },
    {
        "id": "17266681222826335264",
        "title": "公共厕所",
        "address": "云南省迪庆藏族自治州香格里拉市香巴拉老街与依若木廊交叉口东南方向140米",
        "tel": "",
        "category": "基础设施:公共设施:公共厕所",
        "type": 0,
        "location": {
            "lat": 27.812473,
            "lng": 99.705675
        },
        "ad_info": {
            "adcode": 533401,
            "province": "云南省",
            "city": "迪庆藏族自治州",
            "district": "香格里拉市"
        }
    },
    {
        "id": "13904398184783297452",
        "title": "公共卫生间",
        "address": "云南省迪庆藏族自治州香格里拉市飞马电信旁康都购物广场对面",
        "tel": "",
        "category": "基础设施:公共设施:公共厕所",
        "type": 0,
        "location": {
            "lat": 27.832942,
            "lng": 99.705871
        },
        "ad_info": {
            "adcode": 533401,
            "province": "云南省",
            "city": "迪庆藏族自治州",
            "district": "香格里拉市"
        }
    },
    {
        "id": "5974408763209004417",
        "title": "公共厕所",
        "address": "云南省迪庆藏族自治州香格里拉市仓房街与依若木廊交叉口正西方向163米左右",
        "tel": "",
        "category": "基础设施:公共设施:公共厕所",
        "type": 0,
        "location": {
            "lat": 27.812528,
            "lng": 99.703518
        },
        "ad_info": {
            "adcode": 533401,
            "province": "云南省",
            "city": "迪庆藏族自治州",
            "district": "香格里拉市"
        }
    },
    {
        "id": "2645413982994536056",
        "title": "公共厕所",
        "address": "云南省迪庆藏族自治州维西傈僳族自治县小平街与念萨街交叉口正东方向139米左右",
        "tel": "",
        "category": "基础设施:公共设施:公共厕所",
        "type": 0,
        "location": {
            "lat": 27.182345,
            "lng": 99.285692
        },
        "ad_info": {
            "adcode": 533423,
            "province": "云南省",
            "city": "迪庆藏族自治州",
            "district": "维西傈僳族自治县"
        }
    },
    {
        "id": "2780691158101223175",
        "title": "公共厕所",
        "address": "云南省迪庆藏族自治州香格里拉市天界神川旁",
        "tel": "",
        "category": "基础设施:公共设施:公共厕所",
        "type": 0,
        "location": {
            "lat": 27.828252,
            "lng": 99.704286
        },
        "ad_info": {
            "adcode": 533401,
            "province": "云南省",
            "city": "迪庆藏族自治州",
            "district": "香格里拉市"
        }
    },
    {
        "id": "4777450435524372254",
        "title": "公共厕所",
        "address": "云南省迪庆藏族自治州德钦县G214与白马雪山1号隧道交叉口东南方向1035米左右",
        "tel": "",
        "category": "基础设施:公共设施:公共厕所",
        "type": 0,
        "location": {
            "lat": 28.380776,
            "lng": 99.006844
        },
        "ad_info": {
            "adcode": 533422,
            "province": "云南省",
            "city": "迪庆藏族自治州",
            "district": "德钦县"
        }
    },
    {
        "id": "10484954766881801678",
        "title": "公共厕所",
        "address": "云南省迪庆藏族自治州香格里拉市G214与桥头大桥交叉口正南方向304米左右",
        "tel": "",
        "category": "基础设施:公共设施:公共厕所",
        "type": 0,
        "location": {
            "lat": 27.187502,
            "lng": 100.049838
        },
        "ad_info": {
            "adcode": 533401,
            "province": "云南省",
            "city": "迪庆藏族自治州",
            "district": "香格里拉市"
        }
    },
    {
        "id": "4009917027363981506",
        "title": "公共厕所",
        "address": "云南省迪庆藏族自治州香格里拉市滨河南路与环城东路交叉口正东方向400米左右",
        "tel": "",
        "category": "基础设施:公共设施:公共厕所",
        "type": 0,
        "location": {
            "lat": 27.835291,
            "lng": 99.719825
        },
        "ad_info": {
            "adcode": 533401,
            "province": "云南省",
            "city": "迪庆藏族自治州",
            "district": "香格里拉市"
        }
    },
    {
        "id": "11047970487974678132",
        "title": "公共厕所",
        "address": "云南省迪庆藏族自治州香格里拉市日月星城商业步行街与和平路交叉口东40米",
        "tel": "",
        "category": "基础设施:公共设施:公共厕所",
        "type": 0,
        "location": {
            "lat": 27.825758,
            "lng": 99.705652
        },
        "ad_info": {
            "adcode": 533401,
            "province": "云南省",
            "city": "迪庆藏族自治州",
            "district": "香格里拉市"
        }
    },
    {
        "id": "11049579699064842112",
        "title": "公共厕所",
        "address": "云南省迪庆藏族自治州维西傈僳族自治县上海滩花园东北侧80米",
        "tel": "",
        "category": "基础设施:公共设施:公共厕所",
        "type": 0,
        "location": {
            "lat": 27.176952,
            "lng": 99.298069
        },
        "ad_info": {
            "adcode": 533423,
            "province": "云南省",
            "city": "迪庆藏族自治州",
            "district": "维西傈僳族自治县"
        }
    },
    {
        "id": "9292054857207924087",
        "title": "公共厕所",
        "address": "云南省迪庆藏族自治州香格里拉市尼旺路附近松赞林景区内(西南角)",
        "tel": "",
        "category": "基础设施:公共设施:公共厕所",
        "type": 0,
        "location": {
            "lat": 27.8464,
            "lng": 99.70377
        },
        "ad_info": {
            "adcode": 533401,
            "province": "云南省",
            "city": "迪庆藏族自治州",
            "district": "香格里拉市"
        }
    },
    {
        "id": "12948272241380371156",
        "title": "公共厕所",
        "address": "云南省迪庆藏族自治州维西傈僳族自治县兴维大道与滨河路交叉口正南方向169米左右",
        "tel": "",
        "category": "基础设施:公共设施:公共厕所",
        "type": 0,
        "location": {
            "lat": 27.172607,
            "lng": 99.297713
        },
        "ad_info": {
            "adcode": 533423,
            "province": "云南省",
            "city": "迪庆藏族自治州",
            "district": "维西傈僳族自治县"
        }
    },
    {
        "id": "17475214509239642540",
        "title": "公共厕所",
        "address": "云南省迪庆藏族自治州香格里拉市香巴拉大道与龙潭南路交叉口正西方向138米左右",
        "tel": "",
        "category": "基础设施:公共设施:公共厕所",
        "type": 0,
        "location": {
            "lat": 27.817562,
            "lng": 99.708815
        },
        "ad_info": {
            "adcode": 533401,
            "province": "云南省",
            "city": "迪庆藏族自治州",
            "district": "香格里拉市"
        }
    },
    {
        "id": "5893906939921732079",
        "title": "公共厕所",
        "address": "云南省迪庆藏族自治州香格里拉市左瓜路与康定路交叉口正西方向94米左右",
        "tel": "",
        "category": "基础设施:公共设施:公共厕所",
        "type": 0,
        "location": {
            "lat": 27.835826,
            "lng": 99.70922
        },
        "ad_info": {
            "adcode": 533401,
            "province": "云南省",
            "city": "迪庆藏族自治州",
            "district": "香格里拉市"
        }
    },
    {
        "id": "6079574921628037723",
        "title": "公共厕所",
        "address": "云南省迪庆藏族自治州香格里拉市达娃路中国石油斜对面",
        "tel": "",
        "category": "基础设施:公共设施:公共厕所",
        "type": 0,
        "location": {
            "lat": 27.809503,
            "lng": 99.695457
        },
        "ad_info": {
            "adcode": 533401,
            "province": "云南省",
            "city": "迪庆藏族自治州",
            "district": "香格里拉市"
        }
    },
    {
        "id": "607631035843994661",
        "title": "公共厕所",
        "address": "云南省迪庆藏族自治州香格里拉市尼旺路与左瓜路交叉口西南方向338米左右",
        "tel": "",
        "category": "基础设施:公共设施:公共厕所",
        "type": 0,
        "location": {
            "lat": 27.837273,
            "lng": 99.700842
        },
        "ad_info": {
            "adcode": 533401,
            "province": "云南省",
            "city": "迪庆藏族自治州",
            "district": "香格里拉市"
        }
    },
    {
        "id": "6753132202438772722",
        "title": "公共厕所",
        "address": "云南省迪庆藏族自治州香格里拉市214国道附近",
        "tel": "",
        "category": "基础设施:公共设施:公共厕所",
        "type": 0,
        "location": {
            "lat": 27.452261,
            "lng": 99.815955
        },
        "ad_info": {
            "adcode": 533401,
            "province": "云南省",
            "city": "迪庆藏族自治州",
            "district": "香格里拉市"
        }
    },
    {
        "id": "9359825019584429324",
        "title": "公共厕所",
        "address": "云南省迪庆藏族自治州香格里拉市G214与香维线交叉口正北方向72米左右",
        "tel": "",
        "category": "基础设施:公共设施:公共厕所",
        "type": 0,
        "location": {
            "lat": 28.013503,
            "lng": 99.540377
        },
        "ad_info": {
            "adcode": 533401,
            "province": "云南省",
            "city": "迪庆藏族自治州",
            "district": "香格里拉市"
        }
    },
    {
        "id": "17001870525451123665",
        "title": "公共厕所",
        "address": "云南省迪庆藏族自治州香格里拉市昌都路48号",
        "tel": "",
        "category": "基础设施:公共设施:公共厕所",
        "type": 0,
        "location": {
            "lat": 27.842237,
            "lng": 99.698395
        },
        "ad_info": {
            "adcode": 533401,
            "province": "云南省",
            "city": "迪庆藏族自治州",
            "district": "香格里拉市"
        }
    },
    {
        "id": "4298621295161420087",
        "title": "公共厕所",
        "address": "云南省迪庆藏族自治州香格里拉市G214哈巴雪山观景台西侧50米",
        "tel": "",
        "category": "基础设施:公共设施:公共厕所",
        "type": 0,
        "location": {
            "lat": 27.381413,
            "lng": 99.885226
        },
        "ad_info": {
            "adcode": 533401,
            "province": "云南省",
            "city": "迪庆藏族自治州",
            "district": "香格里拉市"
        }
    },
    {
        "id": "16200434783288328148",
        "title": "公共厕所",
        "address": "云南省迪庆藏族自治州香格里拉市左瓜路与康定路交叉口正北方向110米左右",
        "tel": "",
        "category": "基础设施:公共设施:公共厕所",
        "type": 0,
        "location": {
            "lat": 27.837028,
            "lng": 99.709724
        },
        "ad_info": {
            "adcode": 533401,
            "province": "云南省",
            "city": "迪庆藏族自治州",
            "district": "香格里拉市"
        }
    },
    {
        "id": "6208981554531852754",
        "title": "公共厕所",
        "address": "云南省迪庆藏族自治州香格里拉市归化寺路与昌都路交叉口东北方向738米左右",
        "tel": "",
        "category": "基础设施:公共设施:公共厕所",
        "type": 0,
        "location": {
            "lat": 27.84746,
            "lng": 99.702978
        },
        "ad_info": {
            "adcode": 533401,
            "province": "云南省",
            "city": "迪庆藏族自治州",
            "district": "香格里拉市"
        }
    },
    {
        "id": "11257326643801142512",
        "title": "公共厕所",
        "address": "云南省迪庆藏族自治州香格里拉市香巴拉旅游小镇东南侧100米",
        "tel": "",
        "category": "基础设施:公共设施:公共厕所",
        "type": 0,
        "location": {
            "lat": 27.834251,
            "lng": 99.723948
        },
        "ad_info": {
            "adcode": 533401,
            "province": "云南省",
            "city": "迪庆藏族自治州",
            "district": "香格里拉市"
        }
    },
    {
        "id": "5151062812975014881",
        "title": "公共厕所",
        "address": "云南省迪庆藏族自治州香格里拉市G214与西景线交叉口东北方向153米左右",
        "tel": "",
        "category": "基础设施:公共设施:公共厕所",
        "type": 0,
        "location": {
            "lat": 27.34402,
            "lng": 99.895084
        },
        "ad_info": {
            "adcode": 533401,
            "province": "云南省",
            "city": "迪庆藏族自治州",
            "district": "香格里拉市"
        }
    },
    {
        "id": "13513593947907253908",
        "title": "公共厕所",
        "address": "云南省迪庆藏族自治州香格里拉市左瓜路与康定路交叉口西北方向47米左右",
        "tel": "",
        "category": "基础设施:公共设施:公共厕所",
        "type": 0,
        "location": {
            "lat": 27.836466,
            "lng": 99.709879
        },
        "ad_info": {
            "adcode": 533401,
            "province": "云南省",
            "city": "迪庆藏族自治州",
            "district": "香格里拉市"
        }
    },
    {
        "id": "2965093966184641520",
        "title": "公共厕所",
        "address": "云南省迪庆藏族自治州维西傈僳族自治县德维线",
        "tel": "",
        "category": "基础设施:公共设施:公共厕所",
        "type": 0,
        "location": {
            "lat": 27.65051,
            "lng": 99.005764
        },
        "ad_info": {
            "adcode": 533423,
            "province": "云南省",
            "city": "迪庆藏族自治州",
            "district": "维西傈僳族自治县"
        }
    },
    {
        "id": "10229179950498915183",
        "title": "公共厕所",
        "address": "云南省迪庆藏族自治州香格里拉市G214与金沙路交叉口正北方向916米左右",
        "tel": "",
        "category": "基础设施:公共设施:公共厕所",
        "type": 0,
        "location": {
            "lat": 27.049728,
            "lng": 100.07426
        },
        "ad_info": {
            "adcode": 533401,
            "province": "云南省",
            "city": "迪庆藏族自治州",
            "district": "香格里拉市"
        }
    },
    {
        "id": "2713882808067246998",
        "title": "公共厕所",
        "address": "云南省迪庆藏族自治州维西傈僳族自治县G215与香维线交叉口正东方向541米左右",
        "tel": "",
        "category": "基础设施:公共设施:公共厕所",
        "type": 0,
        "location": {
            "lat": 27.603891,
            "lng": 99.404517
        },
        "ad_info": {
            "adcode": 533423,
            "province": "云南省",
            "city": "迪庆藏族自治州",
            "district": "维西傈僳族自治县"
        }
    },
    {
        "id": "2912160963506559924",
        "title": "公共厕所",
        "address": "云南省迪庆藏族自治州香格里拉市",
        "tel": "",
        "category": "基础设施:公共设施:公共厕所",
        "type": 0,
        "location": {
            "lat": 28.529431,
            "lng": 99.603873
        },
        "ad_info": {
            "adcode": 533401,
            "province": "云南省",
            "city": "迪庆藏族自治州",
            "district": "香格里拉市"
        }
    },
    {
        "id": "7691484960544181293",
        "title": "公共厕所(YN-DQ-0292)",
        "address": "云南省迪庆藏族自治州香格里拉市东旺路50号",
        "tel": "",
        "category": "基础设施:公共设施:公共厕所",
        "type": 0,
        "location": {
            "lat": 27.823962,
            "lng": 99.708224
        },
        "ad_info": {
            "adcode": 533401,
            "province": "云南省",
            "city": "迪庆藏族自治州",
            "district": "香格里拉市"
        }
    },
    {
        "id": "16291860012962173564",
        "title": "公共厕所",
        "address": "云南省迪庆藏族自治州香格里拉市龙潭北路10号",
        "tel": "",
        "category": "基础设施:公共设施:公共厕所",
        "type": 0,
        "location": {
            "lat": 27.817018,
            "lng": 99.712632
        },
        "ad_info": {
            "adcode": 533401,
            "province": "云南省",
            "city": "迪庆藏族自治州",
            "district": "香格里拉市"
        }
    },
    {
        "id": "5293795961829768357",
        "title": "公共厕所",
        "address": "云南省迪庆藏族自治州香格里拉市安定路中国石化加油站(建塘站)",
        "tel": "",
        "category": "基础设施:公共设施:公共厕所",
        "type": 0,
        "location": {
            "lat": 27.839901,
            "lng": 99.722837
        },
        "ad_info": {
            "adcode": 533401,
            "province": "云南省",
            "city": "迪庆藏族自治州",
            "district": "香格里拉市"
        }
    },
    {
        "id": "16261232215661560812",
        "title": "公共厕所",
        "address": "云南省迪庆藏族自治州香格里拉市G214与金沙路交叉口正东方向26米左右",
        "tel": "",
        "category": "基础设施:公共设施:公共厕所",
        "type": 0,
        "location": {
            "lat": 27.059922,
            "lng": 100.073458
        },
        "ad_info": {
            "adcode": 533401,
            "province": "云南省",
            "city": "迪庆藏族自治州",
            "district": "香格里拉市"
        }
    },
    {
        "id": "12509676072138408141",
        "title": "公共厕所",
        "address": "云南省迪庆藏族自治州香格里拉市交通路与香巴拉大道交叉口东南方向43米左右",
        "tel": "",
        "category": "基础设施:公共设施:公共厕所",
        "type": 0,
        "location": {
            "lat": 27.834316,
            "lng": 99.710624
        },
        "ad_info": {
            "adcode": 533401,
            "province": "云南省",
            "city": "迪庆藏族自治州",
            "district": "香格里拉市"
        }
    },
    {
        "id": "5131221319479675414",
        "title": "公共厕所",
        "address": "云南省迪庆藏族自治州德钦县河香西路与香河西路交叉口正北方向136米左右",
        "tel": "",
        "category": "基础设施:公共设施:公共厕所",
        "type": 0,
        "location": {
            "lat": 28.481898,
            "lng": 98.915778
        },
        "ad_info": {
            "adcode": 533422,
            "province": "云南省",
            "city": "迪庆藏族自治州",
            "district": "德钦县"
        }
    },
    {
        "id": "14915269955271995891",
        "title": "公共厕所",
        "address": "云南省迪庆藏族自治州香格里拉市G214与桥头中桥交叉口东南方向792米左右",
        "tel": "",
        "category": "基础设施:公共设施:公共厕所",
        "type": 0,
        "location": {
            "lat": 27.176758,
            "lng": 100.056993
        },
        "ad_info": {
            "adcode": 533401,
            "province": "云南省",
            "city": "迪庆藏族自治州",
            "district": "香格里拉市"
        }
    },
    {
        "id": "3616075574758623972",
        "title": "公共厕所",
        "address": "云南省迪庆藏族自治州香格里拉市仁安路与强杰塘路交叉口西南方向31米左右",
        "tel": "",
        "category": "基础设施:公共设施:公共厕所",
        "type": 0,
        "location": {
            "lat": 27.825476,
            "lng": 99.712551
        },
        "ad_info": {
            "adcode": 533401,
            "province": "云南省",
            "city": "迪庆藏族自治州",
            "district": "香格里拉市"
        }
    },
    {
        "id": "9138097617102589625",
        "title": "公共厕所",
        "address": "云南省迪庆藏族自治州香格里拉市G214与宝山村桥交叉口正北方向72米左右",
        "tel": "",
        "category": "基础设施:公共设施:公共厕所",
        "type": 0,
        "location": {
            "lat": 27.334627,
            "lng": 99.958618
        },
        "ad_info": {
            "adcode": 533401,
            "province": "云南省",
            "city": "迪庆藏族自治州",
            "district": "香格里拉市"
        }
    },
    {
        "id": "15512384432561520489",
        "title": "洗手间",
        "address": "云南省迪庆藏族自治州香格里拉市东旺路52号",
        "tel": "",
        "category": "基础设施:公共设施:公共厕所",
        "type": 0,
        "location": {
            "lat": 27.823691,
            "lng": 99.70822
        },
        "ad_info": {
            "adcode": 533401,
            "province": "云南省",
            "city": "迪庆藏族自治州",
            "district": "香格里拉市"
        }
    },
    {
        "id": "6977012324234499126",
        "title": "公共厕所",
        "address": "云南省迪庆藏族自治州德钦县冰川路与明永公路交叉口正西方向169米左右",
        "tel": "",
        "category": "基础设施:公共设施:公共厕所",
        "type": 0,
        "location": {
            "lat": 28.46771,
            "lng": 98.7859
        },
        "ad_info": {
            "adcode": 533422,
            "province": "云南省",
            "city": "迪庆藏族自治州",
            "district": "德钦县"
        }
    },
    {
        "id": "13544842815912061936",
        "title": "公共厕所",
        "address": "云南省迪庆藏族自治州德钦县白塔公园",
        "tel": "",
        "category": "基础设施:公共设施:公共厕所",
        "type": 0,
        "location": {
            "lat": 28.471111,
            "lng": 98.917501
        },
        "ad_info": {
            "adcode": 533422,
            "province": "云南省",
            "city": "迪庆藏族自治州",
            "district": "德钦县"
        }
    },
    {
        "id": "2179981045761299012",
        "title": "公共厕所",
        "address": "云南省迪庆藏族自治州香格里拉市尼玛达娃圣泉山庄售票厅上山",
        "tel": "",
        "category": "基础设施:公共设施:公共厕所",
        "type": 0,
        "location": {
            "lat": 27.78023,
            "lng": 99.85301
        },
        "ad_info": {
            "adcode": 533401,
            "province": "云南省",
            "city": "迪庆藏族自治州",
            "district": "香格里拉市"
        }
    },
    {
        "id": "13019410028879450105",
        "title": "公共厕所",
        "address": "云南省迪庆藏族自治州香格里拉市林卡街与滨河南路交叉口西北方向53米左右",
        "tel": "",
        "category": "基础设施:公共设施:公共厕所",
        "type": 0,
        "location": {
            "lat": 27.833819,
            "lng": 99.712766
        },
        "ad_info": {
            "adcode": 533401,
            "province": "云南省",
            "city": "迪庆藏族自治州",
            "district": "香格里拉市"
        }
    },
    {
        "id": "837794592711624440",
        "title": "月光广场公共厕所",
        "address": "云南省迪庆藏族自治州香格里拉市勒波多廊与金龙街交叉口正西方向132米左右",
        "tel": "",
        "category": "基础设施:公共设施:公共厕所",
        "type": 0,
        "location": {
            "lat": 27.81052,
            "lng": 99.70884
        },
        "ad_info": {
            "adcode": 533401,
            "province": "云南省",
            "city": "迪庆藏族自治州",
            "district": "香格里拉市"
        }
    },
    {
        "id": "12269621084256808817",
        "title": "公共厕所",
        "address": "云南省迪庆藏族自治州香格里拉市G214与红旗段交叉口西北方向496米左右",
        "tel": "",
        "category": "基础设施:公共设施:公共厕所",
        "type": 0,
        "location": {
            "lat": 27.403688,
            "lng": 99.872244
        },
        "ad_info": {
            "adcode": 533401,
            "province": "云南省",
            "city": "迪庆藏族自治州",
            "district": "香格里拉市"
        }
    },
    {
        "id": "8880020694802690339",
        "title": "公共厕所",
        "address": "云南省迪庆藏族自治州维西傈僳族自治县小平街与环城东路交叉口西北方向111米左右",
        "tel": "",
        "category": "基础设施:公共设施:公共厕所",
        "type": 0,
        "location": {
            "lat": 27.190508,
            "lng": 99.281379
        },
        "ad_info": {
            "adcode": 533423,
            "province": "云南省",
            "city": "迪庆藏族自治州",
            "district": "维西傈僳族自治县"
        }
    },
    {
        "id": "11076394735415330500",
        "title": "公共厕所",
        "address": "云南省迪庆藏族自治州德钦县214国道西50米",
        "tel": "",
        "category": "基础设施:公共设施:公共厕所",
        "type": 0,
        "location": {
            "lat": 28.716466,
            "lng": 98.684193
        },
        "ad_info": {
            "adcode": 533422,
            "province": "云南省",
            "city": "迪庆藏族自治州",
            "district": "德钦县"
        }
    },
    {
        "id": "95245453748916569",
        "title": "公共厕所",
        "address": "云南省迪庆藏族自治州香格里拉市G214与金沙路交叉口正南方向596米左右",
        "tel": "",
        "category": "基础设施:公共设施:公共厕所",
        "type": 0,
        "location": {
            "lat": 27.054695,
            "lng": 100.074379
        },
        "ad_info": {
            "adcode": 533401,
            "province": "云南省",
            "city": "迪庆藏族自治州",
            "district": "香格里拉市"
        }
    },
    {
        "id": "15360936815144672900",
        "title": "公共厕所",
        "address": "云南省迪庆藏族自治州香格里拉市香丽高速入口与214国道交叉口东南100米",
        "tel": "",
        "category": "基础设施:公共设施:公共厕所",
        "type": 0,
        "location": {
            "lat": 27.550864,
            "lng": 99.817587
        },
        "ad_info": {
            "adcode": 533401,
            "province": "云南省",
            "city": "迪庆藏族自治州",
            "district": "香格里拉市"
        }
    },
    {
        "id": "9486962611389858558",
        "title": "公共厕所",
        "address": "云南省迪庆藏族自治州德钦县G214与巴美公路交叉口西南方向707米左右",
        "tel": "",
        "category": "基础设施:公共设施:公共厕所",
        "type": 0,
        "location": {
            "lat": 28.833677,
            "lng": 98.660347
        },
        "ad_info": {
            "adcode": 533422,
            "province": "云南省",
            "city": "迪庆藏族自治州",
            "district": "德钦县"
        }
    },
    {
        "id": "15737578541521642114",
        "title": "公共厕所",
        "address": "云南省迪庆藏族自治州德钦县214国道西50米",
        "tel": "",
        "category": "基础设施:公共设施:公共厕所",
        "type": 0,
        "location": {
            "lat": 28.195056,
            "lng": 99.34886
        },
        "ad_info": {
            "adcode": 533422,
            "province": "云南省",
            "city": "迪庆藏族自治州",
            "district": "德钦县"
        }
    },
    {
        "id": "17597967621075322906",
        "title": "公共厕所",
        "address": "云南省迪庆藏族自治州香格里拉市云丹路迪庆州民族中学北校区",
        "tel": "",
        "category": "基础设施:公共设施:公共厕所",
        "type": 0,
        "location": {
            "lat": 27.834741,
            "lng": 99.700401
        },
        "ad_info": {
            "adcode": 533401,
            "province": "云南省",
            "city": "迪庆藏族自治州",
            "district": "香格里拉市"
        }
    },
    {
        "id": "15733763410435392905",
        "title": "公共厕所",
        "address": "云南省迪庆藏族自治州香格里拉市东环线北50米",
        "tel": "",
        "category": "基础设施:公共设施:公共厕所",
        "type": 0,
        "location": {
            "lat": 27.314111,
            "lng": 100.221995
        },
        "ad_info": {
            "adcode": 533401,
            "province": "云南省",
            "city": "迪庆藏族自治州",
            "district": "香格里拉市"
        }
    },
    {
        "id": "181636946637111227",
        "title": "公共厕所",
        "address": "云南省迪庆藏族自治州香格里拉市G214与继红桥交叉口正北方向502米左右",
        "tel": "",
        "category": "基础设施:公共设施:公共厕所",
        "type": 0,
        "location": {
            "lat": 27.132817,
            "lng": 100.055669
        },
        "ad_info": {
            "adcode": 533401,
            "province": "云南省",
            "city": "迪庆藏族自治州",
            "district": "香格里拉市"
        }
    },
    {
        "id": "1932757087830184205",
        "title": "公共厕所",
        "address": "云南省迪庆藏族自治州德钦县Y019与德维线交叉口西南方向1802米左右",
        "tel": "",
        "category": "基础设施:公共设施:公共厕所",
        "type": 0,
        "location": {
            "lat": 28.452075,
            "lng": 98.900979
        },
        "ad_info": {
            "adcode": 533422,
            "province": "云南省",
            "city": "迪庆藏族自治州",
            "district": "德钦县"
        }
    },
    {
        "id": "1942654068533148379",
        "title": "公共厕所",
        "address": "云南省迪庆藏族自治州香格里拉市G214与岗曲河大桥交叉口正南方向442米左右",
        "tel": "",
        "category": "基础设施:公共设施:公共厕所",
        "type": 0,
        "location": {
            "lat": 28.14684,
            "lng": 99.40502
        },
        "ad_info": {
            "adcode": 533401,
            "province": "云南省",
            "city": "迪庆藏族自治州",
            "district": "香格里拉市"
        }
    },
    {
        "id": "9891010203938132468",
        "title": "公共厕所",
        "address": "云南省迪庆藏族自治州香格里拉市G214与继红桥交叉口正北方向132米左右",
        "tel": "",
        "category": "基础设施:公共设施:公共厕所",
        "type": 0,
        "location": {
            "lat": 27.129438,
            "lng": 100.055772
        },
        "ad_info": {
            "adcode": 533401,
            "province": "云南省",
            "city": "迪庆藏族自治州",
            "district": "香格里拉市"
        }
    },
    {
        "id": "14445658710159159301",
        "title": "月光城公共厕所",
        "address": "云南省迪庆藏族自治州香格里拉市仓房街与依若木廊交叉口正南方向332米左右",
        "tel": "",
        "category": "基础设施:公共设施:公共厕所",
        "type": 0,
        "location": {
            "lat": 27.80946,
            "lng": 99.70563
        },
        "ad_info": {
            "adcode": 533401,
            "province": "云南省",
            "city": "迪庆藏族自治州",
            "district": "香格里拉市"
        }
    },
    {
        "id": "2145193479558198955",
        "title": "公共厕所",
        "address": "云南省迪庆藏族自治州香格里拉市214国道东50米",
        "tel": "",
        "category": "基础设施:公共设施:公共厕所",
        "type": 0,
        "location": {
            "lat": 27.156904,
            "lng": 100.060356
        },
        "ad_info": {
            "adcode": 533401,
            "province": "云南省",
            "city": "迪庆藏族自治州",
            "district": "香格里拉市"
        }
    },
    {
        "id": "1346874008970307325",
        "title": "公共厕所",
        "address": "云南省迪庆藏族自治州香格里拉市加油免费洗车东北侧",
        "tel": "",
        "category": "基础设施:公共设施:公共厕所",
        "type": 0,
        "location": {
            "lat": 27.365094,
            "lng": 99.656608
        },
        "ad_info": {
            "adcode": 533401,
            "province": "云南省",
            "city": "迪庆藏族自治州",
            "district": "香格里拉市"
        }
    },
    {
        "id": "18134441027081451117",
        "title": "公共厕所",
        "address": "云南省迪庆藏族自治州香格里拉市玛姆阁饭店北侧70米",
        "tel": "",
        "category": "基础设施:公共设施:公共厕所",
        "type": 0,
        "location": {
            "lat": 28.049609,
            "lng": 99.506317
        },
        "ad_info": {
            "adcode": 533401,
            "province": "云南省",
            "city": "迪庆藏族自治州",
            "district": "香格里拉市"
        }
    },
    {
        "id": "4978410040465216265",
        "title": "香格里拉圣地花间堂-洗手间",
        "address": "云南省迪庆藏族自治州香格里拉市独克宗古城仓房街古硕15号",
        "tel": "",
        "category": "基础设施:公共设施:公共厕所",
        "type": 0,
        "location": {
            "lat": 27.812238,
            "lng": 99.707492
        },
        "ad_info": {
            "adcode": 533401,
            "province": "云南省",
            "city": "迪庆藏族自治州",
            "district": "香格里拉市"
        }
    },
    {
        "id": "12006999912354763786",
        "title": "公共厕所",
        "address": "云南省迪庆藏族自治州香格里拉市G214与五贝子小桥交叉口东南方向1162米左右",
        "tel": "",
        "category": "基础设施:公共设施:公共厕所",
        "type": 0,
        "location": {
            "lat": 27.27038,
            "lng": 100.015837
        },
        "ad_info": {
            "adcode": 533401,
            "province": "云南省",
            "city": "迪庆藏族自治州",
            "district": "香格里拉市"
        }
    },
    {
        "id": "9003520009633775484",
        "title": "公共厕所",
        "address": "云南省迪庆藏族自治州香格里拉市G214与东坡村公路交叉口正南方向749米左右",
        "tel": "",
        "category": "基础设施:公共设施:公共厕所",
        "type": 0,
        "location": {
            "lat": 27.233388,
            "lng": 100.022858
        },
        "ad_info": {
            "adcode": 533401,
            "province": "云南省",
            "city": "迪庆藏族自治州",
            "district": "香格里拉市"
        }
    },
    {
        "id": "17040316009457159053",
        "title": "公共厕所",
        "address": "云南省迪庆藏族自治州香格里拉市214国道北50米",
        "tel": "",
        "category": "基础设施:公共设施:公共厕所",
        "type": 0,
        "location": {
            "lat": 27.368293,
            "lng": 99.902563
        },
        "ad_info": {
            "adcode": 533401,
            "province": "云南省",
            "city": "迪庆藏族自治州",
            "district": "香格里拉市"
        }
    },
    {
        "id": "6096087563023312295",
        "title": "公共厕所",
        "address": "云南省迪庆藏族自治州香格里拉市G214与杨家河桥交叉口东南方向1015米左右",
        "tel": "",
        "category": "基础设施:公共设施:公共厕所",
        "type": 0,
        "location": {
            "lat": 27.201188,
            "lng": 100.044382
        },
        "ad_info": {
            "adcode": 533401,
            "province": "云南省",
            "city": "迪庆藏族自治州",
            "district": "香格里拉市"
        }
    },
    {
        "id": "17003372862963789995",
        "title": "公共厕所",
        "address": "云南省迪庆藏族自治州香格里拉市香维线与061乡道交叉口西60米",
        "tel": "",
        "category": "基础设施:公共设施:公共厕所",
        "type": 0,
        "location": {
            "lat": 28.018527,
            "lng": 99.493282
        },
        "ad_info": {
            "adcode": 533401,
            "province": "云南省",
            "city": "迪庆藏族自治州",
            "district": "香格里拉市"
        }
    },
    {
        "id": "3729734315396384536",
        "title": "公共厕所",
        "address": "云南省迪庆藏族自治州香格里拉市214国道东50米",
        "tel": "",
        "category": "基础设施:公共设施:公共厕所",
        "type": 0,
        "location": {
            "lat": 27.157712,
            "lng": 100.060576
        },
        "ad_info": {
            "adcode": 533401,
            "province": "云南省",
            "city": "迪庆藏族自治州",
            "district": "香格里拉市"
        }
    },
    {
        "id": "6991007892409208533",
        "title": "公共厕所",
        "address": "云南省迪庆藏族自治州香格里拉市朵格路与阳塘路交叉口西南方向37米左右",
        "tel": "",
        "category": "基础设施:公共设施:公共厕所",
        "type": 0,
        "location": {
            "lat": 27.827711,
            "lng": 99.7123
        },
        "ad_info": {
            "adcode": 533401,
            "province": "云南省",
            "city": "迪庆藏族自治州",
            "district": "香格里拉市"
        }
    },
    {
        "id": "1973630429885189733",
        "title": "公共厕所",
        "address": "云南省迪庆藏族自治州维西傈僳族自治县兴维大道与春雨路交叉口东北方向168米左右",
        "tel": "",
        "category": "基础设施:公共设施:公共厕所",
        "type": 0,
        "location": {
            "lat": 27.17432,
            "lng": 99.300521
        },
        "ad_info": {
            "adcode": 533423,
            "province": "云南省",
            "city": "迪庆藏族自治州",
            "district": "维西傈僳族自治县"
        }
    },
    {
        "id": "8382226440602650089",
        "title": "公共厕所",
        "address": "云南省迪庆藏族自治州香格里拉市神泉巷与阳塘路交叉口正东方向35米左右",
        "tel": "",
        "category": "基础设施:公共设施:公共厕所",
        "type": 0,
        "location": {
            "lat": 27.827747,
            "lng": 99.708555
        },
        "ad_info": {
            "adcode": 533401,
            "province": "云南省",
            "city": "迪庆藏族自治州",
            "district": "香格里拉市"
        }
    },
    {
        "id": "14711057841715612094",
        "title": "公共厕所",
        "address": "云南省迪庆藏族自治州德钦县下街与南坪街交叉口西北方向81米左右",
        "tel": "",
        "category": "基础设施:公共设施:公共厕所",
        "type": 0,
        "location": {
            "lat": 28.484397,
            "lng": 98.914219
        },
        "ad_info": {
            "adcode": 533422,
            "province": "云南省",
            "city": "迪庆藏族自治州",
            "district": "德钦县"
        }
    },
    {
        "id": "17616320375881625995",
        "title": "公共厕所",
        "address": "云南省迪庆藏族自治州德钦县下街与南坪街交叉口东南方向160米左右",
        "tel": "",
        "category": "基础设施:公共设施:公共厕所",
        "type": 0,
        "location": {
            "lat": 28.483201,
            "lng": 98.916296
        },
        "ad_info": {
            "adcode": 533422,
            "province": "云南省",
            "city": "迪庆藏族自治州",
            "district": "德钦县"
        }
    },
    {
        "id": "8280809881905358158",
        "title": "公共厕所",
        "address": "云南省迪庆藏族自治州香格里拉市东旺路与江克路交叉口正南方向95米左右",
        "tel": "",
        "category": "基础设施:公共设施:公共厕所",
        "type": 0,
        "location": {
            "lat": 27.823598,
            "lng": 99.70368
        },
        "ad_info": {
            "adcode": 533401,
            "province": "云南省",
            "city": "迪庆藏族自治州",
            "district": "香格里拉市"
        }
    },
    {
        "id": "8575761832053221678",
        "title": "公共厕所",
        "address": "云南省迪庆藏族自治州香格里拉市天源酒店正对面",
        "tel": "",
        "category": "基础设施:公共设施:公共厕所",
        "type": 0,
        "location": {
            "lat": 27.82617,
            "lng": 99.717223
        },
        "ad_info": {
            "adcode": 533401,
            "province": "云南省",
            "city": "迪庆藏族自治州",
            "district": "香格里拉市"
        }
    },
    {
        "id": "16954292770813505191",
        "title": "公共厕所",
        "address": "云南省迪庆藏族自治州德钦县河香中路52号",
        "tel": "",
        "category": "基础设施:公共设施:公共厕所",
        "type": 0,
        "location": {
            "lat": 28.476819,
            "lng": 98.916584
        },
        "ad_info": {
            "adcode": 533422,
            "province": "云南省",
            "city": "迪庆藏族自治州",
            "district": "德钦县"
        }
    },
    {
        "id": "3431299935174335425",
        "title": "公共厕所",
        "address": "云南省迪庆藏族自治州德钦县河香中路与滨河东路交叉口东北方向579米左右",
        "tel": "",
        "category": "基础设施:公共设施:公共厕所",
        "type": 0,
        "location": {
            "lat": 28.47539,
            "lng": 98.922103
        },
        "ad_info": {
            "adcode": 533422,
            "province": "云南省",
            "city": "迪庆藏族自治州",
            "district": "德钦县"
        }
    },
    {
        "id": "17069478976233156288",
        "title": "北门停车场公共厕所",
        "address": "云南省迪庆藏族自治州香格里拉市步行街与达娃路交叉口东南方向82米左右",
        "tel": "",
        "category": "基础设施:公共设施:公共厕所",
        "type": 0,
        "location": {
            "lat": 27.814057,
            "lng": 99.704607
        },
        "ad_info": {
            "adcode": 533401,
            "province": "云南省",
            "city": "迪庆藏族自治州",
            "district": "香格里拉市"
        }
    },
    {
        "id": "6940672486475465962",
        "title": "公共厕所",
        "address": "云南省迪庆藏族自治州香格里拉市思给洛巷与龙潭北路交叉口正北方向29米左右",
        "tel": "",
        "category": "基础设施:公共设施:公共厕所",
        "type": 0,
        "location": {
            "lat": 27.82017,
            "lng": 99.707061
        },
        "ad_info": {
            "adcode": 533401,
            "province": "云南省",
            "city": "迪庆藏族自治州",
            "district": "香格里拉市"
        }
    },
    {
        "id": "9405429641863908570",
        "title": "公共厕所",
        "address": "云南省迪庆藏族自治州香格里拉市长征大道58号",
        "tel": "",
        "category": "基础设施:公共设施:公共厕所",
        "type": 0,
        "location": {
            "lat": 27.825256,
            "lng": 99.703769
        },
        "ad_info": {
            "adcode": 533401,
            "province": "云南省",
            "city": "迪庆藏族自治州",
            "district": "香格里拉市"
        }
    },
    {
        "id": "4796736323483403854",
        "title": "香格里拉市独克宗古城公共厕所",
        "address": "云南省迪庆藏族自治州香格里拉市觉廊1号",
        "tel": "",
        "category": "基础设施:公共设施:公共厕所",
        "type": 0,
        "location": {
            "lat": 27.810091,
            "lng": 99.706834
        },
        "ad_info": {
            "adcode": 533401,
            "province": "云南省",
            "city": "迪庆藏族自治州",
            "district": "香格里拉市"
        }
    },
    {
        "id": "7767074367208926289",
        "title": "游客中心公共厕所",
        "address": "云南省迪庆藏族自治州香格里拉市G214与高山植物园大桥交叉口正南方向901米左右",
        "tel": "",
        "category": "基础设施:公共设施:公共厕所",
        "type": 0,
        "location": {
            "lat": 27.896492,
            "lng": 99.639683
        },
        "ad_info": {
            "adcode": 533401,
            "province": "云南省",
            "city": "迪庆藏族自治州",
            "district": "香格里拉市"
        }
    },
    {
        "id": "14771458674477801769",
        "title": "公共厕所",
        "address": "云南省迪庆藏族自治州香格里拉市交通路香格里拉汽车客运站",
        "tel": "",
        "category": "基础设施:公共设施:公共厕所",
        "type": 0,
        "location": {
            "lat": 27.835492,
            "lng": 99.711413
        },
        "ad_info": {
            "adcode": 533401,
            "province": "云南省",
            "city": "迪庆藏族自治州",
            "district": "香格里拉市"
        }
    },
    {
        "id": "2477266489398876474",
        "title": "公共厕所",
        "address": "云南省迪庆藏族自治州香格里拉市建塘镇龟山巷卓玛后花园商务酒店",
        "tel": "",
        "category": "基础设施:公共设施:公共厕所",
        "type": 0,
        "location": {
            "lat": 27.822351,
            "lng": 99.708228
        },
        "ad_info": {
            "adcode": 533401,
            "province": "云南省",
            "city": "迪庆藏族自治州",
            "district": "香格里拉市"
        }
    },
    {
        "id": "10385994919556942477",
        "title": "公共厕所",
        "address": "云南省迪庆藏族自治州维西傈僳族自治县白鹤路与纪念路交叉口正北方向30米左右",
        "tel": "",
        "category": "基础设施:公共设施:公共厕所",
        "type": 0,
        "location": {
            "lat": 27.180635,
            "lng": 99.287631
        },
        "ad_info": {
            "adcode": 533423,
            "province": "云南省",
            "city": "迪庆藏族自治州",
            "district": "维西傈僳族自治县"
        }
    },
    {
        "id": "14188832262926373510",
        "title": "旅游公共厕所",
        "address": "云南省迪庆藏族自治州香格里拉市G353与维丽线交叉口东北方向1510米左右",
        "tel": "",
        "category": "基础设施:公共设施:公共厕所",
        "type": 0,
        "location": {
            "lat": 26.874811,
            "lng": 99.97129
        },
        "ad_info": {
            "adcode": 533401,
            "province": "云南省",
            "city": "迪庆藏族自治州",
            "district": "香格里拉市"
        }
    },
    {
        "id": "7216370729715936323",
        "title": "公共厕所",
        "address": "云南省迪庆藏族自治州维西傈僳族自治县S237",
        "tel": "",
        "category": "基础设施:公共设施:公共厕所",
        "type": 0,
        "location": {
            "lat": 27.094721,
            "lng": 99.169395
        },
        "ad_info": {
            "adcode": 533423,
            "province": "云南省",
            "city": "迪庆藏族自治州",
            "district": "维西傈僳族自治县"
        }
    },
    {
        "id": "8043192289666507321",
        "title": "公共厕所",
        "address": "云南省迪庆藏族自治州德钦县G214与南坪街交叉口正南方向26米左右",
        "tel": "",
        "category": "基础设施:公共设施:公共厕所",
        "type": 0,
        "location": {
            "lat": 28.484396,
            "lng": 98.910744
        },
        "ad_info": {
            "adcode": 533422,
            "province": "云南省",
            "city": "迪庆藏族自治州",
            "district": "德钦县"
        }
    },
    {
        "id": "4427495307427321834",
        "title": "香格里拉松赞林卡酒店-洗手间",
        "address": "云南省迪庆藏族自治州香格里拉市特斯拉超级充电站(香格里拉县松赞香格里拉林卡酒店)东侧280米",
        "tel": "",
        "category": "基础设施:公共设施:公共厕所",
        "type": 0,
        "location": {
            "lat": 27.863399,
            "lng": 99.700352
        },
        "ad_info": {
            "adcode": 533401,
            "province": "云南省",
            "city": "迪庆藏族自治州",
            "district": "香格里拉市"
        }
    },
    {
        "id": "14062951085707145460",
        "title": "山顶厕所",
        "address": "云南省迪庆藏族自治州香格里拉市蓝月山谷景区内",
        "tel": "",
        "category": "基础设施:公共设施:公共厕所",
        "type": 0,
        "location": {
            "lat": 27.790749,
            "lng": 99.589542
        },
        "ad_info": {
            "adcode": 533401,
            "province": "云南省",
            "city": "迪庆藏族自治州",
            "district": "香格里拉市"
        }
    },
    {
        "id": "8497542540094089632",
        "title": "小中甸服务区公共厕所",
        "address": "云南省迪庆藏族自治州香格里拉市G214与吉沙下村公路交叉口正东方向1055米左右",
        "tel": "",
        "category": "基础设施:公共设施:公共厕所",
        "type": 0,
        "location": {
            "lat": 27.543301,
            "lng": 99.831841
        },
        "ad_info": {
            "adcode": 533401,
            "province": "云南省",
            "city": "迪庆藏族自治州",
            "district": "香格里拉市"
        }
    },
    {
        "id": "8580142983078462160",
        "title": "公共厕所",
        "address": "云南省迪庆藏族自治州德钦县G214与南坪街交叉口正北方向200米左右",
        "tel": "",
        "category": "基础设施:公共设施:公共厕所",
        "type": 0,
        "location": {
            "lat": 28.487562,
            "lng": 98.910721
        },
        "ad_info": {
            "adcode": 533422,
            "province": "云南省",
            "city": "迪庆藏族自治州",
            "district": "德钦县"
        }
    },
    {
        "id": "2115709741692926536",
        "title": "公共厕所",
        "address": "云南省迪庆藏族自治州德钦县滨河东路",
        "tel": "",
        "category": "基础设施:公共设施:公共厕所",
        "type": 0,
        "location": {
            "lat": 28.473329,
            "lng": 98.918592
        },
        "ad_info": {
            "adcode": 533422,
            "province": "云南省",
            "city": "迪庆藏族自治州",
            "district": "德钦县"
        }
    },
    {
        "id": "9164699083273206574",
        "title": "维登乡滨江产业园区公共厕所",
        "address": "云南省迪庆藏族自治州维西傈僳族自治县S237",
        "tel": "",
        "category": "基础设施:公共设施:公共厕所",
        "type": 0,
        "location": {
            "lat": 27.089322,
            "lng": 99.170445
        },
        "ad_info": {
            "adcode": 533423,
            "province": "云南省",
            "city": "迪庆藏族自治州",
            "district": "维西傈僳族自治县"
        }
    },
    {
        "id": "12434732405185324945",
        "title": "梅里雪山国家公园厕所",
        "address": "云南省迪庆藏族自治州德钦县明永冰川景区东北侧100米",
        "tel": "",
        "category": "基础设施:公共设施:公共厕所",
        "type": 0,
        "location": {
            "lat": 28.46787,
            "lng": 98.78627
        },
        "ad_info": {
            "adcode": 533422,
            "province": "云南省",
            "city": "迪庆藏族自治州",
            "district": "德钦县"
        }
    },
    {
        "id": "331658672752664761",
        "title": "香格里拉市独克宗古城公共厕所",
        "address": "云南省迪庆藏族自治州香格里拉市达娃路香格里拉县独克宗古城",
        "tel": "",
        "category": "基础设施:公共设施:公共厕所",
        "type": 0,
        "location": {
            "lat": 27.814261,
            "lng": 99.70958
        },
        "ad_info": {
            "adcode": 533401,
            "province": "云南省",
            "city": "迪庆藏族自治州",
            "district": "香格里拉市"
        }
    },
    {
        "id": "11270227159295333897",
        "title": "香格里拉市独克宗古城公共厕所",
        "address": "云南省迪庆藏族自治州香格里拉市达娃路香格里拉县独克宗古城内",
        "tel": "",
        "category": "基础设施:公共设施:公共厕所",
        "type": 0,
        "location": {
            "lat": 27.81405,
            "lng": 99.704587
        },
        "ad_info": {
            "adcode": 533401,
            "province": "云南省",
            "city": "迪庆藏族自治州",
            "district": "香格里拉市"
        }
    },
    {
        "id": "8080662519496481091",
        "title": "巴拉村公共厕所",
        "address": "云南省迪庆藏族自治州香格里拉市巴拉格宗景区内",
        "tel": "",
        "category": "基础设施:公共设施:公共厕所",
        "type": 0,
        "location": {
            "lat": 28.314353,
            "lng": 99.453228
        },
        "ad_info": {
            "adcode": 533401,
            "province": "云南省",
            "city": "迪庆藏族自治州",
            "district": "香格里拉市"
        }
    },
    {
        "id": "11517552329435348312",
        "title": "虎跳峡卫生间",
        "address": "云南省迪庆藏族自治州香格里拉市",
        "tel": "",
        "category": "基础设施:公共设施:公共厕所",
        "type": 0,
        "location": {
            "lat": 27.1826,
            "lng": 100.09158
        },
        "ad_info": {
            "adcode": 533401,
            "province": "云南省",
            "city": "迪庆藏族自治州",
            "district": "香格里拉市"
        }
    },
    {
        "id": "7968630715154958611",
        "title": "停车场厕所",
        "address": "云南省迪庆藏族自治州香格里拉市",
        "tel": "",
        "category": "基础设施:公共设施:公共厕所",
        "type": 0,
        "location": {
            "lat": 27.79287,
            "lng": 99.87535
        },
        "ad_info": {
            "adcode": 533401,
            "province": "云南省",
            "city": "迪庆藏族自治州",
            "district": "香格里拉市"
        }
    },
    {
        "id": "6678386520183428812",
        "title": "梅里雪山国家公园厕所",
        "address": "云南省迪庆藏族自治州德钦县梅里雪山景区内",
        "tel": "",
        "category": "基础设施:公共设施:公共厕所",
        "type": 0,
        "location": {
            "lat": 28.45333,
            "lng": 98.76582
        },
        "ad_info": {
            "adcode": 533422,
            "province": "云南省",
            "city": "迪庆藏族自治州",
            "district": "德钦县"
        }
    },
    {
        "id": "807944629511159442",
        "title": "梅里雪山国家公园厕所",
        "address": "云南省迪庆藏族自治州德钦县梅里雪山景区内",
        "tel": "",
        "category": "基础设施:公共设施:公共厕所",
        "type": 0,
        "location": {
            "lat": 28.46401,
            "lng": 98.81791
        },
        "ad_info": {
            "adcode": 533422,
            "province": "云南省",
            "city": "迪庆藏族自治州",
            "district": "德钦县"
        }
    },
    {
        "id": "14241745533494831766",
        "title": "六号公厕",
        "address": "云南省迪庆藏族自治州德钦县G214与东竹林3号大桥交叉口西北方向624米左右",
        "tel": "",
        "category": "基础设施:公共设施:公共厕所",
        "type": 0,
        "location": {
            "lat": 28.26041,
            "lng": 99.23314
        },
        "ad_info": {
            "adcode": 533422,
            "province": "云南省",
            "city": "迪庆藏族自治州",
            "district": "德钦县"
        }
    },
    {
        "id": "1612392343035554070",
        "title": "旅游公共厕所",
        "address": "云南省迪庆藏族自治州德钦县冰川路与明永公路交叉口西南方向1941米左右",
        "tel": "",
        "category": "基础设施:公共设施:公共厕所",
        "type": 0,
        "location": {
            "lat": 28.4574,
            "lng": 98.77181
        },
        "ad_info": {
            "adcode": 533422,
            "province": "云南省",
            "city": "迪庆藏族自治州",
            "district": "德钦县"
        }
    },
    {
        "id": "10907995387680379952",
        "title": "四号公厕",
        "address": "云南省迪庆藏族自治州德钦县G214与东竹林3号大桥交叉口正北方向716米左右",
        "tel": "",
        "category": "基础设施:公共设施:公共厕所",
        "type": 0,
        "location": {
            "lat": 28.26144,
            "lng": 99.23357
        },
        "ad_info": {
            "adcode": 533422,
            "province": "云南省",
            "city": "迪庆藏族自治州",
            "district": "德钦县"
        }
    },
    {
        "id": "4585929308252947585",
        "title": "三号公厕",
        "address": "云南省迪庆藏族自治州德钦县G214与追达2号大桥交叉口正东方向805米左右",
        "tel": "",
        "category": "基础设施:公共设施:公共厕所",
        "type": 0,
        "location": {
            "lat": 28.26208,
            "lng": 99.2328
        },
        "ad_info": {
            "adcode": 533422,
            "province": "云南省",
            "city": "迪庆藏族自治州",
            "district": "德钦县"
        }
    },
    {
        "id": "12631755961779596418",
        "title": "蓝月山谷卫生间",
        "address": "云南省迪庆藏族自治州香格里拉市石卡雪山",
        "tel": "",
        "category": "基础设施:公共设施:公共厕所",
        "type": 0,
        "location": {
            "lat": 27.78742,
            "lng": 99.61075
        },
        "ad_info": {
            "adcode": 533401,
            "province": "云南省",
            "city": "迪庆藏族自治州",
            "district": "香格里拉市"
        }
    },
    {
        "id": "1542828954606190395",
        "title": "蓝月山谷卫生间",
        "address": "云南省迪庆藏族自治州香格里拉市石卡雪山",
        "tel": "",
        "category": "基础设施:公共设施:公共厕所",
        "type": 0,
        "location": {
            "lat": 27.787174,
            "lng": 99.613397
        },
        "ad_info": {
            "adcode": 533401,
            "province": "云南省",
            "city": "迪庆藏族自治州",
            "district": "香格里拉市"
        }
    },
    {
        "id": "9081928904839617000",
        "title": "巴拉格宗景区公共厕所",
        "address": "云南省迪庆藏族自治州香格里拉市巴拉格宗景区内",
        "tel": "",
        "category": "基础设施:公共设施:公共厕所",
        "type": 0,
        "location": {
            "lat": 28.28709,
            "lng": 99.43607
        },
        "ad_info": {
            "adcode": 533401,
            "province": "云南省",
            "city": "迪庆藏族自治州",
            "district": "香格里拉市"
        }
    },
    {
        "id": "3821737992921538180",
        "title": "巴拉格宗景区公共厕所",
        "address": "云南省迪庆藏族自治州香格里拉市巴拉格宗景区内",
        "tel": "",
        "category": "基础设施:公共设施:公共厕所",
        "type": 0,
        "location": {
            "lat": 28.345831,
            "lng": 99.448135
        },
        "ad_info": {
            "adcode": 533401,
            "province": "云南省",
            "city": "迪庆藏族自治州",
            "district": "香格里拉市"
        }
    },
    {
        "id": "9908426142088699193",
        "title": "同乐河边停车场旅游厕所",
        "address": "云南省迪庆藏族自治州维西傈僳族自治县德维二级油路79公里处沿同乐河逆行3公里处同乐傈僳族山赛景区内",
        "tel": "",
        "category": "基础设施:公共设施:公共厕所",
        "type": 0,
        "location": {
            "lat": 27.655445,
            "lng": 99.058834
        },
        "ad_info": {
            "adcode": 533423,
            "province": "云南省",
            "city": "迪庆藏族自治州",
            "district": "维西傈僳族自治县"
        }
    },
    {
        "id": "5256374874801753967",
        "title": "梅里雪山国家公园厕所",
        "address": "云南省迪庆藏族自治州德钦县梅里雪山景区内",
        "tel": "",
        "category": "基础设施:公共设施:公共厕所",
        "type": 0,
        "location": {
            "lat": 28.41443,
            "lng": 98.82665
        },
        "ad_info": {
            "adcode": 533422,
            "province": "云南省",
            "city": "迪庆藏族自治州",
            "district": "德钦县"
        }
    },
    {
        "id": "8568374671083388192",
        "title": "蓝月山谷卫生间",
        "address": "云南省迪庆藏族自治州香格里拉市石卡雪山",
        "tel": "",
        "category": "基础设施:公共设施:公共厕所",
        "type": 0,
        "location": {
            "lat": 27.793875,
            "lng": 99.630372
        },
        "ad_info": {
            "adcode": 533401,
            "province": "云南省",
            "city": "迪庆藏族自治州",
            "district": "香格里拉市"
        }
    },
    {
        "id": "7728122379541939957",
        "title": "梅里雪山国家公园厕所",
        "address": "云南省迪庆藏族自治州德钦县梅里雪山景区内",
        "tel": "",
        "category": "基础设施:公共设施:公共厕所",
        "type": 0,
        "location": {
            "lat": 28.45365,
            "lng": 98.75743
        },
        "ad_info": {
            "adcode": 533422,
            "province": "云南省",
            "city": "迪庆藏族自治州",
            "district": "德钦县"
        }
    },
    {
        "id": "12220780004874390943",
        "title": "公共厕所",
        "address": "云南省迪庆藏族自治州香格里拉市G215与香维线交叉口正东方向464米左右",
        "tel": "",
        "category": "基础设施:公共设施:公共厕所",
        "type": 0,
        "location": {
            "lat": 28.007833,
            "lng": 99.543617
        },
        "ad_info": {
            "adcode": 533401,
            "province": "云南省",
            "city": "迪庆藏族自治州",
            "district": "香格里拉市"
        }
    },
    {
        "id": "14884986894678351819",
        "title": "香格里拉阿若康巴南索达庄园-洗手间",
        "address": "云南省迪庆藏族自治州香格里拉市仓房街与依若木廊交叉口正南方向299米左右",
        "tel": "",
        "category": "基础设施:公共设施:公共厕所",
        "type": 0,
        "location": {
            "lat": 27.809864,
            "lng": 99.706124
        },
        "ad_info": {
            "adcode": 533401,
            "province": "云南省",
            "city": "迪庆藏族自治州",
            "district": "香格里拉市"
        }
    },
    {
        "id": "12919116329047119157",
        "title": "公共厕所",
        "address": "云南省迪庆藏族自治州德钦县中国石化奔子栏加油站东侧",
        "tel": "",
        "category": "基础设施:公共设施:公共厕所",
        "type": 0,
        "location": {
            "lat": 28.221146,
            "lng": 99.314889
        },
        "ad_info": {
            "adcode": 533422,
            "province": "云南省",
            "city": "迪庆藏族自治州",
            "district": "德钦县"
        }
    },
    {
        "id": "7634186398159836631",
        "title": "公共厕所",
        "address": "云南省迪庆藏族自治州香格里拉市左瓜路与康定路交叉口东北方向217米左右",
        "tel": "",
        "category": "基础设施:公共设施:公共厕所",
        "type": 0,
        "location": {
            "lat": 27.837373,
            "lng": 99.711811
        },
        "ad_info": {
            "adcode": 533401,
            "province": "云南省",
            "city": "迪庆藏族自治州",
            "district": "香格里拉市"
        }
    },
    {
        "id": "936808141986665647",
        "title": "公共厕所",
        "address": "云南省迪庆藏族自治州香格里拉市G214与继红桥交叉口正北方向332米左右",
        "tel": "",
        "category": "基础设施:公共设施:公共厕所",
        "type": 0,
        "location": {
            "lat": 27.131274,
            "lng": 100.055685
        },
        "ad_info": {
            "adcode": 533401,
            "province": "云南省",
            "city": "迪庆藏族自治州",
            "district": "香格里拉市"
        }
    },
    {
        "id": "3026450407616315394",
        "title": "公共厕所",
        "address": "云南省迪庆藏族自治州香格里拉市G214与岗曲河大桥交叉口东南方向390米左右",
        "tel": "",
        "category": "基础设施:公共设施:公共厕所",
        "type": 0,
        "location": {
            "lat": 28.147387,
            "lng": 99.405119
        },
        "ad_info": {
            "adcode": 533401,
            "province": "云南省",
            "city": "迪庆藏族自治州",
            "district": "香格里拉市"
        }
    },
    {
        "id": "15082234427206601762",
        "title": "滨河南路茂源酒店旁公共厕所",
        "address": "云南省迪庆藏族自治州香格里拉市滨河北路纳池河边",
        "tel": "",
        "category": "基础设施:公共设施:公共厕所",
        "type": 0,
        "location": {
            "lat": 27.834478,
            "lng": 99.714587
        },
        "ad_info": {
            "adcode": 533401,
            "province": "云南省",
            "city": "迪庆藏族自治州",
            "district": "香格里拉市"
        }
    },
    {
        "id": "11322780484440795293",
        "title": "公共厕所",
        "address": "云南省迪庆藏族自治州维西傈僳族自治县S226与香维线交叉口东南方向25米左右",
        "tel": "",
        "category": "基础设施:公共设施:公共厕所",
        "type": 0,
        "location": {
            "lat": 27.571952,
            "lng": 99.52853
        },
        "ad_info": {
            "adcode": 533423,
            "province": "云南省",
            "city": "迪庆藏族自治州",
            "district": "维西傈僳族自治县"
        }
    },
    {
        "id": "3084054851111429820",
        "title": "公共厕所",
        "address": "云南省迪庆藏族自治州香格里拉市金江线附近",
        "tel": "",
        "category": "基础设施:公共设施:公共厕所",
        "type": 0,
        "location": {
            "lat": 27.45808,
            "lng": 99.588083
        },
        "ad_info": {
            "adcode": 533401,
            "province": "云南省",
            "city": "迪庆藏族自治州",
            "district": "香格里拉市"
        }
    },
    {
        "id": "11240673646512769910",
        "title": "公共厕所",
        "address": "云南省迪庆藏族自治州香格里拉市G214与金沙路交叉口西南方向51米左右",
        "tel": "",
        "category": "基础设施:公共设施:公共厕所",
        "type": 0,
        "location": {
            "lat": 27.041672,
            "lng": 100.070848
        },
        "ad_info": {
            "adcode": 533401,
            "province": "云南省",
            "city": "迪庆藏族自治州",
            "district": "香格里拉市"
        }
    },
    {
        "id": "7284459608835869071",
        "title": "公共厕所",
        "address": "云南省迪庆藏族自治州香格里拉市仕旺渡口公路与金江线交叉口正北方向524米左右",
        "tel": "",
        "category": "基础设施:公共设施:公共厕所",
        "type": 0,
        "location": {
            "lat": 27.333629,
            "lng": 99.650761
        },
        "ad_info": {
            "adcode": 533401,
            "province": "云南省",
            "city": "迪庆藏族自治州",
            "district": "香格里拉市"
        }
    },
    {
        "id": "7566786718501137418",
        "title": "金龙街纳举廊公共厕所",
        "address": "云南省迪庆藏族自治州香格里拉市勒波多廊与纳举廊交叉口正西方向269米左右",
        "tel": "",
        "category": "基础设施:公共设施:公共厕所",
        "type": 0,
        "location": {
            "lat": 27.80762,
            "lng": 99.708311
        },
        "ad_info": {
            "adcode": 533401,
            "province": "云南省",
            "city": "迪庆藏族自治州",
            "district": "香格里拉市"
        }
    },
    {
        "id": "1397041878309859637",
        "title": "公共厕所",
        "address": "云南省迪庆藏族自治州香格里拉市G214与老虎菁桥交叉口西北方向332米左右",
        "tel": "",
        "category": "基础设施:公共设施:公共厕所",
        "type": 0,
        "location": {
            "lat": 27.076304,
            "lng": 100.063511
        },
        "ad_info": {
            "adcode": 533401,
            "province": "云南省",
            "city": "迪庆藏族自治州",
            "district": "香格里拉市"
        }
    },
    {
        "id": "11698347536136274283",
        "title": "公共厕所",
        "address": "云南省迪庆藏族自治州香格里拉市金江线附近",
        "tel": "",
        "category": "基础设施:公共设施:公共厕所",
        "type": 0,
        "location": {
            "lat": 27.454328,
            "lng": 99.604804
        },
        "ad_info": {
            "adcode": 533401,
            "province": "云南省",
            "city": "迪庆藏族自治州",
            "district": "香格里拉市"
        }
    },
    {
        "id": "1289352753887471354",
        "title": "公共厕所",
        "address": "云南省迪庆藏族自治州香格里拉市滇西应用技术大学迪庆学院东南侧250米",
        "tel": "",
        "category": "基础设施:公共设施:公共厕所",
        "type": 0,
        "location": {
            "lat": 27.760564,
            "lng": 99.708887
        },
        "ad_info": {
            "adcode": 533401,
            "province": "云南省",
            "city": "迪庆藏族自治州",
            "district": "香格里拉市"
        }
    },
    {
        "id": "316124055182746853",
        "title": "公共卫生间",
        "address": "云南省迪庆藏族自治州香格里拉市左瓜路与康定路交叉口西北方向209米左右",
        "tel": "",
        "category": "基础设施:公共设施:公共厕所",
        "type": 0,
        "location": {
            "lat": 27.837066,
            "lng": 99.708302
        },
        "ad_info": {
            "adcode": 533401,
            "province": "云南省",
            "city": "迪庆藏族自治州",
            "district": "香格里拉市"
        }
    },
    {
        "id": "16015577816171317306",
        "title": "公共厕所",
        "address": "云南省迪庆藏族自治州香格里拉市康乐福超市斜对面",
        "tel": "",
        "category": "基础设施:公共设施:公共厕所",
        "type": 0,
        "location": {
            "lat": 27.835252,
            "lng": 99.702961
        },
        "ad_info": {
            "adcode": 533401,
            "province": "云南省",
            "city": "迪庆藏族自治州",
            "district": "香格里拉市"
        }
    },
    {
        "id": "401659444282993145",
        "title": "公共厕所",
        "address": "云南省迪庆藏族自治州香格里拉市康巴路12号",
        "tel": "",
        "category": "基础设施:公共设施:公共厕所",
        "type": 0,
        "location": {
            "lat": 27.828622,
            "lng": 99.701946
        },
        "ad_info": {
            "adcode": 533401,
            "province": "云南省",
            "city": "迪庆藏族自治州",
            "district": "香格里拉市"
        }
    },
    {
        "id": "4327820758826109655",
        "title": "公共厕所",
        "address": "云南省迪庆藏族自治州香格里拉市香格里拉月海商务酒店东侧",
        "tel": "",
        "category": "基础设施:公共设施:公共厕所",
        "type": 0,
        "location": {
            "lat": 27.056983,
            "lng": 100.073323
        },
        "ad_info": {
            "adcode": 533401,
            "province": "云南省",
            "city": "迪庆藏族自治州",
            "district": "香格里拉市"
        }
    },
    {
        "id": "15700279200784882514",
        "title": "巴拉格宗景区公共厕所",
        "address": "云南省迪庆藏族自治州香格里拉市巴拉格宗景区内",
        "tel": "",
        "category": "基础设施:公共设施:公共厕所",
        "type": 0,
        "location": {
            "lat": 28.28743,
            "lng": 99.43571
        },
        "ad_info": {
            "adcode": 533401,
            "province": "云南省",
            "city": "迪庆藏族自治州",
            "district": "香格里拉市"
        }
    },
    {
        "id": "2453965235907206003",
        "title": "公共厕所",
        "address": "云南省迪庆藏族自治州香格里拉市第二中学球场旁",
        "tel": "",
        "category": "基础设施:公共设施:公共厕所",
        "type": 0,
        "location": {
            "lat": 27.823419,
            "lng": 99.710457
        },
        "ad_info": {
            "adcode": 533401,
            "province": "云南省",
            "city": "迪庆藏族自治州",
            "district": "香格里拉市"
        }
    },
    {
        "id": "4367552098446474839",
        "title": "巴拉格宗景区公共厕所",
        "address": "云南省迪庆藏族自治州香格里拉市巴拉格宗景区内",
        "tel": "",
        "category": "基础设施:公共设施:公共厕所",
        "type": 0,
        "location": {
            "lat": 28.33645,
            "lng": 99.48093
        },
        "ad_info": {
            "adcode": 533401,
            "province": "云南省",
            "city": "迪庆藏族自治州",
            "district": "香格里拉市"
        }
    },
    {
        "id": "3460706491003518274",
        "title": "公共厕所",
        "address": "云南省迪庆藏族自治州香格里拉市藏彝大观风景区西南侧250米",
        "tel": "",
        "category": "基础设施:公共设施:公共厕所",
        "type": 0,
        "location": {
            "lat": 27.398851,
            "lng": 99.875567
        },
        "ad_info": {
            "adcode": 533401,
            "province": "云南省",
            "city": "迪庆藏族自治州",
            "district": "香格里拉市"
        }
    },
    {
        "id": "17028298558763397953",
        "title": "梅里雪山国家公园厕所",
        "address": "云南省迪庆藏族自治州德钦县梅里雪山景区内",
        "tel": "",
        "category": "基础设施:公共设施:公共厕所",
        "type": 0,
        "location": {
            "lat": 28.42218,
            "lng": 98.8131
        },
        "ad_info": {
            "adcode": 533422,
            "province": "云南省",
            "city": "迪庆藏族自治州",
            "district": "德钦县"
        }
    },
    {
        "id": "13967716978868772206",
        "title": "公共厕所",
        "address": "云南省迪庆藏族自治州香格里拉市云丹路与滨河北路交叉口正北方向107米左右",
        "tel": "",
        "category": "基础设施:公共设施:公共厕所",
        "type": 0,
        "location": {
            "lat": 27.832179,
            "lng": 99.699124
        },
        "ad_info": {
            "adcode": 533401,
            "province": "云南省",
            "city": "迪庆藏族自治州",
            "district": "香格里拉市"
        }
    },
    {
        "id": "10333084170935606174",
        "title": "公共厕所",
        "address": "云南省迪庆藏族自治州香格里拉市G214与桥头大桥交叉口正北方向843米左右",
        "tel": "",
        "category": "基础设施:公共设施:公共厕所",
        "type": 0,
        "location": {
            "lat": 27.197432,
            "lng": 100.046546
        },
        "ad_info": {
            "adcode": 533401,
            "province": "云南省",
            "city": "迪庆藏族自治州",
            "district": "香格里拉市"
        }
    },
    {
        "id": "15220298452943370584",
        "title": "公共厕所",
        "address": "云南省迪庆藏族自治州香格里拉市神鹰路口和谐塔中塔西方15米左右",
        "tel": "",
        "category": "基础设施:公共设施:公共厕所",
        "type": 0,
        "location": {
            "lat": 27.787855,
            "lng": 99.700928
        },
        "ad_info": {
            "adcode": 533401,
            "province": "云南省",
            "city": "迪庆藏族自治州",
            "district": "香格里拉市"
        }
    },
    {
        "id": "8756787258853468100",
        "title": "公共厕所",
        "address": "云南省迪庆藏族自治州德钦县G214与阿东河隧道交叉口西北方向685米左右",
        "tel": "",
        "category": "基础设施:公共设施:公共厕所",
        "type": 0,
        "location": {
            "lat": 28.548242,
            "lng": 98.791436
        },
        "ad_info": {
            "adcode": 533422,
            "province": "云南省",
            "city": "迪庆藏族自治州",
            "district": "德钦县"
        }
    },
    {
        "id": "17933831144550537772",
        "title": "公共厕所",
        "address": "云南省迪庆藏族自治州香格里拉市建塘路与米浪路交叉口正北方向38米左右",
        "tel": "",
        "category": "基础设施:公共设施:公共厕所",
        "type": 0,
        "location": {
            "lat": 27.822075,
            "lng": 99.714766
        },
        "ad_info": {
            "adcode": 533401,
            "province": "云南省",
            "city": "迪庆藏族自治州",
            "district": "香格里拉市"
        }
    },
    {
        "id": "9169073554382995291",
        "title": "仓房古波廊公共厕所",
        "address": "云南省迪庆藏族自治州香格里拉市古波廊29号",
        "tel": "",
        "category": "基础设施:公共设施:公共厕所",
        "type": 0,
        "location": {
            "lat": 27.813173,
            "lng": 99.706992
        },
        "ad_info": {
            "adcode": 533401,
            "province": "云南省",
            "city": "迪庆藏族自治州",
            "district": "香格里拉市"
        }
    },
    {
        "id": "8800671054350378716",
        "title": "二号公厕",
        "address": "云南省迪庆藏族自治州德钦县G214与东竹林3号大桥交叉口西北方向725米左右",
        "tel": "",
        "category": "基础设施:公共设施:公共厕所",
        "type": 0,
        "location": {
            "lat": 28.26098,
            "lng": 99.23215
        },
        "ad_info": {
            "adcode": 533422,
            "province": "云南省",
            "city": "迪庆藏族自治州",
            "district": "德钦县"
        }
    },
    {
        "id": "12701120481271530795",
        "title": "金龙瓦窑路公共厕所",
        "address": "云南省迪庆藏族自治州香格里拉市东廊",
        "tel": "",
        "category": "基础设施:公共设施:公共厕所",
        "type": 0,
        "location": {
            "lat": 27.807388,
            "lng": 99.705661
        },
        "ad_info": {
            "adcode": 533401,
            "province": "云南省",
            "city": "迪庆藏族自治州",
            "district": "香格里拉市"
        }
    },
    {
        "id": "1355579191794054611",
        "title": "专家接待楼公共厕所",
        "address": "云南省迪庆藏族自治州香格里拉市G214与高山植物园大桥交叉口正南方向223米左右",
        "tel": "",
        "category": "基础设施:公共设施:公共厕所",
        "type": 0,
        "location": {
            "lat": 27.902285,
            "lng": 99.637376
        },
        "ad_info": {
            "adcode": 533401,
            "province": "云南省",
            "city": "迪庆藏族自治州",
            "district": "香格里拉市"
        }
    },
    {
        "id": "6025737647628112962",
        "title": "剧院文化广场厕所",
        "address": "云南省迪庆藏族自治州香格里拉市池慈卡街62号",
        "tel": "",
        "category": "基础设施:公共设施:公共厕所",
        "type": 0,
        "location": {
            "lat": 27.817208,
            "lng": 99.704982
        },
        "ad_info": {
            "adcode": 533401,
            "province": "云南省",
            "city": "迪庆藏族自治州",
            "district": "香格里拉市"
        }
    },
    {
        "id": "11175741456971285516",
        "title": "五号公厕",
        "address": "云南省迪庆藏族自治州德钦县G214与东竹林3号大桥交叉口正北方向828米左右",
        "tel": "",
        "category": "基础设施:公共设施:公共厕所",
        "type": 0,
        "location": {
            "lat": 28.26255,
            "lng": 99.2338
        },
        "ad_info": {
            "adcode": 533422,
            "province": "云南省",
            "city": "迪庆藏族自治州",
            "district": "德钦县"
        }
    },
    {
        "id": "18346552966459303805",
        "title": "公共厕所",
        "address": "云南省迪庆藏族自治州香格里拉市独克宗古城后面",
        "tel": "",
        "category": "基础设施:公共设施:公共厕所",
        "type": 0,
        "location": {
            "lat": 27.821225,
            "lng": 99.70378
        },
        "ad_info": {
            "adcode": 533401,
            "province": "云南省",
            "city": "迪庆藏族自治州",
            "district": "香格里拉市"
        }
    },
    {
        "id": "4124983049897277579",
        "title": "公共厕所",
        "address": "云南省迪庆藏族自治州香格里拉市湖畔家园小区西侧180米",
        "tel": "",
        "category": "基础设施:公共设施:公共厕所",
        "type": 0,
        "location": {
            "lat": 27.831618,
            "lng": 99.725748
        },
        "ad_info": {
            "adcode": 533401,
            "province": "云南省",
            "city": "迪庆藏族自治州",
            "district": "香格里拉市"
        }
    }
]