[
    {
        "id": "9953288486205722389",
        "title": "公共厕所",
        "address": "吉林省通化市东昌区光明路与旭民路交叉口正东方向26米左右",
        "tel": "",
        "category": "基础设施:公共设施:公共厕所",
        "type": 0,
        "location": {
            "lat": 41.717781,
            "lng": 125.933572
        },
        "ad_info": {
            "adcode": 220502,
            "province": "吉林省",
            "city": "通化市",
            "district": "东昌区"
        }
    },
    {
        "id": "17114956556054484117",
        "title": "公共厕所",
        "address": "吉林省通化市梅河口市梅河西大街与百里花广场交叉口东北60米",
        "tel": "",
        "category": "基础设施:公共设施:公共厕所",
        "type": 0,
        "location": {
            "lat": 42.504842,
            "lng": 125.679901
        },
        "ad_info": {
            "adcode": 220581,
            "province": "吉林省",
            "city": "通化市",
            "district": "梅河口市"
        }
    },
    {
        "id": "199054008881510899",
        "title": "公共厕所",
        "address": "吉林省通化市梅河口市梅河西大街与西环路交叉口正东方向68米左右",
        "tel": "",
        "category": "基础设施:公共设施:公共厕所",
        "type": 0,
        "location": {
            "lat": 42.50383,
            "lng": 125.68106
        },
        "ad_info": {
            "adcode": 220581,
            "province": "吉林省",
            "city": "通化市",
            "district": "梅河口市"
        }
    },
    {
        "id": "13062227789541276401",
        "title": "公共厕所",
        "address": "吉林省通化市梅河口市人民大街与华阳路交叉口西北方向207米左右",
        "tel": "",
        "category": "基础设施:公共设施:公共厕所",
        "type": 0,
        "location": {
            "lat": 42.528948,
            "lng": 125.702855
        },
        "ad_info": {
            "adcode": 220581,
            "province": "吉林省",
            "city": "通化市",
            "district": "梅河口市"
        }
    },
    {
        "id": "7637546241926410790",
        "title": "公共厕所",
        "address": "吉林省通化市梅河口市滨河北街与黄海路交叉口正西方向59米左右",
        "tel": "",
        "category": "基础设施:公共设施:公共厕所",
        "type": 0,
        "location": {
            "lat": 42.549451,
            "lng": 125.705179
        },
        "ad_info": {
            "adcode": 220581,
            "province": "吉林省",
            "city": "通化市",
            "district": "梅河口市"
        }
    },
    {
        "id": "10618018965815226801",
        "title": "公共厕所",
        "address": "吉林省通化市东昌区玉龙胡同与龙兴胡同交叉口正西方向137米左右",
        "tel": "",
        "category": "基础设施:公共设施:公共厕所",
        "type": 0,
        "location": {
            "lat": 41.733596,
            "lng": 125.930041
        },
        "ad_info": {
            "adcode": 220502,
            "province": "吉林省",
            "city": "通化市",
            "district": "东昌区"
        }
    },
    {
        "id": "684147105188157428",
        "title": "公共厕所",
        "address": "吉林省通化市梅河口市辽源矿务局梅河煤矿汽车队东侧190米",
        "tel": "",
        "category": "基础设施:公共设施:公共厕所",
        "type": 0,
        "location": {
            "lat": 42.41883,
            "lng": 125.602054
        },
        "ad_info": {
            "adcode": 220581,
            "province": "吉林省",
            "city": "通化市",
            "district": "梅河口市"
        }
    },
    {
        "id": "10463890495029664575",
        "title": "公共厕所",
        "address": "吉林省通化市通化县利群街与同德路交叉口正北方向78米左右",
        "tel": "",
        "category": "基础设施:公共设施:公共厕所",
        "type": 0,
        "location": {
            "lat": 41.677003,
            "lng": 125.754877
        },
        "ad_info": {
            "adcode": 220521,
            "province": "吉林省",
            "city": "通化市",
            "district": "通化县"
        }
    },
    {
        "id": "7697996870356387055",
        "title": "公共厕所",
        "address": "吉林省通化市梅河口市梅河大街与站前广场交叉口正西方向67米左右",
        "tel": "",
        "category": "基础设施:公共设施:公共厕所",
        "type": 0,
        "location": {
            "lat": 42.534935,
            "lng": 125.686139
        },
        "ad_info": {
            "adcode": 220581,
            "province": "吉林省",
            "city": "通化市",
            "district": "梅河口市"
        }
    },
    {
        "id": "17768897489757321242",
        "title": "公共厕所",
        "address": "吉林省通化市东昌区三道沟路与新岭路交叉口正西方向34米左右",
        "tel": "",
        "category": "基础设施:公共设施:公共厕所",
        "type": 0,
        "location": {
            "lat": 41.735576,
            "lng": 125.972618
        },
        "ad_info": {
            "adcode": 220502,
            "province": "吉林省",
            "city": "通化市",
            "district": "东昌区"
        }
    },
    {
        "id": "12784808758548850712",
        "title": "公共厕所",
        "address": "吉林省通化市梅河口市安居路与民悦街交叉口西北方向661米左右",
        "tel": "",
        "category": "基础设施:公共设施:公共厕所",
        "type": 0,
        "location": {
            "lat": 42.540499,
            "lng": 125.668431
        },
        "ad_info": {
            "adcode": 220581,
            "province": "吉林省",
            "city": "通化市",
            "district": "梅河口市"
        }
    },
    {
        "id": "18191876413118919556",
        "title": "公共厕所",
        "address": "吉林省通化市东昌区通化师范学院继续教育学院旁",
        "tel": "",
        "category": "基础设施:公共设施:公共厕所",
        "type": 0,
        "location": {
            "lat": 41.746695,
            "lng": 125.982967
        },
        "ad_info": {
            "adcode": 220502,
            "province": "吉林省",
            "city": "通化市",
            "district": "东昌区"
        }
    },
    {
        "id": "6138755659024384418",
        "title": "公共厕所",
        "address": "吉林省通化市梅河口市人民大街与文体胡同交叉口西北方向55米左右",
        "tel": "",
        "category": "基础设施:公共设施:公共厕所",
        "type": 0,
        "location": {
            "lat": 42.535406,
            "lng": 125.709912
        },
        "ad_info": {
            "adcode": 220581,
            "province": "吉林省",
            "city": "通化市",
            "district": "梅河口市"
        }
    },
    {
        "id": "2625423853894026157",
        "title": "公共厕所",
        "address": "吉林省通化市东昌区保安路与欣荣路交叉口正西方向441米左右",
        "tel": "",
        "category": "基础设施:公共设施:公共厕所",
        "type": 0,
        "location": {
            "lat": 41.721103,
            "lng": 125.965984
        },
        "ad_info": {
            "adcode": 220502,
            "province": "吉林省",
            "city": "通化市",
            "district": "东昌区"
        }
    },
    {
        "id": "14227027473726606904",
        "title": "公共厕所",
        "address": "吉林省通化市东昌区客运站胡同与建设大街交叉口东北方向206米左右",
        "tel": "",
        "category": "基础设施:公共设施:公共厕所",
        "type": 0,
        "location": {
            "lat": 41.752135,
            "lng": 125.979876
        },
        "ad_info": {
            "adcode": 220502,
            "province": "吉林省",
            "city": "通化市",
            "district": "东昌区"
        }
    },
    {
        "id": "7807829012097219993",
        "title": "公共厕所",
        "address": "吉林省通化市梅河口市X079与海龙三桥交叉口西北方向437米左右",
        "tel": "",
        "category": "基础设施:公共设施:公共厕所",
        "type": 0,
        "location": {
            "lat": 42.643953,
            "lng": 125.854863
        },
        "ad_info": {
            "adcode": 220581,
            "province": "吉林省",
            "city": "通化市",
            "district": "梅河口市"
        }
    },
    {
        "id": "4224001544594908303",
        "title": "公共厕所",
        "address": "吉林省通化市梅河口市爱民街与祥民路交叉口正西方向191米左右",
        "tel": "",
        "category": "基础设施:公共设施:公共厕所",
        "type": 0,
        "location": {
            "lat": 42.53246,
            "lng": 125.669219
        },
        "ad_info": {
            "adcode": 220581,
            "province": "吉林省",
            "city": "通化市",
            "district": "梅河口市"
        }
    },
    {
        "id": "6437371865598318298",
        "title": "公共厕所",
        "address": "吉林省通化市东昌区建设大街与新光路交叉口正北方向49米左右",
        "tel": "",
        "category": "基础设施:公共设施:公共厕所",
        "type": 0,
        "location": {
            "lat": 41.73537,
            "lng": 125.960134
        },
        "ad_info": {
            "adcode": 220502,
            "province": "吉林省",
            "city": "通化市",
            "district": "东昌区"
        }
    },
    {
        "id": "9857179694879054799",
        "title": "公共厕所",
        "address": "吉林省通化市梅河口市梅河大街1680号",
        "tel": "",
        "category": "基础设施:公共设施:公共厕所",
        "type": 0,
        "location": {
            "lat": 42.530466,
            "lng": 125.684958
        },
        "ad_info": {
            "adcode": 220581,
            "province": "吉林省",
            "city": "通化市",
            "district": "梅河口市"
        }
    },
    {
        "id": "4830657676910856861",
        "title": "公共厕所",
        "address": "吉林省通化市梅河口市泰安花园(惠国路)东侧140米",
        "tel": "",
        "category": "基础设施:公共设施:公共厕所",
        "type": 0,
        "location": {
            "lat": 42.537071,
            "lng": 125.701043
        },
        "ad_info": {
            "adcode": 220581,
            "province": "吉林省",
            "city": "通化市",
            "district": "梅河口市"
        }
    },
    {
        "id": "2960916711370913025",
        "title": "公共厕所",
        "address": "吉林省通化市辉南县北环大街与综园路交叉口正北方向422米左右",
        "tel": "",
        "category": "基础设施:公共设施:公共厕所",
        "type": 0,
        "location": {
            "lat": 42.69608,
            "lng": 126.05491
        },
        "ad_info": {
            "adcode": 220523,
            "province": "吉林省",
            "city": "通化市",
            "district": "辉南县"
        }
    },
    {
        "id": "8273227485026415204",
        "title": "公共厕所",
        "address": "吉林省通化市东昌区保安路与新安路交叉口正南方向72米左右",
        "tel": "",
        "category": "基础设施:公共设施:公共厕所",
        "type": 0,
        "location": {
            "lat": 41.724482,
            "lng": 125.958035
        },
        "ad_info": {
            "adcode": 220502,
            "province": "吉林省",
            "city": "通化市",
            "district": "东昌区"
        }
    },
    {
        "id": "3707584074405027241",
        "title": "公共厕所",
        "address": "吉林省通化市梅河口市103省道东50米",
        "tel": "",
        "category": "基础设施:公共设施:公共厕所",
        "type": 0,
        "location": {
            "lat": 42.81309,
            "lng": 125.801098
        },
        "ad_info": {
            "adcode": 220581,
            "province": "吉林省",
            "city": "通化市",
            "district": "梅河口市"
        }
    },
    {
        "id": "6105797324114873656",
        "title": "公共厕所",
        "address": "吉林省通化市梅河口市梅河大街与滨河北街交叉口正西方向26米左右",
        "tel": "",
        "category": "基础设施:公共设施:公共厕所",
        "type": 0,
        "location": {
            "lat": 42.519593,
            "lng": 125.676753
        },
        "ad_info": {
            "adcode": 220581,
            "province": "吉林省",
            "city": "通化市",
            "district": "梅河口市"
        }
    },
    {
        "id": "4033746819928209997",
        "title": "公共厕所",
        "address": "吉林省通化市梅河口市X100与府全路交叉口西北方向230米左右",
        "tel": "",
        "category": "基础设施:公共设施:公共厕所",
        "type": 0,
        "location": {
            "lat": 42.369176,
            "lng": 125.427989
        },
        "ad_info": {
            "adcode": 220581,
            "province": "吉林省",
            "city": "通化市",
            "district": "梅河口市"
        }
    },
    {
        "id": "14578498077852077975",
        "title": "公共厕所",
        "address": "吉林省通化市辉南县光明街湖岸名居",
        "tel": "",
        "category": "基础设施:公共设施:公共厕所",
        "type": 0,
        "location": {
            "lat": 42.683496,
            "lng": 126.04164
        },
        "ad_info": {
            "adcode": 220523,
            "province": "吉林省",
            "city": "通化市",
            "district": "辉南县"
        }
    },
    {
        "id": "1830734273250410489",
        "title": "公共厕所",
        "address": "吉林省通化市集安市解放街398号",
        "tel": "",
        "category": "基础设施:公共设施:公共厕所",
        "type": 0,
        "location": {
            "lat": 41.12522,
            "lng": 126.190083
        },
        "ad_info": {
            "adcode": 220582,
            "province": "吉林省",
            "city": "通化市",
            "district": "集安市"
        }
    },
    {
        "id": "15805109603527097661",
        "title": "公共厕所",
        "address": "吉林省通化市梅河口市梅河西大街与金翰路交叉口正西方向496米左右",
        "tel": "",
        "category": "基础设施:公共设施:公共厕所",
        "type": 0,
        "location": {
            "lat": 42.51113,
            "lng": 125.67298
        },
        "ad_info": {
            "adcode": 220581,
            "province": "吉林省",
            "city": "通化市",
            "district": "梅河口市"
        }
    },
    {
        "id": "17061662518070298620",
        "title": "公共厕所",
        "address": "吉林省通化市梅河口市华泰路与泰昌街交叉口正西方向33米左右",
        "tel": "",
        "category": "基础设施:公共设施:公共厕所",
        "type": 0,
        "location": {
            "lat": 42.524993,
            "lng": 125.682095
        },
        "ad_info": {
            "adcode": 220581,
            "province": "吉林省",
            "city": "通化市",
            "district": "梅河口市"
        }
    },
    {
        "id": "620339132965942179",
        "title": "公共厕所",
        "address": "吉林省通化市东昌区新光路296号",
        "tel": "",
        "category": "基础设施:公共设施:公共厕所",
        "type": 0,
        "location": {
            "lat": 41.737541,
            "lng": 125.957051
        },
        "ad_info": {
            "adcode": 220502,
            "province": "吉林省",
            "city": "通化市",
            "district": "东昌区"
        }
    },
    {
        "id": "4925677240118484674",
        "title": "公共厕所",
        "address": "吉林省通化市东昌区新光路与胜利路交叉口东北方向74米左右",
        "tel": "",
        "category": "基础设施:公共设施:公共厕所",
        "type": 0,
        "location": {
            "lat": 41.73785,
            "lng": 125.957166
        },
        "ad_info": {
            "adcode": 220502,
            "province": "吉林省",
            "city": "通化市",
            "district": "东昌区"
        }
    },
    {
        "id": "17376651339372672711",
        "title": "公共厕所",
        "address": "吉林省通化市东昌区前程路与张家路交叉口正南方向39米左右",
        "tel": "",
        "category": "基础设施:公共设施:公共厕所",
        "type": 0,
        "location": {
            "lat": 41.766898,
            "lng": 125.987676
        },
        "ad_info": {
            "adcode": 220502,
            "province": "吉林省",
            "city": "通化市",
            "district": "东昌区"
        }
    },
    {
        "id": "14929390666795840234",
        "title": "公共厕所",
        "address": "吉林省通化市辉南县兴盛路与南环路交叉口东南方向27米左右",
        "tel": "",
        "category": "基础设施:公共设施:公共厕所",
        "type": 0,
        "location": {
            "lat": 42.681108,
            "lng": 126.052885
        },
        "ad_info": {
            "adcode": 220523,
            "province": "吉林省",
            "city": "通化市",
            "district": "辉南县"
        }
    },
    {
        "id": "13823910375655041318",
        "title": "公共厕所",
        "address": "吉林省通化市梅河口市G202",
        "tel": "",
        "category": "基础设施:公共设施:公共厕所",
        "type": 0,
        "location": {
            "lat": 42.432573,
            "lng": 125.563597
        },
        "ad_info": {
            "adcode": 220581,
            "province": "吉林省",
            "city": "通化市",
            "district": "梅河口市"
        }
    },
    {
        "id": "17877817302940825315",
        "title": "公共厕所",
        "address": "吉林省通化市梅河口市G202与Y019交叉口东北方向63米左右",
        "tel": "",
        "category": "基础设施:公共设施:公共厕所",
        "type": 0,
        "location": {
            "lat": 42.327783,
            "lng": 125.330179
        },
        "ad_info": {
            "adcode": 220581,
            "province": "吉林省",
            "city": "通化市",
            "district": "梅河口市"
        }
    },
    {
        "id": "5304532498916931532",
        "title": "公共厕所",
        "address": "吉林省通化市梅河口市红梅镇附近",
        "tel": "",
        "category": "基础设施:公共设施:公共厕所",
        "type": 0,
        "location": {
            "lat": 42.425574,
            "lng": 125.616181
        },
        "ad_info": {
            "adcode": 220581,
            "province": "吉林省",
            "city": "通化市",
            "district": "梅河口市"
        }
    },
    {
        "id": "2732524606543465324",
        "title": "公共厕所",
        "address": "吉林省通化市梅河口市",
        "tel": "",
        "category": "基础设施:公共设施:公共厕所",
        "type": 0,
        "location": {
            "lat": 42.384922,
            "lng": 125.480696
        },
        "ad_info": {
            "adcode": 220581,
            "province": "吉林省",
            "city": "通化市",
            "district": "梅河口市"
        }
    },
    {
        "id": "8636099204759883630",
        "title": "公共厕所",
        "address": "吉林省通化市梅河口市华阳路与滨河北街交叉口正北方向41米左右",
        "tel": "",
        "category": "基础设施:公共设施:公共厕所",
        "type": 0,
        "location": {
            "lat": 42.531732,
            "lng": 125.69646
        },
        "ad_info": {
            "adcode": 220581,
            "province": "吉林省",
            "city": "通化市",
            "district": "梅河口市"
        }
    },
    {
        "id": "14916970202136969255",
        "title": "公共厕所",
        "address": "吉林省通化市梅河口市G202与沈吉高速交叉口西南方向1460米左右",
        "tel": "",
        "category": "基础设施:公共设施:公共厕所",
        "type": 0,
        "location": {
            "lat": 42.34349,
            "lng": 125.35422
        },
        "ad_info": {
            "adcode": 220581,
            "province": "吉林省",
            "city": "通化市",
            "district": "梅河口市"
        }
    },
    {
        "id": "17832049181816784513",
        "title": "公共厕所",
        "address": "吉林省通化市梅河口市梅河东大街与渤海路交叉口正西方向76米左右",
        "tel": "",
        "category": "基础设施:公共设施:公共厕所",
        "type": 0,
        "location": {
            "lat": 42.549669,
            "lng": 125.695463
        },
        "ad_info": {
            "adcode": 220581,
            "province": "吉林省",
            "city": "通化市",
            "district": "梅河口市"
        }
    },
    {
        "id": "15736555046941355476",
        "title": "公共厕所",
        "address": "吉林省通化市集安市锦江路550号",
        "tel": "",
        "category": "基础设施:公共设施:公共厕所",
        "type": 0,
        "location": {
            "lat": 41.120855,
            "lng": 126.188227
        },
        "ad_info": {
            "adcode": 220582,
            "province": "吉林省",
            "city": "通化市",
            "district": "集安市"
        }
    },
    {
        "id": "13056779870100803937",
        "title": "公共厕所",
        "address": "吉林省通化市梅河口市水道镇卫生院东北侧240米",
        "tel": "",
        "category": "基础设施:公共设施:公共厕所",
        "type": 0,
        "location": {
            "lat": 42.312329,
            "lng": 125.551687
        },
        "ad_info": {
            "adcode": 220581,
            "province": "吉林省",
            "city": "通化市",
            "district": "梅河口市"
        }
    },
    {
        "id": "7208163268490161024",
        "title": "公共厕所",
        "address": "吉林省通化市东昌区二道江路与前兴路交叉口正东方向35米左右",
        "tel": "",
        "category": "基础设施:公共设施:公共厕所",
        "type": 0,
        "location": {
            "lat": 41.760154,
            "lng": 125.987849
        },
        "ad_info": {
            "adcode": 220502,
            "province": "吉林省",
            "city": "通化市",
            "district": "东昌区"
        }
    },
    {
        "id": "15294774023365612284",
        "title": "公共厕所",
        "address": "吉林省通化市梅河口市G504与足一线交叉口东南方向740米左右",
        "tel": "",
        "category": "基础设施:公共设施:公共厕所",
        "type": 0,
        "location": {
            "lat": 42.827712,
            "lng": 125.785307
        },
        "ad_info": {
            "adcode": 220581,
            "province": "吉林省",
            "city": "通化市",
            "district": "梅河口市"
        }
    },
    {
        "id": "11388745106925988559",
        "title": "公共厕所",
        "address": "吉林省通化市辉南县六中路与北山街交叉口正东方向32米左右",
        "tel": "",
        "category": "基础设施:公共设施:公共厕所",
        "type": 0,
        "location": {
            "lat": 42.688974,
            "lng": 126.034911
        },
        "ad_info": {
            "adcode": 220523,
            "province": "吉林省",
            "city": "通化市",
            "district": "辉南县"
        }
    },
    {
        "id": "9863900585070632720",
        "title": "公共厕所",
        "address": "吉林省通化市梅河口市北环东路与梅河东大街交叉口正北方向95米左右",
        "tel": "",
        "category": "基础设施:公共设施:公共厕所",
        "type": 0,
        "location": {
            "lat": 42.5764,
            "lng": 125.71207
        },
        "ad_info": {
            "adcode": 220581,
            "province": "吉林省",
            "city": "通化市",
            "district": "梅河口市"
        }
    },
    {
        "id": "13825753701619433538",
        "title": "公共厕所",
        "address": "吉林省通化市梅河口市X100与柳西线交叉口正东方向472米左右",
        "tel": "",
        "category": "基础设施:公共设施:公共厕所",
        "type": 0,
        "location": {
            "lat": 42.36545,
            "lng": 125.419242
        },
        "ad_info": {
            "adcode": 220581,
            "province": "吉林省",
            "city": "通化市",
            "district": "梅河口市"
        }
    },
    {
        "id": "10402340868071257068",
        "title": "公共厕所",
        "address": "吉林省通化市辉南县石道河镇富达广场",
        "tel": "",
        "category": "基础设施:公共设施:公共厕所",
        "type": 0,
        "location": {
            "lat": 42.638775,
            "lng": 126.522292
        },
        "ad_info": {
            "adcode": 220523,
            "province": "吉林省",
            "city": "通化市",
            "district": "辉南县"
        }
    },
    {
        "id": "17979820783123224110",
        "title": "公共厕所",
        "address": "吉林省通化市辉南县S103与S207交叉口东南方向115米左右",
        "tel": "",
        "category": "基础设施:公共设施:公共厕所",
        "type": 0,
        "location": {
            "lat": 42.660184,
            "lng": 126.066554
        },
        "ad_info": {
            "adcode": 220523,
            "province": "吉林省",
            "city": "通化市",
            "district": "辉南县"
        }
    },
    {
        "id": "41460892366779478",
        "title": "公共厕所",
        "address": "吉林省通化市柳河县柳河大街与河滨路交叉口东北方向133米左右",
        "tel": "",
        "category": "基础设施:公共设施:公共厕所",
        "type": 0,
        "location": {
            "lat": 42.271964,
            "lng": 125.722931
        },
        "ad_info": {
            "adcode": 220524,
            "province": "吉林省",
            "city": "通化市",
            "district": "柳河县"
        }
    },
    {
        "id": "4686610583342117425",
        "title": "公共厕所",
        "address": "吉林省通化市东昌区建设大街与新山路交叉口东北方向175米左右",
        "tel": "",
        "category": "基础设施:公共设施:公共厕所",
        "type": 0,
        "location": {
            "lat": 41.725539,
            "lng": 125.951172
        },
        "ad_info": {
            "adcode": 220502,
            "province": "吉林省",
            "city": "通化市",
            "district": "东昌区"
        }
    },
    {
        "id": "3048600375018148500",
        "title": "公共厕所",
        "address": "吉林省通化市柳河县德邻路与滨河南街交叉口东南方向136米左右",
        "tel": "",
        "category": "基础设施:公共设施:公共厕所",
        "type": 0,
        "location": {
            "lat": 42.284107,
            "lng": 125.737746
        },
        "ad_info": {
            "adcode": 220524,
            "province": "吉林省",
            "city": "通化市",
            "district": "柳河县"
        }
    },
    {
        "id": "7674448905758127647",
        "title": "公共厕所",
        "address": "吉林省通化市二道江区二道江路与滨江东路交叉口正西方向1119米左右",
        "tel": "",
        "category": "基础设施:公共设施:公共厕所",
        "type": 0,
        "location": {
            "lat": 41.76789,
            "lng": 126.014237
        },
        "ad_info": {
            "adcode": 220503,
            "province": "吉林省",
            "city": "通化市",
            "district": "二道江区"
        }
    },
    {
        "id": "10937966607569792863",
        "title": "公共厕所",
        "address": "吉林省通化市二道江区东通化大街与钢城路交叉口西北方向76米左右",
        "tel": "",
        "category": "基础设施:公共设施:公共厕所",
        "type": 0,
        "location": {
            "lat": 41.772107,
            "lng": 126.040319
        },
        "ad_info": {
            "adcode": 220503,
            "province": "吉林省",
            "city": "通化市",
            "district": "二道江区"
        }
    },
    {
        "id": "6858867737760806215",
        "title": "公共厕所",
        "address": "吉林省通化市东昌区建设大街与新山路交叉口正西方向217米左右",
        "tel": "",
        "category": "基础设施:公共设施:公共厕所",
        "type": 0,
        "location": {
            "lat": 41.725073,
            "lng": 125.947227
        },
        "ad_info": {
            "adcode": 220502,
            "province": "吉林省",
            "city": "通化市",
            "district": "东昌区"
        }
    },
    {
        "id": "1515293831849431923",
        "title": "公共厕所",
        "address": "吉林省通化市柳河县河滨路与顺安街交叉口正南方向163米左右",
        "tel": "",
        "category": "基础设施:公共设施:公共厕所",
        "type": 0,
        "location": {
            "lat": 42.265843,
            "lng": 125.725449
        },
        "ad_info": {
            "adcode": 220524,
            "province": "吉林省",
            "city": "通化市",
            "district": "柳河县"
        }
    },
    {
        "id": "18074698963151024126",
        "title": "公共厕所",
        "address": "吉林省通化市辉南县兴工路与民主街交叉口西南方向109米左右",
        "tel": "",
        "category": "基础设施:公共设施:公共厕所",
        "type": 0,
        "location": {
            "lat": 42.679957,
            "lng": 126.048952
        },
        "ad_info": {
            "adcode": 220523,
            "province": "吉林省",
            "city": "通化市",
            "district": "辉南县"
        }
    },
    {
        "id": "15548799772771914248",
        "title": "公共厕所",
        "address": "吉林省通化市二道江区东明路与鹤大线交叉口正南方向982米左右",
        "tel": "",
        "category": "基础设施:公共设施:公共厕所",
        "type": 0,
        "location": {
            "lat": 41.770341,
            "lng": 126.01437
        },
        "ad_info": {
            "adcode": 220503,
            "province": "吉林省",
            "city": "通化市",
            "district": "二道江区"
        }
    },
    {
        "id": "980005096895486982",
        "title": "公共厕所",
        "address": "吉林省通化市柳河县X105与Y015交叉口西南方向168米左右",
        "tel": "",
        "category": "基础设施:公共设施:公共厕所",
        "type": 0,
        "location": {
            "lat": 42.061824,
            "lng": 125.758695
        },
        "ad_info": {
            "adcode": 220524,
            "province": "吉林省",
            "city": "通化市",
            "district": "柳河县"
        }
    },
    {
        "id": "16663739182065402525",
        "title": "公共厕所",
        "address": "吉林省通化市集安市清财线与集锡线交叉口正北方向253米左右",
        "tel": "",
        "category": "基础设施:公共设施:公共厕所",
        "type": 0,
        "location": {
            "lat": 41.435189,
            "lng": 125.933836
        },
        "ad_info": {
            "adcode": 220582,
            "province": "吉林省",
            "city": "通化市",
            "district": "集安市"
        }
    },
    {
        "id": "1410551923783876479",
        "title": "公共卫生间",
        "address": "吉林省通化市集安市朝阳南街与锦江路交叉口东南方向80米左右",
        "tel": "",
        "category": "基础设施:公共设施:公共厕所",
        "type": 0,
        "location": {
            "lat": 41.118762,
            "lng": 126.187716
        },
        "ad_info": {
            "adcode": 220582,
            "province": "吉林省",
            "city": "通化市",
            "district": "集安市"
        }
    },
    {
        "id": "1608858004248479131",
        "title": "公共厕所",
        "address": "吉林省通化市辉南县G504与Y064交叉口正东方向1025米左右",
        "tel": "",
        "category": "基础设施:公共设施:公共厕所",
        "type": 0,
        "location": {
            "lat": 42.690365,
            "lng": 125.989376
        },
        "ad_info": {
            "adcode": 220523,
            "province": "吉林省",
            "city": "通化市",
            "district": "辉南县"
        }
    },
    {
        "id": "1415169506674193489",
        "title": "公共厕所",
        "address": "吉林省通化市辉南县废品收购站东北侧190米",
        "tel": "",
        "category": "基础设施:公共设施:公共厕所",
        "type": 0,
        "location": {
            "lat": 42.681242,
            "lng": 126.014898
        },
        "ad_info": {
            "adcode": 220523,
            "province": "吉林省",
            "city": "通化市",
            "district": "辉南县"
        }
    },
    {
        "id": "2834059282885044945",
        "title": "公共厕所",
        "address": "吉林省通化市辉南县G504与X098交叉口正西方向282米左右",
        "tel": "",
        "category": "基础设施:公共设施:公共厕所",
        "type": 0,
        "location": {
            "lat": 42.486061,
            "lng": 126.458462
        },
        "ad_info": {
            "adcode": 220523,
            "province": "吉林省",
            "city": "通化市",
            "district": "辉南县"
        }
    },
    {
        "id": "3692168680899958928",
        "title": "公共厕所",
        "address": "吉林省通化市柳河县X074与X076交叉口西南方向1167米左右",
        "tel": "",
        "category": "基础设施:公共设施:公共厕所",
        "type": 0,
        "location": {
            "lat": 42.215496,
            "lng": 126.002462
        },
        "ad_info": {
            "adcode": 220524,
            "province": "吉林省",
            "city": "通化市",
            "district": "柳河县"
        }
    },
    {
        "id": "8062257210927085783",
        "title": "公共厕所",
        "address": "吉林省通化市通化县新安路与鹤大线交叉口西北方向48米左右",
        "tel": "",
        "category": "基础设施:公共设施:公共厕所",
        "type": 0,
        "location": {
            "lat": 41.789648,
            "lng": 126.118335
        },
        "ad_info": {
            "adcode": 220521,
            "province": "吉林省",
            "city": "通化市",
            "district": "通化县"
        }
    },
    {
        "id": "1745275370973053664",
        "title": "公共厕所",
        "address": "吉林省通化市柳河县前进路与府东路交叉口西南方向66米左右",
        "tel": "",
        "category": "基础设施:公共设施:公共厕所",
        "type": 0,
        "location": {
            "lat": 42.283401,
            "lng": 125.74636
        },
        "ad_info": {
            "adcode": 220524,
            "province": "吉林省",
            "city": "通化市",
            "district": "柳河县"
        }
    },
    {
        "id": "13797349863553346630",
        "title": "公共厕所",
        "address": "吉林省通化市辉南县抚民中小学西北侧100米",
        "tel": "",
        "category": "基础设施:公共设施:公共厕所",
        "type": 0,
        "location": {
            "lat": 42.499945,
            "lng": 126.41131
        },
        "ad_info": {
            "adcode": 220523,
            "province": "吉林省",
            "city": "通化市",
            "district": "辉南县"
        }
    },
    {
        "id": "4787956537924969379",
        "title": "公共厕所",
        "address": "吉林省通化市辉南县永康路与通乡路交叉口东南方向197米左右",
        "tel": "",
        "category": "基础设施:公共设施:公共厕所",
        "type": 0,
        "location": {
            "lat": 42.692765,
            "lng": 126.068045
        },
        "ad_info": {
            "adcode": 220523,
            "province": "吉林省",
            "city": "通化市",
            "district": "辉南县"
        }
    },
    {
        "id": "8832327323745453759",
        "title": "公共厕所",
        "address": "吉林省通化市柳河县X101与驼靖线交叉口正南方向297米左右",
        "tel": "",
        "category": "基础设施:公共设施:公共厕所",
        "type": 0,
        "location": {
            "lat": 42.234135,
            "lng": 126.241551
        },
        "ad_info": {
            "adcode": 220524,
            "province": "吉林省",
            "city": "通化市",
            "district": "柳河县"
        }
    },
    {
        "id": "4630069599972457361",
        "title": "公共厕所",
        "address": "吉林省通化市集安市Y004与凉挂线交叉口正北方向766米左右",
        "tel": "",
        "category": "基础设施:公共设施:公共厕所",
        "type": 0,
        "location": {
            "lat": 41.00357,
            "lng": 125.778877
        },
        "ad_info": {
            "adcode": 220582,
            "province": "吉林省",
            "city": "通化市",
            "district": "集安市"
        }
    },
    {
        "id": "13801866692724012216",
        "title": "公共厕所",
        "address": "吉林省通化市辉南县X096与幸福路交叉口东北方向890米左右",
        "tel": "",
        "category": "基础设施:公共设施:公共厕所",
        "type": 0,
        "location": {
            "lat": 42.637947,
            "lng": 126.276571
        },
        "ad_info": {
            "adcode": 220523,
            "province": "吉林省",
            "city": "通化市",
            "district": "辉南县"
        }
    },
    {
        "id": "6806459565290858738",
        "title": "公共厕所",
        "address": "吉林省通化市辉南县兴工路与北环大街交叉口西南方向66米左右",
        "tel": "",
        "category": "基础设施:公共设施:公共厕所",
        "type": 0,
        "location": {
            "lat": 42.689733,
            "lng": 126.045357
        },
        "ad_info": {
            "adcode": 220523,
            "province": "吉林省",
            "city": "通化市",
            "district": "辉南县"
        }
    },
    {
        "id": "6097707613264442088",
        "title": "公共厕所",
        "address": "吉林省通化市柳河县北山路与滨河北街交叉口正西方向56米左右",
        "tel": "",
        "category": "基础设施:公共设施:公共厕所",
        "type": 0,
        "location": {
            "lat": 42.289134,
            "lng": 125.738005
        },
        "ad_info": {
            "adcode": 220524,
            "province": "吉林省",
            "city": "通化市",
            "district": "柳河县"
        }
    },
    {
        "id": "11791886424904746963",
        "title": "公共厕所",
        "address": "吉林省通化市梅河口市松江路与爱民大街交叉口正北方向69米左右",
        "tel": "",
        "category": "基础设施:公共设施:公共厕所",
        "type": 0,
        "location": {
            "lat": 42.518479,
            "lng": 125.710862
        },
        "ad_info": {
            "adcode": 220581,
            "province": "吉林省",
            "city": "通化市",
            "district": "梅河口市"
        }
    },
    {
        "id": "6345773229390086057",
        "title": "公共厕所",
        "address": "吉林省通化市通化县东财街与东顺路交叉口正西方向54米左右",
        "tel": "",
        "category": "基础设施:公共设施:公共厕所",
        "type": 0,
        "location": {
            "lat": 41.678015,
            "lng": 125.761898
        },
        "ad_info": {
            "adcode": 220521,
            "province": "吉林省",
            "city": "通化市",
            "district": "通化县"
        }
    },
    {
        "id": "18143276430125092737",
        "title": "公共厕所",
        "address": "吉林省通化市柳河县Y011与Y012交叉口正南方向55米左右",
        "tel": "",
        "category": "基础设施:公共设施:公共厕所",
        "type": 0,
        "location": {
            "lat": 42.083319,
            "lng": 125.750642
        },
        "ad_info": {
            "adcode": 220524,
            "province": "吉林省",
            "city": "通化市",
            "district": "柳河县"
        }
    },
    {
        "id": "8357996360547691107",
        "title": "公共厕所",
        "address": "吉林省通化市集安市建设北街与迎宾路交叉口正西方向132米左右",
        "tel": "",
        "category": "基础设施:公共设施:公共厕所",
        "type": 0,
        "location": {
            "lat": 41.130363,
            "lng": 126.18456
        },
        "ad_info": {
            "adcode": 220582,
            "province": "吉林省",
            "city": "通化市",
            "district": "集安市"
        }
    },
    {
        "id": "73922631473597615",
        "title": "公共厕所",
        "address": "吉林省通化市柳河县069县道与075县道交叉口东北100米",
        "tel": "",
        "category": "基础设施:公共设施:公共厕所",
        "type": 0,
        "location": {
            "lat": 42.271168,
            "lng": 125.720443
        },
        "ad_info": {
            "adcode": 220524,
            "province": "吉林省",
            "city": "通化市",
            "district": "柳河县"
        }
    },
    {
        "id": "7294450171443870641",
        "title": "公共厕所",
        "address": "吉林省通化市辉南县北环路与文明街交叉口东北方向156米左右",
        "tel": "",
        "category": "基础设施:公共设施:公共厕所",
        "type": 0,
        "location": {
            "lat": 42.689769,
            "lng": 126.043563
        },
        "ad_info": {
            "adcode": 220523,
            "province": "吉林省",
            "city": "通化市",
            "district": "辉南县"
        }
    },
    {
        "id": "15928070953883300046",
        "title": "公共厕所",
        "address": "吉林省通化市辉南县北环大街与庙前路交叉口正北方向128米左右",
        "tel": "",
        "category": "基础设施:公共设施:公共厕所",
        "type": 0,
        "location": {
            "lat": 42.692488,
            "lng": 126.053158
        },
        "ad_info": {
            "adcode": 220523,
            "province": "吉林省",
            "city": "通化市",
            "district": "辉南县"
        }
    },
    {
        "id": "230575920260636818",
        "title": "公共厕所",
        "address": "吉林省通化市辉南县丰收路与北山街交叉口正西方向590米左右",
        "tel": "",
        "category": "基础设施:公共设施:公共厕所",
        "type": 0,
        "location": {
            "lat": 42.68873,
            "lng": 126.025562
        },
        "ad_info": {
            "adcode": 220523,
            "province": "吉林省",
            "city": "通化市",
            "district": "辉南县"
        }
    },
    {
        "id": "5880064607516513098",
        "title": "公共厕所",
        "address": "吉林省通化市辉南县朝阳大街与永宁路交叉口正北方向173米左右",
        "tel": "",
        "category": "基础设施:公共设施:公共厕所",
        "type": 0,
        "location": {
            "lat": 42.6802,
            "lng": 126.015312
        },
        "ad_info": {
            "adcode": 220523,
            "province": "吉林省",
            "city": "通化市",
            "district": "辉南县"
        }
    },
    {
        "id": "14944721809447744135",
        "title": "公共厕所",
        "address": "吉林省通化市辉南县天泰药业东南侧220米",
        "tel": "",
        "category": "基础设施:公共设施:公共厕所",
        "type": 0,
        "location": {
            "lat": 42.683458,
            "lng": 126.02117
        },
        "ad_info": {
            "adcode": 220523,
            "province": "吉林省",
            "city": "通化市",
            "district": "辉南县"
        }
    },
    {
        "id": "1609476632332601228",
        "title": "卫生间",
        "address": "吉林省通化市东昌区建设大街3218号美联超市旁",
        "tel": "",
        "category": "基础设施:公共设施:公共厕所",
        "type": 0,
        "location": {
            "lat": 41.729457,
            "lng": 125.95476
        },
        "ad_info": {
            "adcode": 220502,
            "province": "吉林省",
            "city": "通化市",
            "district": "东昌区"
        }
    },
    {
        "id": "12220793416126456108",
        "title": "公共厕所",
        "address": "吉林省通化市通化县集锡线与鹤大高速交叉口正东方向895米左右",
        "tel": "",
        "category": "基础设施:公共设施:公共厕所",
        "type": 0,
        "location": {
            "lat": 41.787369,
            "lng": 125.880394
        },
        "ad_info": {
            "adcode": 220521,
            "province": "吉林省",
            "city": "通化市",
            "district": "通化县"
        }
    },
    {
        "id": "7192527998388083660",
        "title": "公共厕所",
        "address": "吉林省通化市柳河县集锡线中国石油加油站",
        "tel": "",
        "category": "基础设施:公共设施:公共厕所",
        "type": 0,
        "location": {
            "lat": 42.049402,
            "lng": 125.770765
        },
        "ad_info": {
            "adcode": 220524,
            "province": "吉林省",
            "city": "通化市",
            "district": "柳河县"
        }
    },
    {
        "id": "10255842865857032371",
        "title": "公共厕所",
        "address": "吉林省通化市集安市胜利路与迎宾路交叉口正南方向437米左右",
        "tel": "",
        "category": "基础设施:公共设施:公共厕所",
        "type": 0,
        "location": {
            "lat": 41.110227,
            "lng": 126.174845
        },
        "ad_info": {
            "adcode": 220582,
            "province": "吉林省",
            "city": "通化市",
            "district": "集安市"
        }
    },
    {
        "id": "11352020124573449255",
        "title": "公共厕所",
        "address": "吉林省通化市通化县稻香路与虎西线交叉口正南方向98米左右",
        "tel": "",
        "category": "基础设施:公共设施:公共厕所",
        "type": 0,
        "location": {
            "lat": 41.477,
            "lng": 125.709136
        },
        "ad_info": {
            "adcode": 220521,
            "province": "吉林省",
            "city": "通化市",
            "district": "通化县"
        }
    },
    {
        "id": "12692437868323305900",
        "title": "公共厕所",
        "address": "吉林省通化市集安市五女峰国家森林公园售票处西南侧",
        "tel": "",
        "category": "基础设施:公共设施:公共厕所",
        "type": 0,
        "location": {
            "lat": 41.269284,
            "lng": 126.130327
        },
        "ad_info": {
            "adcode": 220582,
            "province": "吉林省",
            "city": "通化市",
            "district": "集安市"
        }
    },
    {
        "id": "13051709966501669465",
        "title": "公共厕所",
        "address": "吉林省通化市二道江区Y010与水四线交叉口西南方向1610米左右",
        "tel": "",
        "category": "基础设施:公共设施:公共厕所",
        "type": 0,
        "location": {
            "lat": 41.777243,
            "lng": 126.191887
        },
        "ad_info": {
            "adcode": 220503,
            "province": "吉林省",
            "city": "通化市",
            "district": "二道江区"
        }
    },
    {
        "id": "9221474276268560450",
        "title": "公共厕所",
        "address": "吉林省通化市柳河县X103与X105交叉口正北方向282米左右",
        "tel": "",
        "category": "基础设施:公共设施:公共厕所",
        "type": 0,
        "location": {
            "lat": 42.065962,
            "lng": 125.75557
        },
        "ad_info": {
            "adcode": 220524,
            "province": "吉林省",
            "city": "通化市",
            "district": "柳河县"
        }
    },
    {
        "id": "11822946682301935064",
        "title": "公共厕所",
        "address": "吉林省通化市通化县英才街山水华城",
        "tel": "",
        "category": "基础设施:公共设施:公共厕所",
        "type": 0,
        "location": {
            "lat": 41.682083,
            "lng": 125.763644
        },
        "ad_info": {
            "adcode": 220521,
            "province": "吉林省",
            "city": "通化市",
            "district": "通化县"
        }
    },
    {
        "id": "9703528034397489642",
        "title": "公共厕所",
        "address": "吉林省通化市集安市清财线与花老线交叉口正北方向55米左右",
        "tel": "",
        "category": "基础设施:公共设施:公共厕所",
        "type": 0,
        "location": {
            "lat": 41.306629,
            "lng": 125.791972
        },
        "ad_info": {
            "adcode": 220582,
            "province": "吉林省",
            "city": "通化市",
            "district": "集安市"
        }
    },
    {
        "id": "10247120056815366285",
        "title": "公共厕所",
        "address": "吉林省通化市二道江区S205与鸭园路交叉口正西方向194米左右",
        "tel": "",
        "category": "基础设施:公共设施:公共厕所",
        "type": 0,
        "location": {
            "lat": 41.757114,
            "lng": 126.177511
        },
        "ad_info": {
            "adcode": 220503,
            "province": "吉林省",
            "city": "通化市",
            "district": "二道江区"
        }
    },
    {
        "id": "15025900791493154773",
        "title": "公共厕所",
        "address": "吉林省通化市通化县春蕾路山水人家(北山街)",
        "tel": "",
        "category": "基础设施:公共设施:公共厕所",
        "type": 0,
        "location": {
            "lat": 41.681737,
            "lng": 125.761242
        },
        "ad_info": {
            "adcode": 220521,
            "province": "吉林省",
            "city": "通化市",
            "district": "通化县"
        }
    },
    {
        "id": "8770594726649293130",
        "title": "公共卫生间",
        "address": "吉林省通化市梅河口市建国路与梅河大街交叉口正北方向57米左右",
        "tel": "",
        "category": "基础设施:公共设施:公共厕所",
        "type": 0,
        "location": {
            "lat": 42.546026,
            "lng": 125.693249
        },
        "ad_info": {
            "adcode": 220581,
            "province": "吉林省",
            "city": "通化市",
            "district": "梅河口市"
        }
    },
    {
        "id": "15837901553604538306",
        "title": "公共厕所",
        "address": "吉林省通化市梅河口市梅河西大街与金砂路交叉口正西方向371米左右",
        "tel": "",
        "category": "基础设施:公共设施:公共厕所",
        "type": 0,
        "location": {
            "lat": 42.512963,
            "lng": 125.674298
        },
        "ad_info": {
            "adcode": 220581,
            "province": "吉林省",
            "city": "通化市",
            "district": "梅河口市"
        }
    },
    {
        "id": "10432915366069247062",
        "title": "公共卫生间",
        "address": "吉林省通化市辉南县光明街与繁华路交叉口西北方向86米左右",
        "tel": "",
        "category": "基础设施:公共设施:公共厕所",
        "type": 0,
        "location": {
            "lat": 42.684624,
            "lng": 126.041209
        },
        "ad_info": {
            "adcode": 220523,
            "province": "吉林省",
            "city": "通化市",
            "district": "辉南县"
        }
    },
    {
        "id": "6280213503445370481",
        "title": "梅河口服务区公共厕所",
        "address": "吉林省通化市梅河口市集双高速",
        "tel": "",
        "category": "基础设施:公共设施:公共厕所",
        "type": 0,
        "location": {
            "lat": 42.567386,
            "lng": 125.772483
        },
        "ad_info": {
            "adcode": 220581,
            "province": "吉林省",
            "city": "通化市",
            "district": "梅河口市"
        }
    },
    {
        "id": "10013741288418880700",
        "title": "公共厕所",
        "address": "吉林省通化市通化县二密路与富民街交叉口正西方向210米左右",
        "tel": "",
        "category": "基础设施:公共设施:公共厕所",
        "type": 0,
        "location": {
            "lat": 41.7895,
            "lng": 125.838294
        },
        "ad_info": {
            "adcode": 220521,
            "province": "吉林省",
            "city": "通化市",
            "district": "通化县"
        }
    },
    {
        "id": "2179590641045606825",
        "title": "公共厕所",
        "address": "吉林省通化市二道江区东通化大街1220号",
        "tel": "",
        "category": "基础设施:公共设施:公共厕所",
        "type": 0,
        "location": {
            "lat": 41.779576,
            "lng": 126.04932
        },
        "ad_info": {
            "adcode": 220503,
            "province": "吉林省",
            "city": "通化市",
            "district": "二道江区"
        }
    },
    {
        "id": "3316219098553926398",
        "title": "通化服务区公共厕所",
        "address": "吉林省通化市通化县通化服务区与G11鹤大高速交叉口东北380米",
        "tel": "",
        "category": "基础设施:公共设施:公共厕所",
        "type": 0,
        "location": {
            "lat": 41.921224,
            "lng": 125.94703
        },
        "ad_info": {
            "adcode": 220521,
            "province": "吉林省",
            "city": "通化市",
            "district": "通化县"
        }
    },
    {
        "id": "13294257972869599626",
        "title": "公共厕所",
        "address": "吉林省通化市集安市南城路集安市实验小学",
        "tel": "",
        "category": "基础设施:公共设施:公共厕所",
        "type": 0,
        "location": {
            "lat": 41.120377,
            "lng": 126.186153
        },
        "ad_info": {
            "adcode": 220582,
            "province": "吉林省",
            "city": "通化市",
            "district": "集安市"
        }
    },
    {
        "id": "15740752075952156015",
        "title": "康大营服务区公共厕所",
        "address": "吉林省通化市梅河口市朝阳山服务区客房(抚长高速公路)",
        "tel": "",
        "category": "基础设施:公共设施:公共厕所",
        "type": 0,
        "location": {
            "lat": 43.008208,
            "lng": 125.775614
        },
        "ad_info": {
            "adcode": 220581,
            "province": "吉林省",
            "city": "通化市",
            "district": "梅河口市"
        }
    },
    {
        "id": "13547416960171542044",
        "title": "抚民服务区第二公共厕所",
        "address": "吉林省通化市辉南县S26抚长高速附近",
        "tel": "",
        "category": "基础设施:公共设施:公共厕所",
        "type": 0,
        "location": {
            "lat": 42.467381,
            "lng": 126.480357
        },
        "ad_info": {
            "adcode": 220523,
            "province": "吉林省",
            "city": "通化市",
            "district": "辉南县"
        }
    },
    {
        "id": "15303079713956173051",
        "title": "公用公共厕所",
        "address": "吉林省通化市二道江区东兴路与东安路交叉口正北方向271米左右",
        "tel": "",
        "category": "基础设施:公共设施:公共厕所",
        "type": 0,
        "location": {
            "lat": 41.77957,
            "lng": 126.054936
        },
        "ad_info": {
            "adcode": 220503,
            "province": "吉林省",
            "city": "通化市",
            "district": "二道江区"
        }
    },
    {
        "id": "7554115580911806772",
        "title": "辉南服务区公共厕所",
        "address": "吉林省通化市辉南县朝阳镇抚长高速公路辉南服务区北",
        "tel": "",
        "category": "基础设施:公共设施:公共厕所",
        "type": 0,
        "location": {
            "lat": 42.681067,
            "lng": 126.14723
        },
        "ad_info": {
            "adcode": 220523,
            "province": "吉林省",
            "city": "通化市",
            "district": "辉南县"
        }
    },
    {
        "id": "369714570212113449",
        "title": "辉南服务区第二公共厕所",
        "address": "吉林省通化市辉南县S26抚长高速西100米",
        "tel": "",
        "category": "基础设施:公共设施:公共厕所",
        "type": 0,
        "location": {
            "lat": 42.679284,
            "lng": 126.146023
        },
        "ad_info": {
            "adcode": 220523,
            "province": "吉林省",
            "city": "通化市",
            "district": "辉南县"
        }
    },
    {
        "id": "17930430528656952521",
        "title": "柳河服务区公共厕所",
        "address": "吉林省通化市柳河县集双高速柳河服务区",
        "tel": "",
        "category": "基础设施:公共设施:公共厕所",
        "type": 0,
        "location": {
            "lat": 41.974127,
            "lng": 125.813021
        },
        "ad_info": {
            "adcode": 220524,
            "province": "吉林省",
            "city": "通化市",
            "district": "柳河县"
        }
    },
    {
        "id": "15065916212395538017",
        "title": "抚民服务区公共厕所",
        "address": "吉林省通化市辉南县长长高速抚民服务区",
        "tel": "",
        "category": "基础设施:公共设施:公共厕所",
        "type": 0,
        "location": {
            "lat": 42.467457,
            "lng": 126.479524
        },
        "ad_info": {
            "adcode": 220523,
            "province": "吉林省",
            "city": "通化市",
            "district": "辉南县"
        }
    },
    {
        "id": "10785648059146895426",
        "title": "英额布服务区-公共厕所",
        "address": "吉林省通化市通化县抚通高速",
        "tel": "",
        "category": "基础设施:公共设施:公共厕所",
        "type": 0,
        "location": {
            "lat": 41.71272,
            "lng": 125.590498
        },
        "ad_info": {
            "adcode": 220521,
            "province": "吉林省",
            "city": "通化市",
            "district": "通化县"
        }
    },
    {
        "id": "9466179081878589368",
        "title": "都岭服务区公共厕所",
        "address": "吉林省通化市通化县都岭服务区超市(鹤大高速公路南)",
        "tel": "",
        "category": "基础设施:公共设施:公共厕所",
        "type": 0,
        "location": {
            "lat": 41.621562,
            "lng": 125.689737
        },
        "ad_info": {
            "adcode": 220521,
            "province": "吉林省",
            "city": "通化市",
            "district": "通化县"
        }
    },
    {
        "id": "17574916611244300902",
        "title": "英额布服务区第二公共厕所",
        "address": "吉林省通化市通化县抚通高速与通沈高速交叉口西北方向443米左右",
        "tel": "",
        "category": "基础设施:公共设施:公共厕所",
        "type": 0,
        "location": {
            "lat": 41.710965,
            "lng": 125.588995
        },
        "ad_info": {
            "adcode": 220521,
            "province": "吉林省",
            "city": "通化市",
            "district": "通化县"
        }
    },
    {
        "id": "14220058747238249970",
        "title": "钱湾游客服务中心厕所",
        "address": "吉林省通化市集安市集锡公路与集锡线交叉口正北方向901米左右",
        "tel": "",
        "category": "基础设施:公共设施:公共厕所",
        "type": 0,
        "location": {
            "lat": 41.174766,
            "lng": 126.219162
        },
        "ad_info": {
            "adcode": 220582,
            "province": "吉林省",
            "city": "通化市",
            "district": "集安市"
        }
    },
    {
        "id": "13925289968892289520",
        "title": "迎宾岭游客服务中心公共厕所",
        "address": "吉林省通化市集安市集锡公路与集锡线交叉口正北方向218米左右",
        "tel": "",
        "category": "基础设施:公共设施:公共厕所",
        "type": 0,
        "location": {
            "lat": 41.168881,
            "lng": 126.223505
        },
        "ad_info": {
            "adcode": 220582,
            "province": "吉林省",
            "city": "通化市",
            "district": "集安市"
        }
    },
    {
        "id": "4958657426909430519",
        "title": "英额布服务区第一公共厕所",
        "address": "吉林省通化市通化县抚通高速与通沈高速交叉口正南方向422米左右",
        "tel": "",
        "category": "基础设施:公共设施:公共厕所",
        "type": 0,
        "location": {
            "lat": 41.71118,
            "lng": 125.588751
        },
        "ad_info": {
            "adcode": 220521,
            "province": "吉林省",
            "city": "通化市",
            "district": "通化县"
        }
    },
    {
        "id": "18109736468523874749",
        "title": "英额布服务区第二公共厕所",
        "address": "吉林省通化市通化县抚通高速与通沈高速交叉口东南方向335米左右",
        "tel": "",
        "category": "基础设施:公共设施:公共厕所",
        "type": 0,
        "location": {
            "lat": 41.713007,
            "lng": 125.590752
        },
        "ad_info": {
            "adcode": 220521,
            "province": "吉林省",
            "city": "通化市",
            "district": "通化县"
        }
    },
    {
        "id": "5361973557392458190",
        "title": "肯德基-洗手间",
        "address": "吉林省通化市通化县同德路1177号",
        "tel": "",
        "category": "基础设施:公共设施:公共厕所",
        "type": 0,
        "location": {
            "lat": 41.676998,
            "lng": 125.764935
        },
        "ad_info": {
            "adcode": 220521,
            "province": "吉林省",
            "city": "通化市",
            "district": "通化县"
        }
    },
    {
        "id": "7178382836511616090",
        "title": "公共厕所",
        "address": "吉林省通化市辉南县富强大街14-5号",
        "tel": "",
        "category": "基础设施:公共设施:公共厕所",
        "type": 0,
        "location": {
            "lat": 42.682914,
            "lng": 126.05304
        },
        "ad_info": {
            "adcode": 220523,
            "province": "吉林省",
            "city": "通化市",
            "district": "辉南县"
        }
    },
    {
        "id": "14927324426020837783",
        "title": "公共厕所",
        "address": "吉林省通化市梅河口市X100与头八石桥交叉口正南方向210米左右",
        "tel": "",
        "category": "基础设施:公共设施:公共厕所",
        "type": 0,
        "location": {
            "lat": 42.361423,
            "lng": 125.446867
        },
        "ad_info": {
            "adcode": 220581,
            "province": "吉林省",
            "city": "通化市",
            "district": "梅河口市"
        }
    },
    {
        "id": "8116656263408440918",
        "title": "公共厕所",
        "address": "吉林省通化市通化县同德路与正阳街交叉口正北方向63米左右",
        "tel": "",
        "category": "基础设施:公共设施:公共厕所",
        "type": 0,
        "location": {
            "lat": 41.677498,
            "lng": 125.769461
        },
        "ad_info": {
            "adcode": 220521,
            "province": "吉林省",
            "city": "通化市",
            "district": "通化县"
        }
    },
    {
        "id": "5104801674480980935",
        "title": "公共厕所",
        "address": "吉林省通化市柳河县103省道东50米",
        "tel": "",
        "category": "基础设施:公共设施:公共厕所",
        "type": 0,
        "location": {
            "lat": 42.143262,
            "lng": 126.351718
        },
        "ad_info": {
            "adcode": 220524,
            "province": "吉林省",
            "city": "通化市",
            "district": "柳河县"
        }
    },
    {
        "id": "16488910536556897818",
        "title": "公共厕所",
        "address": "吉林省通化市梅河口市安居路与民悦街交叉口正东方向99米左右",
        "tel": "",
        "category": "基础设施:公共设施:公共厕所",
        "type": 0,
        "location": {
            "lat": 42.536585,
            "lng": 125.675483
        },
        "ad_info": {
            "adcode": 220581,
            "province": "吉林省",
            "city": "通化市",
            "district": "梅河口市"
        }
    },
    {
        "id": "13088616985324935884",
        "title": "公共厕所",
        "address": "吉林省通化市东昌区新岭路福湾国际",
        "tel": "",
        "category": "基础设施:公共设施:公共厕所",
        "type": 0,
        "location": {
            "lat": 41.731779,
            "lng": 125.968551
        },
        "ad_info": {
            "adcode": 220502,
            "province": "吉林省",
            "city": "通化市",
            "district": "东昌区"
        }
    },
    {
        "id": "3656402611396454160",
        "title": "公共厕所",
        "address": "吉林省通化市梅河口市新民路与齐民路交叉口正东方向156米左右",
        "tel": "",
        "category": "基础设施:公共设施:公共厕所",
        "type": 0,
        "location": {
            "lat": 42.519543,
            "lng": 125.669236
        },
        "ad_info": {
            "adcode": 220581,
            "province": "吉林省",
            "city": "通化市",
            "district": "梅河口市"
        }
    },
    {
        "id": "17887365699144464472",
        "title": "公共厕所",
        "address": "吉林省通化市辉南县爱民大街261号",
        "tel": "",
        "category": "基础设施:公共设施:公共厕所",
        "type": 0,
        "location": {
            "lat": 42.687104,
            "lng": 126.045117
        },
        "ad_info": {
            "adcode": 220523,
            "province": "吉林省",
            "city": "通化市",
            "district": "辉南县"
        }
    },
    {
        "id": "5505071830052726081",
        "title": "梅河口服务区公共厕所",
        "address": "吉林省通化市梅河口市集双高速梅河口服务区",
        "tel": "",
        "category": "基础设施:公共设施:公共厕所",
        "type": 0,
        "location": {
            "lat": 42.567499,
            "lng": 125.770279
        },
        "ad_info": {
            "adcode": 220581,
            "province": "吉林省",
            "city": "通化市",
            "district": "梅河口市"
        }
    },
    {
        "id": "1689815439522344698",
        "title": "公共厕所",
        "address": "吉林省通化市东昌区龙泉街道新华大街玉皇山公园南",
        "tel": "",
        "category": "基础设施:公共设施:公共厕所",
        "type": 0,
        "location": {
            "lat": 41.731413,
            "lng": 125.944844
        },
        "ad_info": {
            "adcode": 220502,
            "province": "吉林省",
            "city": "通化市",
            "district": "东昌区"
        }
    },
    {
        "id": "14217389580273119093",
        "title": "公共厕所",
        "address": "吉林省通化市梅河口市X100与利民路交叉口西南方向296米左右",
        "tel": "",
        "category": "基础设施:公共设施:公共厕所",
        "type": 0,
        "location": {
            "lat": 42.365692,
            "lng": 125.423312
        },
        "ad_info": {
            "adcode": 220581,
            "province": "吉林省",
            "city": "通化市",
            "district": "梅河口市"
        }
    },
    {
        "id": "13663682514002929010",
        "title": "公共厕所",
        "address": "吉林省通化市东昌区正和路与集锡线交叉口正北方向82米左右",
        "tel": "",
        "category": "基础设施:公共设施:公共厕所",
        "type": 0,
        "location": {
            "lat": 41.779214,
            "lng": 125.910568
        },
        "ad_info": {
            "adcode": 220502,
            "province": "吉林省",
            "city": "通化市",
            "district": "东昌区"
        }
    },
    {
        "id": "17839680421754880061",
        "title": "公共厕所",
        "address": "吉林省通化市辉南县朝阳大街188号",
        "tel": "",
        "category": "基础设施:公共设施:公共厕所",
        "type": 0,
        "location": {
            "lat": 42.680668,
            "lng": 126.028193
        },
        "ad_info": {
            "adcode": 220523,
            "province": "吉林省",
            "city": "通化市",
            "district": "辉南县"
        }
    },
    {
        "id": "11217449799377823866",
        "title": "公共厕所",
        "address": "吉林省通化市梅河口市高丽新村3期西侧360米",
        "tel": "",
        "category": "基础设施:公共设施:公共厕所",
        "type": 0,
        "location": {
            "lat": 42.509824,
            "lng": 125.672577
        },
        "ad_info": {
            "adcode": 220581,
            "province": "吉林省",
            "city": "通化市",
            "district": "梅河口市"
        }
    },
    {
        "id": "7559208583257835408",
        "title": "公共厕所",
        "address": "吉林省通化市辉南县东兴街与迎宾胡同交叉口正东方向71米左右",
        "tel": "",
        "category": "基础设施:公共设施:公共厕所",
        "type": 0,
        "location": {
            "lat": 42.687321,
            "lng": 126.055597
        },
        "ad_info": {
            "adcode": 220523,
            "province": "吉林省",
            "city": "通化市",
            "district": "辉南县"
        }
    },
    {
        "id": "7690661529717270266",
        "title": "公共厕所",
        "address": "吉林省通化市梅河口市梅河大街765号",
        "tel": "",
        "category": "基础设施:公共设施:公共厕所",
        "type": 0,
        "location": {
            "lat": 42.538726,
            "lng": 125.688641
        },
        "ad_info": {
            "adcode": 220581,
            "province": "吉林省",
            "city": "通化市",
            "district": "梅河口市"
        }
    },
    {
        "id": "6359811625437894814",
        "title": "公共厕所",
        "address": "吉林省通化市梅河口市梅河东大街与黄海路交叉口正西方向30米左右",
        "tel": "",
        "category": "基础设施:公共设施:公共厕所",
        "type": 0,
        "location": {
            "lat": 42.552598,
            "lng": 125.697747
        },
        "ad_info": {
            "adcode": 220581,
            "province": "吉林省",
            "city": "通化市",
            "district": "梅河口市"
        }
    },
    {
        "id": "10297627570780439182",
        "title": "公共厕所",
        "address": "吉林省通化市通化县民和街与沈长线交叉口正西方向1590米左右",
        "tel": "",
        "category": "基础设施:公共设施:公共厕所",
        "type": 0,
        "location": {
            "lat": 41.701212,
            "lng": 125.678169
        },
        "ad_info": {
            "adcode": 220521,
            "province": "吉林省",
            "city": "通化市",
            "district": "通化县"
        }
    },
    {
        "id": "1089191698124474608",
        "title": "抚民服务区第二公共厕所",
        "address": "吉林省通化市辉南县S26抚长高速附近",
        "tel": "",
        "category": "基础设施:公共设施:公共厕所",
        "type": 0,
        "location": {
            "lat": 42.469866,
            "lng": 126.480908
        },
        "ad_info": {
            "adcode": 220523,
            "province": "吉林省",
            "city": "通化市",
            "district": "辉南县"
        }
    },
    {
        "id": "3627208329264186975",
        "title": "公共卫生间",
        "address": "吉林省通化市东昌区和平路与头道沟路交叉口东南方向30米左右",
        "tel": "",
        "category": "基础设施:公共设施:公共厕所",
        "type": 0,
        "location": {
            "lat": 41.746737,
            "lng": 125.977837
        },
        "ad_info": {
            "adcode": 220502,
            "province": "吉林省",
            "city": "通化市",
            "district": "东昌区"
        }
    },
    {
        "id": "5551307755795637373",
        "title": "公共厕所",
        "address": "吉林省通化市梅河口市丰泰路与梅河大街交叉口东北方向28米左右",
        "tel": "",
        "category": "基础设施:公共设施:公共厕所",
        "type": 0,
        "location": {
            "lat": 42.528515,
            "lng": 125.683819
        },
        "ad_info": {
            "adcode": 220581,
            "province": "吉林省",
            "city": "通化市",
            "district": "梅河口市"
        }
    },
    {
        "id": "5508372876239245557",
        "title": "公共厕所",
        "address": "吉林省通化市辉南县G504与营抚线交叉口正北方向915米左右",
        "tel": "",
        "category": "基础设施:公共设施:公共厕所",
        "type": 0,
        "location": {
            "lat": 42.575008,
            "lng": 126.28594
        },
        "ad_info": {
            "adcode": 220523,
            "province": "吉林省",
            "city": "通化市",
            "district": "辉南县"
        }
    },
    {
        "id": "2071008620449015486",
        "title": "公共厕所",
        "address": "吉林省通化市通化县团结路与正阳街交叉口正北方向63米左右",
        "tel": "",
        "category": "基础设施:公共设施:公共厕所",
        "type": 0,
        "location": {
            "lat": 41.680005,
            "lng": 125.769162
        },
        "ad_info": {
            "adcode": 220521,
            "province": "吉林省",
            "city": "通化市",
            "district": "通化县"
        }
    },
    {
        "id": "17890647836514849904",
        "title": "公共厕所",
        "address": "吉林省通化市东昌区永欣欢乐谷西南侧150米",
        "tel": "",
        "category": "基础设施:公共设施:公共厕所",
        "type": 0,
        "location": {
            "lat": 41.607703,
            "lng": 125.926156
        },
        "ad_info": {
            "adcode": 220502,
            "province": "吉林省",
            "city": "通化市",
            "district": "东昌区"
        }
    },
    {
        "id": "16072875745825708847",
        "title": "公共厕所",
        "address": "吉林省通化市辉南县S206与S207交叉口东北方向52米左右",
        "tel": "",
        "category": "基础设施:公共设施:公共厕所",
        "type": 0,
        "location": {
            "lat": 42.451272,
            "lng": 126.148143
        },
        "ad_info": {
            "adcode": 220523,
            "province": "吉林省",
            "city": "通化市",
            "district": "辉南县"
        }
    },
    {
        "id": "3147651126325625688",
        "title": "公共厕所",
        "address": "吉林省通化市东昌区建设大街与新山路交叉口西北方向169米左右",
        "tel": "",
        "category": "基础设施:公共设施:公共厕所",
        "type": 0,
        "location": {
            "lat": 41.725035,
            "lng": 125.947821
        },
        "ad_info": {
            "adcode": 220502,
            "province": "吉林省",
            "city": "通化市",
            "district": "东昌区"
        }
    },
    {
        "id": "2320121190414079621",
        "title": "公共厕所",
        "address": "吉林省通化市东昌区秀泉东路与秀泉路交叉口正南方向96米左右",
        "tel": "",
        "category": "基础设施:公共设施:公共厕所",
        "type": 0,
        "location": {
            "lat": 41.732838,
            "lng": 125.934116
        },
        "ad_info": {
            "adcode": 220502,
            "province": "吉林省",
            "city": "通化市",
            "district": "东昌区"
        }
    },
    {
        "id": "9233022623559396403",
        "title": "公共厕所",
        "address": "吉林省通化市集安市团结路与建设北街交叉口东北方向86米左右",
        "tel": "",
        "category": "基础设施:公共设施:公共厕所",
        "type": 0,
        "location": {
            "lat": 41.127772,
            "lng": 126.190491
        },
        "ad_info": {
            "adcode": 220582,
            "province": "吉林省",
            "city": "通化市",
            "district": "集安市"
        }
    },
    {
        "id": "1204370978242402329",
        "title": "公共厕所",
        "address": "吉林省通化市柳河县柳河大街555号",
        "tel": "",
        "category": "基础设施:公共设施:公共厕所",
        "type": 0,
        "location": {
            "lat": 42.282199,
            "lng": 125.737565
        },
        "ad_info": {
            "adcode": 220524,
            "province": "吉林省",
            "city": "通化市",
            "district": "柳河县"
        }
    },
    {
        "id": "10632850353140684017",
        "title": "公共厕所",
        "address": "吉林省通化市通化县",
        "tel": "",
        "category": "基础设施:公共设施:公共厕所",
        "type": 0,
        "location": {
            "lat": 41.742506,
            "lng": 125.60384
        },
        "ad_info": {
            "adcode": 220521,
            "province": "吉林省",
            "city": "通化市",
            "district": "通化县"
        }
    },
    {
        "id": "2613269523207259475",
        "title": "公共厕所",
        "address": "吉林省通化市二道江区东华路与东源路交叉口正北方向719米左右",
        "tel": "",
        "category": "基础设施:公共设施:公共厕所",
        "type": 0,
        "location": {
            "lat": 41.787531,
            "lng": 126.034022
        },
        "ad_info": {
            "adcode": 220503,
            "province": "吉林省",
            "city": "通化市",
            "district": "二道江区"
        }
    },
    {
        "id": "5355046633319734905",
        "title": "公共厕所",
        "address": "吉林省通化市梅河口市G504与Y063交叉口正南方向401米左右",
        "tel": "",
        "category": "基础设施:公共设施:公共厕所",
        "type": 0,
        "location": {
            "lat": 42.919951,
            "lng": 125.75626
        },
        "ad_info": {
            "adcode": 220581,
            "province": "吉林省",
            "city": "通化市",
            "district": "梅河口市"
        }
    },
    {
        "id": "2329643051320839947",
        "title": "公共厕所",
        "address": "吉林省通化市东昌区胜利路248号",
        "tel": "",
        "category": "基础设施:公共设施:公共厕所",
        "type": 0,
        "location": {
            "lat": 41.732034,
            "lng": 125.95253
        },
        "ad_info": {
            "adcode": 220502,
            "province": "吉林省",
            "city": "通化市",
            "district": "东昌区"
        }
    },
    {
        "id": "10784847424447764253",
        "title": "公共厕所",
        "address": "吉林省通化市东昌区康明路与新华大街交叉口东南方向250米左右",
        "tel": "",
        "category": "基础设施:公共设施:公共厕所",
        "type": 0,
        "location": {
            "lat": 41.70815,
            "lng": 125.918031
        },
        "ad_info": {
            "adcode": 220502,
            "province": "吉林省",
            "city": "通化市",
            "district": "东昌区"
        }
    },
    {
        "id": "7479420345334606598",
        "title": "公共卫生间",
        "address": "吉林省通化市东昌区福明路瑞江豪城",
        "tel": "",
        "category": "基础设施:公共设施:公共厕所",
        "type": 0,
        "location": {
            "lat": 41.705977,
            "lng": 125.926859
        },
        "ad_info": {
            "adcode": 220502,
            "province": "吉林省",
            "city": "通化市",
            "district": "东昌区"
        }
    },
    {
        "id": "13168006441529036547",
        "title": "公共厕所",
        "address": "吉林省通化市集安市迎宾路339号",
        "tel": "",
        "category": "基础设施:公共设施:公共厕所",
        "type": 0,
        "location": {
            "lat": 41.126944,
            "lng": 126.185138
        },
        "ad_info": {
            "adcode": 220582,
            "province": "吉林省",
            "city": "通化市",
            "district": "集安市"
        }
    },
    {
        "id": "9620115462483421662",
        "title": "公共厕所",
        "address": "吉林省通化市集安市丹集线与泡浑线交叉口西北方向558米左右",
        "tel": "",
        "category": "基础设施:公共设施:公共厕所",
        "type": 0,
        "location": {
            "lat": 40.909354,
            "lng": 125.626412
        },
        "ad_info": {
            "adcode": 220582,
            "province": "吉林省",
            "city": "通化市",
            "district": "集安市"
        }
    },
    {
        "id": "15642345556336391143",
        "title": "公共厕所",
        "address": "吉林省通化市柳河县077县道北50米",
        "tel": "",
        "category": "基础设施:公共设施:公共厕所",
        "type": 0,
        "location": {
            "lat": 42.448465,
            "lng": 126.074374
        },
        "ad_info": {
            "adcode": 220524,
            "province": "吉林省",
            "city": "通化市",
            "district": "柳河县"
        }
    },
    {
        "id": "577378319995109474",
        "title": "公共厕所",
        "address": "吉林省通化市集安市凉挂线与集丹线交叉口东南方向21米左右",
        "tel": "",
        "category": "基础设施:公共设施:公共厕所",
        "type": 0,
        "location": {
            "lat": 40.93251,
            "lng": 125.864248
        },
        "ad_info": {
            "adcode": 220582,
            "province": "吉林省",
            "city": "通化市",
            "district": "集安市"
        }
    },
    {
        "id": "11592068052893825985",
        "title": "卫生间",
        "address": "吉林省通化市东昌区东昌路与民安路交叉口正北方向85米左右",
        "tel": "",
        "category": "基础设施:公共设施:公共厕所",
        "type": 0,
        "location": {
            "lat": 41.723115,
            "lng": 125.934995
        },
        "ad_info": {
            "adcode": 220502,
            "province": "吉林省",
            "city": "通化市",
            "district": "东昌区"
        }
    },
    {
        "id": "17530799022661561835",
        "title": "公共厕所",
        "address": "吉林省通化市二道江区Y061与鹤大线交叉口西北方向26米左右",
        "tel": "",
        "category": "基础设施:公共设施:公共厕所",
        "type": 0,
        "location": {
            "lat": 41.779832,
            "lng": 126.009583
        },
        "ad_info": {
            "adcode": 220503,
            "province": "吉林省",
            "city": "通化市",
            "district": "二道江区"
        }
    },
    {
        "id": "6369790635236378196",
        "title": "公共厕所",
        "address": "吉林省通化市东昌区文教路332号",
        "tel": "",
        "category": "基础设施:公共设施:公共厕所",
        "type": 0,
        "location": {
            "lat": 41.712673,
            "lng": 125.928792
        },
        "ad_info": {
            "adcode": 220502,
            "province": "吉林省",
            "city": "通化市",
            "district": "东昌区"
        }
    },
    {
        "id": "760276511778541114",
        "title": "公共厕所",
        "address": "吉林省通化市东昌区保安路与欣荣路交叉口正南方向799米左右",
        "tel": "",
        "category": "基础设施:公共设施:公共厕所",
        "type": 0,
        "location": {
            "lat": 41.714496,
            "lng": 125.969008
        },
        "ad_info": {
            "adcode": 220502,
            "province": "吉林省",
            "city": "通化市",
            "district": "东昌区"
        }
    },
    {
        "id": "5255614439638758701",
        "title": "公共厕所",
        "address": "吉林省通化市梅河口市惠民路与爱民街交叉口正南方向228米左右",
        "tel": "",
        "category": "基础设施:公共设施:公共厕所",
        "type": 0,
        "location": {
            "lat": 42.526451,
            "lng": 125.673705
        },
        "ad_info": {
            "adcode": 220581,
            "province": "吉林省",
            "city": "通化市",
            "district": "梅河口市"
        }
    },
    {
        "id": "14638670405398713702",
        "title": "公共厕所",
        "address": "吉林省通化市梅河口市银河大街313号",
        "tel": "",
        "category": "基础设施:公共设施:公共厕所",
        "type": 0,
        "location": {
            "lat": 42.541969,
            "lng": 125.698327
        },
        "ad_info": {
            "adcode": 220581,
            "province": "吉林省",
            "city": "通化市",
            "district": "梅河口市"
        }
    },
    {
        "id": "6224613921439375082",
        "title": "都岭服务区第二公共厕所",
        "address": "吉林省通化市通化县都岭服务区与G11鹤大高速交叉口西南280米",
        "tel": "",
        "category": "基础设施:公共设施:公共厕所",
        "type": 0,
        "location": {
            "lat": 41.622011,
            "lng": 125.691578
        },
        "ad_info": {
            "adcode": 220521,
            "province": "吉林省",
            "city": "通化市",
            "district": "通化县"
        }
    },
    {
        "id": "7546591640063550807",
        "title": "公共厕所",
        "address": "吉林省通化市柳河县军民路与振兴大街交叉口正西方向147米左右",
        "tel": "",
        "category": "基础设施:公共设施:公共厕所",
        "type": 0,
        "location": {
            "lat": 42.274206,
            "lng": 125.728538
        },
        "ad_info": {
            "adcode": 220524,
            "province": "吉林省",
            "city": "通化市",
            "district": "柳河县"
        }
    },
    {
        "id": "2678388960377611292",
        "title": "公共厕所",
        "address": "吉林省通化市东昌区保安路与欣荣路交叉口西南方向679米左右",
        "tel": "",
        "category": "基础设施:公共设施:公共厕所",
        "type": 0,
        "location": {
            "lat": 41.717315,
            "lng": 125.965287
        },
        "ad_info": {
            "adcode": 220502,
            "province": "吉林省",
            "city": "通化市",
            "district": "东昌区"
        }
    },
    {
        "id": "12002780427220593843",
        "title": "公共厕所",
        "address": "吉林省通化市通化县团结路1236号",
        "tel": "",
        "category": "基础设施:公共设施:公共厕所",
        "type": 0,
        "location": {
            "lat": 41.679203,
            "lng": 125.766993
        },
        "ad_info": {
            "adcode": 220521,
            "province": "吉林省",
            "city": "通化市",
            "district": "通化县"
        }
    },
    {
        "id": "15605732649413881428",
        "title": "公共厕所",
        "address": "吉林省通化市通化县茂盛家园东侧530米",
        "tel": "",
        "category": "基础设施:公共设施:公共厕所",
        "type": 0,
        "location": {
            "lat": 41.686054,
            "lng": 125.757886
        },
        "ad_info": {
            "adcode": 220521,
            "province": "吉林省",
            "city": "通化市",
            "district": "通化县"
        }
    },
    {
        "id": "13404719731863971869",
        "title": "公共厕所",
        "address": "吉林省通化市二道江区东兴路与东通化大街交叉口正北方向39米左右",
        "tel": "",
        "category": "基础设施:公共设施:公共厕所",
        "type": 0,
        "location": {
            "lat": 41.777641,
            "lng": 126.046921
        },
        "ad_info": {
            "adcode": 220503,
            "province": "吉林省",
            "city": "通化市",
            "district": "二道江区"
        }
    },
    {
        "id": "9368070898191727478",
        "title": "康大营服务区公共厕所",
        "address": "吉林省通化市梅河口市康大营镇抚长高速公路朝阳山服务区",
        "tel": "",
        "category": "基础设施:公共设施:公共厕所",
        "type": 0,
        "location": {
            "lat": 43.006505,
            "lng": 125.774379
        },
        "ad_info": {
            "adcode": 220581,
            "province": "吉林省",
            "city": "通化市",
            "district": "梅河口市"
        }
    },
    {
        "id": "8800126748015616999",
        "title": "公共厕所",
        "address": "吉林省通化市集安市Y003与集丹线交叉口西北方向110米左右",
        "tel": "",
        "category": "基础设施:公共设施:公共厕所",
        "type": 0,
        "location": {
            "lat": 41.09784,
            "lng": 126.155185
        },
        "ad_info": {
            "adcode": 220582,
            "province": "吉林省",
            "city": "通化市",
            "district": "集安市"
        }
    },
    {
        "id": "12376997732549181913",
        "title": "公共厕所",
        "address": "吉林省通化市东昌区建设大街通铁家园-B区",
        "tel": "",
        "category": "基础设施:公共设施:公共厕所",
        "type": 0,
        "location": {
            "lat": 41.743496,
            "lng": 125.972273
        },
        "ad_info": {
            "adcode": 220502,
            "province": "吉林省",
            "city": "通化市",
            "district": "东昌区"
        }
    },
    {
        "id": "18225344114499340366",
        "title": "公共厕所",
        "address": "吉林省通化市梅河口市G202与Y011交叉口西南方向388米左右",
        "tel": "",
        "category": "基础设施:公共设施:公共厕所",
        "type": 0,
        "location": {
            "lat": 42.800882,
            "lng": 125.97437
        },
        "ad_info": {
            "adcode": 220581,
            "province": "吉林省",
            "city": "通化市",
            "district": "梅河口市"
        }
    },
    {
        "id": "3628739539093773693",
        "title": "公共厕所",
        "address": "吉林省通化市梅河口市泰昌街1144号",
        "tel": "",
        "category": "基础设施:公共设施:公共厕所",
        "type": 0,
        "location": {
            "lat": 42.530208,
            "lng": 125.6874
        },
        "ad_info": {
            "adcode": 220581,
            "province": "吉林省",
            "city": "通化市",
            "district": "梅河口市"
        }
    },
    {
        "id": "12423100755941613868",
        "title": "公共厕所",
        "address": "吉林省通化市东昌区民主路与沿河北路交叉口正北方向76米左右",
        "tel": "",
        "category": "基础设施:公共设施:公共厕所",
        "type": 0,
        "location": {
            "lat": 41.720818,
            "lng": 125.93985
        },
        "ad_info": {
            "adcode": 220502,
            "province": "吉林省",
            "city": "通化市",
            "district": "东昌区"
        }
    },
    {
        "id": "15889905328137517506",
        "title": "公共厕所",
        "address": "吉林省通化市东昌区江集路与金龙路交叉口正西方向103米左右",
        "tel": "",
        "category": "基础设施:公共设施:公共厕所",
        "type": 0,
        "location": {
            "lat": 41.676584,
            "lng": 125.952312
        },
        "ad_info": {
            "adcode": 220502,
            "province": "吉林省",
            "city": "通化市",
            "district": "东昌区"
        }
    },
    {
        "id": "11518479099468010419",
        "title": "公共厕所",
        "address": "吉林省通化市梅河口市建国路梅河口人民公园(东南角)",
        "tel": "",
        "category": "基础设施:公共设施:公共厕所",
        "type": 0,
        "location": {
            "lat": 42.535715,
            "lng": 125.719082
        },
        "ad_info": {
            "adcode": 220581,
            "province": "吉林省",
            "city": "通化市",
            "district": "梅河口市"
        }
    },
    {
        "id": "8876482188007180155",
        "title": "清河服务区公共厕所",
        "address": "吉林省通化市集安市中国石油吉高能源清河服务区加油站西北侧150米",
        "tel": "",
        "category": "基础设施:公共设施:公共厕所",
        "type": 0,
        "location": {
            "lat": 41.41766,
            "lng": 125.92737
        },
        "ad_info": {
            "adcode": 220582,
            "province": "吉林省",
            "city": "通化市",
            "district": "集安市"
        }
    },
    {
        "id": "9984619170946647908",
        "title": "公共厕所",
        "address": "吉林省通化市集安市第五人民医院西北侧290米",
        "tel": "",
        "category": "基础设施:公共设施:公共厕所",
        "type": 0,
        "location": {
            "lat": 41.133135,
            "lng": 126.173116
        },
        "ad_info": {
            "adcode": 220582,
            "province": "吉林省",
            "city": "通化市",
            "district": "集安市"
        }
    },
    {
        "id": "16936707813524759671",
        "title": "公共卫生间",
        "address": "吉林省通化市梅河口市惠民路与民和街交叉口东北方向94米左右",
        "tel": "",
        "category": "基础设施:公共设施:公共厕所",
        "type": 0,
        "location": {
            "lat": 42.530318,
            "lng": 125.679597
        },
        "ad_info": {
            "adcode": 220581,
            "province": "吉林省",
            "city": "通化市",
            "district": "梅河口市"
        }
    },
    {
        "id": "12322777456464638393",
        "title": "公共厕所",
        "address": "吉林省通化市柳河县人民大街与开明街交叉口正南方向114米左右",
        "tel": "",
        "category": "基础设施:公共设施:公共厕所",
        "type": 0,
        "location": {
            "lat": 42.292767,
            "lng": 125.764679
        },
        "ad_info": {
            "adcode": 220524,
            "province": "吉林省",
            "city": "通化市",
            "district": "柳河县"
        }
    },
    {
        "id": "2846374449643974116",
        "title": "公共厕所",
        "address": "吉林省通化市东昌区玉泉路龙泉公寓",
        "tel": "",
        "category": "基础设施:公共设施:公共厕所",
        "type": 0,
        "location": {
            "lat": 41.729964,
            "lng": 125.934897
        },
        "ad_info": {
            "adcode": 220502,
            "province": "吉林省",
            "city": "通化市",
            "district": "东昌区"
        }
    },
    {
        "id": "7248440307856798488",
        "title": "公共厕所",
        "address": "吉林省通化市集安市G331与白桦岭隧道交叉口东北方向1828米左右",
        "tel": "",
        "category": "基础设施:公共设施:公共厕所",
        "type": 0,
        "location": {
            "lat": 41.516104,
            "lng": 126.546244
        },
        "ad_info": {
            "adcode": 220582,
            "province": "吉林省",
            "city": "通化市",
            "district": "集安市"
        }
    },
    {
        "id": "4393071306131712280",
        "title": "公共厕所",
        "address": "吉林省通化市通化县吉林印记之高志航故居博物馆西北侧",
        "tel": "",
        "category": "基础设施:公共设施:公共厕所",
        "type": 0,
        "location": {
            "lat": 41.573587,
            "lng": 125.785837
        },
        "ad_info": {
            "adcode": 220521,
            "province": "吉林省",
            "city": "通化市",
            "district": "通化县"
        }
    },
    {
        "id": "721145896940068641",
        "title": "公共厕所",
        "address": "吉林省通化市梅河口市荣国路与锦绣胡同交叉口正东方向85米左右",
        "tel": "",
        "category": "基础设施:公共设施:公共厕所",
        "type": 0,
        "location": {
            "lat": 42.535696,
            "lng": 125.691805
        },
        "ad_info": {
            "adcode": 220581,
            "province": "吉林省",
            "city": "通化市",
            "district": "梅河口市"
        }
    },
    {
        "id": "12926373209248846789",
        "title": "公共厕所",
        "address": "吉林省通化市通化县团结路与蓝岛路交叉口东南方向559米左右",
        "tel": "",
        "category": "基础设施:公共设施:公共厕所",
        "type": 0,
        "location": {
            "lat": 41.676546,
            "lng": 125.866243
        },
        "ad_info": {
            "adcode": 220521,
            "province": "吉林省",
            "city": "通化市",
            "district": "通化县"
        }
    },
    {
        "id": "17131465771005806948",
        "title": "公共厕所",
        "address": "吉林省通化市东昌区新华大街与青通线交叉口正北方向63米左右",
        "tel": "15043661711",
        "category": "基础设施:公共设施:公共厕所",
        "type": 0,
        "location": {
            "lat": 41.704726,
            "lng": 125.914784
        },
        "ad_info": {
            "adcode": 220502,
            "province": "吉林省",
            "city": "通化市",
            "district": "东昌区"
        }
    },
    {
        "id": "15521775906018151101",
        "title": "公共厕所",
        "address": "吉林省通化市辉南县建设大街与爱国路交叉口正北方向61米左右",
        "tel": "",
        "category": "基础设施:公共设施:公共厕所",
        "type": 0,
        "location": {
            "lat": 42.674581,
            "lng": 126.037227
        },
        "ad_info": {
            "adcode": 220523,
            "province": "吉林省",
            "city": "通化市",
            "district": "辉南县"
        }
    },
    {
        "id": "154000345317257161",
        "title": "公共厕所",
        "address": "吉林省通化市梅河口市湾龙乡莲河村众诚连锁博深加油站内",
        "tel": "",
        "category": "基础设施:公共设施:公共厕所",
        "type": 0,
        "location": {
            "lat": 42.590905,
            "lng": 125.720571
        },
        "ad_info": {
            "adcode": 220581,
            "province": "吉林省",
            "city": "通化市",
            "district": "梅河口市"
        }
    },
    {
        "id": "17113146330604812287",
        "title": "公共厕所",
        "address": "吉林省通化市柳河县站前路与长青路交叉口正南方向1080米左右",
        "tel": "",
        "category": "基础设施:公共设施:公共厕所",
        "type": 0,
        "location": {
            "lat": 42.27306,
            "lng": 125.769527
        },
        "ad_info": {
            "adcode": 220524,
            "province": "吉林省",
            "city": "通化市",
            "district": "柳河县"
        }
    },
    {
        "id": "3596325108637814109",
        "title": "英额布服务区第一公共厕所",
        "address": "吉林省通化市通化县光明通沈高速公路英额布服务区",
        "tel": "",
        "category": "基础设施:公共设施:公共厕所",
        "type": 0,
        "location": {
            "lat": 41.712944,
            "lng": 125.590761
        },
        "ad_info": {
            "adcode": 220521,
            "province": "吉林省",
            "city": "通化市",
            "district": "通化县"
        }
    },
    {
        "id": "11585731582990480726",
        "title": "公共厕所",
        "address": "吉林省通化市辉南县恒丰汽车钣金无痕修复东侧50米",
        "tel": "",
        "category": "基础设施:公共设施:公共厕所",
        "type": 0,
        "location": {
            "lat": 42.673525,
            "lng": 126.023769
        },
        "ad_info": {
            "adcode": 220523,
            "province": "吉林省",
            "city": "通化市",
            "district": "辉南县"
        }
    },
    {
        "id": "7651178074251021778",
        "title": "公共厕所",
        "address": "吉林省通化市梅河口市民和街550号",
        "tel": "",
        "category": "基础设施:公共设施:公共厕所",
        "type": 0,
        "location": {
            "lat": 42.534541,
            "lng": 125.676861
        },
        "ad_info": {
            "adcode": 220581,
            "province": "吉林省",
            "city": "通化市",
            "district": "梅河口市"
        }
    },
    {
        "id": "5360067978236146372",
        "title": "公共厕所",
        "address": "吉林省通化市辉南县凯旋路与朝阳大街交叉口正南方向30米左右",
        "tel": "",
        "category": "基础设施:公共设施:公共厕所",
        "type": 0,
        "location": {
            "lat": 42.68262,
            "lng": 126.044901
        },
        "ad_info": {
            "adcode": 220523,
            "province": "吉林省",
            "city": "通化市",
            "district": "辉南县"
        }
    },
    {
        "id": "13425014690358729187",
        "title": "公共厕所",
        "address": "吉林省通化市通化县团结路与开元街交叉口正北方向407米左右",
        "tel": "",
        "category": "基础设施:公共设施:公共厕所",
        "type": 0,
        "location": {
            "lat": 41.683124,
            "lng": 125.776433
        },
        "ad_info": {
            "adcode": 220521,
            "province": "吉林省",
            "city": "通化市",
            "district": "通化县"
        }
    },
    {
        "id": "1748878648628080413",
        "title": "公共厕所",
        "address": "吉林省通化市梅河口市山水广场",
        "tel": "",
        "category": "基础设施:公共设施:公共厕所",
        "type": 0,
        "location": {
            "lat": 42.512763,
            "lng": 125.709348
        },
        "ad_info": {
            "adcode": 220581,
            "province": "吉林省",
            "city": "通化市",
            "district": "梅河口市"
        }
    },
    {
        "id": "3673383529824303091",
        "title": "公共厕所",
        "address": "吉林省通化市通化县兴盛街与同德路交叉口西南方向100米左右",
        "tel": "",
        "category": "基础设施:公共设施:公共厕所",
        "type": 0,
        "location": {
            "lat": 41.67574,
            "lng": 125.750939
        },
        "ad_info": {
            "adcode": 220521,
            "province": "吉林省",
            "city": "通化市",
            "district": "通化县"
        }
    },
    {
        "id": "4022220944633113187",
        "title": "公共厕所",
        "address": "吉林省通化市东昌区通化万峰观山公寓南侧150米",
        "tel": "",
        "category": "基础设施:公共设施:公共厕所",
        "type": 0,
        "location": {
            "lat": 41.654555,
            "lng": 125.968323
        },
        "ad_info": {
            "adcode": 220502,
            "province": "吉林省",
            "city": "通化市",
            "district": "东昌区"
        }
    },
    {
        "id": "184046990156339740",
        "title": "公共厕所",
        "address": "吉林省通化市东昌区滨江西路二轻建筑公司对面",
        "tel": "",
        "category": "基础设施:公共设施:公共厕所",
        "type": 0,
        "location": {
            "lat": 41.711866,
            "lng": 125.931475
        },
        "ad_info": {
            "adcode": 220502,
            "province": "吉林省",
            "city": "通化市",
            "district": "东昌区"
        }
    },
    {
        "id": "16936707813524759671",
        "title": "公共卫生间",
        "address": "吉林省通化市梅河口市惠民路与民和街交叉口东北方向94米左右",
        "tel": "",
        "category": "基础设施:公共设施:公共厕所",
        "type": 0,
        "location": {
            "lat": 42.530318,
            "lng": 125.679597
        },
        "ad_info": {
            "adcode": 220581,
            "province": "吉林省",
            "city": "通化市",
            "district": "梅河口市"
        }
    },
    {
        "id": "12322777456464638393",
        "title": "公共厕所",
        "address": "吉林省通化市柳河县人民大街与开明街交叉口正南方向114米左右",
        "tel": "",
        "category": "基础设施:公共设施:公共厕所",
        "type": 0,
        "location": {
            "lat": 42.292767,
            "lng": 125.764679
        },
        "ad_info": {
            "adcode": 220524,
            "province": "吉林省",
            "city": "通化市",
            "district": "柳河县"
        }
    },
    {
        "id": "2846374449643974116",
        "title": "公共厕所",
        "address": "吉林省通化市东昌区玉泉路龙泉公寓",
        "tel": "",
        "category": "基础设施:公共设施:公共厕所",
        "type": 0,
        "location": {
            "lat": 41.729964,
            "lng": 125.934897
        },
        "ad_info": {
            "adcode": 220502,
            "province": "吉林省",
            "city": "通化市",
            "district": "东昌区"
        }
    },
    {
        "id": "7248440307856798488",
        "title": "公共厕所",
        "address": "吉林省通化市集安市G331与白桦岭隧道交叉口东北方向1828米左右",
        "tel": "",
        "category": "基础设施:公共设施:公共厕所",
        "type": 0,
        "location": {
            "lat": 41.516104,
            "lng": 126.546244
        },
        "ad_info": {
            "adcode": 220582,
            "province": "吉林省",
            "city": "通化市",
            "district": "集安市"
        }
    },
    {
        "id": "4393071306131712280",
        "title": "公共厕所",
        "address": "吉林省通化市通化县吉林印记之高志航故居博物馆西北侧",
        "tel": "",
        "category": "基础设施:公共设施:公共厕所",
        "type": 0,
        "location": {
            "lat": 41.573587,
            "lng": 125.785837
        },
        "ad_info": {
            "adcode": 220521,
            "province": "吉林省",
            "city": "通化市",
            "district": "通化县"
        }
    },
    {
        "id": "721145896940068641",
        "title": "公共厕所",
        "address": "吉林省通化市梅河口市荣国路与锦绣胡同交叉口正东方向85米左右",
        "tel": "",
        "category": "基础设施:公共设施:公共厕所",
        "type": 0,
        "location": {
            "lat": 42.535696,
            "lng": 125.691805
        },
        "ad_info": {
            "adcode": 220581,
            "province": "吉林省",
            "city": "通化市",
            "district": "梅河口市"
        }
    },
    {
        "id": "12926373209248846789",
        "title": "公共厕所",
        "address": "吉林省通化市通化县团结路与蓝岛路交叉口东南方向559米左右",
        "tel": "",
        "category": "基础设施:公共设施:公共厕所",
        "type": 0,
        "location": {
            "lat": 41.676546,
            "lng": 125.866243
        },
        "ad_info": {
            "adcode": 220521,
            "province": "吉林省",
            "city": "通化市",
            "district": "通化县"
        }
    },
    {
        "id": "17131465771005806948",
        "title": "公共厕所",
        "address": "吉林省通化市东昌区新华大街与青通线交叉口正北方向63米左右",
        "tel": "15043661711",
        "category": "基础设施:公共设施:公共厕所",
        "type": 0,
        "location": {
            "lat": 41.704726,
            "lng": 125.914784
        },
        "ad_info": {
            "adcode": 220502,
            "province": "吉林省",
            "city": "通化市",
            "district": "东昌区"
        }
    },
    {
        "id": "15521775906018151101",
        "title": "公共厕所",
        "address": "吉林省通化市辉南县建设大街与爱国路交叉口正北方向61米左右",
        "tel": "",
        "category": "基础设施:公共设施:公共厕所",
        "type": 0,
        "location": {
            "lat": 42.674581,
            "lng": 126.037227
        },
        "ad_info": {
            "adcode": 220523,
            "province": "吉林省",
            "city": "通化市",
            "district": "辉南县"
        }
    },
    {
        "id": "154000345317257161",
        "title": "公共厕所",
        "address": "吉林省通化市梅河口市湾龙乡莲河村众诚连锁博深加油站内",
        "tel": "",
        "category": "基础设施:公共设施:公共厕所",
        "type": 0,
        "location": {
            "lat": 42.590905,
            "lng": 125.720571
        },
        "ad_info": {
            "adcode": 220581,
            "province": "吉林省",
            "city": "通化市",
            "district": "梅河口市"
        }
    },
    {
        "id": "17113146330604812287",
        "title": "公共厕所",
        "address": "吉林省通化市柳河县站前路与长青路交叉口正南方向1080米左右",
        "tel": "",
        "category": "基础设施:公共设施:公共厕所",
        "type": 0,
        "location": {
            "lat": 42.27306,
            "lng": 125.769527
        },
        "ad_info": {
            "adcode": 220524,
            "province": "吉林省",
            "city": "通化市",
            "district": "柳河县"
        }
    },
    {
        "id": "3596325108637814109",
        "title": "英额布服务区第一公共厕所",
        "address": "吉林省通化市通化县光明通沈高速公路英额布服务区",
        "tel": "",
        "category": "基础设施:公共设施:公共厕所",
        "type": 0,
        "location": {
            "lat": 41.712944,
            "lng": 125.590761
        },
        "ad_info": {
            "adcode": 220521,
            "province": "吉林省",
            "city": "通化市",
            "district": "通化县"
        }
    },
    {
        "id": "11585731582990480726",
        "title": "公共厕所",
        "address": "吉林省通化市辉南县恒丰汽车钣金无痕修复东侧50米",
        "tel": "",
        "category": "基础设施:公共设施:公共厕所",
        "type": 0,
        "location": {
            "lat": 42.673525,
            "lng": 126.023769
        },
        "ad_info": {
            "adcode": 220523,
            "province": "吉林省",
            "city": "通化市",
            "district": "辉南县"
        }
    },
    {
        "id": "7651178074251021778",
        "title": "公共厕所",
        "address": "吉林省通化市梅河口市民和街550号",
        "tel": "",
        "category": "基础设施:公共设施:公共厕所",
        "type": 0,
        "location": {
            "lat": 42.534541,
            "lng": 125.676861
        },
        "ad_info": {
            "adcode": 220581,
            "province": "吉林省",
            "city": "通化市",
            "district": "梅河口市"
        }
    },
    {
        "id": "5360067978236146372",
        "title": "公共厕所",
        "address": "吉林省通化市辉南县凯旋路与朝阳大街交叉口正南方向30米左右",
        "tel": "",
        "category": "基础设施:公共设施:公共厕所",
        "type": 0,
        "location": {
            "lat": 42.68262,
            "lng": 126.044901
        },
        "ad_info": {
            "adcode": 220523,
            "province": "吉林省",
            "city": "通化市",
            "district": "辉南县"
        }
    },
    {
        "id": "13425014690358729187",
        "title": "公共厕所",
        "address": "吉林省通化市通化县团结路与开元街交叉口正北方向407米左右",
        "tel": "",
        "category": "基础设施:公共设施:公共厕所",
        "type": 0,
        "location": {
            "lat": 41.683124,
            "lng": 125.776433
        },
        "ad_info": {
            "adcode": 220521,
            "province": "吉林省",
            "city": "通化市",
            "district": "通化县"
        }
    },
    {
        "id": "1748878648628080413",
        "title": "公共厕所",
        "address": "吉林省通化市梅河口市山水广场",
        "tel": "",
        "category": "基础设施:公共设施:公共厕所",
        "type": 0,
        "location": {
            "lat": 42.512763,
            "lng": 125.709348
        },
        "ad_info": {
            "adcode": 220581,
            "province": "吉林省",
            "city": "通化市",
            "district": "梅河口市"
        }
    },
    {
        "id": "3673383529824303091",
        "title": "公共厕所",
        "address": "吉林省通化市通化县兴盛街与同德路交叉口西南方向100米左右",
        "tel": "",
        "category": "基础设施:公共设施:公共厕所",
        "type": 0,
        "location": {
            "lat": 41.67574,
            "lng": 125.750939
        },
        "ad_info": {
            "adcode": 220521,
            "province": "吉林省",
            "city": "通化市",
            "district": "通化县"
        }
    },
    {
        "id": "4022220944633113187",
        "title": "公共厕所",
        "address": "吉林省通化市东昌区通化万峰观山公寓南侧150米",
        "tel": "",
        "category": "基础设施:公共设施:公共厕所",
        "type": 0,
        "location": {
            "lat": 41.654555,
            "lng": 125.968323
        },
        "ad_info": {
            "adcode": 220502,
            "province": "吉林省",
            "city": "通化市",
            "district": "东昌区"
        }
    },
    {
        "id": "184046990156339740",
        "title": "公共厕所",
        "address": "吉林省通化市东昌区滨江西路二轻建筑公司对面",
        "tel": "",
        "category": "基础设施:公共设施:公共厕所",
        "type": 0,
        "location": {
            "lat": 41.711866,
            "lng": 125.931475
        },
        "ad_info": {
            "adcode": 220502,
            "province": "吉林省",
            "city": "通化市",
            "district": "东昌区"
        }
    },
    {
        "id": "16936707813524759671",
        "title": "公共卫生间",
        "address": "吉林省通化市梅河口市惠民路与民和街交叉口东北方向94米左右",
        "tel": "",
        "category": "基础设施:公共设施:公共厕所",
        "type": 0,
        "location": {
            "lat": 42.530318,
            "lng": 125.679597
        },
        "ad_info": {
            "adcode": 220581,
            "province": "吉林省",
            "city": "通化市",
            "district": "梅河口市"
        }
    },
    {
        "id": "12322777456464638393",
        "title": "公共厕所",
        "address": "吉林省通化市柳河县人民大街与开明街交叉口正南方向114米左右",
        "tel": "",
        "category": "基础设施:公共设施:公共厕所",
        "type": 0,
        "location": {
            "lat": 42.292767,
            "lng": 125.764679
        },
        "ad_info": {
            "adcode": 220524,
            "province": "吉林省",
            "city": "通化市",
            "district": "柳河县"
        }
    },
    {
        "id": "2846374449643974116",
        "title": "公共厕所",
        "address": "吉林省通化市东昌区玉泉路龙泉公寓",
        "tel": "",
        "category": "基础设施:公共设施:公共厕所",
        "type": 0,
        "location": {
            "lat": 41.729964,
            "lng": 125.934897
        },
        "ad_info": {
            "adcode": 220502,
            "province": "吉林省",
            "city": "通化市",
            "district": "东昌区"
        }
    },
    {
        "id": "7248440307856798488",
        "title": "公共厕所",
        "address": "吉林省通化市集安市G331与白桦岭隧道交叉口东北方向1828米左右",
        "tel": "",
        "category": "基础设施:公共设施:公共厕所",
        "type": 0,
        "location": {
            "lat": 41.516104,
            "lng": 126.546244
        },
        "ad_info": {
            "adcode": 220582,
            "province": "吉林省",
            "city": "通化市",
            "district": "集安市"
        }
    },
    {
        "id": "4393071306131712280",
        "title": "公共厕所",
        "address": "吉林省通化市通化县吉林印记之高志航故居博物馆西北侧",
        "tel": "",
        "category": "基础设施:公共设施:公共厕所",
        "type": 0,
        "location": {
            "lat": 41.573587,
            "lng": 125.785837
        },
        "ad_info": {
            "adcode": 220521,
            "province": "吉林省",
            "city": "通化市",
            "district": "通化县"
        }
    },
    {
        "id": "721145896940068641",
        "title": "公共厕所",
        "address": "吉林省通化市梅河口市荣国路与锦绣胡同交叉口正东方向85米左右",
        "tel": "",
        "category": "基础设施:公共设施:公共厕所",
        "type": 0,
        "location": {
            "lat": 42.535696,
            "lng": 125.691805
        },
        "ad_info": {
            "adcode": 220581,
            "province": "吉林省",
            "city": "通化市",
            "district": "梅河口市"
        }
    },
    {
        "id": "12926373209248846789",
        "title": "公共厕所",
        "address": "吉林省通化市通化县团结路与蓝岛路交叉口东南方向559米左右",
        "tel": "",
        "category": "基础设施:公共设施:公共厕所",
        "type": 0,
        "location": {
            "lat": 41.676546,
            "lng": 125.866243
        },
        "ad_info": {
            "adcode": 220521,
            "province": "吉林省",
            "city": "通化市",
            "district": "通化县"
        }
    },
    {
        "id": "17131465771005806948",
        "title": "公共厕所",
        "address": "吉林省通化市东昌区新华大街与青通线交叉口正北方向63米左右",
        "tel": "15043661711",
        "category": "基础设施:公共设施:公共厕所",
        "type": 0,
        "location": {
            "lat": 41.704726,
            "lng": 125.914784
        },
        "ad_info": {
            "adcode": 220502,
            "province": "吉林省",
            "city": "通化市",
            "district": "东昌区"
        }
    },
    {
        "id": "15521775906018151101",
        "title": "公共厕所",
        "address": "吉林省通化市辉南县建设大街与爱国路交叉口正北方向61米左右",
        "tel": "",
        "category": "基础设施:公共设施:公共厕所",
        "type": 0,
        "location": {
            "lat": 42.674581,
            "lng": 126.037227
        },
        "ad_info": {
            "adcode": 220523,
            "province": "吉林省",
            "city": "通化市",
            "district": "辉南县"
        }
    },
    {
        "id": "154000345317257161",
        "title": "公共厕所",
        "address": "吉林省通化市梅河口市湾龙乡莲河村众诚连锁博深加油站内",
        "tel": "",
        "category": "基础设施:公共设施:公共厕所",
        "type": 0,
        "location": {
            "lat": 42.590905,
            "lng": 125.720571
        },
        "ad_info": {
            "adcode": 220581,
            "province": "吉林省",
            "city": "通化市",
            "district": "梅河口市"
        }
    },
    {
        "id": "17113146330604812287",
        "title": "公共厕所",
        "address": "吉林省通化市柳河县站前路与长青路交叉口正南方向1080米左右",
        "tel": "",
        "category": "基础设施:公共设施:公共厕所",
        "type": 0,
        "location": {
            "lat": 42.27306,
            "lng": 125.769527
        },
        "ad_info": {
            "adcode": 220524,
            "province": "吉林省",
            "city": "通化市",
            "district": "柳河县"
        }
    },
    {
        "id": "3596325108637814109",
        "title": "英额布服务区第一公共厕所",
        "address": "吉林省通化市通化县光明通沈高速公路英额布服务区",
        "tel": "",
        "category": "基础设施:公共设施:公共厕所",
        "type": 0,
        "location": {
            "lat": 41.712944,
            "lng": 125.590761
        },
        "ad_info": {
            "adcode": 220521,
            "province": "吉林省",
            "city": "通化市",
            "district": "通化县"
        }
    },
    {
        "id": "11585731582990480726",
        "title": "公共厕所",
        "address": "吉林省通化市辉南县恒丰汽车钣金无痕修复东侧50米",
        "tel": "",
        "category": "基础设施:公共设施:公共厕所",
        "type": 0,
        "location": {
            "lat": 42.673525,
            "lng": 126.023769
        },
        "ad_info": {
            "adcode": 220523,
            "province": "吉林省",
            "city": "通化市",
            "district": "辉南县"
        }
    },
    {
        "id": "7651178074251021778",
        "title": "公共厕所",
        "address": "吉林省通化市梅河口市民和街550号",
        "tel": "",
        "category": "基础设施:公共设施:公共厕所",
        "type": 0,
        "location": {
            "lat": 42.534541,
            "lng": 125.676861
        },
        "ad_info": {
            "adcode": 220581,
            "province": "吉林省",
            "city": "通化市",
            "district": "梅河口市"
        }
    },
    {
        "id": "5360067978236146372",
        "title": "公共厕所",
        "address": "吉林省通化市辉南县凯旋路与朝阳大街交叉口正南方向30米左右",
        "tel": "",
        "category": "基础设施:公共设施:公共厕所",
        "type": 0,
        "location": {
            "lat": 42.68262,
            "lng": 126.044901
        },
        "ad_info": {
            "adcode": 220523,
            "province": "吉林省",
            "city": "通化市",
            "district": "辉南县"
        }
    },
    {
        "id": "13425014690358729187",
        "title": "公共厕所",
        "address": "吉林省通化市通化县团结路与开元街交叉口正北方向407米左右",
        "tel": "",
        "category": "基础设施:公共设施:公共厕所",
        "type": 0,
        "location": {
            "lat": 41.683124,
            "lng": 125.776433
        },
        "ad_info": {
            "adcode": 220521,
            "province": "吉林省",
            "city": "通化市",
            "district": "通化县"
        }
    },
    {
        "id": "1748878648628080413",
        "title": "公共厕所",
        "address": "吉林省通化市梅河口市山水广场",
        "tel": "",
        "category": "基础设施:公共设施:公共厕所",
        "type": 0,
        "location": {
            "lat": 42.512763,
            "lng": 125.709348
        },
        "ad_info": {
            "adcode": 220581,
            "province": "吉林省",
            "city": "通化市",
            "district": "梅河口市"
        }
    },
    {
        "id": "3673383529824303091",
        "title": "公共厕所",
        "address": "吉林省通化市通化县兴盛街与同德路交叉口西南方向100米左右",
        "tel": "",
        "category": "基础设施:公共设施:公共厕所",
        "type": 0,
        "location": {
            "lat": 41.67574,
            "lng": 125.750939
        },
        "ad_info": {
            "adcode": 220521,
            "province": "吉林省",
            "city": "通化市",
            "district": "通化县"
        }
    },
    {
        "id": "4022220944633113187",
        "title": "公共厕所",
        "address": "吉林省通化市东昌区通化万峰观山公寓南侧150米",
        "tel": "",
        "category": "基础设施:公共设施:公共厕所",
        "type": 0,
        "location": {
            "lat": 41.654555,
            "lng": 125.968323
        },
        "ad_info": {
            "adcode": 220502,
            "province": "吉林省",
            "city": "通化市",
            "district": "东昌区"
        }
    },
    {
        "id": "184046990156339740",
        "title": "公共厕所",
        "address": "吉林省通化市东昌区滨江西路二轻建筑公司对面",
        "tel": "",
        "category": "基础设施:公共设施:公共厕所",
        "type": 0,
        "location": {
            "lat": 41.711866,
            "lng": 125.931475
        },
        "ad_info": {
            "adcode": 220502,
            "province": "吉林省",
            "city": "通化市",
            "district": "东昌区"
        }
    },
    {
        "id": "16936707813524759671",
        "title": "公共卫生间",
        "address": "吉林省通化市梅河口市惠民路与民和街交叉口东北方向94米左右",
        "tel": "",
        "category": "基础设施:公共设施:公共厕所",
        "type": 0,
        "location": {
            "lat": 42.530318,
            "lng": 125.679597
        },
        "ad_info": {
            "adcode": 220581,
            "province": "吉林省",
            "city": "通化市",
            "district": "梅河口市"
        }
    },
    {
        "id": "12322777456464638393",
        "title": "公共厕所",
        "address": "吉林省通化市柳河县人民大街与开明街交叉口正南方向114米左右",
        "tel": "",
        "category": "基础设施:公共设施:公共厕所",
        "type": 0,
        "location": {
            "lat": 42.292767,
            "lng": 125.764679
        },
        "ad_info": {
            "adcode": 220524,
            "province": "吉林省",
            "city": "通化市",
            "district": "柳河县"
        }
    },
    {
        "id": "2846374449643974116",
        "title": "公共厕所",
        "address": "吉林省通化市东昌区玉泉路龙泉公寓",
        "tel": "",
        "category": "基础设施:公共设施:公共厕所",
        "type": 0,
        "location": {
            "lat": 41.729964,
            "lng": 125.934897
        },
        "ad_info": {
            "adcode": 220502,
            "province": "吉林省",
            "city": "通化市",
            "district": "东昌区"
        }
    },
    {
        "id": "7248440307856798488",
        "title": "公共厕所",
        "address": "吉林省通化市集安市G331与白桦岭隧道交叉口东北方向1828米左右",
        "tel": "",
        "category": "基础设施:公共设施:公共厕所",
        "type": 0,
        "location": {
            "lat": 41.516104,
            "lng": 126.546244
        },
        "ad_info": {
            "adcode": 220582,
            "province": "吉林省",
            "city": "通化市",
            "district": "集安市"
        }
    },
    {
        "id": "4393071306131712280",
        "title": "公共厕所",
        "address": "吉林省通化市通化县吉林印记之高志航故居博物馆西北侧",
        "tel": "",
        "category": "基础设施:公共设施:公共厕所",
        "type": 0,
        "location": {
            "lat": 41.573587,
            "lng": 125.785837
        },
        "ad_info": {
            "adcode": 220521,
            "province": "吉林省",
            "city": "通化市",
            "district": "通化县"
        }
    },
    {
        "id": "721145896940068641",
        "title": "公共厕所",
        "address": "吉林省通化市梅河口市荣国路与锦绣胡同交叉口正东方向85米左右",
        "tel": "",
        "category": "基础设施:公共设施:公共厕所",
        "type": 0,
        "location": {
            "lat": 42.535696,
            "lng": 125.691805
        },
        "ad_info": {
            "adcode": 220581,
            "province": "吉林省",
            "city": "通化市",
            "district": "梅河口市"
        }
    },
    {
        "id": "12926373209248846789",
        "title": "公共厕所",
        "address": "吉林省通化市通化县团结路与蓝岛路交叉口东南方向559米左右",
        "tel": "",
        "category": "基础设施:公共设施:公共厕所",
        "type": 0,
        "location": {
            "lat": 41.676546,
            "lng": 125.866243
        },
        "ad_info": {
            "adcode": 220521,
            "province": "吉林省",
            "city": "通化市",
            "district": "通化县"
        }
    },
    {
        "id": "17131465771005806948",
        "title": "公共厕所",
        "address": "吉林省通化市东昌区新华大街与青通线交叉口正北方向63米左右",
        "tel": "15043661711",
        "category": "基础设施:公共设施:公共厕所",
        "type": 0,
        "location": {
            "lat": 41.704726,
            "lng": 125.914784
        },
        "ad_info": {
            "adcode": 220502,
            "province": "吉林省",
            "city": "通化市",
            "district": "东昌区"
        }
    },
    {
        "id": "15521775906018151101",
        "title": "公共厕所",
        "address": "吉林省通化市辉南县建设大街与爱国路交叉口正北方向61米左右",
        "tel": "",
        "category": "基础设施:公共设施:公共厕所",
        "type": 0,
        "location": {
            "lat": 42.674581,
            "lng": 126.037227
        },
        "ad_info": {
            "adcode": 220523,
            "province": "吉林省",
            "city": "通化市",
            "district": "辉南县"
        }
    },
    {
        "id": "154000345317257161",
        "title": "公共厕所",
        "address": "吉林省通化市梅河口市湾龙乡莲河村众诚连锁博深加油站内",
        "tel": "",
        "category": "基础设施:公共设施:公共厕所",
        "type": 0,
        "location": {
            "lat": 42.590905,
            "lng": 125.720571
        },
        "ad_info": {
            "adcode": 220581,
            "province": "吉林省",
            "city": "通化市",
            "district": "梅河口市"
        }
    },
    {
        "id": "17113146330604812287",
        "title": "公共厕所",
        "address": "吉林省通化市柳河县站前路与长青路交叉口正南方向1080米左右",
        "tel": "",
        "category": "基础设施:公共设施:公共厕所",
        "type": 0,
        "location": {
            "lat": 42.27306,
            "lng": 125.769527
        },
        "ad_info": {
            "adcode": 220524,
            "province": "吉林省",
            "city": "通化市",
            "district": "柳河县"
        }
    },
    {
        "id": "3596325108637814109",
        "title": "英额布服务区第一公共厕所",
        "address": "吉林省通化市通化县光明通沈高速公路英额布服务区",
        "tel": "",
        "category": "基础设施:公共设施:公共厕所",
        "type": 0,
        "location": {
            "lat": 41.712944,
            "lng": 125.590761
        },
        "ad_info": {
            "adcode": 220521,
            "province": "吉林省",
            "city": "通化市",
            "district": "通化县"
        }
    },
    {
        "id": "11585731582990480726",
        "title": "公共厕所",
        "address": "吉林省通化市辉南县恒丰汽车钣金无痕修复东侧50米",
        "tel": "",
        "category": "基础设施:公共设施:公共厕所",
        "type": 0,
        "location": {
            "lat": 42.673525,
            "lng": 126.023769
        },
        "ad_info": {
            "adcode": 220523,
            "province": "吉林省",
            "city": "通化市",
            "district": "辉南县"
        }
    },
    {
        "id": "7651178074251021778",
        "title": "公共厕所",
        "address": "吉林省通化市梅河口市民和街550号",
        "tel": "",
        "category": "基础设施:公共设施:公共厕所",
        "type": 0,
        "location": {
            "lat": 42.534541,
            "lng": 125.676861
        },
        "ad_info": {
            "adcode": 220581,
            "province": "吉林省",
            "city": "通化市",
            "district": "梅河口市"
        }
    },
    {
        "id": "5360067978236146372",
        "title": "公共厕所",
        "address": "吉林省通化市辉南县凯旋路与朝阳大街交叉口正南方向30米左右",
        "tel": "",
        "category": "基础设施:公共设施:公共厕所",
        "type": 0,
        "location": {
            "lat": 42.68262,
            "lng": 126.044901
        },
        "ad_info": {
            "adcode": 220523,
            "province": "吉林省",
            "city": "通化市",
            "district": "辉南县"
        }
    },
    {
        "id": "13425014690358729187",
        "title": "公共厕所",
        "address": "吉林省通化市通化县团结路与开元街交叉口正北方向407米左右",
        "tel": "",
        "category": "基础设施:公共设施:公共厕所",
        "type": 0,
        "location": {
            "lat": 41.683124,
            "lng": 125.776433
        },
        "ad_info": {
            "adcode": 220521,
            "province": "吉林省",
            "city": "通化市",
            "district": "通化县"
        }
    },
    {
        "id": "1748878648628080413",
        "title": "公共厕所",
        "address": "吉林省通化市梅河口市山水广场",
        "tel": "",
        "category": "基础设施:公共设施:公共厕所",
        "type": 0,
        "location": {
            "lat": 42.512763,
            "lng": 125.709348
        },
        "ad_info": {
            "adcode": 220581,
            "province": "吉林省",
            "city": "通化市",
            "district": "梅河口市"
        }
    },
    {
        "id": "3673383529824303091",
        "title": "公共厕所",
        "address": "吉林省通化市通化县兴盛街与同德路交叉口西南方向100米左右",
        "tel": "",
        "category": "基础设施:公共设施:公共厕所",
        "type": 0,
        "location": {
            "lat": 41.67574,
            "lng": 125.750939
        },
        "ad_info": {
            "adcode": 220521,
            "province": "吉林省",
            "city": "通化市",
            "district": "通化县"
        }
    },
    {
        "id": "4022220944633113187",
        "title": "公共厕所",
        "address": "吉林省通化市东昌区通化万峰观山公寓南侧150米",
        "tel": "",
        "category": "基础设施:公共设施:公共厕所",
        "type": 0,
        "location": {
            "lat": 41.654555,
            "lng": 125.968323
        },
        "ad_info": {
            "adcode": 220502,
            "province": "吉林省",
            "city": "通化市",
            "district": "东昌区"
        }
    },
    {
        "id": "184046990156339740",
        "title": "公共厕所",
        "address": "吉林省通化市东昌区滨江西路二轻建筑公司对面",
        "tel": "",
        "category": "基础设施:公共设施:公共厕所",
        "type": 0,
        "location": {
            "lat": 41.711866,
            "lng": 125.931475
        },
        "ad_info": {
            "adcode": 220502,
            "province": "吉林省",
            "city": "通化市",
            "district": "东昌区"
        }
    },
    {
        "id": "16936707813524759671",
        "title": "公共卫生间",
        "address": "吉林省通化市梅河口市惠民路与民和街交叉口东北方向94米左右",
        "tel": "",
        "category": "基础设施:公共设施:公共厕所",
        "type": 0,
        "location": {
            "lat": 42.530318,
            "lng": 125.679597
        },
        "ad_info": {
            "adcode": 220581,
            "province": "吉林省",
            "city": "通化市",
            "district": "梅河口市"
        }
    },
    {
        "id": "12322777456464638393",
        "title": "公共厕所",
        "address": "吉林省通化市柳河县人民大街与开明街交叉口正南方向114米左右",
        "tel": "",
        "category": "基础设施:公共设施:公共厕所",
        "type": 0,
        "location": {
            "lat": 42.292767,
            "lng": 125.764679
        },
        "ad_info": {
            "adcode": 220524,
            "province": "吉林省",
            "city": "通化市",
            "district": "柳河县"
        }
    },
    {
        "id": "2846374449643974116",
        "title": "公共厕所",
        "address": "吉林省通化市东昌区玉泉路龙泉公寓",
        "tel": "",
        "category": "基础设施:公共设施:公共厕所",
        "type": 0,
        "location": {
            "lat": 41.729964,
            "lng": 125.934897
        },
        "ad_info": {
            "adcode": 220502,
            "province": "吉林省",
            "city": "通化市",
            "district": "东昌区"
        }
    },
    {
        "id": "7248440307856798488",
        "title": "公共厕所",
        "address": "吉林省通化市集安市G331与白桦岭隧道交叉口东北方向1828米左右",
        "tel": "",
        "category": "基础设施:公共设施:公共厕所",
        "type": 0,
        "location": {
            "lat": 41.516104,
            "lng": 126.546244
        },
        "ad_info": {
            "adcode": 220582,
            "province": "吉林省",
            "city": "通化市",
            "district": "集安市"
        }
    },
    {
        "id": "4393071306131712280",
        "title": "公共厕所",
        "address": "吉林省通化市通化县吉林印记之高志航故居博物馆西北侧",
        "tel": "",
        "category": "基础设施:公共设施:公共厕所",
        "type": 0,
        "location": {
            "lat": 41.573587,
            "lng": 125.785837
        },
        "ad_info": {
            "adcode": 220521,
            "province": "吉林省",
            "city": "通化市",
            "district": "通化县"
        }
    },
    {
        "id": "721145896940068641",
        "title": "公共厕所",
        "address": "吉林省通化市梅河口市荣国路与锦绣胡同交叉口正东方向85米左右",
        "tel": "",
        "category": "基础设施:公共设施:公共厕所",
        "type": 0,
        "location": {
            "lat": 42.535696,
            "lng": 125.691805
        },
        "ad_info": {
            "adcode": 220581,
            "province": "吉林省",
            "city": "通化市",
            "district": "梅河口市"
        }
    },
    {
        "id": "12926373209248846789",
        "title": "公共厕所",
        "address": "吉林省通化市通化县团结路与蓝岛路交叉口东南方向559米左右",
        "tel": "",
        "category": "基础设施:公共设施:公共厕所",
        "type": 0,
        "location": {
            "lat": 41.676546,
            "lng": 125.866243
        },
        "ad_info": {
            "adcode": 220521,
            "province": "吉林省",
            "city": "通化市",
            "district": "通化县"
        }
    },
    {
        "id": "17131465771005806948",
        "title": "公共厕所",
        "address": "吉林省通化市东昌区新华大街与青通线交叉口正北方向63米左右",
        "tel": "15043661711",
        "category": "基础设施:公共设施:公共厕所",
        "type": 0,
        "location": {
            "lat": 41.704726,
            "lng": 125.914784
        },
        "ad_info": {
            "adcode": 220502,
            "province": "吉林省",
            "city": "通化市",
            "district": "东昌区"
        }
    },
    {
        "id": "15521775906018151101",
        "title": "公共厕所",
        "address": "吉林省通化市辉南县建设大街与爱国路交叉口正北方向61米左右",
        "tel": "",
        "category": "基础设施:公共设施:公共厕所",
        "type": 0,
        "location": {
            "lat": 42.674581,
            "lng": 126.037227
        },
        "ad_info": {
            "adcode": 220523,
            "province": "吉林省",
            "city": "通化市",
            "district": "辉南县"
        }
    },
    {
        "id": "154000345317257161",
        "title": "公共厕所",
        "address": "吉林省通化市梅河口市湾龙乡莲河村众诚连锁博深加油站内",
        "tel": "",
        "category": "基础设施:公共设施:公共厕所",
        "type": 0,
        "location": {
            "lat": 42.590905,
            "lng": 125.720571
        },
        "ad_info": {
            "adcode": 220581,
            "province": "吉林省",
            "city": "通化市",
            "district": "梅河口市"
        }
    },
    {
        "id": "17113146330604812287",
        "title": "公共厕所",
        "address": "吉林省通化市柳河县站前路与长青路交叉口正南方向1080米左右",
        "tel": "",
        "category": "基础设施:公共设施:公共厕所",
        "type": 0,
        "location": {
            "lat": 42.27306,
            "lng": 125.769527
        },
        "ad_info": {
            "adcode": 220524,
            "province": "吉林省",
            "city": "通化市",
            "district": "柳河县"
        }
    },
    {
        "id": "3596325108637814109",
        "title": "英额布服务区第一公共厕所",
        "address": "吉林省通化市通化县光明通沈高速公路英额布服务区",
        "tel": "",
        "category": "基础设施:公共设施:公共厕所",
        "type": 0,
        "location": {
            "lat": 41.712944,
            "lng": 125.590761
        },
        "ad_info": {
            "adcode": 220521,
            "province": "吉林省",
            "city": "通化市",
            "district": "通化县"
        }
    },
    {
        "id": "11585731582990480726",
        "title": "公共厕所",
        "address": "吉林省通化市辉南县恒丰汽车钣金无痕修复东侧50米",
        "tel": "",
        "category": "基础设施:公共设施:公共厕所",
        "type": 0,
        "location": {
            "lat": 42.673525,
            "lng": 126.023769
        },
        "ad_info": {
            "adcode": 220523,
            "province": "吉林省",
            "city": "通化市",
            "district": "辉南县"
        }
    },
    {
        "id": "7651178074251021778",
        "title": "公共厕所",
        "address": "吉林省通化市梅河口市民和街550号",
        "tel": "",
        "category": "基础设施:公共设施:公共厕所",
        "type": 0,
        "location": {
            "lat": 42.534541,
            "lng": 125.676861
        },
        "ad_info": {
            "adcode": 220581,
            "province": "吉林省",
            "city": "通化市",
            "district": "梅河口市"
        }
    },
    {
        "id": "5360067978236146372",
        "title": "公共厕所",
        "address": "吉林省通化市辉南县凯旋路与朝阳大街交叉口正南方向30米左右",
        "tel": "",
        "category": "基础设施:公共设施:公共厕所",
        "type": 0,
        "location": {
            "lat": 42.68262,
            "lng": 126.044901
        },
        "ad_info": {
            "adcode": 220523,
            "province": "吉林省",
            "city": "通化市",
            "district": "辉南县"
        }
    },
    {
        "id": "13425014690358729187",
        "title": "公共厕所",
        "address": "吉林省通化市通化县团结路与开元街交叉口正北方向407米左右",
        "tel": "",
        "category": "基础设施:公共设施:公共厕所",
        "type": 0,
        "location": {
            "lat": 41.683124,
            "lng": 125.776433
        },
        "ad_info": {
            "adcode": 220521,
            "province": "吉林省",
            "city": "通化市",
            "district": "通化县"
        }
    },
    {
        "id": "1748878648628080413",
        "title": "公共厕所",
        "address": "吉林省通化市梅河口市山水广场",
        "tel": "",
        "category": "基础设施:公共设施:公共厕所",
        "type": 0,
        "location": {
            "lat": 42.512763,
            "lng": 125.709348
        },
        "ad_info": {
            "adcode": 220581,
            "province": "吉林省",
            "city": "通化市",
            "district": "梅河口市"
        }
    },
    {
        "id": "3673383529824303091",
        "title": "公共厕所",
        "address": "吉林省通化市通化县兴盛街与同德路交叉口西南方向100米左右",
        "tel": "",
        "category": "基础设施:公共设施:公共厕所",
        "type": 0,
        "location": {
            "lat": 41.67574,
            "lng": 125.750939
        },
        "ad_info": {
            "adcode": 220521,
            "province": "吉林省",
            "city": "通化市",
            "district": "通化县"
        }
    },
    {
        "id": "4022220944633113187",
        "title": "公共厕所",
        "address": "吉林省通化市东昌区通化万峰观山公寓南侧150米",
        "tel": "",
        "category": "基础设施:公共设施:公共厕所",
        "type": 0,
        "location": {
            "lat": 41.654555,
            "lng": 125.968323
        },
        "ad_info": {
            "adcode": 220502,
            "province": "吉林省",
            "city": "通化市",
            "district": "东昌区"
        }
    },
    {
        "id": "184046990156339740",
        "title": "公共厕所",
        "address": "吉林省通化市东昌区滨江西路二轻建筑公司对面",
        "tel": "",
        "category": "基础设施:公共设施:公共厕所",
        "type": 0,
        "location": {
            "lat": 41.711866,
            "lng": 125.931475
        },
        "ad_info": {
            "adcode": 220502,
            "province": "吉林省",
            "city": "通化市",
            "district": "东昌区"
        }
    },
    {
        "id": "16936707813524759671",
        "title": "公共卫生间",
        "address": "吉林省通化市梅河口市惠民路与民和街交叉口东北方向94米左右",
        "tel": "",
        "category": "基础设施:公共设施:公共厕所",
        "type": 0,
        "location": {
            "lat": 42.530318,
            "lng": 125.679597
        },
        "ad_info": {
            "adcode": 220581,
            "province": "吉林省",
            "city": "通化市",
            "district": "梅河口市"
        }
    },
    {
        "id": "12322777456464638393",
        "title": "公共厕所",
        "address": "吉林省通化市柳河县人民大街与开明街交叉口正南方向114米左右",
        "tel": "",
        "category": "基础设施:公共设施:公共厕所",
        "type": 0,
        "location": {
            "lat": 42.292767,
            "lng": 125.764679
        },
        "ad_info": {
            "adcode": 220524,
            "province": "吉林省",
            "city": "通化市",
            "district": "柳河县"
        }
    },
    {
        "id": "2846374449643974116",
        "title": "公共厕所",
        "address": "吉林省通化市东昌区玉泉路龙泉公寓",
        "tel": "",
        "category": "基础设施:公共设施:公共厕所",
        "type": 0,
        "location": {
            "lat": 41.729964,
            "lng": 125.934897
        },
        "ad_info": {
            "adcode": 220502,
            "province": "吉林省",
            "city": "通化市",
            "district": "东昌区"
        }
    },
    {
        "id": "7248440307856798488",
        "title": "公共厕所",
        "address": "吉林省通化市集安市G331与白桦岭隧道交叉口东北方向1828米左右",
        "tel": "",
        "category": "基础设施:公共设施:公共厕所",
        "type": 0,
        "location": {
            "lat": 41.516104,
            "lng": 126.546244
        },
        "ad_info": {
            "adcode": 220582,
            "province": "吉林省",
            "city": "通化市",
            "district": "集安市"
        }
    },
    {
        "id": "4393071306131712280",
        "title": "公共厕所",
        "address": "吉林省通化市通化县吉林印记之高志航故居博物馆西北侧",
        "tel": "",
        "category": "基础设施:公共设施:公共厕所",
        "type": 0,
        "location": {
            "lat": 41.573587,
            "lng": 125.785837
        },
        "ad_info": {
            "adcode": 220521,
            "province": "吉林省",
            "city": "通化市",
            "district": "通化县"
        }
    },
    {
        "id": "721145896940068641",
        "title": "公共厕所",
        "address": "吉林省通化市梅河口市荣国路与锦绣胡同交叉口正东方向85米左右",
        "tel": "",
        "category": "基础设施:公共设施:公共厕所",
        "type": 0,
        "location": {
            "lat": 42.535696,
            "lng": 125.691805
        },
        "ad_info": {
            "adcode": 220581,
            "province": "吉林省",
            "city": "通化市",
            "district": "梅河口市"
        }
    },
    {
        "id": "12926373209248846789",
        "title": "公共厕所",
        "address": "吉林省通化市通化县团结路与蓝岛路交叉口东南方向559米左右",
        "tel": "",
        "category": "基础设施:公共设施:公共厕所",
        "type": 0,
        "location": {
            "lat": 41.676546,
            "lng": 125.866243
        },
        "ad_info": {
            "adcode": 220521,
            "province": "吉林省",
            "city": "通化市",
            "district": "通化县"
        }
    },
    {
        "id": "17131465771005806948",
        "title": "公共厕所",
        "address": "吉林省通化市东昌区新华大街与青通线交叉口正北方向63米左右",
        "tel": "15043661711",
        "category": "基础设施:公共设施:公共厕所",
        "type": 0,
        "location": {
            "lat": 41.704726,
            "lng": 125.914784
        },
        "ad_info": {
            "adcode": 220502,
            "province": "吉林省",
            "city": "通化市",
            "district": "东昌区"
        }
    },
    {
        "id": "15521775906018151101",
        "title": "公共厕所",
        "address": "吉林省通化市辉南县建设大街与爱国路交叉口正北方向61米左右",
        "tel": "",
        "category": "基础设施:公共设施:公共厕所",
        "type": 0,
        "location": {
            "lat": 42.674581,
            "lng": 126.037227
        },
        "ad_info": {
            "adcode": 220523,
            "province": "吉林省",
            "city": "通化市",
            "district": "辉南县"
        }
    },
    {
        "id": "154000345317257161",
        "title": "公共厕所",
        "address": "吉林省通化市梅河口市湾龙乡莲河村众诚连锁博深加油站内",
        "tel": "",
        "category": "基础设施:公共设施:公共厕所",
        "type": 0,
        "location": {
            "lat": 42.590905,
            "lng": 125.720571
        },
        "ad_info": {
            "adcode": 220581,
            "province": "吉林省",
            "city": "通化市",
            "district": "梅河口市"
        }
    },
    {
        "id": "17113146330604812287",
        "title": "公共厕所",
        "address": "吉林省通化市柳河县站前路与长青路交叉口正南方向1080米左右",
        "tel": "",
        "category": "基础设施:公共设施:公共厕所",
        "type": 0,
        "location": {
            "lat": 42.27306,
            "lng": 125.769527
        },
        "ad_info": {
            "adcode": 220524,
            "province": "吉林省",
            "city": "通化市",
            "district": "柳河县"
        }
    },
    {
        "id": "3596325108637814109",
        "title": "英额布服务区第一公共厕所",
        "address": "吉林省通化市通化县光明通沈高速公路英额布服务区",
        "tel": "",
        "category": "基础设施:公共设施:公共厕所",
        "type": 0,
        "location": {
            "lat": 41.712944,
            "lng": 125.590761
        },
        "ad_info": {
            "adcode": 220521,
            "province": "吉林省",
            "city": "通化市",
            "district": "通化县"
        }
    },
    {
        "id": "11585731582990480726",
        "title": "公共厕所",
        "address": "吉林省通化市辉南县恒丰汽车钣金无痕修复东侧50米",
        "tel": "",
        "category": "基础设施:公共设施:公共厕所",
        "type": 0,
        "location": {
            "lat": 42.673525,
            "lng": 126.023769
        },
        "ad_info": {
            "adcode": 220523,
            "province": "吉林省",
            "city": "通化市",
            "district": "辉南县"
        }
    },
    {
        "id": "7651178074251021778",
        "title": "公共厕所",
        "address": "吉林省通化市梅河口市民和街550号",
        "tel": "",
        "category": "基础设施:公共设施:公共厕所",
        "type": 0,
        "location": {
            "lat": 42.534541,
            "lng": 125.676861
        },
        "ad_info": {
            "adcode": 220581,
            "province": "吉林省",
            "city": "通化市",
            "district": "梅河口市"
        }
    },
    {
        "id": "5360067978236146372",
        "title": "公共厕所",
        "address": "吉林省通化市辉南县凯旋路与朝阳大街交叉口正南方向30米左右",
        "tel": "",
        "category": "基础设施:公共设施:公共厕所",
        "type": 0,
        "location": {
            "lat": 42.68262,
            "lng": 126.044901
        },
        "ad_info": {
            "adcode": 220523,
            "province": "吉林省",
            "city": "通化市",
            "district": "辉南县"
        }
    },
    {
        "id": "13425014690358729187",
        "title": "公共厕所",
        "address": "吉林省通化市通化县团结路与开元街交叉口正北方向407米左右",
        "tel": "",
        "category": "基础设施:公共设施:公共厕所",
        "type": 0,
        "location": {
            "lat": 41.683124,
            "lng": 125.776433
        },
        "ad_info": {
            "adcode": 220521,
            "province": "吉林省",
            "city": "通化市",
            "district": "通化县"
        }
    },
    {
        "id": "1748878648628080413",
        "title": "公共厕所",
        "address": "吉林省通化市梅河口市山水广场",
        "tel": "",
        "category": "基础设施:公共设施:公共厕所",
        "type": 0,
        "location": {
            "lat": 42.512763,
            "lng": 125.709348
        },
        "ad_info": {
            "adcode": 220581,
            "province": "吉林省",
            "city": "通化市",
            "district": "梅河口市"
        }
    },
    {
        "id": "3673383529824303091",
        "title": "公共厕所",
        "address": "吉林省通化市通化县兴盛街与同德路交叉口西南方向100米左右",
        "tel": "",
        "category": "基础设施:公共设施:公共厕所",
        "type": 0,
        "location": {
            "lat": 41.67574,
            "lng": 125.750939
        },
        "ad_info": {
            "adcode": 220521,
            "province": "吉林省",
            "city": "通化市",
            "district": "通化县"
        }
    },
    {
        "id": "4022220944633113187",
        "title": "公共厕所",
        "address": "吉林省通化市东昌区通化万峰观山公寓南侧150米",
        "tel": "",
        "category": "基础设施:公共设施:公共厕所",
        "type": 0,
        "location": {
            "lat": 41.654555,
            "lng": 125.968323
        },
        "ad_info": {
            "adcode": 220502,
            "province": "吉林省",
            "city": "通化市",
            "district": "东昌区"
        }
    },
    {
        "id": "184046990156339740",
        "title": "公共厕所",
        "address": "吉林省通化市东昌区滨江西路二轻建筑公司对面",
        "tel": "",
        "category": "基础设施:公共设施:公共厕所",
        "type": 0,
        "location": {
            "lat": 41.711866,
            "lng": 125.931475
        },
        "ad_info": {
            "adcode": 220502,
            "province": "吉林省",
            "city": "通化市",
            "district": "东昌区"
        }
    }
]