[
    {
        "id": "17064030607319958373",
        "title": "公共厕所",
        "address": "内蒙古自治区通辽市科尔沁区和平路与霍林河大街交叉口西北方向66米左右",
        "tel": "",
        "category": "基础设施:公共设施:公共厕所",
        "type": 0,
        "location": {
            "lat": 43.623598,
            "lng": 122.266377
        },
        "ad_info": {
            "adcode": 150502,
            "province": "内蒙古自治区",
            "city": "通辽市",
            "district": "科尔沁区"
        }
    },
    {
        "id": "7084377447652824467",
        "title": "公共厕所",
        "address": "内蒙古自治区通辽市科尔沁区民主路与科尔沁大街交叉口西北方向99米左右",
        "tel": "",
        "category": "基础设施:公共设施:公共厕所",
        "type": 0,
        "location": {
            "lat": 43.61144,
            "lng": 122.261593
        },
        "ad_info": {
            "adcode": 150502,
            "province": "内蒙古自治区",
            "city": "通辽市",
            "district": "科尔沁区"
        }
    },
    {
        "id": "3137062976995447370",
        "title": "公共厕所",
        "address": "内蒙古自治区通辽市科尔沁区叫来河大街与建国北路交叉口西北方向65米左右",
        "tel": "",
        "category": "基础设施:公共设施:公共厕所",
        "type": 0,
        "location": {
            "lat": 43.66882,
            "lng": 122.264571
        },
        "ad_info": {
            "adcode": 150502,
            "province": "内蒙古自治区",
            "city": "通辽市",
            "district": "科尔沁区"
        }
    },
    {
        "id": "5672189698328913184",
        "title": "公共厕所",
        "address": "内蒙古自治区通辽市科尔沁区叫来河大街与门达路交叉口正西方向225米左右",
        "tel": "",
        "category": "基础设施:公共设施:公共厕所",
        "type": 0,
        "location": {
            "lat": 43.663326,
            "lng": 122.242299
        },
        "ad_info": {
            "adcode": 150502,
            "province": "内蒙古自治区",
            "city": "通辽市",
            "district": "科尔沁区"
        }
    },
    {
        "id": "9935367451103026052",
        "title": "公共厕所",
        "address": "内蒙古自治区通辽市科尔沁区创业大道与辽河大街交叉口正南方向180米左右",
        "tel": "",
        "category": "基础设施:公共设施:公共厕所",
        "type": 0,
        "location": {
            "lat": 43.674381,
            "lng": 122.216048
        },
        "ad_info": {
            "adcode": 150502,
            "province": "内蒙古自治区",
            "city": "通辽市",
            "district": "科尔沁区"
        }
    },
    {
        "id": "1215088705642134591",
        "title": "公共厕所",
        "address": "内蒙古自治区通辽市科尔沁区科尔沁大街人民公园内(西侧)",
        "tel": "",
        "category": "基础设施:公共设施:公共厕所",
        "type": 0,
        "location": {
            "lat": 43.610033,
            "lng": 122.269353
        },
        "ad_info": {
            "adcode": 150502,
            "province": "内蒙古自治区",
            "city": "通辽市",
            "district": "科尔沁区"
        }
    },
    {
        "id": "10445774294111963277",
        "title": "公共厕所",
        "address": "内蒙古自治区通辽市科尔沁区建国路人民公园(东南角)",
        "tel": "",
        "category": "基础设施:公共设施:公共厕所",
        "type": 0,
        "location": {
            "lat": 43.608875,
            "lng": 122.271492
        },
        "ad_info": {
            "adcode": 150502,
            "province": "内蒙古自治区",
            "city": "通辽市",
            "district": "科尔沁区"
        }
    },
    {
        "id": "819089153445969699",
        "title": "公共厕所",
        "address": "内蒙古自治区通辽市科尔沁区东顺路与明仁大街交叉口东北方向266米左右",
        "tel": "",
        "category": "基础设施:公共设施:公共厕所",
        "type": 0,
        "location": {
            "lat": 43.617558,
            "lng": 122.288717
        },
        "ad_info": {
            "adcode": 150502,
            "province": "内蒙古自治区",
            "city": "通辽市",
            "district": "科尔沁区"
        }
    },
    {
        "id": "2175297549857551130",
        "title": "公共厕所",
        "address": "内蒙古自治区通辽市科尔沁区G303与创业大道交叉口正南方向138米左右",
        "tel": "",
        "category": "基础设施:公共设施:公共厕所",
        "type": 0,
        "location": {
            "lat": 43.623358,
            "lng": 122.223406
        },
        "ad_info": {
            "adcode": 150502,
            "province": "内蒙古自治区",
            "city": "通辽市",
            "district": "科尔沁区"
        }
    },
    {
        "id": "17174623763044108014",
        "title": "公共厕所",
        "address": "内蒙古自治区通辽市科尔沁区都市小院饭庄东侧250米",
        "tel": "",
        "category": "基础设施:公共设施:公共厕所",
        "type": 0,
        "location": {
            "lat": 43.628501,
            "lng": 122.231289
        },
        "ad_info": {
            "adcode": 150502,
            "province": "内蒙古自治区",
            "city": "通辽市",
            "district": "科尔沁区"
        }
    },
    {
        "id": "16685499303371188858",
        "title": "公共厕所",
        "address": "内蒙古自治区通辽市科尔沁区明仁大街与福利路交叉口西北方向126米左右",
        "tel": "",
        "category": "基础设施:公共设施:公共厕所",
        "type": 0,
        "location": {
            "lat": 43.618699,
            "lng": 122.296937
        },
        "ad_info": {
            "adcode": 150502,
            "province": "内蒙古自治区",
            "city": "通辽市",
            "district": "科尔沁区"
        }
    },
    {
        "id": "587592621792022186",
        "title": "公共厕所",
        "address": "内蒙古自治区通辽市科尔沁区民主路通辽金门批发城",
        "tel": "",
        "category": "基础设施:公共设施:公共厕所",
        "type": 0,
        "location": {
            "lat": 43.60746,
            "lng": 122.261688
        },
        "ad_info": {
            "adcode": 150502,
            "province": "内蒙古自治区",
            "city": "通辽市",
            "district": "科尔沁区"
        }
    },
    {
        "id": "16027309075693929435",
        "title": "公共厕所",
        "address": "内蒙古自治区通辽市科尔沁区创业大道与柳荫西路交叉口西南方向114米左右",
        "tel": "",
        "category": "基础设施:公共设施:公共厕所",
        "type": 0,
        "location": {
            "lat": 43.613771,
            "lng": 122.22184
        },
        "ad_info": {
            "adcode": 150502,
            "province": "内蒙古自治区",
            "city": "通辽市",
            "district": "科尔沁区"
        }
    },
    {
        "id": "15543642895415221668",
        "title": "公共卫生间",
        "address": "内蒙古自治区通辽市科尔沁区中心大街与步行街交叉口正南方向44米左右",
        "tel": "",
        "category": "基础设施:公共设施:公共厕所",
        "type": 0,
        "location": {
            "lat": 43.61652,
            "lng": 122.269609
        },
        "ad_info": {
            "adcode": 150502,
            "province": "内蒙古自治区",
            "city": "通辽市",
            "district": "科尔沁区"
        }
    },
    {
        "id": "4691867074260591476",
        "title": "公共厕所",
        "address": "内蒙古自治区通辽市科尔沁区中心大街与前进路交叉口东北方向213米左右",
        "tel": "",
        "category": "基础设施:公共设施:公共厕所",
        "type": 0,
        "location": {
            "lat": 43.617013,
            "lng": 122.25498
        },
        "ad_info": {
            "adcode": 150502,
            "province": "内蒙古自治区",
            "city": "通辽市",
            "district": "科尔沁区"
        }
    },
    {
        "id": "12334550724821223339",
        "title": "公共厕所",
        "address": "内蒙古自治区通辽市科尔沁区民主路与科尔沁大街交汇处南侧250米路西正西方向130米",
        "tel": "",
        "category": "基础设施:公共设施:公共厕所",
        "type": 0,
        "location": {
            "lat": 43.608057,
            "lng": 122.260132
        },
        "ad_info": {
            "adcode": 150502,
            "province": "内蒙古自治区",
            "city": "通辽市",
            "district": "科尔沁区"
        }
    },
    {
        "id": "698320716424582762",
        "title": "公共厕所",
        "address": "内蒙古自治区通辽市科尔沁区中心大街与团结路交叉口东北方向138米左右",
        "tel": "",
        "category": "基础设施:公共设施:公共厕所",
        "type": 0,
        "location": {
            "lat": 43.616011,
            "lng": 122.244706
        },
        "ad_info": {
            "adcode": 150502,
            "province": "内蒙古自治区",
            "city": "通辽市",
            "district": "科尔沁区"
        }
    },
    {
        "id": "10663489011386554052",
        "title": "公共厕所",
        "address": "内蒙古自治区通辽市科尔沁区施介路与科尔沁大街交叉口正东方向248米左右",
        "tel": "",
        "category": "基础设施:公共设施:公共厕所",
        "type": 0,
        "location": {
            "lat": 43.611158,
            "lng": 122.278397
        },
        "ad_info": {
            "adcode": 150502,
            "province": "内蒙古自治区",
            "city": "通辽市",
            "district": "科尔沁区"
        }
    },
    {
        "id": "7175447139599781755",
        "title": "公共厕所",
        "address": "内蒙古自治区通辽市科尔沁区叫来河大街109号",
        "tel": "",
        "category": "基础设施:公共设施:公共厕所",
        "type": 0,
        "location": {
            "lat": 43.654268,
            "lng": 122.257886
        },
        "ad_info": {
            "adcode": 150502,
            "province": "内蒙古自治区",
            "city": "通辽市",
            "district": "科尔沁区"
        }
    },
    {
        "id": "2459048579609960769",
        "title": "公共厕所",
        "address": "内蒙古自治区通辽市科尔沁区东顺路与滨河大街交叉口东南方向318米左右",
        "tel": "",
        "category": "基础设施:公共设施:公共厕所",
        "type": 0,
        "location": {
            "lat": 43.638561,
            "lng": 122.286937
        },
        "ad_info": {
            "adcode": 150502,
            "province": "内蒙古自治区",
            "city": "通辽市",
            "district": "科尔沁区"
        }
    },
    {
        "id": "17470213552150209557",
        "title": "公共厕所",
        "address": "内蒙古自治区通辽市科尔沁区建国北路与柳荫路交叉口西北方向66米左右",
        "tel": "",
        "category": "基础设施:公共设施:公共厕所",
        "type": 0,
        "location": {
            "lat": 43.65536,
            "lng": 122.266377
        },
        "ad_info": {
            "adcode": 150502,
            "province": "内蒙古自治区",
            "city": "通辽市",
            "district": "科尔沁区"
        }
    },
    {
        "id": "16453368161739255301",
        "title": "公共厕所",
        "address": "内蒙古自治区通辽市科尔沁区交通路与西拉木伦大街交叉口正南方向297米左右",
        "tel": "",
        "category": "基础设施:公共设施:公共厕所",
        "type": 0,
        "location": {
            "lat": 43.623056,
            "lng": 122.256832
        },
        "ad_info": {
            "adcode": 150502,
            "province": "内蒙古自治区",
            "city": "通辽市",
            "district": "科尔沁区"
        }
    },
    {
        "id": "8238894559813294676",
        "title": "公共厕所",
        "address": "内蒙古自治区通辽市科尔沁区新兴大街与胜利路交叉口东北方向156米左右",
        "tel": "",
        "category": "基础设施:公共设施:公共厕所",
        "type": 0,
        "location": {
            "lat": 43.620603,
            "lng": 122.248795
        },
        "ad_info": {
            "adcode": 150502,
            "province": "内蒙古自治区",
            "city": "通辽市",
            "district": "科尔沁区"
        }
    },
    {
        "id": "8818637438548748088",
        "title": "公共厕所",
        "address": "内蒙古自治区通辽市科尔沁区建华路与阿其玛大街交叉口东北方向35米左右",
        "tel": "",
        "category": "基础设施:公共设施:公共厕所",
        "type": 0,
        "location": {
            "lat": 43.647948,
            "lng": 122.234032
        },
        "ad_info": {
            "adcode": 150502,
            "province": "内蒙古自治区",
            "city": "通辽市",
            "district": "科尔沁区"
        }
    },
    {
        "id": "8443078761250202903",
        "title": "公共厕所",
        "address": "内蒙古自治区通辽市科尔沁区凤凰山大街与常胜路交叉口东北方向239米左右",
        "tel": "",
        "category": "基础设施:公共设施:公共厕所",
        "type": 0,
        "location": {
            "lat": 43.656578,
            "lng": 122.241839
        },
        "ad_info": {
            "adcode": 150502,
            "province": "内蒙古自治区",
            "city": "通辽市",
            "district": "科尔沁区"
        }
    },
    {
        "id": "3933072075401901870",
        "title": "公共厕所",
        "address": "内蒙古自治区通辽市科尔沁区民航路双拥公园(西南角)",
        "tel": "",
        "category": "基础设施:公共设施:公共厕所",
        "type": 0,
        "location": {
            "lat": 43.607606,
            "lng": 122.24922
        },
        "ad_info": {
            "adcode": 150502,
            "province": "内蒙古自治区",
            "city": "通辽市",
            "district": "科尔沁区"
        }
    },
    {
        "id": "2282039935852488886",
        "title": "公共厕所",
        "address": "内蒙古自治区通辽市科尔沁区永安路与红胜大街交叉口正北方向146米左右",
        "tel": "",
        "category": "基础设施:公共设施:公共厕所",
        "type": 0,
        "location": {
            "lat": 43.634502,
            "lng": 122.27406
        },
        "ad_info": {
            "adcode": 150502,
            "province": "内蒙古自治区",
            "city": "通辽市",
            "district": "科尔沁区"
        }
    },
    {
        "id": "1693496634386209177",
        "title": "公共厕所",
        "address": "内蒙古自治区通辽市科尔沁区和平路与新兴大街交叉口西南方向72米左右",
        "tel": "",
        "category": "基础设施:公共设施:公共厕所",
        "type": 0,
        "location": {
            "lat": 43.620129,
            "lng": 122.266016
        },
        "ad_info": {
            "adcode": 150502,
            "province": "内蒙古自治区",
            "city": "通辽市",
            "district": "科尔沁区"
        }
    },
    {
        "id": "505808087400434871",
        "title": "公共厕所",
        "address": "内蒙古自治区通辽市科尔沁区中心大街与工农路交叉口正西方向69米左右",
        "tel": "",
        "category": "基础设施:公共设施:公共厕所",
        "type": 0,
        "location": {
            "lat": 43.618676,
            "lng": 122.278464
        },
        "ad_info": {
            "adcode": 150502,
            "province": "内蒙古自治区",
            "city": "通辽市",
            "district": "科尔沁区"
        }
    },
    {
        "id": "4477632836270672919",
        "title": "公共厕所",
        "address": "内蒙古自治区通辽市科尔沁区向阳大街与建国路交叉口正西方向88米左右",
        "tel": "",
        "category": "基础设施:公共设施:公共厕所",
        "type": 0,
        "location": {
            "lat": 43.613339,
            "lng": 122.271472
        },
        "ad_info": {
            "adcode": 150502,
            "province": "内蒙古自治区",
            "city": "通辽市",
            "district": "科尔沁区"
        }
    },
    {
        "id": "4378263604018930395",
        "title": "公共厕所",
        "address": "内蒙古自治区通辽市科尔沁区前进路与新兴大街交叉口正东方向126米左右",
        "tel": "",
        "category": "基础设施:公共设施:公共厕所",
        "type": 0,
        "location": {
            "lat": 43.620073,
            "lng": 122.253826
        },
        "ad_info": {
            "adcode": 150502,
            "province": "内蒙古自治区",
            "city": "通辽市",
            "district": "科尔沁区"
        }
    },
    {
        "id": "12636467696743423321",
        "title": "公共厕所",
        "address": "内蒙古自治区通辽市科尔沁区平安路与新建大街交叉口正西方向165米左右",
        "tel": "",
        "category": "基础设施:公共设施:公共厕所",
        "type": 0,
        "location": {
            "lat": 43.608166,
            "lng": 122.281034
        },
        "ad_info": {
            "adcode": 150502,
            "province": "内蒙古自治区",
            "city": "通辽市",
            "district": "科尔沁区"
        }
    },
    {
        "id": "1202261939562165312",
        "title": "公共厕所",
        "address": "内蒙古自治区通辽市科尔沁区沈铁河畔花园西北",
        "tel": "",
        "category": "基础设施:公共设施:公共厕所",
        "type": 0,
        "location": {
            "lat": 43.650226,
            "lng": 122.225752
        },
        "ad_info": {
            "adcode": 150502,
            "province": "内蒙古自治区",
            "city": "通辽市",
            "district": "科尔沁区"
        }
    },
    {
        "id": "6801034110067973568",
        "title": "公共厕所",
        "address": "内蒙古自治区通辽市科尔沁区红星路内蒙古民族大学附属医院",
        "tel": "",
        "category": "基础设施:公共设施:公共厕所",
        "type": 0,
        "location": {
            "lat": 43.625883,
            "lng": 122.289633
        },
        "ad_info": {
            "adcode": 150502,
            "province": "内蒙古自治区",
            "city": "通辽市",
            "district": "科尔沁区"
        }
    },
    {
        "id": "3425611946137405537",
        "title": "公共厕所",
        "address": "内蒙古自治区通辽市科尔沁区永安路1310号",
        "tel": "",
        "category": "基础设施:公共设施:公共厕所",
        "type": 0,
        "location": {
            "lat": 43.627563,
            "lng": 122.275892
        },
        "ad_info": {
            "adcode": 150502,
            "province": "内蒙古自治区",
            "city": "通辽市",
            "district": "科尔沁区"
        }
    },
    {
        "id": "17962105054446140239",
        "title": "公共厕所",
        "address": "内蒙古自治区通辽市科尔沁区民航路与红光大街交叉口正南方向337米左右",
        "tel": "",
        "category": "基础设施:公共设施:公共厕所",
        "type": 0,
        "location": {
            "lat": 43.595093,
            "lng": 122.249799
        },
        "ad_info": {
            "adcode": 150502,
            "province": "内蒙古自治区",
            "city": "通辽市",
            "district": "科尔沁区"
        }
    },
    {
        "id": "10869042032244287094",
        "title": "公共厕所",
        "address": "内蒙古自治区通辽市科尔沁区平安路与科尔沁大街交叉口正西方向257米左右",
        "tel": "",
        "category": "基础设施:公共设施:公共厕所",
        "type": 0,
        "location": {
            "lat": 43.611219,
            "lng": 122.279426
        },
        "ad_info": {
            "adcode": 150502,
            "province": "内蒙古自治区",
            "city": "通辽市",
            "district": "科尔沁区"
        }
    },
    {
        "id": "2360485113220722944",
        "title": "公共厕所",
        "address": "内蒙古自治区通辽市科尔沁区工农路与霍林河大街交叉口正北方向114米左右",
        "tel": "",
        "category": "基础设施:公共设施:公共厕所",
        "type": 0,
        "location": {
            "lat": 43.6248,
            "lng": 122.277928
        },
        "ad_info": {
            "adcode": 150502,
            "province": "内蒙古自治区",
            "city": "通辽市",
            "district": "科尔沁区"
        }
    },
    {
        "id": "2058201596765255469",
        "title": "公共厕所",
        "address": "内蒙古自治区通辽市科尔沁区和平路西拉木伦公园(东侧)",
        "tel": "",
        "category": "基础设施:公共设施:公共厕所",
        "type": 0,
        "location": {
            "lat": 43.632553,
            "lng": 122.263395
        },
        "ad_info": {
            "adcode": 150502,
            "province": "内蒙古自治区",
            "city": "通辽市",
            "district": "科尔沁区"
        }
    },
    {
        "id": "3281465692115523465",
        "title": "公共厕所",
        "address": "内蒙古自治区通辽市科尔沁区红胜大街内蒙古民族大学-北区",
        "tel": "",
        "category": "基础设施:公共设施:公共厕所",
        "type": 0,
        "location": {
            "lat": 43.628924,
            "lng": 122.247151
        },
        "ad_info": {
            "adcode": 150502,
            "province": "内蒙古自治区",
            "city": "通辽市",
            "district": "科尔沁区"
        }
    },
    {
        "id": "6441867552570022925",
        "title": "公共厕所",
        "address": "内蒙古自治区通辽市科尔沁区东风路与柳荫西路交叉口正北方向154米左右",
        "tel": "",
        "category": "基础设施:公共设施:公共厕所",
        "type": 0,
        "location": {
            "lat": 43.61569,
            "lng": 122.217876
        },
        "ad_info": {
            "adcode": 150502,
            "province": "内蒙古自治区",
            "city": "通辽市",
            "district": "科尔沁区"
        }
    },
    {
        "id": "10714708598314392511",
        "title": "公共厕所",
        "address": "内蒙古自治区通辽市科尔沁区平安路与科尔沁大街交叉口西北方向45米左右",
        "tel": "",
        "category": "基础设施:公共设施:公共厕所",
        "type": 0,
        "location": {
            "lat": 43.61198,
            "lng": 122.28215
        },
        "ad_info": {
            "adcode": 150502,
            "province": "内蒙古自治区",
            "city": "通辽市",
            "district": "科尔沁区"
        }
    },
    {
        "id": "3724645412287017271",
        "title": "公共厕所",
        "address": "内蒙古自治区通辽市科尔沁区向阳大街与永安路交叉口正东方向65米左右",
        "tel": "",
        "category": "基础设施:公共设施:公共厕所",
        "type": 0,
        "location": {
            "lat": 43.613775,
            "lng": 122.278313
        },
        "ad_info": {
            "adcode": 150502,
            "province": "内蒙古自治区",
            "city": "通辽市",
            "district": "科尔沁区"
        }
    },
    {
        "id": "7101270815389488725",
        "title": "公共厕所",
        "address": "内蒙古自治区通辽市开鲁县明仁街与白塔路交叉口东北方向39米左右",
        "tel": "",
        "category": "基础设施:公共设施:公共厕所",
        "type": 0,
        "location": {
            "lat": 43.597661,
            "lng": 121.316758
        },
        "ad_info": {
            "adcode": 150523,
            "province": "内蒙古自治区",
            "city": "通辽市",
            "district": "开鲁县"
        }
    },
    {
        "id": "11495263658100089506",
        "title": "公共厕所",
        "address": "内蒙古自治区通辽市科尔沁区通辽体校西南侧150米",
        "tel": "",
        "category": "基础设施:公共设施:公共厕所",
        "type": 0,
        "location": {
            "lat": 43.63113,
            "lng": 122.241468
        },
        "ad_info": {
            "adcode": 150502,
            "province": "内蒙古自治区",
            "city": "通辽市",
            "district": "科尔沁区"
        }
    },
    {
        "id": "7468798818751314686",
        "title": "公共厕所",
        "address": "内蒙古自治区通辽市科尔沁区东顺路与中心大街交叉口东南方向165米左右",
        "tel": "",
        "category": "基础设施:公共设施:公共厕所",
        "type": 0,
        "location": {
            "lat": 43.617971,
            "lng": 122.287324
        },
        "ad_info": {
            "adcode": 150502,
            "province": "内蒙古自治区",
            "city": "通辽市",
            "district": "科尔沁区"
        }
    },
    {
        "id": "16332550532775042394",
        "title": "公共厕所",
        "address": "内蒙古自治区通辽市科尔沁区团结路与科尔沁大街交叉口西北方向98米左右",
        "tel": "",
        "category": "基础设施:公共设施:公共厕所",
        "type": 0,
        "location": {
            "lat": 43.61017,
            "lng": 122.243708
        },
        "ad_info": {
            "adcode": 150502,
            "province": "内蒙古自治区",
            "city": "通辽市",
            "district": "科尔沁区"
        }
    },
    {
        "id": "605465833043308097",
        "title": "公共厕所",
        "address": "内蒙古自治区通辽市科尔沁区木里图中心卫生院东南侧110米",
        "tel": "",
        "category": "基础设施:公共设施:公共厕所",
        "type": 0,
        "location": {
            "lat": 43.471098,
            "lng": 122.210655
        },
        "ad_info": {
            "adcode": 150502,
            "province": "内蒙古自治区",
            "city": "通辽市",
            "district": "科尔沁区"
        }
    },
    {
        "id": "1161697172816159901",
        "title": "公共厕所",
        "address": "内蒙古自治区通辽市科尔沁区建国路与霍林河大街交叉口东北方向61米左右",
        "tel": "",
        "category": "基础设施:公共设施:公共厕所",
        "type": 0,
        "location": {
            "lat": 43.623589,
            "lng": 122.271735
        },
        "ad_info": {
            "adcode": 150502,
            "province": "内蒙古自治区",
            "city": "通辽市",
            "district": "科尔沁区"
        }
    },
    {
        "id": "11961890427170572746",
        "title": "公共厕所",
        "address": "内蒙古自治区通辽市科尔沁区东五路与柳荫西路交叉口正北方向59米左右",
        "tel": "",
        "category": "基础设施:公共设施:公共厕所",
        "type": 0,
        "location": {
            "lat": 43.614895,
            "lng": 122.219703
        },
        "ad_info": {
            "adcode": 150502,
            "province": "内蒙古自治区",
            "city": "通辽市",
            "district": "科尔沁区"
        }
    },
    {
        "id": "119704808314123402",
        "title": "公共厕所",
        "address": "内蒙古自治区通辽市科尔沁区民航路与红光大街交叉口正北方向331米左右",
        "tel": "",
        "category": "基础设施:公共设施:公共厕所",
        "type": 0,
        "location": {
            "lat": 43.600925,
            "lng": 122.248893
        },
        "ad_info": {
            "adcode": 150502,
            "province": "内蒙古自治区",
            "city": "通辽市",
            "district": "科尔沁区"
        }
    },
    {
        "id": "384938602909500853",
        "title": "公共厕所",
        "address": "内蒙古自治区通辽市科尔沁区平安路与科尔沁大街交叉口西南方向195米左右",
        "tel": "",
        "category": "基础设施:公共设施:公共厕所",
        "type": 0,
        "location": {
            "lat": 43.610108,
            "lng": 122.281478
        },
        "ad_info": {
            "adcode": 150502,
            "province": "内蒙古自治区",
            "city": "通辽市",
            "district": "科尔沁区"
        }
    },
    {
        "id": "1363176009500042483",
        "title": "公共厕所",
        "address": "内蒙古自治区通辽市科尔沁区哲里木大街翠堤东郡",
        "tel": "",
        "category": "基础设施:公共设施:公共厕所",
        "type": 0,
        "location": {
            "lat": 43.643392,
            "lng": 122.284542
        },
        "ad_info": {
            "adcode": 150502,
            "province": "内蒙古自治区",
            "city": "通辽市",
            "district": "科尔沁区"
        }
    },
    {
        "id": "4155814026236799803",
        "title": "公共厕所",
        "address": "内蒙古自治区通辽市霍林郭勒市创业路拜斯特牛津英语学校南",
        "tel": "",
        "category": "基础设施:公共设施:公共厕所",
        "type": 0,
        "location": {
            "lat": 45.526555,
            "lng": 119.65461
        },
        "ad_info": {
            "adcode": 150581,
            "province": "内蒙古自治区",
            "city": "通辽市",
            "district": "霍林郭勒市"
        }
    },
    {
        "id": "2522866335895315922",
        "title": "公共厕所",
        "address": "内蒙古自治区通辽市科尔沁区民主南路与红光大街交叉口正西方向420米左右",
        "tel": "",
        "category": "基础设施:公共设施:公共厕所",
        "type": 0,
        "location": {
            "lat": 43.596234,
            "lng": 122.255667
        },
        "ad_info": {
            "adcode": 150502,
            "province": "内蒙古自治区",
            "city": "通辽市",
            "district": "科尔沁区"
        }
    },
    {
        "id": "4192661689701239499",
        "title": "公共厕所",
        "address": "内蒙古自治区通辽市科尔沁区民航路与鸽子山大街交叉口正北方向450米左右",
        "tel": "",
        "category": "基础设施:公共设施:公共厕所",
        "type": 0,
        "location": {
            "lat": 43.593284,
            "lng": 122.248494
        },
        "ad_info": {
            "adcode": 150502,
            "province": "内蒙古自治区",
            "city": "通辽市",
            "district": "科尔沁区"
        }
    },
    {
        "id": "2258192628361660127",
        "title": "公共厕所",
        "address": "内蒙古自治区通辽市科尔沁区昆都伦大街与森林小路交叉口正南方向207米左右",
        "tel": "",
        "category": "基础设施:公共设施:公共厕所",
        "type": 0,
        "location": {
            "lat": 43.603631,
            "lng": 122.289089
        },
        "ad_info": {
            "adcode": 150502,
            "province": "内蒙古自治区",
            "city": "通辽市",
            "district": "科尔沁区"
        }
    },
    {
        "id": "8428740633457317561",
        "title": "公共厕所",
        "address": "内蒙古自治区通辽市科尔沁区303国道北50米",
        "tel": "",
        "category": "基础设施:公共设施:公共厕所",
        "type": 0,
        "location": {
            "lat": 43.752636,
            "lng": 122.69865
        },
        "ad_info": {
            "adcode": 150502,
            "province": "内蒙古自治区",
            "city": "通辽市",
            "district": "科尔沁区"
        }
    },
    {
        "id": "12118534969893000909",
        "title": "公共厕所",
        "address": "内蒙古自治区通辽市科尔沁区一街与东二路交叉口西南方向21米左右",
        "tel": "",
        "category": "基础设施:公共设施:公共厕所",
        "type": 0,
        "location": {
            "lat": 43.626183,
            "lng": 122.220012
        },
        "ad_info": {
            "adcode": 150502,
            "province": "内蒙古自治区",
            "city": "通辽市",
            "district": "科尔沁区"
        }
    },
    {
        "id": "10251160329538370166",
        "title": "公共厕所",
        "address": "内蒙古自治区通辽市科尔沁区东顺路与霍林河大街交叉口正南方向164米左右",
        "tel": "",
        "category": "基础设施:公共设施:公共厕所",
        "type": 0,
        "location": {
            "lat": 43.623047,
            "lng": 122.286339
        },
        "ad_info": {
            "adcode": 150502,
            "province": "内蒙古自治区",
            "city": "通辽市",
            "district": "科尔沁区"
        }
    },
    {
        "id": "8004045933886250843",
        "title": "公共厕所",
        "address": "内蒙古自治区通辽市科尔沁区德胜铸造有限公司东南侧",
        "tel": "",
        "category": "基础设施:公共设施:公共厕所",
        "type": 0,
        "location": {
            "lat": 43.631039,
            "lng": 122.309863
        },
        "ad_info": {
            "adcode": 150502,
            "province": "内蒙古自治区",
            "city": "通辽市",
            "district": "科尔沁区"
        }
    },
    {
        "id": "3466017835766908888",
        "title": "公共厕所",
        "address": "内蒙古自治区通辽市科尔沁区腾跃建筑材料有限公司西侧130米",
        "tel": "",
        "category": "基础设施:公共设施:公共厕所",
        "type": 0,
        "location": {
            "lat": 43.626858,
            "lng": 122.208176
        },
        "ad_info": {
            "adcode": 150502,
            "province": "内蒙古自治区",
            "city": "通辽市",
            "district": "科尔沁区"
        }
    },
    {
        "id": "10278491987869469977",
        "title": "公共厕所",
        "address": "内蒙古自治区通辽市科尔沁区民航路与鸽子山大街辅路交叉口西北480米",
        "tel": "",
        "category": "基础设施:公共设施:公共厕所",
        "type": 0,
        "location": {
            "lat": 43.593271,
            "lng": 122.244747
        },
        "ad_info": {
            "adcode": 150502,
            "province": "内蒙古自治区",
            "city": "通辽市",
            "district": "科尔沁区"
        }
    },
    {
        "id": "6656032416199463703",
        "title": "公共厕所",
        "address": "内蒙古自治区通辽市科尔沁区G303与新工三路交叉口东南方向393米左右",
        "tel": "",
        "category": "基础设施:公共设施:公共厕所",
        "type": 0,
        "location": {
            "lat": 43.630991,
            "lng": 122.312127
        },
        "ad_info": {
            "adcode": 150502,
            "province": "内蒙古自治区",
            "city": "通辽市",
            "district": "科尔沁区"
        }
    },
    {
        "id": "15606858988361591000",
        "title": "公共厕所",
        "address": "内蒙古自治区通辽市霍林郭勒市站前街与站前路交叉口正西方向85米左右",
        "tel": "",
        "category": "基础设施:公共设施:公共厕所",
        "type": 0,
        "location": {
            "lat": 45.533737,
            "lng": 119.66798
        },
        "ad_info": {
            "adcode": 150581,
            "province": "内蒙古自治区",
            "city": "通辽市",
            "district": "霍林郭勒市"
        }
    },
    {
        "id": "11564558348863174961",
        "title": "公共厕所",
        "address": "内蒙古自治区通辽市科尔沁区昆都伦大街与铁中路交叉口东南方向156米左右",
        "tel": "",
        "category": "基础设施:公共设施:公共厕所",
        "type": 0,
        "location": {
            "lat": 43.603535,
            "lng": 122.285268
        },
        "ad_info": {
            "adcode": 150502,
            "province": "内蒙古自治区",
            "city": "通辽市",
            "district": "科尔沁区"
        }
    },
    {
        "id": "1257483139038093416",
        "title": "公共厕所",
        "address": "内蒙古自治区通辽市科尔沁区滨河大街与福利路交叉口正西方向220米左右",
        "tel": "",
        "category": "基础设施:公共设施:公共厕所",
        "type": 0,
        "location": {
            "lat": 43.638707,
            "lng": 122.288308
        },
        "ad_info": {
            "adcode": 150502,
            "province": "内蒙古自治区",
            "city": "通辽市",
            "district": "科尔沁区"
        }
    },
    {
        "id": "10073692120472722834",
        "title": "公共厕所",
        "address": "内蒙古自治区通辽市科尔沁区东顺路与永清大街交叉口东北方向91米左右",
        "tel": "",
        "category": "基础设施:公共设施:公共厕所",
        "type": 0,
        "location": {
            "lat": 43.621675,
            "lng": 122.28719
        },
        "ad_info": {
            "adcode": 150502,
            "province": "内蒙古自治区",
            "city": "通辽市",
            "district": "科尔沁区"
        }
    },
    {
        "id": "8077725680489449300",
        "title": "公共厕所",
        "address": "内蒙古自治区通辽市科尔沁区河南路与霍林河大街交叉口东北方向314米左右",
        "tel": "",
        "category": "基础设施:公共设施:公共厕所",
        "type": 0,
        "location": {
            "lat": 43.625982,
            "lng": 122.231101
        },
        "ad_info": {
            "adcode": 150502,
            "province": "内蒙古自治区",
            "city": "通辽市",
            "district": "科尔沁区"
        }
    },
    {
        "id": "15601736335323279072",
        "title": "公共厕所",
        "address": "内蒙古自治区通辽市科尔沁区G303与霍林河大街交叉口正南方向319米左右",
        "tel": "",
        "category": "基础设施:公共设施:公共厕所",
        "type": 0,
        "location": {
            "lat": 43.629882,
            "lng": 122.307836
        },
        "ad_info": {
            "adcode": 150502,
            "province": "内蒙古自治区",
            "city": "通辽市",
            "district": "科尔沁区"
        }
    },
    {
        "id": "479087958228589509",
        "title": "公共厕所",
        "address": "内蒙古自治区通辽市开鲁县G111与X457交叉口东北方向605米左右",
        "tel": "",
        "category": "基础设施:公共设施:公共厕所",
        "type": 0,
        "location": {
            "lat": 43.397507,
            "lng": 121.645784
        },
        "ad_info": {
            "adcode": 150523,
            "province": "内蒙古自治区",
            "city": "通辽市",
            "district": "开鲁县"
        }
    },
    {
        "id": "10331567384085986246",
        "title": "公共厕所",
        "address": "内蒙古自治区通辽市科尔沁区北绕城线北50米",
        "tel": "",
        "category": "基础设施:公共设施:公共厕所",
        "type": 0,
        "location": {
            "lat": 43.713491,
            "lng": 122.22286
        },
        "ad_info": {
            "adcode": 150502,
            "province": "内蒙古自治区",
            "city": "通辽市",
            "district": "科尔沁区"
        }
    },
    {
        "id": "11635301571351732733",
        "title": "公共厕所",
        "address": "内蒙古自治区通辽市科尔沁区昆都伦大街与森林小路交叉口正南方向190米左右",
        "tel": "",
        "category": "基础设施:公共设施:公共厕所",
        "type": 0,
        "location": {
            "lat": 43.603662,
            "lng": 122.288036
        },
        "ad_info": {
            "adcode": 150502,
            "province": "内蒙古自治区",
            "city": "通辽市",
            "district": "科尔沁区"
        }
    },
    {
        "id": "18226701152584645199",
        "title": "公共厕所",
        "address": "内蒙古自治区通辽市霍林郭勒市友谊路与友谊金街交叉口西北方向29米左右",
        "tel": "",
        "category": "基础设施:公共设施:公共厕所",
        "type": 0,
        "location": {
            "lat": 45.538135,
            "lng": 119.66217
        },
        "ad_info": {
            "adcode": 150581,
            "province": "内蒙古自治区",
            "city": "通辽市",
            "district": "霍林郭勒市"
        }
    },
    {
        "id": "7541614914778214264",
        "title": "公共厕所",
        "address": "内蒙古自治区通辽市开鲁县幸福路与建设街交叉口正南方向86米左右",
        "tel": "",
        "category": "基础设施:公共设施:公共厕所",
        "type": 0,
        "location": {
            "lat": 43.595851,
            "lng": 121.302286
        },
        "ad_info": {
            "adcode": 150523,
            "province": "内蒙古自治区",
            "city": "通辽市",
            "district": "开鲁县"
        }
    },
    {
        "id": "14638635775673512906",
        "title": "公共厕所",
        "address": "内蒙古自治区通辽市开鲁县东风街与曙光路交叉口东南方向69米左右",
        "tel": "",
        "category": "基础设施:公共设施:公共厕所",
        "type": 0,
        "location": {
            "lat": 43.598546,
            "lng": 121.314982
        },
        "ad_info": {
            "adcode": 150523,
            "province": "内蒙古自治区",
            "city": "通辽市",
            "district": "开鲁县"
        }
    },
    {
        "id": "5907741430961957555",
        "title": "公共厕所",
        "address": "内蒙古自治区通辽市扎鲁特旗黄山街中国石油加油站",
        "tel": "",
        "category": "基础设施:公共设施:公共厕所",
        "type": 0,
        "location": {
            "lat": 44.550911,
            "lng": 120.923346
        },
        "ad_info": {
            "adcode": 150526,
            "province": "内蒙古自治区",
            "city": "通辽市",
            "district": "扎鲁特旗"
        }
    },
    {
        "id": "5193567594085620417",
        "title": "公共厕所",
        "address": "内蒙古自治区通辽市奈曼旗清河路与解放街交叉口正北方向114米左右",
        "tel": "",
        "category": "基础设施:公共设施:公共厕所",
        "type": 0,
        "location": {
            "lat": 42.852575,
            "lng": 120.66238
        },
        "ad_info": {
            "adcode": 150525,
            "province": "内蒙古自治区",
            "city": "通辽市",
            "district": "奈曼旗"
        }
    },
    {
        "id": "16390555875072331415",
        "title": "公共厕所",
        "address": "内蒙古自治区通辽市开鲁县环城西路与长青街交叉口正北方向48米左右",
        "tel": "",
        "category": "基础设施:公共设施:公共厕所",
        "type": 0,
        "location": {
            "lat": 43.599193,
            "lng": 121.297337
        },
        "ad_info": {
            "adcode": 150523,
            "province": "内蒙古自治区",
            "city": "通辽市",
            "district": "开鲁县"
        }
    },
    {
        "id": "13051517293317771894",
        "title": "公共厕所",
        "address": "内蒙古自治区通辽市霍林郭勒市友谊路与双兴大街交叉口正东方向87米左右",
        "tel": "",
        "category": "基础设施:公共设施:公共厕所",
        "type": 0,
        "location": {
            "lat": 45.536477,
            "lng": 119.663558
        },
        "ad_info": {
            "adcode": 150581,
            "province": "内蒙古自治区",
            "city": "通辽市",
            "district": "霍林郭勒市"
        }
    },
    {
        "id": "13225655851862376662",
        "title": "公共厕所",
        "address": "内蒙古自治区通辽市科尔沁左翼中旗光明路与建设大街交叉口正东方向21米左右",
        "tel": "",
        "category": "基础设施:公共设施:公共厕所",
        "type": 0,
        "location": {
            "lat": 44.130391,
            "lng": 123.325137
        },
        "ad_info": {
            "adcode": 150521,
            "province": "内蒙古自治区",
            "city": "通辽市",
            "district": "科尔沁左翼中旗"
        }
    },
    {
        "id": "17419319180373436741",
        "title": "公共厕所",
        "address": "内蒙古自治区通辽市科尔沁左翼中旗111国道东100米",
        "tel": "",
        "category": "基础设施:公共设施:公共厕所",
        "type": 0,
        "location": {
            "lat": 44.013538,
            "lng": 121.990404
        },
        "ad_info": {
            "adcode": 150521,
            "province": "内蒙古自治区",
            "city": "通辽市",
            "district": "科尔沁左翼中旗"
        }
    },
    {
        "id": "6463976860363179315",
        "title": "公共厕所",
        "address": "内蒙古自治区通辽市科尔沁左翼后旗建设路与玛拉沁街交叉口正北方向177米左右",
        "tel": "",
        "category": "基础设施:公共设施:公共厕所",
        "type": 0,
        "location": {
            "lat": 42.95236,
            "lng": 122.34202
        },
        "ad_info": {
            "adcode": 150522,
            "province": "内蒙古自治区",
            "city": "通辽市",
            "district": "科尔沁左翼后旗"
        }
    },
    {
        "id": "17188361856255534109",
        "title": "卫生间",
        "address": "内蒙古自治区通辽市科尔沁区南顺大街迎宾广场南侧通辽火车站F2",
        "tel": "",
        "category": "基础设施:公共设施:公共厕所",
        "type": 0,
        "location": {
            "lat": 43.605064,
            "lng": 122.271738
        },
        "ad_info": {
            "adcode": 150502,
            "province": "内蒙古自治区",
            "city": "通辽市",
            "district": "科尔沁区"
        }
    },
    {
        "id": "3366236793533834131",
        "title": "公共厕所",
        "address": "内蒙古自治区通辽市科尔沁左翼后旗吉祥人家西区北侧190米",
        "tel": "",
        "category": "基础设施:公共设施:公共厕所",
        "type": 0,
        "location": {
            "lat": 42.957057,
            "lng": 122.362675
        },
        "ad_info": {
            "adcode": 150522,
            "province": "内蒙古自治区",
            "city": "通辽市",
            "district": "科尔沁左翼后旗"
        }
    },
    {
        "id": "17319201255043862256",
        "title": "公共厕所",
        "address": "内蒙古自治区通辽市开鲁县白塔路与长青街交叉口正西方向93米左右",
        "tel": "",
        "category": "基础设施:公共设施:公共厕所",
        "type": 0,
        "location": {
            "lat": 43.596448,
            "lng": 121.314813
        },
        "ad_info": {
            "adcode": 150523,
            "province": "内蒙古自治区",
            "city": "通辽市",
            "district": "开鲁县"
        }
    },
    {
        "id": "5330378551340713502",
        "title": "公共厕所",
        "address": "内蒙古自治区通辽市科尔沁左翼中旗G304",
        "tel": "",
        "category": "基础设施:公共设施:公共厕所",
        "type": 0,
        "location": {
            "lat": 44.076517,
            "lng": 121.857226
        },
        "ad_info": {
            "adcode": 150521,
            "province": "内蒙古自治区",
            "city": "通辽市",
            "district": "科尔沁左翼中旗"
        }
    },
    {
        "id": "3666681503114360882",
        "title": "公共厕所",
        "address": "内蒙古自治区通辽市科尔沁左翼后旗大青沟街与铁西路交叉口正西方向197米左右",
        "tel": "",
        "category": "基础设施:公共设施:公共厕所",
        "type": 0,
        "location": {
            "lat": 42.947521,
            "lng": 122.357148
        },
        "ad_info": {
            "adcode": 150522,
            "province": "内蒙古自治区",
            "city": "通辽市",
            "district": "科尔沁左翼后旗"
        }
    },
    {
        "id": "15546818944961648510",
        "title": "公共厕所",
        "address": "内蒙古自治区通辽市科尔沁左翼后旗G203与S305交叉口正南方向1731米左右",
        "tel": "",
        "category": "基础设施:公共设施:公共厕所",
        "type": 0,
        "location": {
            "lat": 43.362859,
            "lng": 123.558867
        },
        "ad_info": {
            "adcode": 150522,
            "province": "内蒙古自治区",
            "city": "通辽市",
            "district": "科尔沁左翼后旗"
        }
    },
    {
        "id": "5750981942575010873",
        "title": "公共厕所",
        "address": "内蒙古自治区通辽市开鲁县开八线与辽河大街交叉口正西方向877米左右",
        "tel": "",
        "category": "基础设施:公共设施:公共厕所",
        "type": 0,
        "location": {
            "lat": 43.607498,
            "lng": 121.261872
        },
        "ad_info": {
            "adcode": 150523,
            "province": "内蒙古自治区",
            "city": "通辽市",
            "district": "开鲁县"
        }
    },
    {
        "id": "5916079479477577188",
        "title": "公共厕所",
        "address": "内蒙古自治区通辽市科尔沁左翼中旗G231与G334交叉口正东方向95米左右",
        "tel": "",
        "category": "基础设施:公共设施:公共厕所",
        "type": 0,
        "location": {
            "lat": 44.128448,
            "lng": 123.349206
        },
        "ad_info": {
            "adcode": 150521,
            "province": "内蒙古自治区",
            "city": "通辽市",
            "district": "科尔沁左翼中旗"
        }
    },
    {
        "id": "660227160892007515",
        "title": "公共厕所",
        "address": "内蒙古自治区通辽市科尔沁左翼后旗S305与Y144交叉口正西方向1041米左右",
        "tel": "",
        "category": "基础设施:公共设施:公共厕所",
        "type": 0,
        "location": {
            "lat": 42.844842,
            "lng": 122.177379
        },
        "ad_info": {
            "adcode": 150522,
            "province": "内蒙古自治区",
            "city": "通辽市",
            "district": "科尔沁左翼后旗"
        }
    },
    {
        "id": "3682073635792012732",
        "title": "公共厕所",
        "address": "内蒙古自治区通辽市科尔沁左翼中旗G303与Y103交叉口正南方向309米左右",
        "tel": "",
        "category": "基础设施:公共设施:公共厕所",
        "type": 0,
        "location": {
            "lat": 43.689751,
            "lng": 123.111634
        },
        "ad_info": {
            "adcode": 150521,
            "province": "内蒙古自治区",
            "city": "通辽市",
            "district": "科尔沁左翼中旗"
        }
    },
    {
        "id": "1429312734902947757",
        "title": "公共厕所",
        "address": "内蒙古自治区通辽市奈曼旗叫来金街与土城子路交叉口东北方向229米左右",
        "tel": "",
        "category": "基础设施:公共设施:公共厕所",
        "type": 0,
        "location": {
            "lat": 42.842496,
            "lng": 120.672069
        },
        "ad_info": {
            "adcode": 150525,
            "province": "内蒙古自治区",
            "city": "通辽市",
            "district": "奈曼旗"
        }
    },
    {
        "id": "2062290148582546235",
        "title": "公共厕所",
        "address": "内蒙古自治区通辽市科尔沁左翼后旗北环路与团结路交叉口东北方向1342米左右",
        "tel": "",
        "category": "基础设施:公共设施:公共厕所",
        "type": 0,
        "location": {
            "lat": 42.973733,
            "lng": 122.356327
        },
        "ad_info": {
            "adcode": 150522,
            "province": "内蒙古自治区",
            "city": "通辽市",
            "district": "科尔沁左翼后旗"
        }
    },
    {
        "id": "14812530881335423658",
        "title": "公共厕所",
        "address": "内蒙古自治区通辽市奈曼旗叫来河庄园",
        "tel": "",
        "category": "基础设施:公共设施:公共厕所",
        "type": 0,
        "location": {
            "lat": 42.94997,
            "lng": 120.795931
        },
        "ad_info": {
            "adcode": 150525,
            "province": "内蒙古自治区",
            "city": "通辽市",
            "district": "奈曼旗"
        }
    },
    {
        "id": "211148436117017180",
        "title": "公共厕所",
        "address": "内蒙古自治区通辽市扎鲁特旗G207与白霍一级路交叉口西南方向132米",
        "tel": "",
        "category": "基础设施:公共设施:公共厕所",
        "type": 0,
        "location": {
            "lat": 45.382489,
            "lng": 119.519367
        },
        "ad_info": {
            "adcode": 150526,
            "province": "内蒙古自治区",
            "city": "通辽市",
            "district": "扎鲁特旗"
        }
    },
    {
        "id": "16778195769498142052",
        "title": "公共厕所",
        "address": "内蒙古自治区通辽市扎鲁特旗香山街与黄山街交叉口正西方向244米左右",
        "tel": "",
        "category": "基础设施:公共设施:公共厕所",
        "type": 0,
        "location": {
            "lat": 44.549034,
            "lng": 120.93125
        },
        "ad_info": {
            "adcode": 150526,
            "province": "内蒙古自治区",
            "city": "通辽市",
            "district": "扎鲁特旗"
        }
    },
    {
        "id": "9629208684519519755",
        "title": "公共厕所",
        "address": "内蒙古自治区通辽市库伦旗库伦旗中医医院东南侧50米",
        "tel": "",
        "category": "基础设施:公共设施:公共厕所",
        "type": 0,
        "location": {
            "lat": 42.730304,
            "lng": 121.765364
        },
        "ad_info": {
            "adcode": 150524,
            "province": "内蒙古自治区",
            "city": "通辽市",
            "district": "库伦旗"
        }
    },
    {
        "id": "5438360789711932368",
        "title": "公共厕所",
        "address": "内蒙古自治区通辽市扎鲁特旗G304",
        "tel": "",
        "category": "基础设施:公共设施:公共厕所",
        "type": 0,
        "location": {
            "lat": 44.585261,
            "lng": 120.876108
        },
        "ad_info": {
            "adcode": 150526,
            "province": "内蒙古自治区",
            "city": "通辽市",
            "district": "扎鲁特旗"
        }
    },
    {
        "id": "5370160335862241524",
        "title": "公共厕所",
        "address": "内蒙古自治区通辽市科尔沁区G303与新工三路交叉口东南方向484米左右",
        "tel": "",
        "category": "基础设施:公共设施:公共厕所",
        "type": 0,
        "location": {
            "lat": 43.631834,
            "lng": 122.31504
        },
        "ad_info": {
            "adcode": 150502,
            "province": "内蒙古自治区",
            "city": "通辽市",
            "district": "科尔沁区"
        }
    },
    {
        "id": "10364979353067912817",
        "title": "公共厕所",
        "address": "内蒙古自治区通辽市扎鲁特旗G304与S306交叉口西北方向1082米左右",
        "tel": "",
        "category": "基础设施:公共设施:公共厕所",
        "type": 0,
        "location": {
            "lat": 44.590645,
            "lng": 120.924528
        },
        "ad_info": {
            "adcode": 150526,
            "province": "内蒙古自治区",
            "city": "通辽市",
            "district": "扎鲁特旗"
        }
    },
    {
        "id": "16905235148453901818",
        "title": "公共厕所",
        "address": "内蒙古自治区通辽市奈曼旗通辽金荞谷物有限公司东侧220米",
        "tel": "",
        "category": "基础设施:公共设施:公共厕所",
        "type": 0,
        "location": {
            "lat": 42.84991,
            "lng": 120.686313
        },
        "ad_info": {
            "adcode": 150525,
            "province": "内蒙古自治区",
            "city": "通辽市",
            "district": "奈曼旗"
        }
    },
    {
        "id": "7972560813929698671",
        "title": "公共厕所",
        "address": "内蒙古自治区通辽市奈曼旗光明路与奈曼大街交叉口西南方向24米左右",
        "tel": "",
        "category": "基础设施:公共设施:公共厕所",
        "type": 0,
        "location": {
            "lat": 42.844646,
            "lng": 120.646497
        },
        "ad_info": {
            "adcode": 150525,
            "province": "内蒙古自治区",
            "city": "通辽市",
            "district": "奈曼旗"
        }
    },
    {
        "id": "21058514111278455",
        "title": "公共厕所",
        "address": "内蒙古自治区通辽市奈曼旗多日奔敖包路",
        "tel": "",
        "category": "基础设施:公共设施:公共厕所",
        "type": 0,
        "location": {
            "lat": 43.19798,
            "lng": 120.770907
        },
        "ad_info": {
            "adcode": 150525,
            "province": "内蒙古自治区",
            "city": "通辽市",
            "district": "奈曼旗"
        }
    },
    {
        "id": "2045242060001352224",
        "title": "公共厕所",
        "address": "内蒙古自治区通辽市奈曼旗G111与东升桥交叉口西南方向1897米左右",
        "tel": "",
        "category": "基础设施:公共设施:公共厕所",
        "type": 0,
        "location": {
            "lat": 43.313648,
            "lng": 121.247907
        },
        "ad_info": {
            "adcode": 150525,
            "province": "内蒙古自治区",
            "city": "通辽市",
            "district": "奈曼旗"
        }
    },
    {
        "id": "11594478482814514410",
        "title": "公共厕所",
        "address": "内蒙古自治区通辽市奈曼旗G111与Y288交叉口正东方向1085米左右",
        "tel": "",
        "category": "基础设施:公共设施:公共厕所",
        "type": 0,
        "location": {
            "lat": 43.212305,
            "lng": 121.06718
        },
        "ad_info": {
            "adcode": 150525,
            "province": "内蒙古自治区",
            "city": "通辽市",
            "district": "奈曼旗"
        }
    },
    {
        "id": "4573375718653951063",
        "title": "公共厕所",
        "address": "内蒙古自治区通辽市奈曼旗奈曼四中北侧260米",
        "tel": "",
        "category": "基础设施:公共设施:公共厕所",
        "type": 0,
        "location": {
            "lat": 42.856122,
            "lng": 120.649506
        },
        "ad_info": {
            "adcode": 150525,
            "province": "内蒙古自治区",
            "city": "通辽市",
            "district": "奈曼旗"
        }
    },
    {
        "id": "17082756901045582762",
        "title": "乌兰服务区公共厕所",
        "address": "内蒙古自治区通辽市科尔沁区大广高速",
        "tel": "",
        "category": "基础设施:公共设施:公共厕所",
        "type": 0,
        "location": {
            "lat": 43.630398,
            "lng": 122.618758
        },
        "ad_info": {
            "adcode": 150502,
            "province": "内蒙古自治区",
            "city": "通辽市",
            "district": "科尔沁区"
        }
    },
    {
        "id": "13379321982050044232",
        "title": "乌兰服务区公共厕所",
        "address": "内蒙古自治区通辽市科尔沁区乌兰服务区",
        "tel": "",
        "category": "基础设施:公共设施:公共厕所",
        "type": 0,
        "location": {
            "lat": 43.632038,
            "lng": 122.619907
        },
        "ad_info": {
            "adcode": 150502,
            "province": "内蒙古自治区",
            "city": "通辽市",
            "district": "科尔沁区"
        }
    },
    {
        "id": "13468852632552306302",
        "title": "巴西服务区公共厕所",
        "address": "内蒙古自治区通辽市科尔沁左翼中旗X461与小康路交叉口正东方向1682米左右",
        "tel": "",
        "category": "基础设施:公共设施:公共厕所",
        "type": 0,
        "location": {
            "lat": 43.623597,
            "lng": 123.326057
        },
        "ad_info": {
            "adcode": 150521,
            "province": "内蒙古自治区",
            "city": "通辽市",
            "district": "科尔沁左翼中旗"
        }
    },
    {
        "id": "10010232513420055819",
        "title": "无障碍公共厕所",
        "address": "内蒙古自治区通辽市奈曼旗草原街与青龙山路交叉口正西方向91米左右",
        "tel": "",
        "category": "基础设施:公共设施:公共厕所",
        "type": 0,
        "location": {
            "lat": 42.842451,
            "lng": 120.660664
        },
        "ad_info": {
            "adcode": 150525,
            "province": "内蒙古自治区",
            "city": "通辽市",
            "district": "奈曼旗"
        }
    },
    {
        "id": "2069074832695482361",
        "title": "巴西服务区公共厕所",
        "address": "内蒙古自治区通辽市科尔沁左翼中旗X461与小康路交叉口正东方向1782米左右",
        "tel": "",
        "category": "基础设施:公共设施:公共厕所",
        "type": 0,
        "location": {
            "lat": 43.62178,
            "lng": 123.326496
        },
        "ad_info": {
            "adcode": 150521,
            "province": "内蒙古自治区",
            "city": "通辽市",
            "district": "科尔沁左翼中旗"
        }
    },
    {
        "id": "5749359484287394164",
        "title": "博王服务区公共厕所",
        "address": "内蒙古自治区通辽市科尔沁左翼后旗G2511新鲁高速附近",
        "tel": "",
        "category": "基础设施:公共设施:公共厕所",
        "type": 0,
        "location": {
            "lat": 42.967434,
            "lng": 122.419723
        },
        "ad_info": {
            "adcode": 150522,
            "province": "内蒙古自治区",
            "city": "通辽市",
            "district": "科尔沁左翼后旗"
        }
    },
    {
        "id": "5328561174206621413",
        "title": "博王服务区公共厕所",
        "address": "内蒙古自治区通辽市科尔沁左翼后旗新鲁高速博王服务区",
        "tel": "",
        "category": "基础设施:公共设施:公共厕所",
        "type": 0,
        "location": {
            "lat": 42.967305,
            "lng": 122.422648
        },
        "ad_info": {
            "adcode": 150522,
            "province": "内蒙古自治区",
            "city": "通辽市",
            "district": "科尔沁左翼后旗"
        }
    },
    {
        "id": "17204683282312036076",
        "title": "科尔沁服务区公共厕所",
        "address": "内蒙古自治区通辽市科尔沁左翼后旗新鲁高速科尔沁服务区",
        "tel": "",
        "category": "基础设施:公共设施:公共厕所",
        "type": 0,
        "location": {
            "lat": 43.463713,
            "lng": 122.391642
        },
        "ad_info": {
            "adcode": 150522,
            "province": "内蒙古自治区",
            "city": "通辽市",
            "district": "科尔沁左翼后旗"
        }
    },
    {
        "id": "8767823340497152128",
        "title": "余粮堡服务区第二公共厕所",
        "address": "内蒙古自治区通辽市科尔沁左翼后旗G45大广高速附近",
        "tel": "",
        "category": "基础设施:公共设施:公共厕所",
        "type": 0,
        "location": {
            "lat": 43.35228,
            "lng": 121.91824
        },
        "ad_info": {
            "adcode": 150522,
            "province": "内蒙古自治区",
            "city": "通辽市",
            "district": "科尔沁左翼后旗"
        }
    },
    {
        "id": "16949199659927733462",
        "title": "东明服务区公共厕所",
        "address": "内蒙古自治区通辽市奈曼旗大广高速",
        "tel": "",
        "category": "基础设施:公共设施:公共厕所",
        "type": 0,
        "location": {
            "lat": 43.147368,
            "lng": 121.20623
        },
        "ad_info": {
            "adcode": 150525,
            "province": "内蒙古自治区",
            "city": "通辽市",
            "district": "奈曼旗"
        }
    },
    {
        "id": "7697570917042440755",
        "title": "东明服务区第二公共厕所",
        "address": "内蒙古自治区通辽市奈曼旗大广高速东明服务区",
        "tel": "",
        "category": "基础设施:公共设施:公共厕所",
        "type": 0,
        "location": {
            "lat": 43.148356,
            "lng": 121.203431
        },
        "ad_info": {
            "adcode": 150525,
            "province": "内蒙古自治区",
            "city": "通辽市",
            "district": "奈曼旗"
        }
    },
    {
        "id": "5440281443537816142",
        "title": "公共厕所",
        "address": "内蒙古自治区通辽市科尔沁区昆都伦大街与铁中路交叉口东南方向89米左右",
        "tel": "",
        "category": "基础设施:公共设施:公共厕所",
        "type": 0,
        "location": {
            "lat": 43.604193,
            "lng": 122.284941
        },
        "ad_info": {
            "adcode": 150502,
            "province": "内蒙古自治区",
            "city": "通辽市",
            "district": "科尔沁区"
        }
    },
    {
        "id": "1015298043884602085",
        "title": "公共厕所",
        "address": "内蒙古自治区通辽市科尔沁区G303与新工三路交叉口正北方向778米左右",
        "tel": "",
        "category": "基础设施:公共设施:公共厕所",
        "type": 0,
        "location": {
            "lat": 43.640921,
            "lng": 122.307425
        },
        "ad_info": {
            "adcode": 150502,
            "province": "内蒙古自治区",
            "city": "通辽市",
            "district": "科尔沁区"
        }
    },
    {
        "id": "16867392451034276266",
        "title": "公共厕所",
        "address": "内蒙古自治区通辽市科尔沁区欣祥商行西南侧290米",
        "tel": "",
        "category": "基础设施:公共设施:公共厕所",
        "type": 0,
        "location": {
            "lat": 43.705836,
            "lng": 122.191608
        },
        "ad_info": {
            "adcode": 150502,
            "province": "内蒙古自治区",
            "city": "通辽市",
            "district": "科尔沁区"
        }
    },
    {
        "id": "18388259991515359955",
        "title": "公共厕所",
        "address": "内蒙古自治区通辽市开鲁县民族路与环城北路交叉口东北方向64米左右",
        "tel": "",
        "category": "基础设施:公共设施:公共厕所",
        "type": 0,
        "location": {
            "lat": 43.609295,
            "lng": 121.311963
        },
        "ad_info": {
            "adcode": 150523,
            "province": "内蒙古自治区",
            "city": "通辽市",
            "district": "开鲁县"
        }
    },
    {
        "id": "7555667635770623211",
        "title": "公共厕所",
        "address": "内蒙古自治区通辽市科尔沁区团结路与永清大街交叉口东北方向28米左右",
        "tel": "",
        "category": "基础设施:公共设施:公共厕所",
        "type": 0,
        "location": {
            "lat": 43.617346,
            "lng": 122.243393
        },
        "ad_info": {
            "adcode": 150502,
            "province": "内蒙古自治区",
            "city": "通辽市",
            "district": "科尔沁区"
        }
    },
    {
        "id": "15167781789843786634",
        "title": "公共厕所",
        "address": "内蒙古自治区通辽市科尔沁左翼后旗G304与Y142交叉口正北方向412米左右",
        "tel": "",
        "category": "基础设施:公共设施:公共厕所",
        "type": 0,
        "location": {
            "lat": 43.240552,
            "lng": 122.244691
        },
        "ad_info": {
            "adcode": 150522,
            "province": "内蒙古自治区",
            "city": "通辽市",
            "district": "科尔沁左翼后旗"
        }
    },
    {
        "id": "17304806788425758785",
        "title": "公共厕所",
        "address": "内蒙古自治区通辽市科尔沁区新建大街与福利路交叉口正南方向383米左右",
        "tel": "",
        "category": "基础设施:公共设施:公共厕所",
        "type": 0,
        "location": {
            "lat": 43.607782,
            "lng": 122.301119
        },
        "ad_info": {
            "adcode": 150502,
            "province": "内蒙古自治区",
            "city": "通辽市",
            "district": "科尔沁区"
        }
    },
    {
        "id": "15814653367811339889",
        "title": "公共厕所",
        "address": "内蒙古自治区通辽市科尔沁区兴工大街与柳荫路交叉口正南方向382米左右",
        "tel": "",
        "category": "基础设施:公共设施:公共厕所",
        "type": 0,
        "location": {
            "lat": 43.639046,
            "lng": 122.235082
        },
        "ad_info": {
            "adcode": 150502,
            "province": "内蒙古自治区",
            "city": "通辽市",
            "district": "科尔沁区"
        }
    },
    {
        "id": "7204070743578738363",
        "title": "公共厕所",
        "address": "内蒙古自治区通辽市科尔沁区团结路与红光大街交叉口正南方向540米左右",
        "tel": "",
        "category": "基础设施:公共设施:公共厕所",
        "type": 0,
        "location": {
            "lat": 43.593129,
            "lng": 122.242662
        },
        "ad_info": {
            "adcode": 150502,
            "province": "内蒙古自治区",
            "city": "通辽市",
            "district": "科尔沁区"
        }
    },
    {
        "id": "6488431071290424885",
        "title": "公共厕所",
        "address": "内蒙古自治区通辽市开鲁县新开大街与环城西路交叉口正北方向53米左右",
        "tel": "",
        "category": "基础设施:公共设施:公共厕所",
        "type": 0,
        "location": {
            "lat": 43.60571,
            "lng": 121.298859
        },
        "ad_info": {
            "adcode": 150523,
            "province": "内蒙古自治区",
            "city": "通辽市",
            "district": "开鲁县"
        }
    },
    {
        "id": "3301314086556702129",
        "title": "公共厕所",
        "address": "内蒙古自治区通辽市扎鲁特旗扎鲁特大街与长城路交叉口正北方向253米左右",
        "tel": "",
        "category": "基础设施:公共设施:公共厕所",
        "type": 0,
        "location": {
            "lat": 44.653232,
            "lng": 121.220809
        },
        "ad_info": {
            "adcode": 150526,
            "province": "内蒙古自治区",
            "city": "通辽市",
            "district": "扎鲁特旗"
        }
    },
    {
        "id": "3200156079714832175",
        "title": "公共厕所",
        "address": "内蒙古自治区通辽市开鲁县C094与宝开线交叉口正北方向761米左右",
        "tel": "",
        "category": "基础设施:公共设施:公共厕所",
        "type": 0,
        "location": {
            "lat": 43.624792,
            "lng": 121.31018
        },
        "ad_info": {
            "adcode": 150523,
            "province": "内蒙古自治区",
            "city": "通辽市",
            "district": "开鲁县"
        }
    },
    {
        "id": "16193065733405022455",
        "title": "公共厕所",
        "address": "内蒙古自治区通辽市科尔沁左翼中旗友谊路与建设大街交叉口正西方向28米左右",
        "tel": "",
        "category": "基础设施:公共设施:公共厕所",
        "type": 0,
        "location": {
            "lat": 44.13101,
            "lng": 123.304882
        },
        "ad_info": {
            "adcode": 150521,
            "province": "内蒙古自治区",
            "city": "通辽市",
            "district": "科尔沁左翼中旗"
        }
    },
    {
        "id": "16072325214446166678",
        "title": "公共厕所",
        "address": "内蒙古自治区通辽市科尔沁左翼中旗天润家园东南侧250米",
        "tel": "",
        "category": "基础设施:公共设施:公共厕所",
        "type": 0,
        "location": {
            "lat": 44.023307,
            "lng": 122.752791
        },
        "ad_info": {
            "adcode": 150521,
            "province": "内蒙古自治区",
            "city": "通辽市",
            "district": "科尔沁左翼中旗"
        }
    },
    {
        "id": "2427659075709735196",
        "title": "公共厕所",
        "address": "内蒙古自治区通辽市科尔沁区中心大街与团结路交叉口东北方向54米左右",
        "tel": "",
        "category": "基础设施:公共设施:公共厕所",
        "type": 0,
        "location": {
            "lat": 43.615384,
            "lng": 122.244073
        },
        "ad_info": {
            "adcode": 150502,
            "province": "内蒙古自治区",
            "city": "通辽市",
            "district": "科尔沁区"
        }
    },
    {
        "id": "3616747609347141708",
        "title": "公共厕所",
        "address": "内蒙古自治区通辽市库伦旗中心街与养畜牧路交叉口正东方向141米左右",
        "tel": "",
        "category": "基础设施:公共设施:公共厕所",
        "type": 0,
        "location": {
            "lat": 42.730068,
            "lng": 121.772141
        },
        "ad_info": {
            "adcode": 150524,
            "province": "内蒙古自治区",
            "city": "通辽市",
            "district": "库伦旗"
        }
    },
    {
        "id": "4165952361003533708",
        "title": "公共厕所",
        "address": "内蒙古自治区通辽市开鲁县205乡道南50米",
        "tel": "",
        "category": "基础设施:公共设施:公共厕所",
        "type": 0,
        "location": {
            "lat": 43.43499,
            "lng": 120.686943
        },
        "ad_info": {
            "adcode": 150523,
            "province": "内蒙古自治区",
            "city": "通辽市",
            "district": "开鲁县"
        }
    },
    {
        "id": "13242301438944146299",
        "title": "公共厕所",
        "address": "内蒙古自治区通辽市科尔沁区滨河大街与胜利北路交叉口东北方向44米左右",
        "tel": "",
        "category": "基础设施:公共设施:公共厕所",
        "type": 0,
        "location": {
            "lat": 43.634825,
            "lng": 122.245661
        },
        "ad_info": {
            "adcode": 150502,
            "province": "内蒙古自治区",
            "city": "通辽市",
            "district": "科尔沁区"
        }
    },
    {
        "id": "12745751593788490422",
        "title": "公共厕所",
        "address": "内蒙古自治区通辽市奈曼旗光明路与解放街交叉口西北方向182米左右",
        "tel": "",
        "category": "基础设施:公共设施:公共厕所",
        "type": 0,
        "location": {
            "lat": 42.849048,
            "lng": 120.643265
        },
        "ad_info": {
            "adcode": 150525,
            "province": "内蒙古自治区",
            "city": "通辽市",
            "district": "奈曼旗"
        }
    },
    {
        "id": "916028019584210869",
        "title": "公共厕所",
        "address": "内蒙古自治区通辽市科尔沁左翼后旗305省道北50米",
        "tel": "",
        "category": "基础设施:公共设施:公共厕所",
        "type": 0,
        "location": {
            "lat": 43.179342,
            "lng": 123.207342
        },
        "ad_info": {
            "adcode": 150522,
            "province": "内蒙古自治区",
            "city": "通辽市",
            "district": "科尔沁左翼后旗"
        }
    },
    {
        "id": "9755043887281591188",
        "title": "公共厕所",
        "address": "内蒙古自治区通辽市科尔沁区交通路与西拉木伦大街交叉口东北方向392米左右",
        "tel": "",
        "category": "基础设施:公共设施:公共厕所",
        "type": 0,
        "location": {
            "lat": 43.62741,
            "lng": 122.261245
        },
        "ad_info": {
            "adcode": 150502,
            "province": "内蒙古自治区",
            "city": "通辽市",
            "district": "科尔沁区"
        }
    },
    {
        "id": "7937754426822778975",
        "title": "公共厕所",
        "address": "内蒙古自治区通辽市科尔沁区工农路与西拉木伦大街交叉口西北方向254米左右",
        "tel": "",
        "category": "基础设施:公共设施:公共厕所",
        "type": 0,
        "location": {
            "lat": 43.630121,
            "lng": 122.274755
        },
        "ad_info": {
            "adcode": 150502,
            "province": "内蒙古自治区",
            "city": "通辽市",
            "district": "科尔沁区"
        }
    },
    {
        "id": "8858545439933389122",
        "title": "公共厕所",
        "address": "内蒙古自治区通辽市科尔沁区南四街与建国北路交叉口正东方向386米左右",
        "tel": "",
        "category": "基础设施:公共设施:公共厕所",
        "type": 0,
        "location": {
            "lat": 43.689703,
            "lng": 122.266896
        },
        "ad_info": {
            "adcode": 150502,
            "province": "内蒙古自治区",
            "city": "通辽市",
            "district": "科尔沁区"
        }
    },
    {
        "id": "12761439690005821652",
        "title": "公共厕所",
        "address": "内蒙古自治区通辽市科尔沁左翼中旗G334与Y090交叉口正东方向1136米左右",
        "tel": "",
        "category": "基础设施:公共设施:公共厕所",
        "type": 0,
        "location": {
            "lat": 44.218534,
            "lng": 123.150885
        },
        "ad_info": {
            "adcode": 150521,
            "province": "内蒙古自治区",
            "city": "通辽市",
            "district": "科尔沁左翼中旗"
        }
    },
    {
        "id": "6532724768510553421",
        "title": "公共厕所",
        "address": "内蒙古自治区通辽市科尔沁区诚达·龙庭国际东南(福利路东)",
        "tel": "",
        "category": "基础设施:公共设施:公共厕所",
        "type": 0,
        "location": {
            "lat": 43.635715,
            "lng": 122.296206
        },
        "ad_info": {
            "adcode": 150502,
            "province": "内蒙古自治区",
            "city": "通辽市",
            "district": "科尔沁区"
        }
    },
    {
        "id": "16436144285587156181",
        "title": "公共厕所",
        "address": "内蒙古自治区通辽市奈曼旗G111与Y306交叉口西南方向111米左右",
        "tel": "",
        "category": "基础设施:公共设施:公共厕所",
        "type": 0,
        "location": {
            "lat": 43.304789,
            "lng": 121.218379
        },
        "ad_info": {
            "adcode": 150525,
            "province": "内蒙古自治区",
            "city": "通辽市",
            "district": "奈曼旗"
        }
    },
    {
        "id": "9756583373533233755",
        "title": "公共厕所",
        "address": "内蒙古自治区通辽市奈曼旗兴业大街与华明路交叉口西南方向153米左右",
        "tel": "",
        "category": "基础设施:公共设施:公共厕所",
        "type": 0,
        "location": {
            "lat": 42.866644,
            "lng": 120.689161
        },
        "ad_info": {
            "adcode": 150525,
            "province": "内蒙古自治区",
            "city": "通辽市",
            "district": "奈曼旗"
        }
    },
    {
        "id": "10585085169001829489",
        "title": "公共厕所",
        "address": "内蒙古自治区通辽市开鲁县G303与S304交叉口正东方向71米左右",
        "tel": "",
        "category": "基础设施:公共设施:公共厕所",
        "type": 0,
        "location": {
            "lat": 43.619709,
            "lng": 121.045176
        },
        "ad_info": {
            "adcode": 150523,
            "province": "内蒙古自治区",
            "city": "通辽市",
            "district": "开鲁县"
        }
    },
    {
        "id": "8393285741148288805",
        "title": "公共厕所",
        "address": "内蒙古自治区通辽市科尔沁区福利路与西拉木伦大街交叉口正北方向89米左右",
        "tel": "",
        "category": "基础设施:公共设施:公共厕所",
        "type": 0,
        "location": {
            "lat": 43.630788,
            "lng": 122.292965
        },
        "ad_info": {
            "adcode": 150502,
            "province": "内蒙古自治区",
            "city": "通辽市",
            "district": "科尔沁区"
        }
    },
    {
        "id": "11878827256729282972",
        "title": "公共厕所",
        "address": "内蒙古自治区通辽市科尔沁区民航路与红光大街交叉口东南方向362米左右",
        "tel": "",
        "category": "基础设施:公共设施:公共厕所",
        "type": 0,
        "location": {
            "lat": 43.595211,
            "lng": 122.252307
        },
        "ad_info": {
            "adcode": 150502,
            "province": "内蒙古自治区",
            "city": "通辽市",
            "district": "科尔沁区"
        }
    },
    {
        "id": "6636613157292623926",
        "title": "余粮堡服务区公共厕所",
        "address": "内蒙古自治区通辽市科尔沁左翼后旗大广高速余粮堡服务区",
        "tel": "",
        "category": "基础设施:公共设施:公共厕所",
        "type": 0,
        "location": {
            "lat": 43.354448,
            "lng": 121.917301
        },
        "ad_info": {
            "adcode": 150522,
            "province": "内蒙古自治区",
            "city": "通辽市",
            "district": "科尔沁左翼后旗"
        }
    },
    {
        "id": "9588016604164456772",
        "title": "公共厕所",
        "address": "内蒙古自治区通辽市科尔沁左翼中旗X461与Y114交叉口正东方向610米左右",
        "tel": "",
        "category": "基础设施:公共设施:公共厕所",
        "type": 0,
        "location": {
            "lat": 43.667005,
            "lng": 123.345257
        },
        "ad_info": {
            "adcode": 150521,
            "province": "内蒙古自治区",
            "city": "通辽市",
            "district": "科尔沁左翼中旗"
        }
    },
    {
        "id": "8259259275844762709",
        "title": "公共厕所",
        "address": "内蒙古自治区通辽市科尔沁区福利路与霍林河大街交叉口正西方向164米左右",
        "tel": "",
        "category": "基础设施:公共设施:公共厕所",
        "type": 0,
        "location": {
            "lat": 43.62735,
            "lng": 122.292078
        },
        "ad_info": {
            "adcode": 150502,
            "province": "内蒙古自治区",
            "city": "通辽市",
            "district": "科尔沁区"
        }
    },
    {
        "id": "4935110485890562759",
        "title": "公共厕所",
        "address": "内蒙古自治区通辽市奈曼旗大和线与沙和段交叉口正北方向404米左右",
        "tel": "",
        "category": "基础设施:公共设施:公共厕所",
        "type": 0,
        "location": {
            "lat": 42.346416,
            "lng": 120.809144
        },
        "ad_info": {
            "adcode": 150525,
            "province": "内蒙古自治区",
            "city": "通辽市",
            "district": "奈曼旗"
        }
    },
    {
        "id": "11125383095631431757",
        "title": "公共厕所",
        "address": "内蒙古自治区通辽市奈曼旗土城子路与西湖大街交叉口正北方向203米左右",
        "tel": "",
        "category": "基础设施:公共设施:公共厕所",
        "type": 0,
        "location": {
            "lat": 42.858282,
            "lng": 120.665724
        },
        "ad_info": {
            "adcode": 150525,
            "province": "内蒙古自治区",
            "city": "通辽市",
            "district": "奈曼旗"
        }
    },
    {
        "id": "4240356485925709426",
        "title": "公共厕所",
        "address": "内蒙古自治区通辽市奈曼旗清河路与草原街交叉口东南方向178米左右",
        "tel": "",
        "category": "基础设施:公共设施:公共厕所",
        "type": 0,
        "location": {
            "lat": 42.842162,
            "lng": 120.667654
        },
        "ad_info": {
            "adcode": 150525,
            "province": "内蒙古自治区",
            "city": "通辽市",
            "district": "奈曼旗"
        }
    },
    {
        "id": "8014472507382935633",
        "title": "公共厕所",
        "address": "内蒙古自治区通辽市科尔沁区创业大道与阿其玛大街交叉口正东方向270米左右",
        "tel": "",
        "category": "基础设施:公共设施:公共厕所",
        "type": 0,
        "location": {
            "lat": 43.646908,
            "lng": 122.225293
        },
        "ad_info": {
            "adcode": 150502,
            "province": "内蒙古自治区",
            "city": "通辽市",
            "district": "科尔沁区"
        }
    },
    {
        "id": "13056243200034019127",
        "title": "公共厕所",
        "address": "内蒙古自治区通辽市科尔沁区哲里木大街与平安路交叉口东北方向33米左右",
        "tel": "",
        "category": "基础设施:公共设施:公共厕所",
        "type": 0,
        "location": {
            "lat": 43.641342,
            "lng": 122.2785
        },
        "ad_info": {
            "adcode": 150502,
            "province": "内蒙古自治区",
            "city": "通辽市",
            "district": "科尔沁区"
        }
    },
    {
        "id": "2530036055889115508",
        "title": "公共厕所",
        "address": "内蒙古自治区通辽市扎鲁特旗G304与霍林河南互通交叉口东南方向1835米左右",
        "tel": "",
        "category": "基础设施:公共设施:公共厕所",
        "type": 0,
        "location": {
            "lat": 45.435144,
            "lng": 119.720882
        },
        "ad_info": {
            "adcode": 150526,
            "province": "内蒙古自治区",
            "city": "通辽市",
            "district": "扎鲁特旗"
        }
    },
    {
        "id": "15944941913773078492",
        "title": "公共卫生间",
        "address": "内蒙古自治区通辽市奈曼旗光明路与王府街交叉口西南方向55米左右",
        "tel": "",
        "category": "基础设施:公共设施:公共厕所",
        "type": 0,
        "location": {
            "lat": 42.846183,
            "lng": 120.645539
        },
        "ad_info": {
            "adcode": 150525,
            "province": "内蒙古自治区",
            "city": "通辽市",
            "district": "奈曼旗"
        }
    },
    {
        "id": "15750075066864630516",
        "title": "阿日昆都楞服务区公共厕所",
        "address": "内蒙古自治区通辽市扎鲁特旗304国道与阿日昆都楞服务区交叉口南300米",
        "tel": "",
        "category": "基础设施:公共设施:公共厕所",
        "type": 0,
        "location": {
            "lat": 45.202535,
            "lng": 119.962903
        },
        "ad_info": {
            "adcode": 150526,
            "province": "内蒙古自治区",
            "city": "通辽市",
            "district": "扎鲁特旗"
        }
    },
    {
        "id": "7115819932731801970",
        "title": "公共厕所",
        "address": "内蒙古自治区通辽市科尔沁区明仁大街与西顺路交叉口正西方向333米左右",
        "tel": "",
        "category": "基础设施:公共设施:公共厕所",
        "type": 0,
        "location": {
            "lat": 43.613257,
            "lng": 122.235117
        },
        "ad_info": {
            "adcode": 150502,
            "province": "内蒙古自治区",
            "city": "通辽市",
            "district": "科尔沁区"
        }
    },
    {
        "id": "4484097817895620182",
        "title": "公共厕所",
        "address": "内蒙古自治区通辽市科尔沁区团结路与西拉木伦大街交叉口正北方向278米左右",
        "tel": "",
        "category": "基础设施:公共设施:公共厕所",
        "type": 0,
        "location": {
            "lat": 43.628641,
            "lng": 122.240842
        },
        "ad_info": {
            "adcode": 150502,
            "province": "内蒙古自治区",
            "city": "通辽市",
            "district": "科尔沁区"
        }
    },
    {
        "id": "2675164515346622476",
        "title": "公共厕所",
        "address": "内蒙古自治区通辽市科尔沁左翼后旗甘旗卡职业高中西侧150米",
        "tel": "",
        "category": "基础设施:公共设施:公共厕所",
        "type": 0,
        "location": {
            "lat": 42.956558,
            "lng": 122.333648
        },
        "ad_info": {
            "adcode": 150522,
            "province": "内蒙古自治区",
            "city": "通辽市",
            "district": "科尔沁左翼后旗"
        }
    },
    {
        "id": "782093114704092241",
        "title": "公共厕所",
        "address": "内蒙古自治区通辽市科尔沁左翼后旗远鹏汽车服务修理厂东侧",
        "tel": "",
        "category": "基础设施:公共设施:公共厕所",
        "type": 0,
        "location": {
            "lat": 42.805294,
            "lng": 122.983871
        },
        "ad_info": {
            "adcode": 150522,
            "province": "内蒙古自治区",
            "city": "通辽市",
            "district": "科尔沁左翼后旗"
        }
    },
    {
        "id": "8381440342964594592",
        "title": "公共厕所",
        "address": "内蒙古自治区通辽市开鲁县G303",
        "tel": "",
        "category": "基础设施:公共设施:公共厕所",
        "type": 0,
        "location": {
            "lat": 43.634078,
            "lng": 121.428024
        },
        "ad_info": {
            "adcode": 150523,
            "province": "内蒙古自治区",
            "city": "通辽市",
            "district": "开鲁县"
        }
    },
    {
        "id": "4969986340692412806",
        "title": "公共厕所",
        "address": "内蒙古自治区通辽市奈曼旗工业路与老哈河大街交叉口正南方向1192米左右",
        "tel": "",
        "category": "基础设施:公共设施:公共厕所",
        "type": 0,
        "location": {
            "lat": 42.854214,
            "lng": 120.690671
        },
        "ad_info": {
            "adcode": 150525,
            "province": "内蒙古自治区",
            "city": "通辽市",
            "district": "奈曼旗"
        }
    },
    {
        "id": "14671558856599419807",
        "title": "公共厕所",
        "address": "内蒙古自治区通辽市奈曼旗东明街与青龙山路交叉口东北方向131米左右",
        "tel": "",
        "category": "基础设施:公共设施:公共厕所",
        "type": 0,
        "location": {
            "lat": 42.853391,
            "lng": 120.659609
        },
        "ad_info": {
            "adcode": 150525,
            "province": "内蒙古自治区",
            "city": "通辽市",
            "district": "奈曼旗"
        }
    },
    {
        "id": "2347222205876861536",
        "title": "公共厕所",
        "address": "内蒙古自治区通辽市奈曼旗老哈河大街奈曼实验小学",
        "tel": "",
        "category": "基础设施:公共设施:公共厕所",
        "type": 0,
        "location": {
            "lat": 42.858042,
            "lng": 120.653147
        },
        "ad_info": {
            "adcode": 150525,
            "province": "内蒙古自治区",
            "city": "通辽市",
            "district": "奈曼旗"
        }
    },
    {
        "id": "3826716761446830597",
        "title": "公共厕所",
        "address": "内蒙古自治区通辽市开鲁县民族路与长青街交叉口正西方向55米左右",
        "tel": "",
        "category": "基础设施:公共设施:公共厕所",
        "type": 0,
        "location": {
            "lat": 43.59736,
            "lng": 121.307358
        },
        "ad_info": {
            "adcode": 150523,
            "province": "内蒙古自治区",
            "city": "通辽市",
            "district": "开鲁县"
        }
    },
    {
        "id": "14539332145038215720",
        "title": "公共厕所",
        "address": "内蒙古自治区通辽市奈曼旗教来河大街与青龙山路交叉口西北方向241米左右",
        "tel": "",
        "category": "基础设施:公共设施:公共厕所",
        "type": 0,
        "location": {
            "lat": 42.830338,
            "lng": 120.665184
        },
        "ad_info": {
            "adcode": 150525,
            "province": "内蒙古自治区",
            "city": "通辽市",
            "district": "奈曼旗"
        }
    },
    {
        "id": "633862132896543776",
        "title": "公共厕所",
        "address": "内蒙古自治区通辽市科尔沁区鹏通花园二期东北(西拉木伦大街)",
        "tel": "",
        "category": "基础设施:公共设施:公共厕所",
        "type": 0,
        "location": {
            "lat": 43.626638,
            "lng": 122.244017
        },
        "ad_info": {
            "adcode": 150502,
            "province": "内蒙古自治区",
            "city": "通辽市",
            "district": "科尔沁区"
        }
    },
    {
        "id": "7891793820016254610",
        "title": "公共厕所",
        "address": "内蒙古自治区通辽市科尔沁区东顺路与红胜大街交叉口正南方向224米左右",
        "tel": "",
        "category": "基础设施:公共设施:公共厕所",
        "type": 0,
        "location": {
            "lat": 43.631707,
            "lng": 122.28433
        },
        "ad_info": {
            "adcode": 150502,
            "province": "内蒙古自治区",
            "city": "通辽市",
            "district": "科尔沁区"
        }
    },
    {
        "id": "8582828496667214594",
        "title": "公共厕所",
        "address": "内蒙古自治区通辽市科尔沁左翼后旗S207与大广高速交叉口正南方向1887米左右",
        "tel": "",
        "category": "基础设施:公共设施:公共厕所",
        "type": 0,
        "location": {
            "lat": 43.599802,
            "lng": 122.693318
        },
        "ad_info": {
            "adcode": 150522,
            "province": "内蒙古自治区",
            "city": "通辽市",
            "district": "科尔沁左翼后旗"
        }
    },
    {
        "id": "18163605301719652397",
        "title": "公共厕所",
        "address": "内蒙古自治区通辽市科尔沁左翼中旗G111与S304交叉口正西方向1031米左右",
        "tel": "",
        "category": "基础设施:公共设施:公共厕所",
        "type": 0,
        "location": {
            "lat": 44.038875,
            "lng": 122.021821
        },
        "ad_info": {
            "adcode": 150521,
            "province": "内蒙古自治区",
            "city": "通辽市",
            "district": "科尔沁左翼中旗"
        }
    },
    {
        "id": "4551214770806680444",
        "title": "公共厕所",
        "address": "内蒙古自治区通辽市扎鲁特旗泰山街与辽河路交叉口正南方向26米左右",
        "tel": "",
        "category": "基础设施:公共设施:公共厕所",
        "type": 0,
        "location": {
            "lat": 44.557081,
            "lng": 120.90473
        },
        "ad_info": {
            "adcode": 150526,
            "province": "内蒙古自治区",
            "city": "通辽市",
            "district": "扎鲁特旗"
        }
    },
    {
        "id": "204328764040955499",
        "title": "科尔沁迎宾馆贵宾楼-洗手间",
        "address": "内蒙古自治区通辽市科尔沁区滨河大街1510号",
        "tel": "",
        "category": "基础设施:公共设施:公共厕所",
        "type": 0,
        "location": {
            "lat": 43.636646,
            "lng": 122.247976
        },
        "ad_info": {
            "adcode": 150502,
            "province": "内蒙古自治区",
            "city": "通辽市",
            "district": "科尔沁区"
        }
    },
    {
        "id": "12741008182799218934",
        "title": "公共厕所",
        "address": "内蒙古自治区通辽市开鲁县团结路与育新街交叉口正东方向80米左右",
        "tel": "",
        "category": "基础设施:公共设施:公共厕所",
        "type": 0,
        "location": {
            "lat": 43.606886,
            "lng": 121.308778
        },
        "ad_info": {
            "adcode": 150523,
            "province": "内蒙古自治区",
            "city": "通辽市",
            "district": "开鲁县"
        }
    },
    {
        "id": "1473218484490244050",
        "title": "公共厕所",
        "address": "内蒙古自治区通辽市开鲁县利民街与幸福路交叉口正北方向36米左右",
        "tel": "",
        "category": "基础设施:公共设施:公共厕所",
        "type": 0,
        "location": {
            "lat": 43.603401,
            "lng": 121.303964
        },
        "ad_info": {
            "adcode": 150523,
            "province": "内蒙古自治区",
            "city": "通辽市",
            "district": "开鲁县"
        }
    },
    {
        "id": "17172397790417415872",
        "title": "公共厕所",
        "address": "内蒙古自治区通辽市科尔沁区福利路与科尔沁大街交叉口东南方向47米左右",
        "tel": "",
        "category": "基础设施:公共设施:公共厕所",
        "type": 0,
        "location": {
            "lat": 43.613927,
            "lng": 122.29927
        },
        "ad_info": {
            "adcode": 150502,
            "province": "内蒙古自治区",
            "city": "通辽市",
            "district": "科尔沁区"
        }
    },
    {
        "id": "2428431498504484253",
        "title": "公共厕所",
        "address": "内蒙古自治区通辽市科尔沁区451县道附近",
        "tel": "",
        "category": "基础设施:公共设施:公共厕所",
        "type": 0,
        "location": {
            "lat": 43.39507,
            "lng": 122.057492
        },
        "ad_info": {
            "adcode": 150502,
            "province": "内蒙古自治区",
            "city": "通辽市",
            "district": "科尔沁区"
        }
    },
    {
        "id": "16589330086034790371",
        "title": "公共厕所",
        "address": "内蒙古自治区通辽市奈曼旗",
        "tel": "",
        "category": "基础设施:公共设施:公共厕所",
        "type": 0,
        "location": {
            "lat": 43.341596,
            "lng": 121.52489
        },
        "ad_info": {
            "adcode": 150525,
            "province": "内蒙古自治区",
            "city": "通辽市",
            "district": "奈曼旗"
        }
    },
    {
        "id": "3005993604960651248",
        "title": "奈曼王府-公共厕所",
        "address": "内蒙古自治区通辽市奈曼旗解放街奈曼实验中学",
        "tel": "",
        "category": "基础设施:公共设施:公共厕所",
        "type": 0,
        "location": {
            "lat": 42.849413,
            "lng": 120.652149
        },
        "ad_info": {
            "adcode": 150525,
            "province": "内蒙古自治区",
            "city": "通辽市",
            "district": "奈曼旗"
        }
    },
    {
        "id": "6180370306492088061",
        "title": "公共厕所",
        "address": "内蒙古自治区通辽市科尔沁区木里图中心卫生院东北侧50米",
        "tel": "",
        "category": "基础设施:公共设施:公共厕所",
        "type": 0,
        "location": {
            "lat": 43.472364,
            "lng": 122.210457
        },
        "ad_info": {
            "adcode": 150502,
            "province": "内蒙古自治区",
            "city": "通辽市",
            "district": "科尔沁区"
        }
    },
    {
        "id": "12753691030518255064",
        "title": "公共厕所",
        "address": "内蒙古自治区通辽市科尔沁区中心大街与胜利路交叉口正西方向172米左右",
        "tel": "",
        "category": "基础设施:公共设施:公共厕所",
        "type": 0,
        "location": {
            "lat": 43.615446,
            "lng": 122.246033
        },
        "ad_info": {
            "adcode": 150502,
            "province": "内蒙古自治区",
            "city": "通辽市",
            "district": "科尔沁区"
        }
    },
    {
        "id": "16241536974132585564",
        "title": "公共厕所",
        "address": "内蒙古自治区通辽市库伦旗安达大街与萨嘎格路交叉口正西方向225米左右",
        "tel": "",
        "category": "基础设施:公共设施:公共厕所",
        "type": 0,
        "location": {
            "lat": 42.731934,
            "lng": 121.811495
        },
        "ad_info": {
            "adcode": 150524,
            "province": "内蒙古自治区",
            "city": "通辽市",
            "district": "库伦旗"
        }
    },
    {
        "id": "5842700757302876793",
        "title": "公共厕所",
        "address": "内蒙古自治区通辽市奈曼旗G111与万众街交叉口正南方向386米左右",
        "tel": "",
        "category": "基础设施:公共设施:公共厕所",
        "type": 0,
        "location": {
            "lat": 43.066364,
            "lng": 120.814774
        },
        "ad_info": {
            "adcode": 150525,
            "province": "内蒙古自治区",
            "city": "通辽市",
            "district": "奈曼旗"
        }
    },
    {
        "id": "14520363462257589457",
        "title": "公共卫生间",
        "address": "内蒙古自治区通辽市科尔沁区明仁大街露天市场(通辽市粮食局西)",
        "tel": "",
        "category": "基础设施:公共设施:公共厕所",
        "type": 0,
        "location": {
            "lat": 43.614229,
            "lng": 122.270543
        },
        "ad_info": {
            "adcode": 150502,
            "province": "内蒙古自治区",
            "city": "通辽市",
            "district": "科尔沁区"
        }
    },
    {
        "id": "11380177643707873940",
        "title": "公共厕所",
        "address": "内蒙古自治区通辽市霍林郭勒市创业路与莫斯台街交叉口正西方向74米左右",
        "tel": "",
        "category": "基础设施:公共设施:公共厕所",
        "type": 0,
        "location": {
            "lat": 45.537346,
            "lng": 119.652876
        },
        "ad_info": {
            "adcode": 150581,
            "province": "内蒙古自治区",
            "city": "通辽市",
            "district": "霍林郭勒市"
        }
    },
    {
        "id": "15554791327879616622",
        "title": "公共厕所",
        "address": "内蒙古自治区通辽市库伦旗安达大街与杏坛路交叉口东北方向62米左右",
        "tel": "",
        "category": "基础设施:公共设施:公共厕所",
        "type": 0,
        "location": {
            "lat": 42.731456,
            "lng": 121.808569
        },
        "ad_info": {
            "adcode": 150524,
            "province": "内蒙古自治区",
            "city": "通辽市",
            "district": "库伦旗"
        }
    },
    {
        "id": "13282457772946674109",
        "title": "公共厕所",
        "address": "内蒙古自治区通辽市科尔沁区昆都伦大街与铁中路交叉口正东方向185米左右",
        "tel": "",
        "category": "基础设施:公共设施:公共厕所",
        "type": 0,
        "location": {
            "lat": 43.604428,
            "lng": 122.286261
        },
        "ad_info": {
            "adcode": 150502,
            "province": "内蒙古自治区",
            "city": "通辽市",
            "district": "科尔沁区"
        }
    },
    {
        "id": "12971229661049407798",
        "title": "公共厕所",
        "address": "内蒙古自治区通辽市科尔沁左翼中旗巴彦塔拉大街与文明路交叉口西南方向50米左右",
        "tel": "",
        "category": "基础设施:公共设施:公共厕所",
        "type": 0,
        "location": {
            "lat": 44.121004,
            "lng": 123.319182
        },
        "ad_info": {
            "adcode": 150521,
            "province": "内蒙古自治区",
            "city": "通辽市",
            "district": "科尔沁左翼中旗"
        }
    },
    {
        "id": "13103265740704287660",
        "title": "公共厕所",
        "address": "内蒙古自治区通辽市科尔沁区新工一路与霍林河大街交叉口东北方向292米左右",
        "tel": "",
        "category": "基础设施:公共设施:公共厕所",
        "type": 0,
        "location": {
            "lat": 43.631157,
            "lng": 122.299254
        },
        "ad_info": {
            "adcode": 150502,
            "province": "内蒙古自治区",
            "city": "通辽市",
            "district": "科尔沁区"
        }
    },
    {
        "id": "16932643915200298304",
        "title": "公共厕所",
        "address": "内蒙古自治区通辽市科尔沁区东顺路与滨河大街交叉口东南方向236米左右",
        "tel": "",
        "category": "基础设施:公共设施:公共厕所",
        "type": 0,
        "location": {
            "lat": 43.638012,
            "lng": 122.284858
        },
        "ad_info": {
            "adcode": 150502,
            "province": "内蒙古自治区",
            "city": "通辽市",
            "district": "科尔沁区"
        }
    },
    {
        "id": "6977210018146677733",
        "title": "公共厕所",
        "address": "内蒙古自治区通辽市科尔沁区创业大道与柳荫西路交叉口正东方向447米左右",
        "tel": "",
        "category": "基础设施:公共设施:公共厕所",
        "type": 0,
        "location": {
            "lat": 43.615552,
            "lng": 122.228204
        },
        "ad_info": {
            "adcode": 150502,
            "province": "内蒙古自治区",
            "city": "通辽市",
            "district": "科尔沁区"
        }
    },
    {
        "id": "3390277641605982983",
        "title": "公共厕所",
        "address": "内蒙古自治区通辽市开鲁县环城北路与环城西路交叉口西南方向25米左右",
        "tel": "",
        "category": "基础设施:公共设施:公共厕所",
        "type": 0,
        "location": {
            "lat": 43.610714,
            "lng": 121.299987
        },
        "ad_info": {
            "adcode": 150523,
            "province": "内蒙古自治区",
            "city": "通辽市",
            "district": "开鲁县"
        }
    },
    {
        "id": "16225182435691563275",
        "title": "公共厕所",
        "address": "内蒙古自治区通辽市科尔沁区中心大街与团结路交叉口西北方向125米左右",
        "tel": "",
        "category": "基础设施:公共设施:公共厕所",
        "type": 0,
        "location": {
            "lat": 43.615927,
            "lng": 122.242426
        },
        "ad_info": {
            "adcode": 150502,
            "province": "内蒙古自治区",
            "city": "通辽市",
            "district": "科尔沁区"
        }
    },
    {
        "id": "1167132757105018705",
        "title": "公共厕所",
        "address": "内蒙古自治区通辽市科尔沁左翼中旗建设大街与文明路交叉口正西方向65米左右",
        "tel": "",
        "category": "基础设施:公共设施:公共厕所",
        "type": 0,
        "location": {
            "lat": 44.129447,
            "lng": 123.316883
        },
        "ad_info": {
            "adcode": 150521,
            "province": "内蒙古自治区",
            "city": "通辽市",
            "district": "科尔沁左翼中旗"
        }
    },
    {
        "id": "8134015456168042013",
        "title": "公共厕所",
        "address": "内蒙古自治区通辽市奈曼旗X456与东八段交叉口正北方向68米左右",
        "tel": "",
        "category": "基础设施:公共设施:公共厕所",
        "type": 0,
        "location": {
            "lat": 43.209732,
            "lng": 121.03598
        },
        "ad_info": {
            "adcode": 150525,
            "province": "内蒙古自治区",
            "city": "通辽市",
            "district": "奈曼旗"
        }
    },
    {
        "id": "4744858176937526778",
        "title": "公共厕所",
        "address": "内蒙古自治区通辽市开鲁县民开线与204乡道交叉口西340米",
        "tel": "",
        "category": "基础设施:公共设施:公共厕所",
        "type": 0,
        "location": {
            "lat": 44.0285,
            "lng": 121.111078
        },
        "ad_info": {
            "adcode": 150523,
            "province": "内蒙古自治区",
            "city": "通辽市",
            "district": "开鲁县"
        }
    },
    {
        "id": "2936986754014796822",
        "title": "公共厕所",
        "address": "内蒙古自治区通辽市库伦旗S216与Y294交叉口正西方向549米左右",
        "tel": "",
        "category": "基础设施:公共设施:公共厕所",
        "type": 0,
        "location": {
            "lat": 42.464922,
            "lng": 121.247709
        },
        "ad_info": {
            "adcode": 150524,
            "province": "内蒙古自治区",
            "city": "通辽市",
            "district": "库伦旗"
        }
    },
    {
        "id": "16589330086034790371",
        "title": "公共厕所",
        "address": "内蒙古自治区通辽市奈曼旗",
        "tel": "",
        "category": "基础设施:公共设施:公共厕所",
        "type": 0,
        "location": {
            "lat": 43.341596,
            "lng": 121.52489
        },
        "ad_info": {
            "adcode": 150525,
            "province": "内蒙古自治区",
            "city": "通辽市",
            "district": "奈曼旗"
        }
    },
    {
        "id": "3005993604960651248",
        "title": "奈曼王府-公共厕所",
        "address": "内蒙古自治区通辽市奈曼旗解放街奈曼实验中学",
        "tel": "",
        "category": "基础设施:公共设施:公共厕所",
        "type": 0,
        "location": {
            "lat": 42.849413,
            "lng": 120.652149
        },
        "ad_info": {
            "adcode": 150525,
            "province": "内蒙古自治区",
            "city": "通辽市",
            "district": "奈曼旗"
        }
    },
    {
        "id": "6180370306492088061",
        "title": "公共厕所",
        "address": "内蒙古自治区通辽市科尔沁区木里图中心卫生院东北侧50米",
        "tel": "",
        "category": "基础设施:公共设施:公共厕所",
        "type": 0,
        "location": {
            "lat": 43.472364,
            "lng": 122.210457
        },
        "ad_info": {
            "adcode": 150502,
            "province": "内蒙古自治区",
            "city": "通辽市",
            "district": "科尔沁区"
        }
    },
    {
        "id": "12753691030518255064",
        "title": "公共厕所",
        "address": "内蒙古自治区通辽市科尔沁区中心大街与胜利路交叉口正西方向172米左右",
        "tel": "",
        "category": "基础设施:公共设施:公共厕所",
        "type": 0,
        "location": {
            "lat": 43.615446,
            "lng": 122.246033
        },
        "ad_info": {
            "adcode": 150502,
            "province": "内蒙古自治区",
            "city": "通辽市",
            "district": "科尔沁区"
        }
    },
    {
        "id": "16241536974132585564",
        "title": "公共厕所",
        "address": "内蒙古自治区通辽市库伦旗安达大街与萨嘎格路交叉口正西方向225米左右",
        "tel": "",
        "category": "基础设施:公共设施:公共厕所",
        "type": 0,
        "location": {
            "lat": 42.731934,
            "lng": 121.811495
        },
        "ad_info": {
            "adcode": 150524,
            "province": "内蒙古自治区",
            "city": "通辽市",
            "district": "库伦旗"
        }
    },
    {
        "id": "5842700757302876793",
        "title": "公共厕所",
        "address": "内蒙古自治区通辽市奈曼旗G111与万众街交叉口正南方向386米左右",
        "tel": "",
        "category": "基础设施:公共设施:公共厕所",
        "type": 0,
        "location": {
            "lat": 43.066364,
            "lng": 120.814774
        },
        "ad_info": {
            "adcode": 150525,
            "province": "内蒙古自治区",
            "city": "通辽市",
            "district": "奈曼旗"
        }
    },
    {
        "id": "14520363462257589457",
        "title": "公共卫生间",
        "address": "内蒙古自治区通辽市科尔沁区明仁大街露天市场(通辽市粮食局西)",
        "tel": "",
        "category": "基础设施:公共设施:公共厕所",
        "type": 0,
        "location": {
            "lat": 43.614229,
            "lng": 122.270543
        },
        "ad_info": {
            "adcode": 150502,
            "province": "内蒙古自治区",
            "city": "通辽市",
            "district": "科尔沁区"
        }
    },
    {
        "id": "11380177643707873940",
        "title": "公共厕所",
        "address": "内蒙古自治区通辽市霍林郭勒市创业路与莫斯台街交叉口正西方向74米左右",
        "tel": "",
        "category": "基础设施:公共设施:公共厕所",
        "type": 0,
        "location": {
            "lat": 45.537346,
            "lng": 119.652876
        },
        "ad_info": {
            "adcode": 150581,
            "province": "内蒙古自治区",
            "city": "通辽市",
            "district": "霍林郭勒市"
        }
    },
    {
        "id": "15554791327879616622",
        "title": "公共厕所",
        "address": "内蒙古自治区通辽市库伦旗安达大街与杏坛路交叉口东北方向62米左右",
        "tel": "",
        "category": "基础设施:公共设施:公共厕所",
        "type": 0,
        "location": {
            "lat": 42.731456,
            "lng": 121.808569
        },
        "ad_info": {
            "adcode": 150524,
            "province": "内蒙古自治区",
            "city": "通辽市",
            "district": "库伦旗"
        }
    },
    {
        "id": "13282457772946674109",
        "title": "公共厕所",
        "address": "内蒙古自治区通辽市科尔沁区昆都伦大街与铁中路交叉口正东方向185米左右",
        "tel": "",
        "category": "基础设施:公共设施:公共厕所",
        "type": 0,
        "location": {
            "lat": 43.604428,
            "lng": 122.286261
        },
        "ad_info": {
            "adcode": 150502,
            "province": "内蒙古自治区",
            "city": "通辽市",
            "district": "科尔沁区"
        }
    },
    {
        "id": "12971229661049407798",
        "title": "公共厕所",
        "address": "内蒙古自治区通辽市科尔沁左翼中旗巴彦塔拉大街与文明路交叉口西南方向50米左右",
        "tel": "",
        "category": "基础设施:公共设施:公共厕所",
        "type": 0,
        "location": {
            "lat": 44.121004,
            "lng": 123.319182
        },
        "ad_info": {
            "adcode": 150521,
            "province": "内蒙古自治区",
            "city": "通辽市",
            "district": "科尔沁左翼中旗"
        }
    },
    {
        "id": "13103265740704287660",
        "title": "公共厕所",
        "address": "内蒙古自治区通辽市科尔沁区新工一路与霍林河大街交叉口东北方向292米左右",
        "tel": "",
        "category": "基础设施:公共设施:公共厕所",
        "type": 0,
        "location": {
            "lat": 43.631157,
            "lng": 122.299254
        },
        "ad_info": {
            "adcode": 150502,
            "province": "内蒙古自治区",
            "city": "通辽市",
            "district": "科尔沁区"
        }
    },
    {
        "id": "16932643915200298304",
        "title": "公共厕所",
        "address": "内蒙古自治区通辽市科尔沁区东顺路与滨河大街交叉口东南方向236米左右",
        "tel": "",
        "category": "基础设施:公共设施:公共厕所",
        "type": 0,
        "location": {
            "lat": 43.638012,
            "lng": 122.284858
        },
        "ad_info": {
            "adcode": 150502,
            "province": "内蒙古自治区",
            "city": "通辽市",
            "district": "科尔沁区"
        }
    },
    {
        "id": "6977210018146677733",
        "title": "公共厕所",
        "address": "内蒙古自治区通辽市科尔沁区创业大道与柳荫西路交叉口正东方向447米左右",
        "tel": "",
        "category": "基础设施:公共设施:公共厕所",
        "type": 0,
        "location": {
            "lat": 43.615552,
            "lng": 122.228204
        },
        "ad_info": {
            "adcode": 150502,
            "province": "内蒙古自治区",
            "city": "通辽市",
            "district": "科尔沁区"
        }
    },
    {
        "id": "3390277641605982983",
        "title": "公共厕所",
        "address": "内蒙古自治区通辽市开鲁县环城北路与环城西路交叉口西南方向25米左右",
        "tel": "",
        "category": "基础设施:公共设施:公共厕所",
        "type": 0,
        "location": {
            "lat": 43.610714,
            "lng": 121.299987
        },
        "ad_info": {
            "adcode": 150523,
            "province": "内蒙古自治区",
            "city": "通辽市",
            "district": "开鲁县"
        }
    },
    {
        "id": "16225182435691563275",
        "title": "公共厕所",
        "address": "内蒙古自治区通辽市科尔沁区中心大街与团结路交叉口西北方向125米左右",
        "tel": "",
        "category": "基础设施:公共设施:公共厕所",
        "type": 0,
        "location": {
            "lat": 43.615927,
            "lng": 122.242426
        },
        "ad_info": {
            "adcode": 150502,
            "province": "内蒙古自治区",
            "city": "通辽市",
            "district": "科尔沁区"
        }
    },
    {
        "id": "1167132757105018705",
        "title": "公共厕所",
        "address": "内蒙古自治区通辽市科尔沁左翼中旗建设大街与文明路交叉口正西方向65米左右",
        "tel": "",
        "category": "基础设施:公共设施:公共厕所",
        "type": 0,
        "location": {
            "lat": 44.129447,
            "lng": 123.316883
        },
        "ad_info": {
            "adcode": 150521,
            "province": "内蒙古自治区",
            "city": "通辽市",
            "district": "科尔沁左翼中旗"
        }
    },
    {
        "id": "8134015456168042013",
        "title": "公共厕所",
        "address": "内蒙古自治区通辽市奈曼旗X456与东八段交叉口正北方向68米左右",
        "tel": "",
        "category": "基础设施:公共设施:公共厕所",
        "type": 0,
        "location": {
            "lat": 43.209732,
            "lng": 121.03598
        },
        "ad_info": {
            "adcode": 150525,
            "province": "内蒙古自治区",
            "city": "通辽市",
            "district": "奈曼旗"
        }
    },
    {
        "id": "4744858176937526778",
        "title": "公共厕所",
        "address": "内蒙古自治区通辽市开鲁县民开线与204乡道交叉口西340米",
        "tel": "",
        "category": "基础设施:公共设施:公共厕所",
        "type": 0,
        "location": {
            "lat": 44.0285,
            "lng": 121.111078
        },
        "ad_info": {
            "adcode": 150523,
            "province": "内蒙古自治区",
            "city": "通辽市",
            "district": "开鲁县"
        }
    },
    {
        "id": "2936986754014796822",
        "title": "公共厕所",
        "address": "内蒙古自治区通辽市库伦旗S216与Y294交叉口正西方向549米左右",
        "tel": "",
        "category": "基础设施:公共设施:公共厕所",
        "type": 0,
        "location": {
            "lat": 42.464922,
            "lng": 121.247709
        },
        "ad_info": {
            "adcode": 150524,
            "province": "内蒙古自治区",
            "city": "通辽市",
            "district": "库伦旗"
        }
    },
    {
        "id": "16589330086034790371",
        "title": "公共厕所",
        "address": "内蒙古自治区通辽市奈曼旗",
        "tel": "",
        "category": "基础设施:公共设施:公共厕所",
        "type": 0,
        "location": {
            "lat": 43.341596,
            "lng": 121.52489
        },
        "ad_info": {
            "adcode": 150525,
            "province": "内蒙古自治区",
            "city": "通辽市",
            "district": "奈曼旗"
        }
    },
    {
        "id": "3005993604960651248",
        "title": "奈曼王府-公共厕所",
        "address": "内蒙古自治区通辽市奈曼旗解放街奈曼实验中学",
        "tel": "",
        "category": "基础设施:公共设施:公共厕所",
        "type": 0,
        "location": {
            "lat": 42.849413,
            "lng": 120.652149
        },
        "ad_info": {
            "adcode": 150525,
            "province": "内蒙古自治区",
            "city": "通辽市",
            "district": "奈曼旗"
        }
    },
    {
        "id": "6180370306492088061",
        "title": "公共厕所",
        "address": "内蒙古自治区通辽市科尔沁区木里图中心卫生院东北侧50米",
        "tel": "",
        "category": "基础设施:公共设施:公共厕所",
        "type": 0,
        "location": {
            "lat": 43.472364,
            "lng": 122.210457
        },
        "ad_info": {
            "adcode": 150502,
            "province": "内蒙古自治区",
            "city": "通辽市",
            "district": "科尔沁区"
        }
    },
    {
        "id": "12753691030518255064",
        "title": "公共厕所",
        "address": "内蒙古自治区通辽市科尔沁区中心大街与胜利路交叉口正西方向172米左右",
        "tel": "",
        "category": "基础设施:公共设施:公共厕所",
        "type": 0,
        "location": {
            "lat": 43.615446,
            "lng": 122.246033
        },
        "ad_info": {
            "adcode": 150502,
            "province": "内蒙古自治区",
            "city": "通辽市",
            "district": "科尔沁区"
        }
    },
    {
        "id": "16241536974132585564",
        "title": "公共厕所",
        "address": "内蒙古自治区通辽市库伦旗安达大街与萨嘎格路交叉口正西方向225米左右",
        "tel": "",
        "category": "基础设施:公共设施:公共厕所",
        "type": 0,
        "location": {
            "lat": 42.731934,
            "lng": 121.811495
        },
        "ad_info": {
            "adcode": 150524,
            "province": "内蒙古自治区",
            "city": "通辽市",
            "district": "库伦旗"
        }
    },
    {
        "id": "5842700757302876793",
        "title": "公共厕所",
        "address": "内蒙古自治区通辽市奈曼旗G111与万众街交叉口正南方向386米左右",
        "tel": "",
        "category": "基础设施:公共设施:公共厕所",
        "type": 0,
        "location": {
            "lat": 43.066364,
            "lng": 120.814774
        },
        "ad_info": {
            "adcode": 150525,
            "province": "内蒙古自治区",
            "city": "通辽市",
            "district": "奈曼旗"
        }
    },
    {
        "id": "14520363462257589457",
        "title": "公共卫生间",
        "address": "内蒙古自治区通辽市科尔沁区明仁大街露天市场(通辽市粮食局西)",
        "tel": "",
        "category": "基础设施:公共设施:公共厕所",
        "type": 0,
        "location": {
            "lat": 43.614229,
            "lng": 122.270543
        },
        "ad_info": {
            "adcode": 150502,
            "province": "内蒙古自治区",
            "city": "通辽市",
            "district": "科尔沁区"
        }
    },
    {
        "id": "11380177643707873940",
        "title": "公共厕所",
        "address": "内蒙古自治区通辽市霍林郭勒市创业路与莫斯台街交叉口正西方向74米左右",
        "tel": "",
        "category": "基础设施:公共设施:公共厕所",
        "type": 0,
        "location": {
            "lat": 45.537346,
            "lng": 119.652876
        },
        "ad_info": {
            "adcode": 150581,
            "province": "内蒙古自治区",
            "city": "通辽市",
            "district": "霍林郭勒市"
        }
    },
    {
        "id": "15554791327879616622",
        "title": "公共厕所",
        "address": "内蒙古自治区通辽市库伦旗安达大街与杏坛路交叉口东北方向62米左右",
        "tel": "",
        "category": "基础设施:公共设施:公共厕所",
        "type": 0,
        "location": {
            "lat": 42.731456,
            "lng": 121.808569
        },
        "ad_info": {
            "adcode": 150524,
            "province": "内蒙古自治区",
            "city": "通辽市",
            "district": "库伦旗"
        }
    },
    {
        "id": "13282457772946674109",
        "title": "公共厕所",
        "address": "内蒙古自治区通辽市科尔沁区昆都伦大街与铁中路交叉口正东方向185米左右",
        "tel": "",
        "category": "基础设施:公共设施:公共厕所",
        "type": 0,
        "location": {
            "lat": 43.604428,
            "lng": 122.286261
        },
        "ad_info": {
            "adcode": 150502,
            "province": "内蒙古自治区",
            "city": "通辽市",
            "district": "科尔沁区"
        }
    },
    {
        "id": "12971229661049407798",
        "title": "公共厕所",
        "address": "内蒙古自治区通辽市科尔沁左翼中旗巴彦塔拉大街与文明路交叉口西南方向50米左右",
        "tel": "",
        "category": "基础设施:公共设施:公共厕所",
        "type": 0,
        "location": {
            "lat": 44.121004,
            "lng": 123.319182
        },
        "ad_info": {
            "adcode": 150521,
            "province": "内蒙古自治区",
            "city": "通辽市",
            "district": "科尔沁左翼中旗"
        }
    },
    {
        "id": "13103265740704287660",
        "title": "公共厕所",
        "address": "内蒙古自治区通辽市科尔沁区新工一路与霍林河大街交叉口东北方向292米左右",
        "tel": "",
        "category": "基础设施:公共设施:公共厕所",
        "type": 0,
        "location": {
            "lat": 43.631157,
            "lng": 122.299254
        },
        "ad_info": {
            "adcode": 150502,
            "province": "内蒙古自治区",
            "city": "通辽市",
            "district": "科尔沁区"
        }
    },
    {
        "id": "16932643915200298304",
        "title": "公共厕所",
        "address": "内蒙古自治区通辽市科尔沁区东顺路与滨河大街交叉口东南方向236米左右",
        "tel": "",
        "category": "基础设施:公共设施:公共厕所",
        "type": 0,
        "location": {
            "lat": 43.638012,
            "lng": 122.284858
        },
        "ad_info": {
            "adcode": 150502,
            "province": "内蒙古自治区",
            "city": "通辽市",
            "district": "科尔沁区"
        }
    },
    {
        "id": "6977210018146677733",
        "title": "公共厕所",
        "address": "内蒙古自治区通辽市科尔沁区创业大道与柳荫西路交叉口正东方向447米左右",
        "tel": "",
        "category": "基础设施:公共设施:公共厕所",
        "type": 0,
        "location": {
            "lat": 43.615552,
            "lng": 122.228204
        },
        "ad_info": {
            "adcode": 150502,
            "province": "内蒙古自治区",
            "city": "通辽市",
            "district": "科尔沁区"
        }
    },
    {
        "id": "3390277641605982983",
        "title": "公共厕所",
        "address": "内蒙古自治区通辽市开鲁县环城北路与环城西路交叉口西南方向25米左右",
        "tel": "",
        "category": "基础设施:公共设施:公共厕所",
        "type": 0,
        "location": {
            "lat": 43.610714,
            "lng": 121.299987
        },
        "ad_info": {
            "adcode": 150523,
            "province": "内蒙古自治区",
            "city": "通辽市",
            "district": "开鲁县"
        }
    },
    {
        "id": "16225182435691563275",
        "title": "公共厕所",
        "address": "内蒙古自治区通辽市科尔沁区中心大街与团结路交叉口西北方向125米左右",
        "tel": "",
        "category": "基础设施:公共设施:公共厕所",
        "type": 0,
        "location": {
            "lat": 43.615927,
            "lng": 122.242426
        },
        "ad_info": {
            "adcode": 150502,
            "province": "内蒙古自治区",
            "city": "通辽市",
            "district": "科尔沁区"
        }
    },
    {
        "id": "1167132757105018705",
        "title": "公共厕所",
        "address": "内蒙古自治区通辽市科尔沁左翼中旗建设大街与文明路交叉口正西方向65米左右",
        "tel": "",
        "category": "基础设施:公共设施:公共厕所",
        "type": 0,
        "location": {
            "lat": 44.129447,
            "lng": 123.316883
        },
        "ad_info": {
            "adcode": 150521,
            "province": "内蒙古自治区",
            "city": "通辽市",
            "district": "科尔沁左翼中旗"
        }
    },
    {
        "id": "8134015456168042013",
        "title": "公共厕所",
        "address": "内蒙古自治区通辽市奈曼旗X456与东八段交叉口正北方向68米左右",
        "tel": "",
        "category": "基础设施:公共设施:公共厕所",
        "type": 0,
        "location": {
            "lat": 43.209732,
            "lng": 121.03598
        },
        "ad_info": {
            "adcode": 150525,
            "province": "内蒙古自治区",
            "city": "通辽市",
            "district": "奈曼旗"
        }
    },
    {
        "id": "4744858176937526778",
        "title": "公共厕所",
        "address": "内蒙古自治区通辽市开鲁县民开线与204乡道交叉口西340米",
        "tel": "",
        "category": "基础设施:公共设施:公共厕所",
        "type": 0,
        "location": {
            "lat": 44.0285,
            "lng": 121.111078
        },
        "ad_info": {
            "adcode": 150523,
            "province": "内蒙古自治区",
            "city": "通辽市",
            "district": "开鲁县"
        }
    },
    {
        "id": "2936986754014796822",
        "title": "公共厕所",
        "address": "内蒙古自治区通辽市库伦旗S216与Y294交叉口正西方向549米左右",
        "tel": "",
        "category": "基础设施:公共设施:公共厕所",
        "type": 0,
        "location": {
            "lat": 42.464922,
            "lng": 121.247709
        },
        "ad_info": {
            "adcode": 150524,
            "province": "内蒙古自治区",
            "city": "通辽市",
            "district": "库伦旗"
        }
    },
    {
        "id": "16589330086034790371",
        "title": "公共厕所",
        "address": "内蒙古自治区通辽市奈曼旗",
        "tel": "",
        "category": "基础设施:公共设施:公共厕所",
        "type": 0,
        "location": {
            "lat": 43.341596,
            "lng": 121.52489
        },
        "ad_info": {
            "adcode": 150525,
            "province": "内蒙古自治区",
            "city": "通辽市",
            "district": "奈曼旗"
        }
    },
    {
        "id": "3005993604960651248",
        "title": "奈曼王府-公共厕所",
        "address": "内蒙古自治区通辽市奈曼旗解放街奈曼实验中学",
        "tel": "",
        "category": "基础设施:公共设施:公共厕所",
        "type": 0,
        "location": {
            "lat": 42.849413,
            "lng": 120.652149
        },
        "ad_info": {
            "adcode": 150525,
            "province": "内蒙古自治区",
            "city": "通辽市",
            "district": "奈曼旗"
        }
    },
    {
        "id": "6180370306492088061",
        "title": "公共厕所",
        "address": "内蒙古自治区通辽市科尔沁区木里图中心卫生院东北侧50米",
        "tel": "",
        "category": "基础设施:公共设施:公共厕所",
        "type": 0,
        "location": {
            "lat": 43.472364,
            "lng": 122.210457
        },
        "ad_info": {
            "adcode": 150502,
            "province": "内蒙古自治区",
            "city": "通辽市",
            "district": "科尔沁区"
        }
    },
    {
        "id": "12753691030518255064",
        "title": "公共厕所",
        "address": "内蒙古自治区通辽市科尔沁区中心大街与胜利路交叉口正西方向172米左右",
        "tel": "",
        "category": "基础设施:公共设施:公共厕所",
        "type": 0,
        "location": {
            "lat": 43.615446,
            "lng": 122.246033
        },
        "ad_info": {
            "adcode": 150502,
            "province": "内蒙古自治区",
            "city": "通辽市",
            "district": "科尔沁区"
        }
    },
    {
        "id": "16241536974132585564",
        "title": "公共厕所",
        "address": "内蒙古自治区通辽市库伦旗安达大街与萨嘎格路交叉口正西方向225米左右",
        "tel": "",
        "category": "基础设施:公共设施:公共厕所",
        "type": 0,
        "location": {
            "lat": 42.731934,
            "lng": 121.811495
        },
        "ad_info": {
            "adcode": 150524,
            "province": "内蒙古自治区",
            "city": "通辽市",
            "district": "库伦旗"
        }
    },
    {
        "id": "5842700757302876793",
        "title": "公共厕所",
        "address": "内蒙古自治区通辽市奈曼旗G111与万众街交叉口正南方向386米左右",
        "tel": "",
        "category": "基础设施:公共设施:公共厕所",
        "type": 0,
        "location": {
            "lat": 43.066364,
            "lng": 120.814774
        },
        "ad_info": {
            "adcode": 150525,
            "province": "内蒙古自治区",
            "city": "通辽市",
            "district": "奈曼旗"
        }
    },
    {
        "id": "14520363462257589457",
        "title": "公共卫生间",
        "address": "内蒙古自治区通辽市科尔沁区明仁大街露天市场(通辽市粮食局西)",
        "tel": "",
        "category": "基础设施:公共设施:公共厕所",
        "type": 0,
        "location": {
            "lat": 43.614229,
            "lng": 122.270543
        },
        "ad_info": {
            "adcode": 150502,
            "province": "内蒙古自治区",
            "city": "通辽市",
            "district": "科尔沁区"
        }
    },
    {
        "id": "11380177643707873940",
        "title": "公共厕所",
        "address": "内蒙古自治区通辽市霍林郭勒市创业路与莫斯台街交叉口正西方向74米左右",
        "tel": "",
        "category": "基础设施:公共设施:公共厕所",
        "type": 0,
        "location": {
            "lat": 45.537346,
            "lng": 119.652876
        },
        "ad_info": {
            "adcode": 150581,
            "province": "内蒙古自治区",
            "city": "通辽市",
            "district": "霍林郭勒市"
        }
    },
    {
        "id": "15554791327879616622",
        "title": "公共厕所",
        "address": "内蒙古自治区通辽市库伦旗安达大街与杏坛路交叉口东北方向62米左右",
        "tel": "",
        "category": "基础设施:公共设施:公共厕所",
        "type": 0,
        "location": {
            "lat": 42.731456,
            "lng": 121.808569
        },
        "ad_info": {
            "adcode": 150524,
            "province": "内蒙古自治区",
            "city": "通辽市",
            "district": "库伦旗"
        }
    },
    {
        "id": "13282457772946674109",
        "title": "公共厕所",
        "address": "内蒙古自治区通辽市科尔沁区昆都伦大街与铁中路交叉口正东方向185米左右",
        "tel": "",
        "category": "基础设施:公共设施:公共厕所",
        "type": 0,
        "location": {
            "lat": 43.604428,
            "lng": 122.286261
        },
        "ad_info": {
            "adcode": 150502,
            "province": "内蒙古自治区",
            "city": "通辽市",
            "district": "科尔沁区"
        }
    },
    {
        "id": "12971229661049407798",
        "title": "公共厕所",
        "address": "内蒙古自治区通辽市科尔沁左翼中旗巴彦塔拉大街与文明路交叉口西南方向50米左右",
        "tel": "",
        "category": "基础设施:公共设施:公共厕所",
        "type": 0,
        "location": {
            "lat": 44.121004,
            "lng": 123.319182
        },
        "ad_info": {
            "adcode": 150521,
            "province": "内蒙古自治区",
            "city": "通辽市",
            "district": "科尔沁左翼中旗"
        }
    },
    {
        "id": "13103265740704287660",
        "title": "公共厕所",
        "address": "内蒙古自治区通辽市科尔沁区新工一路与霍林河大街交叉口东北方向292米左右",
        "tel": "",
        "category": "基础设施:公共设施:公共厕所",
        "type": 0,
        "location": {
            "lat": 43.631157,
            "lng": 122.299254
        },
        "ad_info": {
            "adcode": 150502,
            "province": "内蒙古自治区",
            "city": "通辽市",
            "district": "科尔沁区"
        }
    },
    {
        "id": "16932643915200298304",
        "title": "公共厕所",
        "address": "内蒙古自治区通辽市科尔沁区东顺路与滨河大街交叉口东南方向236米左右",
        "tel": "",
        "category": "基础设施:公共设施:公共厕所",
        "type": 0,
        "location": {
            "lat": 43.638012,
            "lng": 122.284858
        },
        "ad_info": {
            "adcode": 150502,
            "province": "内蒙古自治区",
            "city": "通辽市",
            "district": "科尔沁区"
        }
    },
    {
        "id": "6977210018146677733",
        "title": "公共厕所",
        "address": "内蒙古自治区通辽市科尔沁区创业大道与柳荫西路交叉口正东方向447米左右",
        "tel": "",
        "category": "基础设施:公共设施:公共厕所",
        "type": 0,
        "location": {
            "lat": 43.615552,
            "lng": 122.228204
        },
        "ad_info": {
            "adcode": 150502,
            "province": "内蒙古自治区",
            "city": "通辽市",
            "district": "科尔沁区"
        }
    },
    {
        "id": "3390277641605982983",
        "title": "公共厕所",
        "address": "内蒙古自治区通辽市开鲁县环城北路与环城西路交叉口西南方向25米左右",
        "tel": "",
        "category": "基础设施:公共设施:公共厕所",
        "type": 0,
        "location": {
            "lat": 43.610714,
            "lng": 121.299987
        },
        "ad_info": {
            "adcode": 150523,
            "province": "内蒙古自治区",
            "city": "通辽市",
            "district": "开鲁县"
        }
    },
    {
        "id": "16225182435691563275",
        "title": "公共厕所",
        "address": "内蒙古自治区通辽市科尔沁区中心大街与团结路交叉口西北方向125米左右",
        "tel": "",
        "category": "基础设施:公共设施:公共厕所",
        "type": 0,
        "location": {
            "lat": 43.615927,
            "lng": 122.242426
        },
        "ad_info": {
            "adcode": 150502,
            "province": "内蒙古自治区",
            "city": "通辽市",
            "district": "科尔沁区"
        }
    },
    {
        "id": "1167132757105018705",
        "title": "公共厕所",
        "address": "内蒙古自治区通辽市科尔沁左翼中旗建设大街与文明路交叉口正西方向65米左右",
        "tel": "",
        "category": "基础设施:公共设施:公共厕所",
        "type": 0,
        "location": {
            "lat": 44.129447,
            "lng": 123.316883
        },
        "ad_info": {
            "adcode": 150521,
            "province": "内蒙古自治区",
            "city": "通辽市",
            "district": "科尔沁左翼中旗"
        }
    },
    {
        "id": "8134015456168042013",
        "title": "公共厕所",
        "address": "内蒙古自治区通辽市奈曼旗X456与东八段交叉口正北方向68米左右",
        "tel": "",
        "category": "基础设施:公共设施:公共厕所",
        "type": 0,
        "location": {
            "lat": 43.209732,
            "lng": 121.03598
        },
        "ad_info": {
            "adcode": 150525,
            "province": "内蒙古自治区",
            "city": "通辽市",
            "district": "奈曼旗"
        }
    },
    {
        "id": "4744858176937526778",
        "title": "公共厕所",
        "address": "内蒙古自治区通辽市开鲁县民开线与204乡道交叉口西340米",
        "tel": "",
        "category": "基础设施:公共设施:公共厕所",
        "type": 0,
        "location": {
            "lat": 44.0285,
            "lng": 121.111078
        },
        "ad_info": {
            "adcode": 150523,
            "province": "内蒙古自治区",
            "city": "通辽市",
            "district": "开鲁县"
        }
    },
    {
        "id": "2936986754014796822",
        "title": "公共厕所",
        "address": "内蒙古自治区通辽市库伦旗S216与Y294交叉口正西方向549米左右",
        "tel": "",
        "category": "基础设施:公共设施:公共厕所",
        "type": 0,
        "location": {
            "lat": 42.464922,
            "lng": 121.247709
        },
        "ad_info": {
            "adcode": 150524,
            "province": "内蒙古自治区",
            "city": "通辽市",
            "district": "库伦旗"
        }
    },
    {
        "id": "16589330086034790371",
        "title": "公共厕所",
        "address": "内蒙古自治区通辽市奈曼旗",
        "tel": "",
        "category": "基础设施:公共设施:公共厕所",
        "type": 0,
        "location": {
            "lat": 43.341596,
            "lng": 121.52489
        },
        "ad_info": {
            "adcode": 150525,
            "province": "内蒙古自治区",
            "city": "通辽市",
            "district": "奈曼旗"
        }
    },
    {
        "id": "3005993604960651248",
        "title": "奈曼王府-公共厕所",
        "address": "内蒙古自治区通辽市奈曼旗解放街奈曼实验中学",
        "tel": "",
        "category": "基础设施:公共设施:公共厕所",
        "type": 0,
        "location": {
            "lat": 42.849413,
            "lng": 120.652149
        },
        "ad_info": {
            "adcode": 150525,
            "province": "内蒙古自治区",
            "city": "通辽市",
            "district": "奈曼旗"
        }
    },
    {
        "id": "6180370306492088061",
        "title": "公共厕所",
        "address": "内蒙古自治区通辽市科尔沁区木里图中心卫生院东北侧50米",
        "tel": "",
        "category": "基础设施:公共设施:公共厕所",
        "type": 0,
        "location": {
            "lat": 43.472364,
            "lng": 122.210457
        },
        "ad_info": {
            "adcode": 150502,
            "province": "内蒙古自治区",
            "city": "通辽市",
            "district": "科尔沁区"
        }
    },
    {
        "id": "12753691030518255064",
        "title": "公共厕所",
        "address": "内蒙古自治区通辽市科尔沁区中心大街与胜利路交叉口正西方向172米左右",
        "tel": "",
        "category": "基础设施:公共设施:公共厕所",
        "type": 0,
        "location": {
            "lat": 43.615446,
            "lng": 122.246033
        },
        "ad_info": {
            "adcode": 150502,
            "province": "内蒙古自治区",
            "city": "通辽市",
            "district": "科尔沁区"
        }
    },
    {
        "id": "16241536974132585564",
        "title": "公共厕所",
        "address": "内蒙古自治区通辽市库伦旗安达大街与萨嘎格路交叉口正西方向225米左右",
        "tel": "",
        "category": "基础设施:公共设施:公共厕所",
        "type": 0,
        "location": {
            "lat": 42.731934,
            "lng": 121.811495
        },
        "ad_info": {
            "adcode": 150524,
            "province": "内蒙古自治区",
            "city": "通辽市",
            "district": "库伦旗"
        }
    },
    {
        "id": "5842700757302876793",
        "title": "公共厕所",
        "address": "内蒙古自治区通辽市奈曼旗G111与万众街交叉口正南方向386米左右",
        "tel": "",
        "category": "基础设施:公共设施:公共厕所",
        "type": 0,
        "location": {
            "lat": 43.066364,
            "lng": 120.814774
        },
        "ad_info": {
            "adcode": 150525,
            "province": "内蒙古自治区",
            "city": "通辽市",
            "district": "奈曼旗"
        }
    },
    {
        "id": "14520363462257589457",
        "title": "公共卫生间",
        "address": "内蒙古自治区通辽市科尔沁区明仁大街露天市场(通辽市粮食局西)",
        "tel": "",
        "category": "基础设施:公共设施:公共厕所",
        "type": 0,
        "location": {
            "lat": 43.614229,
            "lng": 122.270543
        },
        "ad_info": {
            "adcode": 150502,
            "province": "内蒙古自治区",
            "city": "通辽市",
            "district": "科尔沁区"
        }
    },
    {
        "id": "11380177643707873940",
        "title": "公共厕所",
        "address": "内蒙古自治区通辽市霍林郭勒市创业路与莫斯台街交叉口正西方向74米左右",
        "tel": "",
        "category": "基础设施:公共设施:公共厕所",
        "type": 0,
        "location": {
            "lat": 45.537346,
            "lng": 119.652876
        },
        "ad_info": {
            "adcode": 150581,
            "province": "内蒙古自治区",
            "city": "通辽市",
            "district": "霍林郭勒市"
        }
    },
    {
        "id": "15554791327879616622",
        "title": "公共厕所",
        "address": "内蒙古自治区通辽市库伦旗安达大街与杏坛路交叉口东北方向62米左右",
        "tel": "",
        "category": "基础设施:公共设施:公共厕所",
        "type": 0,
        "location": {
            "lat": 42.731456,
            "lng": 121.808569
        },
        "ad_info": {
            "adcode": 150524,
            "province": "内蒙古自治区",
            "city": "通辽市",
            "district": "库伦旗"
        }
    },
    {
        "id": "13282457772946674109",
        "title": "公共厕所",
        "address": "内蒙古自治区通辽市科尔沁区昆都伦大街与铁中路交叉口正东方向185米左右",
        "tel": "",
        "category": "基础设施:公共设施:公共厕所",
        "type": 0,
        "location": {
            "lat": 43.604428,
            "lng": 122.286261
        },
        "ad_info": {
            "adcode": 150502,
            "province": "内蒙古自治区",
            "city": "通辽市",
            "district": "科尔沁区"
        }
    },
    {
        "id": "12971229661049407798",
        "title": "公共厕所",
        "address": "内蒙古自治区通辽市科尔沁左翼中旗巴彦塔拉大街与文明路交叉口西南方向50米左右",
        "tel": "",
        "category": "基础设施:公共设施:公共厕所",
        "type": 0,
        "location": {
            "lat": 44.121004,
            "lng": 123.319182
        },
        "ad_info": {
            "adcode": 150521,
            "province": "内蒙古自治区",
            "city": "通辽市",
            "district": "科尔沁左翼中旗"
        }
    },
    {
        "id": "13103265740704287660",
        "title": "公共厕所",
        "address": "内蒙古自治区通辽市科尔沁区新工一路与霍林河大街交叉口东北方向292米左右",
        "tel": "",
        "category": "基础设施:公共设施:公共厕所",
        "type": 0,
        "location": {
            "lat": 43.631157,
            "lng": 122.299254
        },
        "ad_info": {
            "adcode": 150502,
            "province": "内蒙古自治区",
            "city": "通辽市",
            "district": "科尔沁区"
        }
    },
    {
        "id": "16932643915200298304",
        "title": "公共厕所",
        "address": "内蒙古自治区通辽市科尔沁区东顺路与滨河大街交叉口东南方向236米左右",
        "tel": "",
        "category": "基础设施:公共设施:公共厕所",
        "type": 0,
        "location": {
            "lat": 43.638012,
            "lng": 122.284858
        },
        "ad_info": {
            "adcode": 150502,
            "province": "内蒙古自治区",
            "city": "通辽市",
            "district": "科尔沁区"
        }
    },
    {
        "id": "6977210018146677733",
        "title": "公共厕所",
        "address": "内蒙古自治区通辽市科尔沁区创业大道与柳荫西路交叉口正东方向447米左右",
        "tel": "",
        "category": "基础设施:公共设施:公共厕所",
        "type": 0,
        "location": {
            "lat": 43.615552,
            "lng": 122.228204
        },
        "ad_info": {
            "adcode": 150502,
            "province": "内蒙古自治区",
            "city": "通辽市",
            "district": "科尔沁区"
        }
    },
    {
        "id": "3390277641605982983",
        "title": "公共厕所",
        "address": "内蒙古自治区通辽市开鲁县环城北路与环城西路交叉口西南方向25米左右",
        "tel": "",
        "category": "基础设施:公共设施:公共厕所",
        "type": 0,
        "location": {
            "lat": 43.610714,
            "lng": 121.299987
        },
        "ad_info": {
            "adcode": 150523,
            "province": "内蒙古自治区",
            "city": "通辽市",
            "district": "开鲁县"
        }
    },
    {
        "id": "16225182435691563275",
        "title": "公共厕所",
        "address": "内蒙古自治区通辽市科尔沁区中心大街与团结路交叉口西北方向125米左右",
        "tel": "",
        "category": "基础设施:公共设施:公共厕所",
        "type": 0,
        "location": {
            "lat": 43.615927,
            "lng": 122.242426
        },
        "ad_info": {
            "adcode": 150502,
            "province": "内蒙古自治区",
            "city": "通辽市",
            "district": "科尔沁区"
        }
    },
    {
        "id": "1167132757105018705",
        "title": "公共厕所",
        "address": "内蒙古自治区通辽市科尔沁左翼中旗建设大街与文明路交叉口正西方向65米左右",
        "tel": "",
        "category": "基础设施:公共设施:公共厕所",
        "type": 0,
        "location": {
            "lat": 44.129447,
            "lng": 123.316883
        },
        "ad_info": {
            "adcode": 150521,
            "province": "内蒙古自治区",
            "city": "通辽市",
            "district": "科尔沁左翼中旗"
        }
    },
    {
        "id": "8134015456168042013",
        "title": "公共厕所",
        "address": "内蒙古自治区通辽市奈曼旗X456与东八段交叉口正北方向68米左右",
        "tel": "",
        "category": "基础设施:公共设施:公共厕所",
        "type": 0,
        "location": {
            "lat": 43.209732,
            "lng": 121.03598
        },
        "ad_info": {
            "adcode": 150525,
            "province": "内蒙古自治区",
            "city": "通辽市",
            "district": "奈曼旗"
        }
    },
    {
        "id": "4744858176937526778",
        "title": "公共厕所",
        "address": "内蒙古自治区通辽市开鲁县民开线与204乡道交叉口西340米",
        "tel": "",
        "category": "基础设施:公共设施:公共厕所",
        "type": 0,
        "location": {
            "lat": 44.0285,
            "lng": 121.111078
        },
        "ad_info": {
            "adcode": 150523,
            "province": "内蒙古自治区",
            "city": "通辽市",
            "district": "开鲁县"
        }
    },
    {
        "id": "2936986754014796822",
        "title": "公共厕所",
        "address": "内蒙古自治区通辽市库伦旗S216与Y294交叉口正西方向549米左右",
        "tel": "",
        "category": "基础设施:公共设施:公共厕所",
        "type": 0,
        "location": {
            "lat": 42.464922,
            "lng": 121.247709
        },
        "ad_info": {
            "adcode": 150524,
            "province": "内蒙古自治区",
            "city": "通辽市",
            "district": "库伦旗"
        }
    },
    {
        "id": "16589330086034790371",
        "title": "公共厕所",
        "address": "内蒙古自治区通辽市奈曼旗",
        "tel": "",
        "category": "基础设施:公共设施:公共厕所",
        "type": 0,
        "location": {
            "lat": 43.341596,
            "lng": 121.52489
        },
        "ad_info": {
            "adcode": 150525,
            "province": "内蒙古自治区",
            "city": "通辽市",
            "district": "奈曼旗"
        }
    },
    {
        "id": "3005993604960651248",
        "title": "奈曼王府-公共厕所",
        "address": "内蒙古自治区通辽市奈曼旗解放街奈曼实验中学",
        "tel": "",
        "category": "基础设施:公共设施:公共厕所",
        "type": 0,
        "location": {
            "lat": 42.849413,
            "lng": 120.652149
        },
        "ad_info": {
            "adcode": 150525,
            "province": "内蒙古自治区",
            "city": "通辽市",
            "district": "奈曼旗"
        }
    },
    {
        "id": "6180370306492088061",
        "title": "公共厕所",
        "address": "内蒙古自治区通辽市科尔沁区木里图中心卫生院东北侧50米",
        "tel": "",
        "category": "基础设施:公共设施:公共厕所",
        "type": 0,
        "location": {
            "lat": 43.472364,
            "lng": 122.210457
        },
        "ad_info": {
            "adcode": 150502,
            "province": "内蒙古自治区",
            "city": "通辽市",
            "district": "科尔沁区"
        }
    },
    {
        "id": "12753691030518255064",
        "title": "公共厕所",
        "address": "内蒙古自治区通辽市科尔沁区中心大街与胜利路交叉口正西方向172米左右",
        "tel": "",
        "category": "基础设施:公共设施:公共厕所",
        "type": 0,
        "location": {
            "lat": 43.615446,
            "lng": 122.246033
        },
        "ad_info": {
            "adcode": 150502,
            "province": "内蒙古自治区",
            "city": "通辽市",
            "district": "科尔沁区"
        }
    },
    {
        "id": "16241536974132585564",
        "title": "公共厕所",
        "address": "内蒙古自治区通辽市库伦旗安达大街与萨嘎格路交叉口正西方向225米左右",
        "tel": "",
        "category": "基础设施:公共设施:公共厕所",
        "type": 0,
        "location": {
            "lat": 42.731934,
            "lng": 121.811495
        },
        "ad_info": {
            "adcode": 150524,
            "province": "内蒙古自治区",
            "city": "通辽市",
            "district": "库伦旗"
        }
    },
    {
        "id": "5842700757302876793",
        "title": "公共厕所",
        "address": "内蒙古自治区通辽市奈曼旗G111与万众街交叉口正南方向386米左右",
        "tel": "",
        "category": "基础设施:公共设施:公共厕所",
        "type": 0,
        "location": {
            "lat": 43.066364,
            "lng": 120.814774
        },
        "ad_info": {
            "adcode": 150525,
            "province": "内蒙古自治区",
            "city": "通辽市",
            "district": "奈曼旗"
        }
    },
    {
        "id": "14520363462257589457",
        "title": "公共卫生间",
        "address": "内蒙古自治区通辽市科尔沁区明仁大街露天市场(通辽市粮食局西)",
        "tel": "",
        "category": "基础设施:公共设施:公共厕所",
        "type": 0,
        "location": {
            "lat": 43.614229,
            "lng": 122.270543
        },
        "ad_info": {
            "adcode": 150502,
            "province": "内蒙古自治区",
            "city": "通辽市",
            "district": "科尔沁区"
        }
    },
    {
        "id": "11380177643707873940",
        "title": "公共厕所",
        "address": "内蒙古自治区通辽市霍林郭勒市创业路与莫斯台街交叉口正西方向74米左右",
        "tel": "",
        "category": "基础设施:公共设施:公共厕所",
        "type": 0,
        "location": {
            "lat": 45.537346,
            "lng": 119.652876
        },
        "ad_info": {
            "adcode": 150581,
            "province": "内蒙古自治区",
            "city": "通辽市",
            "district": "霍林郭勒市"
        }
    },
    {
        "id": "15554791327879616622",
        "title": "公共厕所",
        "address": "内蒙古自治区通辽市库伦旗安达大街与杏坛路交叉口东北方向62米左右",
        "tel": "",
        "category": "基础设施:公共设施:公共厕所",
        "type": 0,
        "location": {
            "lat": 42.731456,
            "lng": 121.808569
        },
        "ad_info": {
            "adcode": 150524,
            "province": "内蒙古自治区",
            "city": "通辽市",
            "district": "库伦旗"
        }
    },
    {
        "id": "13282457772946674109",
        "title": "公共厕所",
        "address": "内蒙古自治区通辽市科尔沁区昆都伦大街与铁中路交叉口正东方向185米左右",
        "tel": "",
        "category": "基础设施:公共设施:公共厕所",
        "type": 0,
        "location": {
            "lat": 43.604428,
            "lng": 122.286261
        },
        "ad_info": {
            "adcode": 150502,
            "province": "内蒙古自治区",
            "city": "通辽市",
            "district": "科尔沁区"
        }
    },
    {
        "id": "12971229661049407798",
        "title": "公共厕所",
        "address": "内蒙古自治区通辽市科尔沁左翼中旗巴彦塔拉大街与文明路交叉口西南方向50米左右",
        "tel": "",
        "category": "基础设施:公共设施:公共厕所",
        "type": 0,
        "location": {
            "lat": 44.121004,
            "lng": 123.319182
        },
        "ad_info": {
            "adcode": 150521,
            "province": "内蒙古自治区",
            "city": "通辽市",
            "district": "科尔沁左翼中旗"
        }
    },
    {
        "id": "13103265740704287660",
        "title": "公共厕所",
        "address": "内蒙古自治区通辽市科尔沁区新工一路与霍林河大街交叉口东北方向292米左右",
        "tel": "",
        "category": "基础设施:公共设施:公共厕所",
        "type": 0,
        "location": {
            "lat": 43.631157,
            "lng": 122.299254
        },
        "ad_info": {
            "adcode": 150502,
            "province": "内蒙古自治区",
            "city": "通辽市",
            "district": "科尔沁区"
        }
    },
    {
        "id": "16932643915200298304",
        "title": "公共厕所",
        "address": "内蒙古自治区通辽市科尔沁区东顺路与滨河大街交叉口东南方向236米左右",
        "tel": "",
        "category": "基础设施:公共设施:公共厕所",
        "type": 0,
        "location": {
            "lat": 43.638012,
            "lng": 122.284858
        },
        "ad_info": {
            "adcode": 150502,
            "province": "内蒙古自治区",
            "city": "通辽市",
            "district": "科尔沁区"
        }
    },
    {
        "id": "6977210018146677733",
        "title": "公共厕所",
        "address": "内蒙古自治区通辽市科尔沁区创业大道与柳荫西路交叉口正东方向447米左右",
        "tel": "",
        "category": "基础设施:公共设施:公共厕所",
        "type": 0,
        "location": {
            "lat": 43.615552,
            "lng": 122.228204
        },
        "ad_info": {
            "adcode": 150502,
            "province": "内蒙古自治区",
            "city": "通辽市",
            "district": "科尔沁区"
        }
    },
    {
        "id": "3390277641605982983",
        "title": "公共厕所",
        "address": "内蒙古自治区通辽市开鲁县环城北路与环城西路交叉口西南方向25米左右",
        "tel": "",
        "category": "基础设施:公共设施:公共厕所",
        "type": 0,
        "location": {
            "lat": 43.610714,
            "lng": 121.299987
        },
        "ad_info": {
            "adcode": 150523,
            "province": "内蒙古自治区",
            "city": "通辽市",
            "district": "开鲁县"
        }
    },
    {
        "id": "16225182435691563275",
        "title": "公共厕所",
        "address": "内蒙古自治区通辽市科尔沁区中心大街与团结路交叉口西北方向125米左右",
        "tel": "",
        "category": "基础设施:公共设施:公共厕所",
        "type": 0,
        "location": {
            "lat": 43.615927,
            "lng": 122.242426
        },
        "ad_info": {
            "adcode": 150502,
            "province": "内蒙古自治区",
            "city": "通辽市",
            "district": "科尔沁区"
        }
    },
    {
        "id": "1167132757105018705",
        "title": "公共厕所",
        "address": "内蒙古自治区通辽市科尔沁左翼中旗建设大街与文明路交叉口正西方向65米左右",
        "tel": "",
        "category": "基础设施:公共设施:公共厕所",
        "type": 0,
        "location": {
            "lat": 44.129447,
            "lng": 123.316883
        },
        "ad_info": {
            "adcode": 150521,
            "province": "内蒙古自治区",
            "city": "通辽市",
            "district": "科尔沁左翼中旗"
        }
    },
    {
        "id": "8134015456168042013",
        "title": "公共厕所",
        "address": "内蒙古自治区通辽市奈曼旗X456与东八段交叉口正北方向68米左右",
        "tel": "",
        "category": "基础设施:公共设施:公共厕所",
        "type": 0,
        "location": {
            "lat": 43.209732,
            "lng": 121.03598
        },
        "ad_info": {
            "adcode": 150525,
            "province": "内蒙古自治区",
            "city": "通辽市",
            "district": "奈曼旗"
        }
    },
    {
        "id": "4744858176937526778",
        "title": "公共厕所",
        "address": "内蒙古自治区通辽市开鲁县民开线与204乡道交叉口西340米",
        "tel": "",
        "category": "基础设施:公共设施:公共厕所",
        "type": 0,
        "location": {
            "lat": 44.0285,
            "lng": 121.111078
        },
        "ad_info": {
            "adcode": 150523,
            "province": "内蒙古自治区",
            "city": "通辽市",
            "district": "开鲁县"
        }
    },
    {
        "id": "2936986754014796822",
        "title": "公共厕所",
        "address": "内蒙古自治区通辽市库伦旗S216与Y294交叉口正西方向549米左右",
        "tel": "",
        "category": "基础设施:公共设施:公共厕所",
        "type": 0,
        "location": {
            "lat": 42.464922,
            "lng": 121.247709
        },
        "ad_info": {
            "adcode": 150524,
            "province": "内蒙古自治区",
            "city": "通辽市",
            "district": "库伦旗"
        }
    },
    {
        "id": "16589330086034790371",
        "title": "公共厕所",
        "address": "内蒙古自治区通辽市奈曼旗",
        "tel": "",
        "category": "基础设施:公共设施:公共厕所",
        "type": 0,
        "location": {
            "lat": 43.341596,
            "lng": 121.52489
        },
        "ad_info": {
            "adcode": 150525,
            "province": "内蒙古自治区",
            "city": "通辽市",
            "district": "奈曼旗"
        }
    },
    {
        "id": "3005993604960651248",
        "title": "奈曼王府-公共厕所",
        "address": "内蒙古自治区通辽市奈曼旗解放街奈曼实验中学",
        "tel": "",
        "category": "基础设施:公共设施:公共厕所",
        "type": 0,
        "location": {
            "lat": 42.849413,
            "lng": 120.652149
        },
        "ad_info": {
            "adcode": 150525,
            "province": "内蒙古自治区",
            "city": "通辽市",
            "district": "奈曼旗"
        }
    },
    {
        "id": "6180370306492088061",
        "title": "公共厕所",
        "address": "内蒙古自治区通辽市科尔沁区木里图中心卫生院东北侧50米",
        "tel": "",
        "category": "基础设施:公共设施:公共厕所",
        "type": 0,
        "location": {
            "lat": 43.472364,
            "lng": 122.210457
        },
        "ad_info": {
            "adcode": 150502,
            "province": "内蒙古自治区",
            "city": "通辽市",
            "district": "科尔沁区"
        }
    },
    {
        "id": "12753691030518255064",
        "title": "公共厕所",
        "address": "内蒙古自治区通辽市科尔沁区中心大街与胜利路交叉口正西方向172米左右",
        "tel": "",
        "category": "基础设施:公共设施:公共厕所",
        "type": 0,
        "location": {
            "lat": 43.615446,
            "lng": 122.246033
        },
        "ad_info": {
            "adcode": 150502,
            "province": "内蒙古自治区",
            "city": "通辽市",
            "district": "科尔沁区"
        }
    },
    {
        "id": "16241536974132585564",
        "title": "公共厕所",
        "address": "内蒙古自治区通辽市库伦旗安达大街与萨嘎格路交叉口正西方向225米左右",
        "tel": "",
        "category": "基础设施:公共设施:公共厕所",
        "type": 0,
        "location": {
            "lat": 42.731934,
            "lng": 121.811495
        },
        "ad_info": {
            "adcode": 150524,
            "province": "内蒙古自治区",
            "city": "通辽市",
            "district": "库伦旗"
        }
    },
    {
        "id": "5842700757302876793",
        "title": "公共厕所",
        "address": "内蒙古自治区通辽市奈曼旗G111与万众街交叉口正南方向386米左右",
        "tel": "",
        "category": "基础设施:公共设施:公共厕所",
        "type": 0,
        "location": {
            "lat": 43.066364,
            "lng": 120.814774
        },
        "ad_info": {
            "adcode": 150525,
            "province": "内蒙古自治区",
            "city": "通辽市",
            "district": "奈曼旗"
        }
    },
    {
        "id": "14520363462257589457",
        "title": "公共卫生间",
        "address": "内蒙古自治区通辽市科尔沁区明仁大街露天市场(通辽市粮食局西)",
        "tel": "",
        "category": "基础设施:公共设施:公共厕所",
        "type": 0,
        "location": {
            "lat": 43.614229,
            "lng": 122.270543
        },
        "ad_info": {
            "adcode": 150502,
            "province": "内蒙古自治区",
            "city": "通辽市",
            "district": "科尔沁区"
        }
    },
    {
        "id": "11380177643707873940",
        "title": "公共厕所",
        "address": "内蒙古自治区通辽市霍林郭勒市创业路与莫斯台街交叉口正西方向74米左右",
        "tel": "",
        "category": "基础设施:公共设施:公共厕所",
        "type": 0,
        "location": {
            "lat": 45.537346,
            "lng": 119.652876
        },
        "ad_info": {
            "adcode": 150581,
            "province": "内蒙古自治区",
            "city": "通辽市",
            "district": "霍林郭勒市"
        }
    },
    {
        "id": "15554791327879616622",
        "title": "公共厕所",
        "address": "内蒙古自治区通辽市库伦旗安达大街与杏坛路交叉口东北方向62米左右",
        "tel": "",
        "category": "基础设施:公共设施:公共厕所",
        "type": 0,
        "location": {
            "lat": 42.731456,
            "lng": 121.808569
        },
        "ad_info": {
            "adcode": 150524,
            "province": "内蒙古自治区",
            "city": "通辽市",
            "district": "库伦旗"
        }
    },
    {
        "id": "13282457772946674109",
        "title": "公共厕所",
        "address": "内蒙古自治区通辽市科尔沁区昆都伦大街与铁中路交叉口正东方向185米左右",
        "tel": "",
        "category": "基础设施:公共设施:公共厕所",
        "type": 0,
        "location": {
            "lat": 43.604428,
            "lng": 122.286261
        },
        "ad_info": {
            "adcode": 150502,
            "province": "内蒙古自治区",
            "city": "通辽市",
            "district": "科尔沁区"
        }
    },
    {
        "id": "12971229661049407798",
        "title": "公共厕所",
        "address": "内蒙古自治区通辽市科尔沁左翼中旗巴彦塔拉大街与文明路交叉口西南方向50米左右",
        "tel": "",
        "category": "基础设施:公共设施:公共厕所",
        "type": 0,
        "location": {
            "lat": 44.121004,
            "lng": 123.319182
        },
        "ad_info": {
            "adcode": 150521,
            "province": "内蒙古自治区",
            "city": "通辽市",
            "district": "科尔沁左翼中旗"
        }
    },
    {
        "id": "13103265740704287660",
        "title": "公共厕所",
        "address": "内蒙古自治区通辽市科尔沁区新工一路与霍林河大街交叉口东北方向292米左右",
        "tel": "",
        "category": "基础设施:公共设施:公共厕所",
        "type": 0,
        "location": {
            "lat": 43.631157,
            "lng": 122.299254
        },
        "ad_info": {
            "adcode": 150502,
            "province": "内蒙古自治区",
            "city": "通辽市",
            "district": "科尔沁区"
        }
    },
    {
        "id": "16932643915200298304",
        "title": "公共厕所",
        "address": "内蒙古自治区通辽市科尔沁区东顺路与滨河大街交叉口东南方向236米左右",
        "tel": "",
        "category": "基础设施:公共设施:公共厕所",
        "type": 0,
        "location": {
            "lat": 43.638012,
            "lng": 122.284858
        },
        "ad_info": {
            "adcode": 150502,
            "province": "内蒙古自治区",
            "city": "通辽市",
            "district": "科尔沁区"
        }
    },
    {
        "id": "6977210018146677733",
        "title": "公共厕所",
        "address": "内蒙古自治区通辽市科尔沁区创业大道与柳荫西路交叉口正东方向447米左右",
        "tel": "",
        "category": "基础设施:公共设施:公共厕所",
        "type": 0,
        "location": {
            "lat": 43.615552,
            "lng": 122.228204
        },
        "ad_info": {
            "adcode": 150502,
            "province": "内蒙古自治区",
            "city": "通辽市",
            "district": "科尔沁区"
        }
    },
    {
        "id": "3390277641605982983",
        "title": "公共厕所",
        "address": "内蒙古自治区通辽市开鲁县环城北路与环城西路交叉口西南方向25米左右",
        "tel": "",
        "category": "基础设施:公共设施:公共厕所",
        "type": 0,
        "location": {
            "lat": 43.610714,
            "lng": 121.299987
        },
        "ad_info": {
            "adcode": 150523,
            "province": "内蒙古自治区",
            "city": "通辽市",
            "district": "开鲁县"
        }
    },
    {
        "id": "16225182435691563275",
        "title": "公共厕所",
        "address": "内蒙古自治区通辽市科尔沁区中心大街与团结路交叉口西北方向125米左右",
        "tel": "",
        "category": "基础设施:公共设施:公共厕所",
        "type": 0,
        "location": {
            "lat": 43.615927,
            "lng": 122.242426
        },
        "ad_info": {
            "adcode": 150502,
            "province": "内蒙古自治区",
            "city": "通辽市",
            "district": "科尔沁区"
        }
    },
    {
        "id": "1167132757105018705",
        "title": "公共厕所",
        "address": "内蒙古自治区通辽市科尔沁左翼中旗建设大街与文明路交叉口正西方向65米左右",
        "tel": "",
        "category": "基础设施:公共设施:公共厕所",
        "type": 0,
        "location": {
            "lat": 44.129447,
            "lng": 123.316883
        },
        "ad_info": {
            "adcode": 150521,
            "province": "内蒙古自治区",
            "city": "通辽市",
            "district": "科尔沁左翼中旗"
        }
    },
    {
        "id": "8134015456168042013",
        "title": "公共厕所",
        "address": "内蒙古自治区通辽市奈曼旗X456与东八段交叉口正北方向68米左右",
        "tel": "",
        "category": "基础设施:公共设施:公共厕所",
        "type": 0,
        "location": {
            "lat": 43.209732,
            "lng": 121.03598
        },
        "ad_info": {
            "adcode": 150525,
            "province": "内蒙古自治区",
            "city": "通辽市",
            "district": "奈曼旗"
        }
    },
    {
        "id": "4744858176937526778",
        "title": "公共厕所",
        "address": "内蒙古自治区通辽市开鲁县民开线与204乡道交叉口西340米",
        "tel": "",
        "category": "基础设施:公共设施:公共厕所",
        "type": 0,
        "location": {
            "lat": 44.0285,
            "lng": 121.111078
        },
        "ad_info": {
            "adcode": 150523,
            "province": "内蒙古自治区",
            "city": "通辽市",
            "district": "开鲁县"
        }
    },
    {
        "id": "2936986754014796822",
        "title": "公共厕所",
        "address": "内蒙古自治区通辽市库伦旗S216与Y294交叉口正西方向549米左右",
        "tel": "",
        "category": "基础设施:公共设施:公共厕所",
        "type": 0,
        "location": {
            "lat": 42.464922,
            "lng": 121.247709
        },
        "ad_info": {
            "adcode": 150524,
            "province": "内蒙古自治区",
            "city": "通辽市",
            "district": "库伦旗"
        }
    },
    {
        "id": "16589330086034790371",
        "title": "公共厕所",
        "address": "内蒙古自治区通辽市奈曼旗",
        "tel": "",
        "category": "基础设施:公共设施:公共厕所",
        "type": 0,
        "location": {
            "lat": 43.341596,
            "lng": 121.52489
        },
        "ad_info": {
            "adcode": 150525,
            "province": "内蒙古自治区",
            "city": "通辽市",
            "district": "奈曼旗"
        }
    },
    {
        "id": "3005993604960651248",
        "title": "奈曼王府-公共厕所",
        "address": "内蒙古自治区通辽市奈曼旗解放街奈曼实验中学",
        "tel": "",
        "category": "基础设施:公共设施:公共厕所",
        "type": 0,
        "location": {
            "lat": 42.849413,
            "lng": 120.652149
        },
        "ad_info": {
            "adcode": 150525,
            "province": "内蒙古自治区",
            "city": "通辽市",
            "district": "奈曼旗"
        }
    },
    {
        "id": "6180370306492088061",
        "title": "公共厕所",
        "address": "内蒙古自治区通辽市科尔沁区木里图中心卫生院东北侧50米",
        "tel": "",
        "category": "基础设施:公共设施:公共厕所",
        "type": 0,
        "location": {
            "lat": 43.472364,
            "lng": 122.210457
        },
        "ad_info": {
            "adcode": 150502,
            "province": "内蒙古自治区",
            "city": "通辽市",
            "district": "科尔沁区"
        }
    },
    {
        "id": "12753691030518255064",
        "title": "公共厕所",
        "address": "内蒙古自治区通辽市科尔沁区中心大街与胜利路交叉口正西方向172米左右",
        "tel": "",
        "category": "基础设施:公共设施:公共厕所",
        "type": 0,
        "location": {
            "lat": 43.615446,
            "lng": 122.246033
        },
        "ad_info": {
            "adcode": 150502,
            "province": "内蒙古自治区",
            "city": "通辽市",
            "district": "科尔沁区"
        }
    },
    {
        "id": "16241536974132585564",
        "title": "公共厕所",
        "address": "内蒙古自治区通辽市库伦旗安达大街与萨嘎格路交叉口正西方向225米左右",
        "tel": "",
        "category": "基础设施:公共设施:公共厕所",
        "type": 0,
        "location": {
            "lat": 42.731934,
            "lng": 121.811495
        },
        "ad_info": {
            "adcode": 150524,
            "province": "内蒙古自治区",
            "city": "通辽市",
            "district": "库伦旗"
        }
    },
    {
        "id": "5842700757302876793",
        "title": "公共厕所",
        "address": "内蒙古自治区通辽市奈曼旗G111与万众街交叉口正南方向386米左右",
        "tel": "",
        "category": "基础设施:公共设施:公共厕所",
        "type": 0,
        "location": {
            "lat": 43.066364,
            "lng": 120.814774
        },
        "ad_info": {
            "adcode": 150525,
            "province": "内蒙古自治区",
            "city": "通辽市",
            "district": "奈曼旗"
        }
    },
    {
        "id": "14520363462257589457",
        "title": "公共卫生间",
        "address": "内蒙古自治区通辽市科尔沁区明仁大街露天市场(通辽市粮食局西)",
        "tel": "",
        "category": "基础设施:公共设施:公共厕所",
        "type": 0,
        "location": {
            "lat": 43.614229,
            "lng": 122.270543
        },
        "ad_info": {
            "adcode": 150502,
            "province": "内蒙古自治区",
            "city": "通辽市",
            "district": "科尔沁区"
        }
    },
    {
        "id": "11380177643707873940",
        "title": "公共厕所",
        "address": "内蒙古自治区通辽市霍林郭勒市创业路与莫斯台街交叉口正西方向74米左右",
        "tel": "",
        "category": "基础设施:公共设施:公共厕所",
        "type": 0,
        "location": {
            "lat": 45.537346,
            "lng": 119.652876
        },
        "ad_info": {
            "adcode": 150581,
            "province": "内蒙古自治区",
            "city": "通辽市",
            "district": "霍林郭勒市"
        }
    },
    {
        "id": "15554791327879616622",
        "title": "公共厕所",
        "address": "内蒙古自治区通辽市库伦旗安达大街与杏坛路交叉口东北方向62米左右",
        "tel": "",
        "category": "基础设施:公共设施:公共厕所",
        "type": 0,
        "location": {
            "lat": 42.731456,
            "lng": 121.808569
        },
        "ad_info": {
            "adcode": 150524,
            "province": "内蒙古自治区",
            "city": "通辽市",
            "district": "库伦旗"
        }
    },
    {
        "id": "13282457772946674109",
        "title": "公共厕所",
        "address": "内蒙古自治区通辽市科尔沁区昆都伦大街与铁中路交叉口正东方向185米左右",
        "tel": "",
        "category": "基础设施:公共设施:公共厕所",
        "type": 0,
        "location": {
            "lat": 43.604428,
            "lng": 122.286261
        },
        "ad_info": {
            "adcode": 150502,
            "province": "内蒙古自治区",
            "city": "通辽市",
            "district": "科尔沁区"
        }
    },
    {
        "id": "12971229661049407798",
        "title": "公共厕所",
        "address": "内蒙古自治区通辽市科尔沁左翼中旗巴彦塔拉大街与文明路交叉口西南方向50米左右",
        "tel": "",
        "category": "基础设施:公共设施:公共厕所",
        "type": 0,
        "location": {
            "lat": 44.121004,
            "lng": 123.319182
        },
        "ad_info": {
            "adcode": 150521,
            "province": "内蒙古自治区",
            "city": "通辽市",
            "district": "科尔沁左翼中旗"
        }
    },
    {
        "id": "13103265740704287660",
        "title": "公共厕所",
        "address": "内蒙古自治区通辽市科尔沁区新工一路与霍林河大街交叉口东北方向292米左右",
        "tel": "",
        "category": "基础设施:公共设施:公共厕所",
        "type": 0,
        "location": {
            "lat": 43.631157,
            "lng": 122.299254
        },
        "ad_info": {
            "adcode": 150502,
            "province": "内蒙古自治区",
            "city": "通辽市",
            "district": "科尔沁区"
        }
    },
    {
        "id": "16932643915200298304",
        "title": "公共厕所",
        "address": "内蒙古自治区通辽市科尔沁区东顺路与滨河大街交叉口东南方向236米左右",
        "tel": "",
        "category": "基础设施:公共设施:公共厕所",
        "type": 0,
        "location": {
            "lat": 43.638012,
            "lng": 122.284858
        },
        "ad_info": {
            "adcode": 150502,
            "province": "内蒙古自治区",
            "city": "通辽市",
            "district": "科尔沁区"
        }
    },
    {
        "id": "6977210018146677733",
        "title": "公共厕所",
        "address": "内蒙古自治区通辽市科尔沁区创业大道与柳荫西路交叉口正东方向447米左右",
        "tel": "",
        "category": "基础设施:公共设施:公共厕所",
        "type": 0,
        "location": {
            "lat": 43.615552,
            "lng": 122.228204
        },
        "ad_info": {
            "adcode": 150502,
            "province": "内蒙古自治区",
            "city": "通辽市",
            "district": "科尔沁区"
        }
    },
    {
        "id": "3390277641605982983",
        "title": "公共厕所",
        "address": "内蒙古自治区通辽市开鲁县环城北路与环城西路交叉口西南方向25米左右",
        "tel": "",
        "category": "基础设施:公共设施:公共厕所",
        "type": 0,
        "location": {
            "lat": 43.610714,
            "lng": 121.299987
        },
        "ad_info": {
            "adcode": 150523,
            "province": "内蒙古自治区",
            "city": "通辽市",
            "district": "开鲁县"
        }
    },
    {
        "id": "16225182435691563275",
        "title": "公共厕所",
        "address": "内蒙古自治区通辽市科尔沁区中心大街与团结路交叉口西北方向125米左右",
        "tel": "",
        "category": "基础设施:公共设施:公共厕所",
        "type": 0,
        "location": {
            "lat": 43.615927,
            "lng": 122.242426
        },
        "ad_info": {
            "adcode": 150502,
            "province": "内蒙古自治区",
            "city": "通辽市",
            "district": "科尔沁区"
        }
    },
    {
        "id": "1167132757105018705",
        "title": "公共厕所",
        "address": "内蒙古自治区通辽市科尔沁左翼中旗建设大街与文明路交叉口正西方向65米左右",
        "tel": "",
        "category": "基础设施:公共设施:公共厕所",
        "type": 0,
        "location": {
            "lat": 44.129447,
            "lng": 123.316883
        },
        "ad_info": {
            "adcode": 150521,
            "province": "内蒙古自治区",
            "city": "通辽市",
            "district": "科尔沁左翼中旗"
        }
    },
    {
        "id": "8134015456168042013",
        "title": "公共厕所",
        "address": "内蒙古自治区通辽市奈曼旗X456与东八段交叉口正北方向68米左右",
        "tel": "",
        "category": "基础设施:公共设施:公共厕所",
        "type": 0,
        "location": {
            "lat": 43.209732,
            "lng": 121.03598
        },
        "ad_info": {
            "adcode": 150525,
            "province": "内蒙古自治区",
            "city": "通辽市",
            "district": "奈曼旗"
        }
    },
    {
        "id": "4744858176937526778",
        "title": "公共厕所",
        "address": "内蒙古自治区通辽市开鲁县民开线与204乡道交叉口西340米",
        "tel": "",
        "category": "基础设施:公共设施:公共厕所",
        "type": 0,
        "location": {
            "lat": 44.0285,
            "lng": 121.111078
        },
        "ad_info": {
            "adcode": 150523,
            "province": "内蒙古自治区",
            "city": "通辽市",
            "district": "开鲁县"
        }
    },
    {
        "id": "2936986754014796822",
        "title": "公共厕所",
        "address": "内蒙古自治区通辽市库伦旗S216与Y294交叉口正西方向549米左右",
        "tel": "",
        "category": "基础设施:公共设施:公共厕所",
        "type": 0,
        "location": {
            "lat": 42.464922,
            "lng": 121.247709
        },
        "ad_info": {
            "adcode": 150524,
            "province": "内蒙古自治区",
            "city": "通辽市",
            "district": "库伦旗"
        }
    },
    {
        "id": "16589330086034790371",
        "title": "公共厕所",
        "address": "内蒙古自治区通辽市奈曼旗",
        "tel": "",
        "category": "基础设施:公共设施:公共厕所",
        "type": 0,
        "location": {
            "lat": 43.341596,
            "lng": 121.52489
        },
        "ad_info": {
            "adcode": 150525,
            "province": "内蒙古自治区",
            "city": "通辽市",
            "district": "奈曼旗"
        }
    },
    {
        "id": "3005993604960651248",
        "title": "奈曼王府-公共厕所",
        "address": "内蒙古自治区通辽市奈曼旗解放街奈曼实验中学",
        "tel": "",
        "category": "基础设施:公共设施:公共厕所",
        "type": 0,
        "location": {
            "lat": 42.849413,
            "lng": 120.652149
        },
        "ad_info": {
            "adcode": 150525,
            "province": "内蒙古自治区",
            "city": "通辽市",
            "district": "奈曼旗"
        }
    },
    {
        "id": "6180370306492088061",
        "title": "公共厕所",
        "address": "内蒙古自治区通辽市科尔沁区木里图中心卫生院东北侧50米",
        "tel": "",
        "category": "基础设施:公共设施:公共厕所",
        "type": 0,
        "location": {
            "lat": 43.472364,
            "lng": 122.210457
        },
        "ad_info": {
            "adcode": 150502,
            "province": "内蒙古自治区",
            "city": "通辽市",
            "district": "科尔沁区"
        }
    },
    {
        "id": "12753691030518255064",
        "title": "公共厕所",
        "address": "内蒙古自治区通辽市科尔沁区中心大街与胜利路交叉口正西方向172米左右",
        "tel": "",
        "category": "基础设施:公共设施:公共厕所",
        "type": 0,
        "location": {
            "lat": 43.615446,
            "lng": 122.246033
        },
        "ad_info": {
            "adcode": 150502,
            "province": "内蒙古自治区",
            "city": "通辽市",
            "district": "科尔沁区"
        }
    },
    {
        "id": "16241536974132585564",
        "title": "公共厕所",
        "address": "内蒙古自治区通辽市库伦旗安达大街与萨嘎格路交叉口正西方向225米左右",
        "tel": "",
        "category": "基础设施:公共设施:公共厕所",
        "type": 0,
        "location": {
            "lat": 42.731934,
            "lng": 121.811495
        },
        "ad_info": {
            "adcode": 150524,
            "province": "内蒙古自治区",
            "city": "通辽市",
            "district": "库伦旗"
        }
    },
    {
        "id": "5842700757302876793",
        "title": "公共厕所",
        "address": "内蒙古自治区通辽市奈曼旗G111与万众街交叉口正南方向386米左右",
        "tel": "",
        "category": "基础设施:公共设施:公共厕所",
        "type": 0,
        "location": {
            "lat": 43.066364,
            "lng": 120.814774
        },
        "ad_info": {
            "adcode": 150525,
            "province": "内蒙古自治区",
            "city": "通辽市",
            "district": "奈曼旗"
        }
    },
    {
        "id": "14520363462257589457",
        "title": "公共卫生间",
        "address": "内蒙古自治区通辽市科尔沁区明仁大街露天市场(通辽市粮食局西)",
        "tel": "",
        "category": "基础设施:公共设施:公共厕所",
        "type": 0,
        "location": {
            "lat": 43.614229,
            "lng": 122.270543
        },
        "ad_info": {
            "adcode": 150502,
            "province": "内蒙古自治区",
            "city": "通辽市",
            "district": "科尔沁区"
        }
    },
    {
        "id": "11380177643707873940",
        "title": "公共厕所",
        "address": "内蒙古自治区通辽市霍林郭勒市创业路与莫斯台街交叉口正西方向74米左右",
        "tel": "",
        "category": "基础设施:公共设施:公共厕所",
        "type": 0,
        "location": {
            "lat": 45.537346,
            "lng": 119.652876
        },
        "ad_info": {
            "adcode": 150581,
            "province": "内蒙古自治区",
            "city": "通辽市",
            "district": "霍林郭勒市"
        }
    },
    {
        "id": "15554791327879616622",
        "title": "公共厕所",
        "address": "内蒙古自治区通辽市库伦旗安达大街与杏坛路交叉口东北方向62米左右",
        "tel": "",
        "category": "基础设施:公共设施:公共厕所",
        "type": 0,
        "location": {
            "lat": 42.731456,
            "lng": 121.808569
        },
        "ad_info": {
            "adcode": 150524,
            "province": "内蒙古自治区",
            "city": "通辽市",
            "district": "库伦旗"
        }
    },
    {
        "id": "13282457772946674109",
        "title": "公共厕所",
        "address": "内蒙古自治区通辽市科尔沁区昆都伦大街与铁中路交叉口正东方向185米左右",
        "tel": "",
        "category": "基础设施:公共设施:公共厕所",
        "type": 0,
        "location": {
            "lat": 43.604428,
            "lng": 122.286261
        },
        "ad_info": {
            "adcode": 150502,
            "province": "内蒙古自治区",
            "city": "通辽市",
            "district": "科尔沁区"
        }
    },
    {
        "id": "12971229661049407798",
        "title": "公共厕所",
        "address": "内蒙古自治区通辽市科尔沁左翼中旗巴彦塔拉大街与文明路交叉口西南方向50米左右",
        "tel": "",
        "category": "基础设施:公共设施:公共厕所",
        "type": 0,
        "location": {
            "lat": 44.121004,
            "lng": 123.319182
        },
        "ad_info": {
            "adcode": 150521,
            "province": "内蒙古自治区",
            "city": "通辽市",
            "district": "科尔沁左翼中旗"
        }
    },
    {
        "id": "13103265740704287660",
        "title": "公共厕所",
        "address": "内蒙古自治区通辽市科尔沁区新工一路与霍林河大街交叉口东北方向292米左右",
        "tel": "",
        "category": "基础设施:公共设施:公共厕所",
        "type": 0,
        "location": {
            "lat": 43.631157,
            "lng": 122.299254
        },
        "ad_info": {
            "adcode": 150502,
            "province": "内蒙古自治区",
            "city": "通辽市",
            "district": "科尔沁区"
        }
    },
    {
        "id": "16932643915200298304",
        "title": "公共厕所",
        "address": "内蒙古自治区通辽市科尔沁区东顺路与滨河大街交叉口东南方向236米左右",
        "tel": "",
        "category": "基础设施:公共设施:公共厕所",
        "type": 0,
        "location": {
            "lat": 43.638012,
            "lng": 122.284858
        },
        "ad_info": {
            "adcode": 150502,
            "province": "内蒙古自治区",
            "city": "通辽市",
            "district": "科尔沁区"
        }
    },
    {
        "id": "6977210018146677733",
        "title": "公共厕所",
        "address": "内蒙古自治区通辽市科尔沁区创业大道与柳荫西路交叉口正东方向447米左右",
        "tel": "",
        "category": "基础设施:公共设施:公共厕所",
        "type": 0,
        "location": {
            "lat": 43.615552,
            "lng": 122.228204
        },
        "ad_info": {
            "adcode": 150502,
            "province": "内蒙古自治区",
            "city": "通辽市",
            "district": "科尔沁区"
        }
    },
    {
        "id": "3390277641605982983",
        "title": "公共厕所",
        "address": "内蒙古自治区通辽市开鲁县环城北路与环城西路交叉口西南方向25米左右",
        "tel": "",
        "category": "基础设施:公共设施:公共厕所",
        "type": 0,
        "location": {
            "lat": 43.610714,
            "lng": 121.299987
        },
        "ad_info": {
            "adcode": 150523,
            "province": "内蒙古自治区",
            "city": "通辽市",
            "district": "开鲁县"
        }
    },
    {
        "id": "16225182435691563275",
        "title": "公共厕所",
        "address": "内蒙古自治区通辽市科尔沁区中心大街与团结路交叉口西北方向125米左右",
        "tel": "",
        "category": "基础设施:公共设施:公共厕所",
        "type": 0,
        "location": {
            "lat": 43.615927,
            "lng": 122.242426
        },
        "ad_info": {
            "adcode": 150502,
            "province": "内蒙古自治区",
            "city": "通辽市",
            "district": "科尔沁区"
        }
    },
    {
        "id": "1167132757105018705",
        "title": "公共厕所",
        "address": "内蒙古自治区通辽市科尔沁左翼中旗建设大街与文明路交叉口正西方向65米左右",
        "tel": "",
        "category": "基础设施:公共设施:公共厕所",
        "type": 0,
        "location": {
            "lat": 44.129447,
            "lng": 123.316883
        },
        "ad_info": {
            "adcode": 150521,
            "province": "内蒙古自治区",
            "city": "通辽市",
            "district": "科尔沁左翼中旗"
        }
    },
    {
        "id": "8134015456168042013",
        "title": "公共厕所",
        "address": "内蒙古自治区通辽市奈曼旗X456与东八段交叉口正北方向68米左右",
        "tel": "",
        "category": "基础设施:公共设施:公共厕所",
        "type": 0,
        "location": {
            "lat": 43.209732,
            "lng": 121.03598
        },
        "ad_info": {
            "adcode": 150525,
            "province": "内蒙古自治区",
            "city": "通辽市",
            "district": "奈曼旗"
        }
    },
    {
        "id": "4744858176937526778",
        "title": "公共厕所",
        "address": "内蒙古自治区通辽市开鲁县民开线与204乡道交叉口西340米",
        "tel": "",
        "category": "基础设施:公共设施:公共厕所",
        "type": 0,
        "location": {
            "lat": 44.0285,
            "lng": 121.111078
        },
        "ad_info": {
            "adcode": 150523,
            "province": "内蒙古自治区",
            "city": "通辽市",
            "district": "开鲁县"
        }
    },
    {
        "id": "2936986754014796822",
        "title": "公共厕所",
        "address": "内蒙古自治区通辽市库伦旗S216与Y294交叉口正西方向549米左右",
        "tel": "",
        "category": "基础设施:公共设施:公共厕所",
        "type": 0,
        "location": {
            "lat": 42.464922,
            "lng": 121.247709
        },
        "ad_info": {
            "adcode": 150524,
            "province": "内蒙古自治区",
            "city": "通辽市",
            "district": "库伦旗"
        }
    },
    {
        "id": "16589330086034790371",
        "title": "公共厕所",
        "address": "内蒙古自治区通辽市奈曼旗",
        "tel": "",
        "category": "基础设施:公共设施:公共厕所",
        "type": 0,
        "location": {
            "lat": 43.341596,
            "lng": 121.52489
        },
        "ad_info": {
            "adcode": 150525,
            "province": "内蒙古自治区",
            "city": "通辽市",
            "district": "奈曼旗"
        }
    },
    {
        "id": "3005993604960651248",
        "title": "奈曼王府-公共厕所",
        "address": "内蒙古自治区通辽市奈曼旗解放街奈曼实验中学",
        "tel": "",
        "category": "基础设施:公共设施:公共厕所",
        "type": 0,
        "location": {
            "lat": 42.849413,
            "lng": 120.652149
        },
        "ad_info": {
            "adcode": 150525,
            "province": "内蒙古自治区",
            "city": "通辽市",
            "district": "奈曼旗"
        }
    },
    {
        "id": "6180370306492088061",
        "title": "公共厕所",
        "address": "内蒙古自治区通辽市科尔沁区木里图中心卫生院东北侧50米",
        "tel": "",
        "category": "基础设施:公共设施:公共厕所",
        "type": 0,
        "location": {
            "lat": 43.472364,
            "lng": 122.210457
        },
        "ad_info": {
            "adcode": 150502,
            "province": "内蒙古自治区",
            "city": "通辽市",
            "district": "科尔沁区"
        }
    },
    {
        "id": "12753691030518255064",
        "title": "公共厕所",
        "address": "内蒙古自治区通辽市科尔沁区中心大街与胜利路交叉口正西方向172米左右",
        "tel": "",
        "category": "基础设施:公共设施:公共厕所",
        "type": 0,
        "location": {
            "lat": 43.615446,
            "lng": 122.246033
        },
        "ad_info": {
            "adcode": 150502,
            "province": "内蒙古自治区",
            "city": "通辽市",
            "district": "科尔沁区"
        }
    },
    {
        "id": "16241536974132585564",
        "title": "公共厕所",
        "address": "内蒙古自治区通辽市库伦旗安达大街与萨嘎格路交叉口正西方向225米左右",
        "tel": "",
        "category": "基础设施:公共设施:公共厕所",
        "type": 0,
        "location": {
            "lat": 42.731934,
            "lng": 121.811495
        },
        "ad_info": {
            "adcode": 150524,
            "province": "内蒙古自治区",
            "city": "通辽市",
            "district": "库伦旗"
        }
    },
    {
        "id": "5842700757302876793",
        "title": "公共厕所",
        "address": "内蒙古自治区通辽市奈曼旗G111与万众街交叉口正南方向386米左右",
        "tel": "",
        "category": "基础设施:公共设施:公共厕所",
        "type": 0,
        "location": {
            "lat": 43.066364,
            "lng": 120.814774
        },
        "ad_info": {
            "adcode": 150525,
            "province": "内蒙古自治区",
            "city": "通辽市",
            "district": "奈曼旗"
        }
    },
    {
        "id": "14520363462257589457",
        "title": "公共卫生间",
        "address": "内蒙古自治区通辽市科尔沁区明仁大街露天市场(通辽市粮食局西)",
        "tel": "",
        "category": "基础设施:公共设施:公共厕所",
        "type": 0,
        "location": {
            "lat": 43.614229,
            "lng": 122.270543
        },
        "ad_info": {
            "adcode": 150502,
            "province": "内蒙古自治区",
            "city": "通辽市",
            "district": "科尔沁区"
        }
    },
    {
        "id": "11380177643707873940",
        "title": "公共厕所",
        "address": "内蒙古自治区通辽市霍林郭勒市创业路与莫斯台街交叉口正西方向74米左右",
        "tel": "",
        "category": "基础设施:公共设施:公共厕所",
        "type": 0,
        "location": {
            "lat": 45.537346,
            "lng": 119.652876
        },
        "ad_info": {
            "adcode": 150581,
            "province": "内蒙古自治区",
            "city": "通辽市",
            "district": "霍林郭勒市"
        }
    },
    {
        "id": "15554791327879616622",
        "title": "公共厕所",
        "address": "内蒙古自治区通辽市库伦旗安达大街与杏坛路交叉口东北方向62米左右",
        "tel": "",
        "category": "基础设施:公共设施:公共厕所",
        "type": 0,
        "location": {
            "lat": 42.731456,
            "lng": 121.808569
        },
        "ad_info": {
            "adcode": 150524,
            "province": "内蒙古自治区",
            "city": "通辽市",
            "district": "库伦旗"
        }
    },
    {
        "id": "13282457772946674109",
        "title": "公共厕所",
        "address": "内蒙古自治区通辽市科尔沁区昆都伦大街与铁中路交叉口正东方向185米左右",
        "tel": "",
        "category": "基础设施:公共设施:公共厕所",
        "type": 0,
        "location": {
            "lat": 43.604428,
            "lng": 122.286261
        },
        "ad_info": {
            "adcode": 150502,
            "province": "内蒙古自治区",
            "city": "通辽市",
            "district": "科尔沁区"
        }
    },
    {
        "id": "12971229661049407798",
        "title": "公共厕所",
        "address": "内蒙古自治区通辽市科尔沁左翼中旗巴彦塔拉大街与文明路交叉口西南方向50米左右",
        "tel": "",
        "category": "基础设施:公共设施:公共厕所",
        "type": 0,
        "location": {
            "lat": 44.121004,
            "lng": 123.319182
        },
        "ad_info": {
            "adcode": 150521,
            "province": "内蒙古自治区",
            "city": "通辽市",
            "district": "科尔沁左翼中旗"
        }
    },
    {
        "id": "13103265740704287660",
        "title": "公共厕所",
        "address": "内蒙古自治区通辽市科尔沁区新工一路与霍林河大街交叉口东北方向292米左右",
        "tel": "",
        "category": "基础设施:公共设施:公共厕所",
        "type": 0,
        "location": {
            "lat": 43.631157,
            "lng": 122.299254
        },
        "ad_info": {
            "adcode": 150502,
            "province": "内蒙古自治区",
            "city": "通辽市",
            "district": "科尔沁区"
        }
    },
    {
        "id": "16932643915200298304",
        "title": "公共厕所",
        "address": "内蒙古自治区通辽市科尔沁区东顺路与滨河大街交叉口东南方向236米左右",
        "tel": "",
        "category": "基础设施:公共设施:公共厕所",
        "type": 0,
        "location": {
            "lat": 43.638012,
            "lng": 122.284858
        },
        "ad_info": {
            "adcode": 150502,
            "province": "内蒙古自治区",
            "city": "通辽市",
            "district": "科尔沁区"
        }
    },
    {
        "id": "6977210018146677733",
        "title": "公共厕所",
        "address": "内蒙古自治区通辽市科尔沁区创业大道与柳荫西路交叉口正东方向447米左右",
        "tel": "",
        "category": "基础设施:公共设施:公共厕所",
        "type": 0,
        "location": {
            "lat": 43.615552,
            "lng": 122.228204
        },
        "ad_info": {
            "adcode": 150502,
            "province": "内蒙古自治区",
            "city": "通辽市",
            "district": "科尔沁区"
        }
    },
    {
        "id": "3390277641605982983",
        "title": "公共厕所",
        "address": "内蒙古自治区通辽市开鲁县环城北路与环城西路交叉口西南方向25米左右",
        "tel": "",
        "category": "基础设施:公共设施:公共厕所",
        "type": 0,
        "location": {
            "lat": 43.610714,
            "lng": 121.299987
        },
        "ad_info": {
            "adcode": 150523,
            "province": "内蒙古自治区",
            "city": "通辽市",
            "district": "开鲁县"
        }
    },
    {
        "id": "16225182435691563275",
        "title": "公共厕所",
        "address": "内蒙古自治区通辽市科尔沁区中心大街与团结路交叉口西北方向125米左右",
        "tel": "",
        "category": "基础设施:公共设施:公共厕所",
        "type": 0,
        "location": {
            "lat": 43.615927,
            "lng": 122.242426
        },
        "ad_info": {
            "adcode": 150502,
            "province": "内蒙古自治区",
            "city": "通辽市",
            "district": "科尔沁区"
        }
    },
    {
        "id": "1167132757105018705",
        "title": "公共厕所",
        "address": "内蒙古自治区通辽市科尔沁左翼中旗建设大街与文明路交叉口正西方向65米左右",
        "tel": "",
        "category": "基础设施:公共设施:公共厕所",
        "type": 0,
        "location": {
            "lat": 44.129447,
            "lng": 123.316883
        },
        "ad_info": {
            "adcode": 150521,
            "province": "内蒙古自治区",
            "city": "通辽市",
            "district": "科尔沁左翼中旗"
        }
    },
    {
        "id": "8134015456168042013",
        "title": "公共厕所",
        "address": "内蒙古自治区通辽市奈曼旗X456与东八段交叉口正北方向68米左右",
        "tel": "",
        "category": "基础设施:公共设施:公共厕所",
        "type": 0,
        "location": {
            "lat": 43.209732,
            "lng": 121.03598
        },
        "ad_info": {
            "adcode": 150525,
            "province": "内蒙古自治区",
            "city": "通辽市",
            "district": "奈曼旗"
        }
    },
    {
        "id": "4744858176937526778",
        "title": "公共厕所",
        "address": "内蒙古自治区通辽市开鲁县民开线与204乡道交叉口西340米",
        "tel": "",
        "category": "基础设施:公共设施:公共厕所",
        "type": 0,
        "location": {
            "lat": 44.0285,
            "lng": 121.111078
        },
        "ad_info": {
            "adcode": 150523,
            "province": "内蒙古自治区",
            "city": "通辽市",
            "district": "开鲁县"
        }
    },
    {
        "id": "2936986754014796822",
        "title": "公共厕所",
        "address": "内蒙古自治区通辽市库伦旗S216与Y294交叉口正西方向549米左右",
        "tel": "",
        "category": "基础设施:公共设施:公共厕所",
        "type": 0,
        "location": {
            "lat": 42.464922,
            "lng": 121.247709
        },
        "ad_info": {
            "adcode": 150524,
            "province": "内蒙古自治区",
            "city": "通辽市",
            "district": "库伦旗"
        }
    }
]