[
    {
        "id": "12891926353015690080",
        "title": "公共厕所",
        "address": "四川省遂宁市船山区圣泉路与灵云路交叉口西北方向121米左右",
        "tel": "",
        "category": "基础设施:公共设施:公共厕所",
        "type": 0,
        "location": {
            "lat": 30.524931,
            "lng": 105.60137
        },
        "ad_info": {
            "adcode": 510903,
            "province": "四川省",
            "city": "遂宁市",
            "district": "船山区"
        }
    },
    {
        "id": "5315109526868121033",
        "title": "公共厕所",
        "address": "四川省遂宁市船山区小东街与御书一巷交叉口正东方向49米左右",
        "tel": "",
        "category": "基础设施:公共设施:公共厕所",
        "type": 0,
        "location": {
            "lat": 30.503572,
            "lng": 105.582406
        },
        "ad_info": {
            "adcode": 510903,
            "province": "四川省",
            "city": "遂宁市",
            "district": "船山区"
        }
    },
    {
        "id": "18336896448470004998",
        "title": "公共厕所",
        "address": "四川省遂宁市大英县中海大道与玉兰街交叉口东南方向42米左右",
        "tel": "",
        "category": "基础设施:公共设施:公共厕所",
        "type": 0,
        "location": {
            "lat": 30.600561,
            "lng": 105.241011
        },
        "ad_info": {
            "adcode": 510923,
            "province": "四川省",
            "city": "遂宁市",
            "district": "大英县"
        }
    },
    {
        "id": "16650551270846652304",
        "title": "公共厕所",
        "address": "四川省遂宁市船山区五彩缤纷路与慈航路交叉口西北方向117米左右",
        "tel": "",
        "category": "基础设施:公共设施:公共厕所",
        "type": 0,
        "location": {
            "lat": 30.515031,
            "lng": 105.603736
        },
        "ad_info": {
            "adcode": 510903,
            "province": "四川省",
            "city": "遂宁市",
            "district": "船山区"
        }
    },
    {
        "id": "14586152502924620488",
        "title": "公共厕所",
        "address": "四川省遂宁市船山区明月路与翠屏路交叉口西140米",
        "tel": "",
        "category": "基础设施:公共设施:公共厕所",
        "type": 0,
        "location": {
            "lat": 30.528301,
            "lng": 105.556314
        },
        "ad_info": {
            "adcode": 510903,
            "province": "四川省",
            "city": "遂宁市",
            "district": "船山区"
        }
    },
    {
        "id": "15335972401373277935",
        "title": "公共厕所",
        "address": "四川省遂宁市船山区米市街与遂州南路交叉口正东方向45米左右",
        "tel": "",
        "category": "基础设施:公共设施:公共厕所",
        "type": 0,
        "location": {
            "lat": 30.501947,
            "lng": 105.581085
        },
        "ad_info": {
            "adcode": 510903,
            "province": "四川省",
            "city": "遂宁市",
            "district": "船山区"
        }
    },
    {
        "id": "9020323108568105631",
        "title": "公共厕所",
        "address": "四川省遂宁市大英县郪江中路与顺河路交叉口东北方向118米左右",
        "tel": "",
        "category": "基础设施:公共设施:公共厕所",
        "type": 0,
        "location": {
            "lat": 30.594291,
            "lng": 105.2474
        },
        "ad_info": {
            "adcode": 510923,
            "province": "四川省",
            "city": "遂宁市",
            "district": "大英县"
        }
    },
    {
        "id": "1164025414370235894",
        "title": "公共厕所",
        "address": "四川省遂宁市船山区梧桐街与油房街交叉口正西方向48米左右",
        "tel": "",
        "category": "基础设施:公共设施:公共厕所",
        "type": 0,
        "location": {
            "lat": 30.502906,
            "lng": 105.586186
        },
        "ad_info": {
            "adcode": 510903,
            "province": "四川省",
            "city": "遂宁市",
            "district": "船山区"
        }
    },
    {
        "id": "480821450651162692",
        "title": "公共厕所",
        "address": "四川省遂宁市船山区福苑巷与秀水东路交叉口正东方向66米左右",
        "tel": "",
        "category": "基础设施:公共设施:公共厕所",
        "type": 0,
        "location": {
            "lat": 30.527245,
            "lng": 105.567982
        },
        "ad_info": {
            "adcode": 510903,
            "province": "四川省",
            "city": "遂宁市",
            "district": "船山区"
        }
    },
    {
        "id": "14816189690476716766",
        "title": "公共厕所",
        "address": "四川省遂宁市船山区北河街与滨江北路交叉口正北方向66米左右",
        "tel": "",
        "category": "基础设施:公共设施:公共厕所",
        "type": 0,
        "location": {
            "lat": 30.516485,
            "lng": 105.573981
        },
        "ad_info": {
            "adcode": 510903,
            "province": "四川省",
            "city": "遂宁市",
            "district": "船山区"
        }
    },
    {
        "id": "15391241928098530802",
        "title": "公共卫生间",
        "address": "四川省遂宁市船山区茂源南街与遂州南路交叉口正东方向38米左右",
        "tel": "",
        "category": "基础设施:公共设施:公共厕所",
        "type": 0,
        "location": {
            "lat": 30.496069,
            "lng": 105.584683
        },
        "ad_info": {
            "adcode": 510903,
            "province": "四川省",
            "city": "遂宁市",
            "district": "船山区"
        }
    },
    {
        "id": "12184403320957809142",
        "title": "公共厕所",
        "address": "四川省遂宁市船山区遂州北路138吉祥大厦",
        "tel": "",
        "category": "基础设施:公共设施:公共厕所",
        "type": 0,
        "location": {
            "lat": 30.52931,
            "lng": 105.566398
        },
        "ad_info": {
            "adcode": 510903,
            "province": "四川省",
            "city": "遂宁市",
            "district": "船山区"
        }
    },
    {
        "id": "226338543097104964",
        "title": "公共厕所",
        "address": "四川省遂宁市大英县交通上街与草西街交叉口正北方向41米左右",
        "tel": "",
        "category": "基础设施:公共设施:公共厕所",
        "type": 0,
        "location": {
            "lat": 30.581348,
            "lng": 105.252396
        },
        "ad_info": {
            "adcode": 510923,
            "province": "四川省",
            "city": "遂宁市",
            "district": "大英县"
        }
    },
    {
        "id": "1126565838551487330",
        "title": "公共厕所",
        "address": "四川省遂宁市船山区灵泉路与香环路交叉口东南方向22米左右",
        "tel": "",
        "category": "基础设施:公共设施:公共厕所",
        "type": 0,
        "location": {
            "lat": 30.51793,
            "lng": 105.618787
        },
        "ad_info": {
            "adcode": 510903,
            "province": "四川省",
            "city": "遂宁市",
            "district": "船山区"
        }
    },
    {
        "id": "3895876061431179123",
        "title": "公共厕所",
        "address": "四川省遂宁市船山区东升路遂宁市人民政府",
        "tel": "",
        "category": "基础设施:公共设施:公共厕所",
        "type": 0,
        "location": {
            "lat": 30.530949,
            "lng": 105.592123
        },
        "ad_info": {
            "adcode": 510903,
            "province": "四川省",
            "city": "遂宁市",
            "district": "船山区"
        }
    },
    {
        "id": "37972952722002864",
        "title": "公共厕所",
        "address": "四川省遂宁市船山区永安街与绿荫巷交叉口正南方向50米左右",
        "tel": "",
        "category": "基础设施:公共设施:公共厕所",
        "type": 0,
        "location": {
            "lat": 30.498622,
            "lng": 105.587341
        },
        "ad_info": {
            "adcode": 510903,
            "province": "四川省",
            "city": "遂宁市",
            "district": "船山区"
        }
    },
    {
        "id": "9962575689215054362",
        "title": "公共厕所",
        "address": "四川省遂宁市大英县蓬乐街241号",
        "tel": "",
        "category": "基础设施:公共设施:公共厕所",
        "type": 0,
        "location": {
            "lat": 30.582691,
            "lng": 105.24578
        },
        "ad_info": {
            "adcode": 510923,
            "province": "四川省",
            "city": "遂宁市",
            "district": "大英县"
        }
    },
    {
        "id": "7891323381693042304",
        "title": "公共厕所",
        "address": "四川省遂宁市船山区国泰街与新民街交叉口正南方向34米左右",
        "tel": "",
        "category": "基础设施:公共设施:公共厕所",
        "type": 0,
        "location": {
            "lat": 30.493381,
            "lng": 105.59098
        },
        "ad_info": {
            "adcode": 510903,
            "province": "四川省",
            "city": "遂宁市",
            "district": "船山区"
        }
    },
    {
        "id": "15463727667469532305",
        "title": "公共厕所",
        "address": "四川省遂宁市船山区和平桥与和平西路交叉口正南方向36米左右",
        "tel": "",
        "category": "基础设施:公共设施:公共厕所",
        "type": 0,
        "location": {
            "lat": 30.508183,
            "lng": 105.568176
        },
        "ad_info": {
            "adcode": 510903,
            "province": "四川省",
            "city": "遂宁市",
            "district": "船山区"
        }
    },
    {
        "id": "2282538365596373672",
        "title": "公共厕所",
        "address": "四川省遂宁市船山区北辰街与梨子巷交叉口正西方向9米左右",
        "tel": "",
        "category": "基础设施:公共设施:公共厕所",
        "type": 0,
        "location": {
            "lat": 30.505174,
            "lng": 105.579251
        },
        "ad_info": {
            "adcode": 510903,
            "province": "四川省",
            "city": "遂宁市",
            "district": "船山区"
        }
    },
    {
        "id": "17922321254922421348",
        "title": "公共厕所",
        "address": "四川省遂宁市船山区嘉禾东路与盐关街交叉口东北方向171米左右",
        "tel": "",
        "category": "基础设施:公共设施:公共厕所",
        "type": 0,
        "location": {
            "lat": 30.526743,
            "lng": 105.569005
        },
        "ad_info": {
            "adcode": 510903,
            "province": "四川省",
            "city": "遂宁市",
            "district": "船山区"
        }
    },
    {
        "id": "7444074345363167393",
        "title": "公共厕所",
        "address": "四川省遂宁市船山区嘉禾东路与嘉禾西路交叉口东南方向116米左右",
        "tel": "",
        "category": "基础设施:公共设施:公共厕所",
        "type": 0,
        "location": {
            "lat": 30.524612,
            "lng": 105.567164
        },
        "ad_info": {
            "adcode": 510903,
            "province": "四川省",
            "city": "遂宁市",
            "district": "船山区"
        }
    },
    {
        "id": "11083705419056413455",
        "title": "公共厕所",
        "address": "四川省遂宁市船山区栖霞路与芳洲南路交叉口西南方向82米左右",
        "tel": "",
        "category": "基础设施:公共设施:公共厕所",
        "type": 0,
        "location": {
            "lat": 30.531292,
            "lng": 105.598709
        },
        "ad_info": {
            "adcode": 510903,
            "province": "四川省",
            "city": "遂宁市",
            "district": "船山区"
        }
    },
    {
        "id": "9452774035957219845",
        "title": "公共厕所",
        "address": "四川省遂宁市船山区育才西路5-1号",
        "tel": "",
        "category": "基础设施:公共设施:公共厕所",
        "type": 0,
        "location": {
            "lat": 30.506762,
            "lng": 105.575779
        },
        "ad_info": {
            "adcode": 510903,
            "province": "四川省",
            "city": "遂宁市",
            "district": "船山区"
        }
    },
    {
        "id": "16897046616891306369",
        "title": "公共厕所",
        "address": "四川省遂宁市船山区兴和东街与滨江北路交叉口正北方向52米左右",
        "tel": "",
        "category": "基础设施:公共设施:公共厕所",
        "type": 0,
        "location": {
            "lat": 30.531975,
            "lng": 105.570722
        },
        "ad_info": {
            "adcode": 510903,
            "province": "四川省",
            "city": "遂宁市",
            "district": "船山区"
        }
    },
    {
        "id": "7153293170692059576",
        "title": "公共厕所",
        "address": "四川省遂宁市船山区介福东路与滨江北路交叉口东南方向155米左右",
        "tel": "",
        "category": "基础设施:公共设施:公共厕所",
        "type": 0,
        "location": {
            "lat": 30.520865,
            "lng": 105.573539
        },
        "ad_info": {
            "adcode": 510903,
            "province": "四川省",
            "city": "遂宁市",
            "district": "船山区"
        }
    },
    {
        "id": "4529128787318995905",
        "title": "公共厕所",
        "address": "四川省遂宁市船山区遂州中路292号附1号",
        "tel": "",
        "category": "基础设施:公共设施:公共厕所",
        "type": 0,
        "location": {
            "lat": 30.511332,
            "lng": 105.573617
        },
        "ad_info": {
            "adcode": 510903,
            "province": "四川省",
            "city": "遂宁市",
            "district": "船山区"
        }
    },
    {
        "id": "14144175233874597103",
        "title": "公共厕所",
        "address": "四川省遂宁市船山区人和路与香林北路交叉口西北方向51米左右",
        "tel": "",
        "category": "基础设施:公共设施:公共厕所",
        "type": 0,
        "location": {
            "lat": 30.53404,
            "lng": 105.59489
        },
        "ad_info": {
            "adcode": 510903,
            "province": "四川省",
            "city": "遂宁市",
            "district": "船山区"
        }
    },
    {
        "id": "3595445937575090825",
        "title": "公共厕所",
        "address": "四川省遂宁市船山区北河街与遂州中路交叉口正南方向31米左右",
        "tel": "",
        "category": "基础设施:公共设施:公共厕所",
        "type": 0,
        "location": {
            "lat": 30.514988,
            "lng": 105.571299
        },
        "ad_info": {
            "adcode": 510903,
            "province": "四川省",
            "city": "遂宁市",
            "district": "船山区"
        }
    },
    {
        "id": "6150371285214991630",
        "title": "公共厕所",
        "address": "四川省遂宁市船山区公园中路与公园西路交叉口正南方向38米左右",
        "tel": "",
        "category": "基础设施:公共设施:公共厕所",
        "type": 0,
        "location": {
            "lat": 30.500143,
            "lng": 105.581579
        },
        "ad_info": {
            "adcode": 510903,
            "province": "四川省",
            "city": "遂宁市",
            "district": "船山区"
        }
    },
    {
        "id": "18049833363860068488",
        "title": "公共厕所",
        "address": "四川省遂宁市船山区同福街与盐市街交叉口西北方向28米左右",
        "tel": "",
        "category": "基础设施:公共设施:公共厕所",
        "type": 0,
        "location": {
            "lat": 30.509347,
            "lng": 105.576356
        },
        "ad_info": {
            "adcode": 510903,
            "province": "四川省",
            "city": "遂宁市",
            "district": "船山区"
        }
    },
    {
        "id": "10199906015666069995",
        "title": "公共厕所",
        "address": "四川省遂宁市大英县盐厂大桥与郪江中路交叉口正西方向175米左右",
        "tel": "",
        "category": "基础设施:公共设施:公共厕所",
        "type": 0,
        "location": {
            "lat": 30.586009,
            "lng": 105.248765
        },
        "ad_info": {
            "adcode": 510923,
            "province": "四川省",
            "city": "遂宁市",
            "district": "大英县"
        }
    },
    {
        "id": "10565151708183937011",
        "title": "公共厕所",
        "address": "四川省遂宁市船山区德水中路与紫竹路交叉口东南方向230米左右",
        "tel": "",
        "category": "基础设施:公共设施:公共厕所",
        "type": 0,
        "location": {
            "lat": 30.51672,
            "lng": 105.603702
        },
        "ad_info": {
            "adcode": 510903,
            "province": "四川省",
            "city": "遂宁市",
            "district": "船山区"
        }
    },
    {
        "id": "1204235843392440440",
        "title": "公共厕所",
        "address": "四川省遂宁市船山区朝阳路与芳洲南路交叉口东北方向25米左右",
        "tel": "",
        "category": "基础设施:公共设施:公共厕所",
        "type": 0,
        "location": {
            "lat": 30.53019,
            "lng": 105.602131
        },
        "ad_info": {
            "adcode": 510903,
            "province": "四川省",
            "city": "遂宁市",
            "district": "船山区"
        }
    },
    {
        "id": "2221209822000625721",
        "title": "公共厕所",
        "address": "四川省遂宁市船山区德水北路与晨钟路交叉口正南方向99米左右",
        "tel": "",
        "category": "基础设施:公共设施:公共厕所",
        "type": 0,
        "location": {
            "lat": 30.536352,
            "lng": 105.588683
        },
        "ad_info": {
            "adcode": 510903,
            "province": "四川省",
            "city": "遂宁市",
            "district": "船山区"
        }
    },
    {
        "id": "10866255121746919871",
        "title": "公共厕所",
        "address": "四川省遂宁市船山区五彩缤纷路与晨钟路交叉口正北方向101米左右",
        "tel": "",
        "category": "基础设施:公共设施:公共厕所",
        "type": 0,
        "location": {
            "lat": 30.538451,
            "lng": 105.586299
        },
        "ad_info": {
            "adcode": 510903,
            "province": "四川省",
            "city": "遂宁市",
            "district": "船山区"
        }
    },
    {
        "id": "12736413675970886107",
        "title": "公共厕所",
        "address": "四川省遂宁市船山区灵云路与芳洲南路交叉口东南方向104米左右",
        "tel": "",
        "category": "基础设施:公共设施:公共厕所",
        "type": 0,
        "location": {
            "lat": 30.52751,
            "lng": 105.606386
        },
        "ad_info": {
            "adcode": 510903,
            "province": "四川省",
            "city": "遂宁市",
            "district": "船山区"
        }
    },
    {
        "id": "12901903576988157196",
        "title": "公共厕所",
        "address": "四川省遂宁市船山区德水南路与慈航路交叉口西北方向189米左右",
        "tel": "",
        "category": "基础设施:公共设施:公共厕所",
        "type": 0,
        "location": {
            "lat": 30.516873,
            "lng": 105.604349
        },
        "ad_info": {
            "adcode": 510903,
            "province": "四川省",
            "city": "遂宁市",
            "district": "船山区"
        }
    },
    {
        "id": "13187306206892744428",
        "title": "公共厕所",
        "address": "四川省遂宁市船山区天上街与梨子巷交叉口西北方向34米左右",
        "tel": "",
        "category": "基础设施:公共设施:公共厕所",
        "type": 0,
        "location": {
            "lat": 30.505026,
            "lng": 105.58069
        },
        "ad_info": {
            "adcode": 510903,
            "province": "四川省",
            "city": "遂宁市",
            "district": "船山区"
        }
    },
    {
        "id": "15290892245919982714",
        "title": "公共厕所",
        "address": "四川省遂宁市大英县海事后街与郪江中路交叉口东南方向27米左右",
        "tel": "",
        "category": "基础设施:公共设施:公共厕所",
        "type": 0,
        "location": {
            "lat": 30.580951,
            "lng": 105.260765
        },
        "ad_info": {
            "adcode": 510923,
            "province": "四川省",
            "city": "遂宁市",
            "district": "大英县"
        }
    },
    {
        "id": "17250197449259530743",
        "title": "公共厕所",
        "address": "四川省遂宁市船山区兴隆街与女人街步行街交叉口西南方向26米左右",
        "tel": "",
        "category": "基础设施:公共设施:公共厕所",
        "type": 0,
        "location": {
            "lat": 30.501191,
            "lng": 105.584596
        },
        "ad_info": {
            "adcode": 510903,
            "province": "四川省",
            "city": "遂宁市",
            "district": "船山区"
        }
    },
    {
        "id": "10952525774830087405",
        "title": "公共厕所",
        "address": "四川省遂宁市船山区九莲东街九莲小区",
        "tel": "",
        "category": "基础设施:公共设施:公共厕所",
        "type": 0,
        "location": {
            "lat": 30.542126,
            "lng": 105.567642
        },
        "ad_info": {
            "adcode": 510903,
            "province": "四川省",
            "city": "遂宁市",
            "district": "船山区"
        }
    },
    {
        "id": "8089413413519420827",
        "title": "公共厕所",
        "address": "四川省遂宁市船山区G247与新风下路交叉口正北方向455米左右",
        "tel": "",
        "category": "基础设施:公共设施:公共厕所",
        "type": 0,
        "location": {
            "lat": 30.567093,
            "lng": 105.523499
        },
        "ad_info": {
            "adcode": 510903,
            "province": "四川省",
            "city": "遂宁市",
            "district": "船山区"
        }
    },
    {
        "id": "7352175843514550841",
        "title": "公共厕所",
        "address": "四川省遂宁市船山区滨江北路1199号",
        "tel": "",
        "category": "基础设施:公共设施:公共厕所",
        "type": 0,
        "location": {
            "lat": 30.539541,
            "lng": 105.570897
        },
        "ad_info": {
            "adcode": 510903,
            "province": "四川省",
            "city": "遂宁市",
            "district": "船山区"
        }
    },
    {
        "id": "6947395878933492644",
        "title": "公共厕所",
        "address": "四川省遂宁市船山区新星东路与滨江北路交叉口东北方向24米左右",
        "tel": "",
        "category": "基础设施:公共设施:公共厕所",
        "type": 0,
        "location": {
            "lat": 30.545587,
            "lng": 105.569413
        },
        "ad_info": {
            "adcode": 510903,
            "province": "四川省",
            "city": "遂宁市",
            "district": "船山区"
        }
    },
    {
        "id": "9756104806982755648",
        "title": "公共厕所",
        "address": "四川省遂宁市船山区北辰街与玉堂街交叉口东北方向54米左右",
        "tel": "",
        "category": "基础设施:公共设施:公共厕所",
        "type": 0,
        "location": {
            "lat": 30.507524,
            "lng": 105.577857
        },
        "ad_info": {
            "adcode": 510903,
            "province": "四川省",
            "city": "遂宁市",
            "district": "船山区"
        }
    },
    {
        "id": "5856823348788242252",
        "title": "公共厕所",
        "address": "四川省遂宁市船山区广善路与西宁大道东段交叉口正西方向258米左右",
        "tel": "",
        "category": "基础设施:公共设施:公共厕所",
        "type": 0,
        "location": {
            "lat": 30.485239,
            "lng": 105.571653
        },
        "ad_info": {
            "adcode": 510903,
            "province": "四川省",
            "city": "遂宁市",
            "district": "船山区"
        }
    },
    {
        "id": "6848864678927323389",
        "title": "公共厕所",
        "address": "四川省遂宁市船山区米市街与遂州南路交叉口正西方向55米左右",
        "tel": "",
        "category": "基础设施:公共设施:公共厕所",
        "type": 0,
        "location": {
            "lat": 30.501763,
            "lng": 105.580064
        },
        "ad_info": {
            "adcode": 510903,
            "province": "四川省",
            "city": "遂宁市",
            "district": "船山区"
        }
    },
    {
        "id": "3433873024488745114",
        "title": "公共厕所",
        "address": "四川省遂宁市船山区天宫北路507号",
        "tel": "",
        "category": "基础设施:公共设施:公共厕所",
        "type": 0,
        "location": {
            "lat": 30.504245,
            "lng": 105.587234
        },
        "ad_info": {
            "adcode": 510903,
            "province": "四川省",
            "city": "遂宁市",
            "district": "船山区"
        }
    },
    {
        "id": "6398028906631822935",
        "title": "公共厕所",
        "address": "四川省遂宁市船山区滨江中路与老兴街交叉口正东方向48米左右",
        "tel": "",
        "category": "基础设施:公共设施:公共厕所",
        "type": 0,
        "location": {
            "lat": 30.505577,
            "lng": 105.586783
        },
        "ad_info": {
            "adcode": 510903,
            "province": "四川省",
            "city": "遂宁市",
            "district": "船山区"
        }
    },
    {
        "id": "10723822635312515675",
        "title": "公共厕所",
        "address": "四川省遂宁市船山区德胜西路与马房街交叉口正北方向59米左右",
        "tel": "",
        "category": "基础设施:公共设施:公共厕所",
        "type": 0,
        "location": {
            "lat": 30.501485,
            "lng": 105.575535
        },
        "ad_info": {
            "adcode": 510903,
            "province": "四川省",
            "city": "遂宁市",
            "district": "船山区"
        }
    },
    {
        "id": "14124513112207916825",
        "title": "公共厕所",
        "address": "四川省遂宁市船山区玫瑰大道与风林路交叉口东北方向88米左右",
        "tel": "",
        "category": "基础设施:公共设施:公共厕所",
        "type": 0,
        "location": {
            "lat": 30.477713,
            "lng": 105.576709
        },
        "ad_info": {
            "adcode": 510903,
            "province": "四川省",
            "city": "遂宁市",
            "district": "船山区"
        }
    },
    {
        "id": "17104864874512783666",
        "title": "公共厕所",
        "address": "四川省遂宁市船山区205省道西50米",
        "tel": "",
        "category": "基础设施:公共设施:公共厕所",
        "type": 0,
        "location": {
            "lat": 30.393274,
            "lng": 105.64811
        },
        "ad_info": {
            "adcode": 510903,
            "province": "四川省",
            "city": "遂宁市",
            "district": "船山区"
        }
    },
    {
        "id": "12380029291834690953",
        "title": "公共厕所",
        "address": "四川省遂宁市船山区都江立交桥与S53茂遂高速交叉口北240米",
        "tel": "",
        "category": "基础设施:公共设施:公共厕所",
        "type": 0,
        "location": {
            "lat": 30.609959,
            "lng": 105.447791
        },
        "ad_info": {
            "adcode": 510903,
            "province": "四川省",
            "city": "遂宁市",
            "district": "船山区"
        }
    },
    {
        "id": "16030142897727387181",
        "title": "公共厕所",
        "address": "四川省遂宁市大英县金元街109号",
        "tel": "",
        "category": "基础设施:公共设施:公共厕所",
        "type": 0,
        "location": {
            "lat": 30.591478,
            "lng": 105.238166
        },
        "ad_info": {
            "adcode": 510923,
            "province": "四川省",
            "city": "遂宁市",
            "district": "大英县"
        }
    },
    {
        "id": "2025919561737062281",
        "title": "公共厕所",
        "address": "四川省遂宁市船山区政遂宁市中心医院第二住院部对左侧约40米",
        "tel": "",
        "category": "基础设施:公共设施:公共厕所",
        "type": 0,
        "location": {
            "lat": 30.503358,
            "lng": 105.576392
        },
        "ad_info": {
            "adcode": 510903,
            "province": "四川省",
            "city": "遂宁市",
            "district": "船山区"
        }
    },
    {
        "id": "966614943465737026",
        "title": "公共厕所",
        "address": "四川省遂宁市蓬溪县普欣路与迎宾大道交叉口正北方向112米左右",
        "tel": "",
        "category": "基础设施:公共设施:公共厕所",
        "type": 0,
        "location": {
            "lat": 30.755071,
            "lng": 105.702922
        },
        "ad_info": {
            "adcode": 510921,
            "province": "四川省",
            "city": "遂宁市",
            "district": "蓬溪县"
        }
    },
    {
        "id": "10617302807243152215",
        "title": "公共厕所",
        "address": "四川省遂宁市大英县蓬莱镇双桥路大英东站",
        "tel": "",
        "category": "基础设施:公共设施:公共厕所",
        "type": 0,
        "location": {
            "lat": 30.567985,
            "lng": 105.279833
        },
        "ad_info": {
            "adcode": 510923,
            "province": "四川省",
            "city": "遂宁市",
            "district": "大英县"
        }
    },
    {
        "id": "15108934314692966632",
        "title": "公共厕所",
        "address": "四川省遂宁市大英县大英立交桥与环城路交叉口东南方向44米左右",
        "tel": "",
        "category": "基础设施:公共设施:公共厕所",
        "type": 0,
        "location": {
            "lat": 30.602553,
            "lng": 105.234946
        },
        "ad_info": {
            "adcode": 510923,
            "province": "四川省",
            "city": "遂宁市",
            "district": "大英县"
        }
    },
    {
        "id": "13252639718872349693",
        "title": "公共厕所",
        "address": "四川省遂宁市大英县卓筒井镇卫生院南侧180米",
        "tel": "",
        "category": "基础设施:公共设施:公共厕所",
        "type": 0,
        "location": {
            "lat": 30.494882,
            "lng": 105.200665
        },
        "ad_info": {
            "adcode": 510923,
            "province": "四川省",
            "city": "遂宁市",
            "district": "大英县"
        }
    },
    {
        "id": "12495206382490925509",
        "title": "公共厕所",
        "address": "四川省遂宁市大英县交通下街与交通中街交叉口西南方向385米左右",
        "tel": "",
        "category": "基础设施:公共设施:公共厕所",
        "type": 0,
        "location": {
            "lat": 30.677329,
            "lng": 105.196202
        },
        "ad_info": {
            "adcode": 510923,
            "province": "四川省",
            "city": "遂宁市",
            "district": "大英县"
        }
    },
    {
        "id": "15656840169253613879",
        "title": "公共厕所",
        "address": "四川省遂宁市安居区安居大道637号",
        "tel": "",
        "category": "基础设施:公共设施:公共厕所",
        "type": 0,
        "location": {
            "lat": 30.353582,
            "lng": 105.452121
        },
        "ad_info": {
            "adcode": 510904,
            "province": "四川省",
            "city": "遂宁市",
            "district": "安居区"
        }
    },
    {
        "id": "9726779742298688897",
        "title": "公共厕所",
        "address": "四川省遂宁市安居区梧桐南路12号",
        "tel": "",
        "category": "基础设施:公共设施:公共厕所",
        "type": 0,
        "location": {
            "lat": 30.347934,
            "lng": 105.475798
        },
        "ad_info": {
            "adcode": 510904,
            "province": "四川省",
            "city": "遂宁市",
            "district": "安居区"
        }
    },
    {
        "id": "7261681687963640531",
        "title": "公共厕所",
        "address": "四川省遂宁市蓬溪县上河街与先农巷交叉口东南方向31米左右",
        "tel": "",
        "category": "基础设施:公共设施:公共厕所",
        "type": 0,
        "location": {
            "lat": 30.779092,
            "lng": 105.717401
        },
        "ad_info": {
            "adcode": 510921,
            "province": "四川省",
            "city": "遂宁市",
            "district": "蓬溪县"
        }
    },
    {
        "id": "17164790763756070059",
        "title": "公共厕所",
        "address": "四川省遂宁市安居区兴业大桥与国贸东路交叉口正东方向152米左右",
        "tel": "",
        "category": "基础设施:公共设施:公共厕所",
        "type": 0,
        "location": {
            "lat": 30.351013,
            "lng": 105.46135
        },
        "ad_info": {
            "adcode": 510904,
            "province": "四川省",
            "city": "遂宁市",
            "district": "安居区"
        }
    },
    {
        "id": "6832060815573027816",
        "title": "公共厕所",
        "address": "四川省遂宁市射洪市子昂路164号",
        "tel": "",
        "category": "基础设施:公共设施:公共厕所",
        "type": 0,
        "location": {
            "lat": 30.987858,
            "lng": 105.287733
        },
        "ad_info": {
            "adcode": 510981,
            "province": "四川省",
            "city": "遂宁市",
            "district": "射洪市"
        }
    },
    {
        "id": "1387364840407952649",
        "title": "公共厕所",
        "address": "四川省遂宁市蓬溪县城东街与蜀北上路交叉口正北方向110米左右",
        "tel": "",
        "category": "基础设施:公共设施:公共厕所",
        "type": 0,
        "location": {
            "lat": 30.777757,
            "lng": 105.717323
        },
        "ad_info": {
            "adcode": 510921,
            "province": "四川省",
            "city": "遂宁市",
            "district": "蓬溪县"
        }
    },
    {
        "id": "6188627719912756967",
        "title": "公共厕所",
        "address": "四川省遂宁市蓬溪县东街与步行街交叉口东南方向66米左右",
        "tel": "",
        "category": "基础设施:公共设施:公共厕所",
        "type": 0,
        "location": {
            "lat": 30.774524,
            "lng": 105.712421
        },
        "ad_info": {
            "adcode": 510921,
            "province": "四川省",
            "city": "遂宁市",
            "district": "蓬溪县"
        }
    },
    {
        "id": "741204896709213054",
        "title": "卫生间",
        "address": "四川省遂宁市船山区政府西街1号摩尔春天百货F2",
        "tel": "",
        "category": "基础设施:公共设施:公共厕所",
        "type": 0,
        "location": {
            "lat": 30.503969,
            "lng": 105.578538
        },
        "ad_info": {
            "adcode": 510903,
            "province": "四川省",
            "city": "遂宁市",
            "district": "船山区"
        }
    },
    {
        "id": "4025902129954172725",
        "title": "公共厕所",
        "address": "四川省遂宁市安居区商业街与西奉街交叉口东北方向215米左右",
        "tel": "",
        "category": "基础设施:公共设施:公共厕所",
        "type": 0,
        "location": {
            "lat": 30.337559,
            "lng": 105.638133
        },
        "ad_info": {
            "adcode": 510904,
            "province": "四川省",
            "city": "遂宁市",
            "district": "安居区"
        }
    },
    {
        "id": "859307490262452483",
        "title": "公共厕所",
        "address": "四川省遂宁市蓬溪县上河街与城北街交叉口正南方向30米左右",
        "tel": "",
        "category": "基础设施:公共设施:公共厕所",
        "type": 0,
        "location": {
            "lat": 30.781362,
            "lng": 105.718566
        },
        "ad_info": {
            "adcode": 510921,
            "province": "四川省",
            "city": "遂宁市",
            "district": "蓬溪县"
        }
    },
    {
        "id": "4601734561976201484",
        "title": "公共厕所",
        "address": "四川省遂宁市射洪市人民街与红旗后街交叉口正北方向102米左右",
        "tel": "",
        "category": "基础设施:公共设施:公共厕所",
        "type": 0,
        "location": {
            "lat": 30.871726,
            "lng": 105.388874
        },
        "ad_info": {
            "adcode": 510981,
            "province": "四川省",
            "city": "遂宁市",
            "district": "射洪市"
        }
    },
    {
        "id": "5309140791740157640",
        "title": "公共厕所",
        "address": "四川省遂宁市安居区G318与人民下路交叉口正南方向72米左右",
        "tel": "",
        "category": "基础设施:公共设施:公共厕所",
        "type": 0,
        "location": {
            "lat": 30.31716,
            "lng": 105.249303
        },
        "ad_info": {
            "adcode": 510904,
            "province": "四川省",
            "city": "遂宁市",
            "district": "安居区"
        }
    },
    {
        "id": "8986943538679850579",
        "title": "卫生间",
        "address": "四川省遂宁市船山区政府西街1号摩尔春天百货F5",
        "tel": "",
        "category": "基础设施:公共设施:公共厕所",
        "type": 0,
        "location": {
            "lat": 30.503967,
            "lng": 105.578538
        },
        "ad_info": {
            "adcode": 510903,
            "province": "四川省",
            "city": "遂宁市",
            "district": "船山区"
        }
    },
    {
        "id": "379348221051953426",
        "title": "卫生间",
        "address": "四川省遂宁市船山区政府西街1号摩尔春天百货F4",
        "tel": "",
        "category": "基础设施:公共设施:公共厕所",
        "type": 0,
        "location": {
            "lat": 30.503973,
            "lng": 105.578534
        },
        "ad_info": {
            "adcode": 510903,
            "province": "四川省",
            "city": "遂宁市",
            "district": "船山区"
        }
    },
    {
        "id": "5659208895761996962",
        "title": "公共厕所",
        "address": "四川省遂宁市蓬溪县G318与冬笋街交叉口正南方向479米左右",
        "tel": "",
        "category": "基础设施:公共设施:公共厕所",
        "type": 0,
        "location": {
            "lat": 30.686349,
            "lng": 105.692583
        },
        "ad_info": {
            "adcode": 510921,
            "province": "四川省",
            "city": "遂宁市",
            "district": "蓬溪县"
        }
    },
    {
        "id": "13862275902021256665",
        "title": "公共厕所",
        "address": "四川省遂宁市船山区永丰街与油房街交叉口正北方向107米左右",
        "tel": "",
        "category": "基础设施:公共设施:公共厕所",
        "type": 0,
        "location": {
            "lat": 30.504305,
            "lng": 105.589591
        },
        "ad_info": {
            "adcode": 510903,
            "province": "四川省",
            "city": "遂宁市",
            "district": "船山区"
        }
    },
    {
        "id": "17459330908517954171",
        "title": "公共厕所",
        "address": "四川省遂宁市船山区南津北路翔宇花园",
        "tel": "",
        "category": "基础设施:公共设施:公共厕所",
        "type": 0,
        "location": {
            "lat": 30.49116,
            "lng": 105.59087
        },
        "ad_info": {
            "adcode": 510903,
            "province": "四川省",
            "city": "遂宁市",
            "district": "船山区"
        }
    },
    {
        "id": "5028493483014672704",
        "title": "公共厕所",
        "address": "四川省遂宁市蓬溪县G318与冬笋街交叉口正南方向762米左右",
        "tel": "",
        "category": "基础设施:公共设施:公共厕所",
        "type": 0,
        "location": {
            "lat": 30.683559,
            "lng": 105.690304
        },
        "ad_info": {
            "adcode": 510921,
            "province": "四川省",
            "city": "遂宁市",
            "district": "蓬溪县"
        }
    },
    {
        "id": "808181101084461893",
        "title": "公共厕所",
        "address": "四川省遂宁市安居区G247与兴贸西路交叉口正南方向64米左右",
        "tel": "",
        "category": "基础设施:公共设施:公共厕所",
        "type": 0,
        "location": {
            "lat": 30.341289,
            "lng": 105.44639
        },
        "ad_info": {
            "adcode": 510904,
            "province": "四川省",
            "city": "遂宁市",
            "district": "安居区"
        }
    },
    {
        "id": "4144422755320927233",
        "title": "公共厕所",
        "address": "四川省遂宁市安居区大兴下街与遂乐路交叉口西南方向186米左右",
        "tel": "",
        "category": "基础设施:公共设施:公共厕所",
        "type": 0,
        "location": {
            "lat": 30.378334,
            "lng": 105.231336
        },
        "ad_info": {
            "adcode": 510904,
            "province": "四川省",
            "city": "遂宁市",
            "district": "安居区"
        }
    },
    {
        "id": "473590675588526100",
        "title": "公共厕所",
        "address": "四川省遂宁市船山区公园中路与梭子街交叉口东南方向58米左右",
        "tel": "",
        "category": "基础设施:公共设施:公共厕所",
        "type": 0,
        "location": {
            "lat": 30.500951,
            "lng": 105.58335
        },
        "ad_info": {
            "adcode": 510903,
            "province": "四川省",
            "city": "遂宁市",
            "district": "船山区"
        }
    },
    {
        "id": "4815113267533585810",
        "title": "公共厕所",
        "address": "四川省遂宁市蓬溪县映溪街与蜀北下路交叉口正北方向21米左右",
        "tel": "",
        "category": "基础设施:公共设施:公共厕所",
        "type": 0,
        "location": {
            "lat": 30.76252,
            "lng": 105.702314
        },
        "ad_info": {
            "adcode": 510921,
            "province": "四川省",
            "city": "遂宁市",
            "district": "蓬溪县"
        }
    },
    {
        "id": "14894235706289813786",
        "title": "公共厕所",
        "address": "四川省遂宁市蓬溪县商华街与正街交叉口西南方向106米左右",
        "tel": "",
        "category": "基础设施:公共设施:公共厕所",
        "type": 0,
        "location": {
            "lat": 30.69729,
            "lng": 105.80293
        },
        "ad_info": {
            "adcode": 510921,
            "province": "四川省",
            "city": "遂宁市",
            "district": "蓬溪县"
        }
    },
    {
        "id": "14283089168315564599",
        "title": "公共厕所",
        "address": "四川省遂宁市射洪市太和大道南段518号",
        "tel": "",
        "category": "基础设施:公共设施:公共厕所",
        "type": 0,
        "location": {
            "lat": 30.853876,
            "lng": 105.37937
        },
        "ad_info": {
            "adcode": 510981,
            "province": "四川省",
            "city": "遂宁市",
            "district": "射洪市"
        }
    },
    {
        "id": "3063218386446847699",
        "title": "公共厕所",
        "address": "四川省遂宁市蓬溪县映溪街与蜀北下路交叉口东北方向65米左右",
        "tel": "",
        "category": "基础设施:公共设施:公共厕所",
        "type": 0,
        "location": {
            "lat": 30.762714,
            "lng": 105.70285
        },
        "ad_info": {
            "adcode": 510921,
            "province": "四川省",
            "city": "遂宁市",
            "district": "蓬溪县"
        }
    },
    {
        "id": "7621362621732773431",
        "title": "公共厕所",
        "address": "四川省遂宁市射洪市沱牌大道15号",
        "tel": "",
        "category": "基础设施:公共设施:公共厕所",
        "type": 0,
        "location": {
            "lat": 30.875704,
            "lng": 105.37371
        },
        "ad_info": {
            "adcode": 510981,
            "province": "四川省",
            "city": "遂宁市",
            "district": "射洪市"
        }
    },
    {
        "id": "1626770077207056302",
        "title": "公共厕所",
        "address": "四川省遂宁市射洪市药王街药王楼小区",
        "tel": "",
        "category": "基础设施:公共设施:公共厕所",
        "type": 0,
        "location": {
            "lat": 30.866489,
            "lng": 105.381418
        },
        "ad_info": {
            "adcode": 510981,
            "province": "四川省",
            "city": "遂宁市",
            "district": "射洪市"
        }
    },
    {
        "id": "17447485948342487364",
        "title": "公共厕所",
        "address": "四川省遂宁市射洪市沱牌大道北段宏源花园",
        "tel": "",
        "category": "基础设施:公共设施:公共厕所",
        "type": 0,
        "location": {
            "lat": 30.866688,
            "lng": 105.370798
        },
        "ad_info": {
            "adcode": 510981,
            "province": "四川省",
            "city": "遂宁市",
            "district": "射洪市"
        }
    },
    {
        "id": "3436364864247680868",
        "title": "公共厕所",
        "address": "四川省遂宁市射洪市中医后街与康强路交叉口正南方向152米左右",
        "tel": "",
        "category": "基础设施:公共设施:公共厕所",
        "type": 0,
        "location": {
            "lat": 30.849377,
            "lng": 105.384396
        },
        "ad_info": {
            "adcode": 510981,
            "province": "四川省",
            "city": "遂宁市",
            "district": "射洪市"
        }
    },
    {
        "id": "15184547528816908418",
        "title": "公共厕所",
        "address": "四川省遂宁市射洪市太和大道北段辅路与恒业旺街交叉口西北方向43米左右",
        "tel": "",
        "category": "基础设施:公共设施:公共厕所",
        "type": 0,
        "location": {
            "lat": 30.873871,
            "lng": 105.383708
        },
        "ad_info": {
            "adcode": 510981,
            "province": "四川省",
            "city": "遂宁市",
            "district": "射洪市"
        }
    },
    {
        "id": "16840848180813558559",
        "title": "公共厕所",
        "address": "四川省遂宁市射洪市射蓬路与政府街交叉口正北方向80米",
        "tel": "",
        "category": "基础设施:公共设施:公共厕所",
        "type": 0,
        "location": {
            "lat": 30.809182,
            "lng": 105.533655
        },
        "ad_info": {
            "adcode": 510981,
            "province": "四川省",
            "city": "遂宁市",
            "district": "射洪市"
        }
    },
    {
        "id": "11486298942758725726",
        "title": "公共厕所",
        "address": "四川省遂宁市船山区明霞路与滨江中路交叉口正东方向213米左右",
        "tel": "",
        "category": "基础设施:公共设施:公共厕所",
        "type": 0,
        "location": {
            "lat": 30.498986,
            "lng": 105.601965
        },
        "ad_info": {
            "adcode": 510903,
            "province": "四川省",
            "city": "遂宁市",
            "district": "船山区"
        }
    },
    {
        "id": "1353945689228599421",
        "title": "公共厕所",
        "address": "四川省遂宁市射洪市大佛路与龙凤街交叉口正南方向41米左右",
        "tel": "",
        "category": "基础设施:公共设施:公共厕所",
        "type": 0,
        "location": {
            "lat": 30.741208,
            "lng": 105.4229
        },
        "ad_info": {
            "adcode": 510981,
            "province": "四川省",
            "city": "遂宁市",
            "district": "射洪市"
        }
    },
    {
        "id": "16488714669958160791",
        "title": "公共厕所",
        "address": "四川省遂宁市射洪市万林街道133号",
        "tel": "",
        "category": "基础设施:公共设施:公共厕所",
        "type": 0,
        "location": {
            "lat": 30.814875,
            "lng": 105.374785
        },
        "ad_info": {
            "adcode": 510981,
            "province": "四川省",
            "city": "遂宁市",
            "district": "射洪市"
        }
    },
    {
        "id": "1096241812545734484",
        "title": "公共厕所",
        "address": "四川省遂宁市船山区开善南路与开善路交叉口西北方向33米左右",
        "tel": "",
        "category": "基础设施:公共设施:公共厕所",
        "type": 0,
        "location": {
            "lat": 30.487389,
            "lng": 105.588167
        },
        "ad_info": {
            "adcode": 510903,
            "province": "四川省",
            "city": "遂宁市",
            "district": "船山区"
        }
    },
    {
        "id": "10370844594343874829",
        "title": "公共厕所",
        "address": "四川省遂宁市船山区富源路与开善路交叉口西北方向91米左右",
        "tel": "",
        "category": "基础设施:公共设施:公共厕所",
        "type": 0,
        "location": {
            "lat": 30.483817,
            "lng": 105.587402
        },
        "ad_info": {
            "adcode": 510903,
            "province": "四川省",
            "city": "遂宁市",
            "district": "船山区"
        }
    },
    {
        "id": "8986885387696327683",
        "title": "公共厕所",
        "address": "四川省遂宁市射洪市子昂路164号",
        "tel": "",
        "category": "基础设施:公共设施:公共厕所",
        "type": 0,
        "location": {
            "lat": 30.987127,
            "lng": 105.286377
        },
        "ad_info": {
            "adcode": 510981,
            "province": "四川省",
            "city": "遂宁市",
            "district": "射洪市"
        }
    },
    {
        "id": "6652095718464000585",
        "title": "公共厕所",
        "address": "四川省遂宁市射洪市",
        "tel": "",
        "category": "基础设施:公共设施:公共厕所",
        "type": 0,
        "location": {
            "lat": 30.800725,
            "lng": 105.39042
        },
        "ad_info": {
            "adcode": 510981,
            "province": "四川省",
            "city": "遂宁市",
            "district": "射洪市"
        }
    },
    {
        "id": "11479517187302998878",
        "title": "公共厕所",
        "address": "四川省遂宁市射洪市夏团路与天生街交叉口正北方向341米左右",
        "tel": "",
        "category": "基础设施:公共设施:公共厕所",
        "type": 0,
        "location": {
            "lat": 30.749525,
            "lng": 105.306277
        },
        "ad_info": {
            "adcode": 510981,
            "province": "四川省",
            "city": "遂宁市",
            "district": "射洪市"
        }
    },
    {
        "id": "5081269751411745119",
        "title": "公共厕所",
        "address": "四川省遂宁市射洪市华韵雅居东(射洪县金华镇政府西北)",
        "tel": "",
        "category": "基础设施:公共设施:公共厕所",
        "type": 0,
        "location": {
            "lat": 30.990591,
            "lng": 105.286605
        },
        "ad_info": {
            "adcode": 510981,
            "province": "四川省",
            "city": "遂宁市",
            "district": "射洪市"
        }
    },
    {
        "id": "17234579164951163630",
        "title": "公共厕所",
        "address": "四川省遂宁市射洪市G247与文昌路交叉口西北方向847米左右",
        "tel": "",
        "category": "基础设施:公共设施:公共厕所",
        "type": 0,
        "location": {
            "lat": 30.706725,
            "lng": 105.406342
        },
        "ad_info": {
            "adcode": 510981,
            "province": "四川省",
            "city": "遂宁市",
            "district": "射洪市"
        }
    },
    {
        "id": "11518492166435408612",
        "title": "公共厕所(磨溪中学)",
        "address": "四川省遂宁市安居区磨溪中学内",
        "tel": "",
        "category": "基础设施:公共设施:公共厕所",
        "type": 0,
        "location": {
            "lat": 30.294643,
            "lng": 105.689732
        },
        "ad_info": {
            "adcode": 510904,
            "province": "四川省",
            "city": "遂宁市",
            "district": "安居区"
        }
    },
    {
        "id": "13932770832196846893",
        "title": "公共厕所",
        "address": "四川省遂宁市射洪市惠兴路与西环路交叉口正南方向832米左右",
        "tel": "",
        "category": "基础设施:公共设施:公共厕所",
        "type": 0,
        "location": {
            "lat": 30.814704,
            "lng": 105.408229
        },
        "ad_info": {
            "adcode": 510981,
            "province": "四川省",
            "city": "遂宁市",
            "district": "射洪市"
        }
    },
    {
        "id": "12085772238930217622",
        "title": "免费公共厕所",
        "address": "四川省遂宁市大英县S53茂遂高速入口与247国道交叉口西南60米",
        "tel": "",
        "category": "基础设施:公共设施:公共厕所",
        "type": 0,
        "location": {
            "lat": 30.666101,
            "lng": 105.425463
        },
        "ad_info": {
            "adcode": 510923,
            "province": "四川省",
            "city": "遂宁市",
            "district": "大英县"
        }
    },
    {
        "id": "15645213281919100070",
        "title": "遂宁服务区公共厕所",
        "address": "四川省遂宁市大英县国飞路与幸福路交叉口正北方向1175米左右",
        "tel": "",
        "category": "基础设施:公共设施:公共厕所",
        "type": 0,
        "location": {
            "lat": 30.609483,
            "lng": 105.319897
        },
        "ad_info": {
            "adcode": 510923,
            "province": "四川省",
            "city": "遂宁市",
            "district": "大英县"
        }
    },
    {
        "id": "12073361337521752726",
        "title": "公共厕所",
        "address": "四川省遂宁市射洪市G247与大佛路交叉口东南方向1218米左右",
        "tel": "",
        "category": "基础设施:公共设施:公共厕所",
        "type": 0,
        "location": {
            "lat": 30.738233,
            "lng": 105.441441
        },
        "ad_info": {
            "adcode": 510981,
            "province": "四川省",
            "city": "遂宁市",
            "district": "射洪市"
        }
    },
    {
        "id": "12549586436010767171",
        "title": "无障碍公共厕所",
        "address": "四川省遂宁市射洪市金宸街与富强路交叉口东120米",
        "tel": "",
        "category": "基础设施:公共设施:公共厕所",
        "type": 0,
        "location": {
            "lat": 30.858305,
            "lng": 105.378181
        },
        "ad_info": {
            "adcode": 510981,
            "province": "四川省",
            "city": "遂宁市",
            "district": "射洪市"
        }
    },
    {
        "id": "10645037337673384457",
        "title": "公共厕所",
        "address": "四川省遂宁市射洪市裕丰路与阳光巷交叉口正南方向37米左右",
        "tel": "",
        "category": "基础设施:公共设施:公共厕所",
        "type": 0,
        "location": {
            "lat": 30.854699,
            "lng": 105.367777
        },
        "ad_info": {
            "adcode": 510981,
            "province": "四川省",
            "city": "遂宁市",
            "district": "射洪市"
        }
    },
    {
        "id": "7954262445011055743",
        "title": "公共厕所",
        "address": "四川省遂宁市蓬溪县西街与鸡市街交叉口正东方向79米左右",
        "tel": "",
        "category": "基础设施:公共设施:公共厕所",
        "type": 0,
        "location": {
            "lat": 30.77282,
            "lng": 105.711408
        },
        "ad_info": {
            "adcode": 510921,
            "province": "四川省",
            "city": "遂宁市",
            "district": "蓬溪县"
        }
    },
    {
        "id": "12703685831764820550",
        "title": "遂宁服务区公共厕所",
        "address": "四川省遂宁市大英县国飞路与幸福路交叉口正北方向1313米左右",
        "tel": "",
        "category": "基础设施:公共设施:公共厕所",
        "type": 0,
        "location": {
            "lat": 30.610843,
            "lng": 105.321277
        },
        "ad_info": {
            "adcode": 510923,
            "province": "四川省",
            "city": "遂宁市",
            "district": "大英县"
        }
    },
    {
        "id": "18145111814742589689",
        "title": "遂宁东服务区公共厕所",
        "address": "四川省遂宁市船山区成渝环线高速与遂宁东互通交叉口正北方向1577米左右",
        "tel": "",
        "category": "基础设施:公共设施:公共厕所",
        "type": 0,
        "location": {
            "lat": 30.549316,
            "lng": 105.63722
        },
        "ad_info": {
            "adcode": 510903,
            "province": "四川省",
            "city": "遂宁市",
            "district": "船山区"
        }
    },
    {
        "id": "14639239225280964525",
        "title": "洗手间",
        "address": "四川省遂宁市安居区兴业大桥与国贸东路交叉口西南方向35米左右",
        "tel": "",
        "category": "基础设施:公共设施:公共厕所",
        "type": 0,
        "location": {
            "lat": 30.350251,
            "lng": 105.459665
        },
        "ad_info": {
            "adcode": 510904,
            "province": "四川省",
            "city": "遂宁市",
            "district": "安居区"
        }
    },
    {
        "id": "8665500891103401097",
        "title": "公共厕所",
        "address": "四川省遂宁市蓬溪县广福路与映月街交叉口东北方向57米左右",
        "tel": "",
        "category": "基础设施:公共设施:公共厕所",
        "type": 0,
        "location": {
            "lat": 30.763534,
            "lng": 105.705173
        },
        "ad_info": {
            "adcode": 510921,
            "province": "四川省",
            "city": "遂宁市",
            "district": "蓬溪县"
        }
    },
    {
        "id": "100980057300364377",
        "title": "公共厕所",
        "address": "四川省遂宁市射洪市滨江路北段与紫薇街交叉口东北方向76米左右",
        "tel": "",
        "category": "基础设施:公共设施:公共厕所",
        "type": 0,
        "location": {
            "lat": 30.87759,
            "lng": 105.392028
        },
        "ad_info": {
            "adcode": 510981,
            "province": "四川省",
            "city": "遂宁市",
            "district": "射洪市"
        }
    },
    {
        "id": "1756925230608591014",
        "title": "公共厕所",
        "address": "四川省遂宁市射洪市下南街18号",
        "tel": "",
        "category": "基础设施:公共设施:公共厕所",
        "type": 0,
        "location": {
            "lat": 30.865688,
            "lng": 105.384696
        },
        "ad_info": {
            "adcode": 510981,
            "province": "四川省",
            "city": "遂宁市",
            "district": "射洪市"
        }
    },
    {
        "id": "15327826692899837334",
        "title": "公共厕所",
        "address": "四川省遂宁市射洪市兴隆街与北街交叉口正北方向218米左右",
        "tel": "",
        "category": "基础设施:公共设施:公共厕所",
        "type": 0,
        "location": {
            "lat": 30.990211,
            "lng": 105.28671
        },
        "ad_info": {
            "adcode": 510981,
            "province": "四川省",
            "city": "遂宁市",
            "district": "射洪市"
        }
    },
    {
        "id": "3337589281912775114",
        "title": "射洪服务区公共厕所",
        "address": "四川省遂宁市射洪市涪江大道与银杏大道交叉口正北方向1008米左右",
        "tel": "",
        "category": "基础设施:公共设施:公共厕所",
        "type": 0,
        "location": {
            "lat": 30.862172,
            "lng": 105.422029
        },
        "ad_info": {
            "adcode": 510981,
            "province": "四川省",
            "city": "遂宁市",
            "district": "射洪市"
        }
    },
    {
        "id": "9236260455095416522",
        "title": "射洪服务区公共厕所",
        "address": "四川省遂宁市射洪市涪江大道与诗酒大道交叉口正北方向847米左右",
        "tel": "",
        "category": "基础设施:公共设施:公共厕所",
        "type": 0,
        "location": {
            "lat": 30.860801,
            "lng": 105.428021
        },
        "ad_info": {
            "adcode": 510981,
            "province": "四川省",
            "city": "遂宁市",
            "district": "射洪市"
        }
    },
    {
        "id": "10185324385019363354",
        "title": "公共厕所",
        "address": "四川省遂宁市射洪市杨家三巷幸福家园",
        "tel": "",
        "category": "基础设施:公共设施:公共厕所",
        "type": 0,
        "location": {
            "lat": 30.874193,
            "lng": 105.381392
        },
        "ad_info": {
            "adcode": 510981,
            "province": "四川省",
            "city": "遂宁市",
            "district": "射洪市"
        }
    },
    {
        "id": "11360482294009369330",
        "title": "公共厕所",
        "address": "四川省遂宁市船山区冰糖巷与灵泉路交叉口正东方向48米左右",
        "tel": "",
        "category": "基础设施:公共设施:公共厕所",
        "type": 0,
        "location": {
            "lat": 30.508968,
            "lng": 105.613083
        },
        "ad_info": {
            "adcode": 510903,
            "province": "四川省",
            "city": "遂宁市",
            "district": "船山区"
        }
    },
    {
        "id": "15871982307774142411",
        "title": "公共厕所",
        "address": "四川省遂宁市船山区南兴街与明月路交叉口正南方向177米左右",
        "tel": "",
        "category": "基础设施:公共设施:公共厕所",
        "type": 0,
        "location": {
            "lat": 30.526948,
            "lng": 105.563581
        },
        "ad_info": {
            "adcode": 510903,
            "province": "四川省",
            "city": "遂宁市",
            "district": "船山区"
        }
    },
    {
        "id": "15100223992268689166",
        "title": "大英东方国际酒店-洗手间",
        "address": "四川省遂宁市大英县蓬乐路与魁山路交叉口西南方向438米左右",
        "tel": "",
        "category": "基础设施:公共设施:公共厕所",
        "type": 0,
        "location": {
            "lat": 30.571664,
            "lng": 105.239626
        },
        "ad_info": {
            "adcode": 510923,
            "province": "四川省",
            "city": "遂宁市",
            "district": "大英县"
        }
    },
    {
        "id": "8075520506807197406",
        "title": "公共厕所",
        "address": "四川省遂宁市船山区五彩缤纷南路金科美湖湾",
        "tel": "",
        "category": "基础设施:公共设施:公共厕所",
        "type": 0,
        "location": {
            "lat": 30.504986,
            "lng": 105.613342
        },
        "ad_info": {
            "adcode": 510903,
            "province": "四川省",
            "city": "遂宁市",
            "district": "船山区"
        }
    },
    {
        "id": "9503359938057374875",
        "title": "公共厕所",
        "address": "四川省遂宁市船山区南环路18号",
        "tel": "",
        "category": "基础设施:公共设施:公共厕所",
        "type": 0,
        "location": {
            "lat": 30.478974,
            "lng": 105.595755
        },
        "ad_info": {
            "adcode": 510903,
            "province": "四川省",
            "city": "遂宁市",
            "district": "船山区"
        }
    },
    {
        "id": "11830597973673753137",
        "title": "公共厕所",
        "address": "四川省遂宁市船山区兴和西街与渠河北路交叉口东南方向28米左右",
        "tel": "",
        "category": "基础设施:公共设施:公共厕所",
        "type": 0,
        "location": {
            "lat": 30.530781,
            "lng": 105.560834
        },
        "ad_info": {
            "adcode": 510903,
            "province": "四川省",
            "city": "遂宁市",
            "district": "船山区"
        }
    },
    {
        "id": "3344024760786335391",
        "title": "公共厕所",
        "address": "四川省遂宁市船山区滨江中路与老兴街交叉口正西方向49米左右",
        "tel": "",
        "category": "基础设施:公共设施:公共厕所",
        "type": 0,
        "location": {
            "lat": 30.505425,
            "lng": 105.585776
        },
        "ad_info": {
            "adcode": 510903,
            "province": "四川省",
            "city": "遂宁市",
            "district": "船山区"
        }
    },
    {
        "id": "15887473256301714344",
        "title": "公共厕所",
        "address": "四川省遂宁市射洪市射观路与沱牌大道北段交叉口西南方向46米左右",
        "tel": "",
        "category": "基础设施:公共设施:公共厕所",
        "type": 0,
        "location": {
            "lat": 30.873667,
            "lng": 105.371421
        },
        "ad_info": {
            "adcode": 510981,
            "province": "四川省",
            "city": "遂宁市",
            "district": "射洪市"
        }
    },
    {
        "id": "4464438525711541588",
        "title": "公共厕所",
        "address": "四川省遂宁市蓬溪县新叶街与顺溪街交叉口西北方向222米左右",
        "tel": "",
        "category": "基础设施:公共设施:公共厕所",
        "type": 0,
        "location": {
            "lat": 30.76328,
            "lng": 105.694717
        },
        "ad_info": {
            "adcode": 510921,
            "province": "四川省",
            "city": "遂宁市",
            "district": "蓬溪县"
        }
    },
    {
        "id": "12166667719951551302",
        "title": "万隆路公共厕所",
        "address": "四川省遂宁市射洪市柿子桥街与洪达家鑫路下段交叉口西南方向100米左右",
        "tel": "",
        "category": "基础设施:公共设施:公共厕所",
        "type": 0,
        "location": {
            "lat": 30.853834,
            "lng": 105.375221
        },
        "ad_info": {
            "adcode": 510981,
            "province": "四川省",
            "city": "遂宁市",
            "district": "射洪市"
        }
    },
    {
        "id": "5362010074184717918",
        "title": "公共厕所",
        "address": "四川省遂宁市船山区成渝环线高速与遂宁东互通交叉口正南方向448米左右",
        "tel": "",
        "category": "基础设施:公共设施:公共厕所",
        "type": 0,
        "location": {
            "lat": 30.524926,
            "lng": 105.642714
        },
        "ad_info": {
            "adcode": 510903,
            "province": "四川省",
            "city": "遂宁市",
            "district": "船山区"
        }
    },
    {
        "id": "6894126577533358297",
        "title": "公共厕所",
        "address": "四川省遂宁市大英县交通下街与客馆街交叉口西北方向43米左右",
        "tel": "",
        "category": "基础设施:公共设施:公共厕所",
        "type": 0,
        "location": {
            "lat": 30.578911,
            "lng": 105.260038
        },
        "ad_info": {
            "adcode": 510923,
            "province": "四川省",
            "city": "遂宁市",
            "district": "大英县"
        }
    },
    {
        "id": "16630853856640382880",
        "title": "公共厕所",
        "address": "四川省遂宁市船山区G318与G350交叉口正东方向52米左右",
        "tel": "",
        "category": "基础设施:公共设施:公共厕所",
        "type": 0,
        "location": {
            "lat": 30.584961,
            "lng": 105.654914
        },
        "ad_info": {
            "adcode": 510903,
            "province": "四川省",
            "city": "遂宁市",
            "district": "船山区"
        }
    },
    {
        "id": "12118864332429472540",
        "title": "公共厕所",
        "address": "四川省遂宁市射洪市205省道东50米",
        "tel": "",
        "category": "基础设施:公共设施:公共厕所",
        "type": 0,
        "location": {
            "lat": 30.91004,
            "lng": 105.350639
        },
        "ad_info": {
            "adcode": 510981,
            "province": "四川省",
            "city": "遂宁市",
            "district": "射洪市"
        }
    },
    {
        "id": "13253605755192474917",
        "title": "公共厕所",
        "address": "四川省遂宁市射洪市兴旺街与和平街交叉口西南方向35米左右",
        "tel": "",
        "category": "基础设施:公共设施:公共厕所",
        "type": 0,
        "location": {
            "lat": 30.868103,
            "lng": 105.386752
        },
        "ad_info": {
            "adcode": 510981,
            "province": "四川省",
            "city": "遂宁市",
            "district": "射洪市"
        }
    },
    {
        "id": "4108551883881005913",
        "title": "公共厕所",
        "address": "四川省遂宁市射洪市武安河街与洪达家鑫路上段交叉口正北方向49米左右",
        "tel": "",
        "category": "基础设施:公共设施:公共厕所",
        "type": 0,
        "location": {
            "lat": 30.864746,
            "lng": 105.376945
        },
        "ad_info": {
            "adcode": 510981,
            "province": "四川省",
            "city": "遂宁市",
            "district": "射洪市"
        }
    },
    {
        "id": "16191960917688740223",
        "title": "公共厕所(射洪顺成丝绸有限公司)",
        "address": "四川省遂宁市射洪市新阳街与洪达家鑫路上段交叉口正北方向55米左右",
        "tel": "",
        "category": "基础设施:公共设施:公共厕所",
        "type": 0,
        "location": {
            "lat": 30.872457,
            "lng": 105.375957
        },
        "ad_info": {
            "adcode": 510981,
            "province": "四川省",
            "city": "遂宁市",
            "district": "射洪市"
        }
    },
    {
        "id": "17513429377692780560",
        "title": "蓬莱公园公共厕所",
        "address": "四川省遂宁市大英县江南中路蓬莱公园(北侧)",
        "tel": "",
        "category": "基础设施:公共设施:公共厕所",
        "type": 0,
        "location": {
            "lat": 30.57858,
            "lng": 105.250522
        },
        "ad_info": {
            "adcode": 510923,
            "province": "四川省",
            "city": "遂宁市",
            "district": "大英县"
        }
    },
    {
        "id": "12827953342604318323",
        "title": "公共厕所",
        "address": "四川省遂宁市船山区中环线与龙兴路交叉口西南方向542米左右",
        "tel": "",
        "category": "基础设施:公共设施:公共厕所",
        "type": 0,
        "location": {
            "lat": 30.528858,
            "lng": 105.519066
        },
        "ad_info": {
            "adcode": 510903,
            "province": "四川省",
            "city": "遂宁市",
            "district": "船山区"
        }
    },
    {
        "id": "10932706184046304020",
        "title": "公共厕所",
        "address": "四川省遂宁市安居区梧桐南路与滨江北路交叉口东北方向106米左右",
        "tel": "",
        "category": "基础设施:公共设施:公共厕所",
        "type": 0,
        "location": {
            "lat": 30.346442,
            "lng": 105.47531
        },
        "ad_info": {
            "adcode": 510904,
            "province": "四川省",
            "city": "遂宁市",
            "district": "安居区"
        }
    },
    {
        "id": "17036035148169846281",
        "title": "公共厕所",
        "address": "四川省遂宁市船山区明霞路65号",
        "tel": "",
        "category": "基础设施:公共设施:公共厕所",
        "type": 0,
        "location": {
            "lat": 30.49477,
            "lng": 105.587151
        },
        "ad_info": {
            "adcode": 510903,
            "province": "四川省",
            "city": "遂宁市",
            "district": "船山区"
        }
    },
    {
        "id": "10274549072065822395",
        "title": "公共厕所",
        "address": "四川省遂宁市船山区惠民路与李家巷交叉口东北方向72米左右",
        "tel": "",
        "category": "基础设施:公共设施:公共厕所",
        "type": 0,
        "location": {
            "lat": 30.539847,
            "lng": 105.552254
        },
        "ad_info": {
            "adcode": 510903,
            "province": "四川省",
            "city": "遂宁市",
            "district": "船山区"
        }
    },
    {
        "id": "2344739092428960830",
        "title": "公共厕所",
        "address": "四川省遂宁市船山区灵云路与芳洲南路交叉口东北方向210米左右",
        "tel": "",
        "category": "基础设施:公共设施:公共厕所",
        "type": 0,
        "location": {
            "lat": 30.528895,
            "lng": 105.607294
        },
        "ad_info": {
            "adcode": 510903,
            "province": "四川省",
            "city": "遂宁市",
            "district": "船山区"
        }
    },
    {
        "id": "461359373728406980",
        "title": "公共厕所",
        "address": "四川省遂宁市安居区兴业路与兴贸东路交叉口正东方向96米左右",
        "tel": "",
        "category": "基础设施:公共设施:公共厕所",
        "type": 0,
        "location": {
            "lat": 30.34686,
            "lng": 105.46485
        },
        "ad_info": {
            "adcode": 510904,
            "province": "四川省",
            "city": "遂宁市",
            "district": "安居区"
        }
    },
    {
        "id": "2390640888838201684",
        "title": "公共厕所",
        "address": "四川省遂宁市大英县Y104与天星大道交叉口正东方向116米左右",
        "tel": "",
        "category": "基础设施:公共设施:公共厕所",
        "type": 0,
        "location": {
            "lat": 30.609722,
            "lng": 105.246241
        },
        "ad_info": {
            "adcode": 510923,
            "province": "四川省",
            "city": "遂宁市",
            "district": "大英县"
        }
    },
    {
        "id": "546532956634465320",
        "title": "公共厕所",
        "address": "四川省遂宁市船山区中环大道西一段与西宁大道交叉口东南方向99米左右",
        "tel": "",
        "category": "基础设施:公共设施:公共厕所",
        "type": 0,
        "location": {
            "lat": 30.478217,
            "lng": 105.554867
        },
        "ad_info": {
            "adcode": 510903,
            "province": "四川省",
            "city": "遂宁市",
            "district": "船山区"
        }
    },
    {
        "id": "4031473987772056000",
        "title": "公共厕所",
        "address": "四川省遂宁市船山区九宗书院路遂州新城2期东北侧约30米",
        "tel": "",
        "category": "基础设施:公共设施:公共厕所",
        "type": 0,
        "location": {
            "lat": 30.522648,
            "lng": 105.614114
        },
        "ad_info": {
            "adcode": 510903,
            "province": "四川省",
            "city": "遂宁市",
            "district": "船山区"
        }
    },
    {
        "id": "1480612235836400311",
        "title": "公共厕所",
        "address": "四川省遂宁市射洪市",
        "tel": "",
        "category": "基础设施:公共设施:公共厕所",
        "type": 0,
        "location": {
            "lat": 30.919335,
            "lng": 105.349891
        },
        "ad_info": {
            "adcode": 510981,
            "province": "四川省",
            "city": "遂宁市",
            "district": "射洪市"
        }
    },
    {
        "id": "8469695425484258742",
        "title": "公共厕所",
        "address": "四川省遂宁市船山区东阳路2号",
        "tel": "",
        "category": "基础设施:公共设施:公共厕所",
        "type": 0,
        "location": {
            "lat": 30.543339,
            "lng": 105.586932
        },
        "ad_info": {
            "adcode": 510903,
            "province": "四川省",
            "city": "遂宁市",
            "district": "船山区"
        }
    },
    {
        "id": "17536184888481843825",
        "title": "公共厕所",
        "address": "四川省遂宁市射洪市太和街43号",
        "tel": "",
        "category": "基础设施:公共设施:公共厕所",
        "type": 0,
        "location": {
            "lat": 30.866386,
            "lng": 105.391273
        },
        "ad_info": {
            "adcode": 510981,
            "province": "四川省",
            "city": "遂宁市",
            "district": "射洪市"
        }
    },
    {
        "id": "11593947815453692943",
        "title": "公共厕所",
        "address": "四川省遂宁市船山区德水南路与杨柳路交叉口西北方向154米左右",
        "tel": "",
        "category": "基础设施:公共设施:公共厕所",
        "type": 0,
        "location": {
            "lat": 30.515333,
            "lng": 105.608867
        },
        "ad_info": {
            "adcode": 510903,
            "province": "四川省",
            "city": "遂宁市",
            "district": "船山区"
        }
    },
    {
        "id": "10940133525277085412",
        "title": "公共厕所",
        "address": "四川省遂宁市安居区创新创业孵化园西侧100米",
        "tel": "",
        "category": "基础设施:公共设施:公共厕所",
        "type": 0,
        "location": {
            "lat": 30.3655,
            "lng": 105.483109
        },
        "ad_info": {
            "adcode": 510904,
            "province": "四川省",
            "city": "遂宁市",
            "district": "安居区"
        }
    },
    {
        "id": "2189675602299206630",
        "title": "公共厕所",
        "address": "四川省遂宁市大英县滨江路与蓬莱路交叉口正东方向246米左右",
        "tel": "",
        "category": "基础设施:公共设施:公共厕所",
        "type": 0,
        "location": {
            "lat": 30.585696,
            "lng": 105.257065
        },
        "ad_info": {
            "adcode": 510923,
            "province": "四川省",
            "city": "遂宁市",
            "district": "大英县"
        }
    },
    {
        "id": "10976870966370002392",
        "title": "公共厕所",
        "address": "四川省遂宁市船山区明星大道与过军大道交叉口正南方向259米左右",
        "tel": "",
        "category": "基础设施:公共设施:公共厕所",
        "type": 0,
        "location": {
            "lat": 30.447532,
            "lng": 105.611396
        },
        "ad_info": {
            "adcode": 510903,
            "province": "四川省",
            "city": "遂宁市",
            "district": "船山区"
        }
    },
    {
        "id": "16566874391414503709",
        "title": "公共厕所",
        "address": "四川省遂宁市大英县铜鼓街132号",
        "tel": "",
        "category": "基础设施:公共设施:公共厕所",
        "type": 0,
        "location": {
            "lat": 30.593535,
            "lng": 105.237671
        },
        "ad_info": {
            "adcode": 510923,
            "province": "四川省",
            "city": "遂宁市",
            "district": "大英县"
        }
    },
    {
        "id": "16091046249717511372",
        "title": "公共厕所",
        "address": "四川省遂宁市船山区开善路与渠河南路交叉口正南方向126米左右",
        "tel": "",
        "category": "基础设施:公共设施:公共厕所",
        "type": 0,
        "location": {
            "lat": 30.49335,
            "lng": 105.58526
        },
        "ad_info": {
            "adcode": 510903,
            "province": "四川省",
            "city": "遂宁市",
            "district": "船山区"
        }
    },
    {
        "id": "17601202831630194767",
        "title": "公共厕所",
        "address": "四川省遂宁市射洪市伯玉路491号",
        "tel": "",
        "category": "基础设施:公共设施:公共厕所",
        "type": 0,
        "location": {
            "lat": 30.873179,
            "lng": 105.386865
        },
        "ad_info": {
            "adcode": 510981,
            "province": "四川省",
            "city": "遂宁市",
            "district": "射洪市"
        }
    },
    {
        "id": "11312876697328062569",
        "title": "公共厕所",
        "address": "四川省遂宁市蓬溪县香湖路与香溪西路交叉口正南方向202米左右",
        "tel": "",
        "category": "基础设施:公共设施:公共厕所",
        "type": 0,
        "location": {
            "lat": 30.767731,
            "lng": 105.70048
        },
        "ad_info": {
            "adcode": 510921,
            "province": "四川省",
            "city": "遂宁市",
            "district": "蓬溪县"
        }
    },
    {
        "id": "3916635139055573560",
        "title": "公共厕所",
        "address": "四川省遂宁市船山区藕园巷与遂州中路交叉口正西方向148米左右",
        "tel": "",
        "category": "基础设施:公共设施:公共厕所",
        "type": 0,
        "location": {
            "lat": 30.516496,
            "lng": 105.56941
        },
        "ad_info": {
            "adcode": 510903,
            "province": "四川省",
            "city": "遂宁市",
            "district": "船山区"
        }
    },
    {
        "id": "172057017380844776",
        "title": "公共厕所",
        "address": "四川省遂宁市船山区永畅街与秀水街交叉口西南方向136米左右",
        "tel": "",
        "category": "基础设施:公共设施:公共厕所",
        "type": 0,
        "location": {
            "lat": 30.525474,
            "lng": 105.560254
        },
        "ad_info": {
            "adcode": 510903,
            "province": "四川省",
            "city": "遂宁市",
            "district": "船山区"
        }
    },
    {
        "id": "5863921770093302096",
        "title": "公共厕所",
        "address": "四川省遂宁市船山区卫星桥巷与和平西路交叉口正北方向62米左右",
        "tel": "",
        "category": "基础设施:公共设施:公共厕所",
        "type": 0,
        "location": {
            "lat": 30.509879,
            "lng": 105.571544
        },
        "ad_info": {
            "adcode": 510903,
            "province": "四川省",
            "city": "遂宁市",
            "district": "船山区"
        }
    },
    {
        "id": "13960080195322050263",
        "title": "公共厕所",
        "address": "四川省遂宁市船山区明霞路与龙王井西巷交叉口正西方向15米左右",
        "tel": "",
        "category": "基础设施:公共设施:公共厕所",
        "type": 0,
        "location": {
            "lat": 30.495202,
            "lng": 105.589564
        },
        "ad_info": {
            "adcode": 510903,
            "province": "四川省",
            "city": "遂宁市",
            "district": "船山区"
        }
    },
    {
        "id": "10047649086167797795",
        "title": "公共厕所",
        "address": "四川省遂宁市大英县商业北街与邮政街交叉口正东方向97米左右",
        "tel": "",
        "category": "基础设施:公共设施:公共厕所",
        "type": 0,
        "location": {
            "lat": 30.59191,
            "lng": 105.24216
        },
        "ad_info": {
            "adcode": 510923,
            "province": "四川省",
            "city": "遂宁市",
            "district": "大英县"
        }
    },
    {
        "id": "1719322552250977358",
        "title": "公共厕所",
        "address": "四川省遂宁市射洪市滨江路中段与金宸街交叉口正北方向131米左右",
        "tel": "",
        "category": "基础设施:公共设施:公共厕所",
        "type": 0,
        "location": {
            "lat": 30.860553,
            "lng": 105.392571
        },
        "ad_info": {
            "adcode": 510981,
            "province": "四川省",
            "city": "遂宁市",
            "district": "射洪市"
        }
    },
    {
        "id": "15560954244193864693",
        "title": "公共厕所(人民街)",
        "address": "四川省遂宁市射洪市金蓬路与银鞍街交叉口东北方向11米左右",
        "tel": "",
        "category": "基础设施:公共设施:公共厕所",
        "type": 0,
        "location": {
            "lat": 31.076402,
            "lng": 105.33715
        },
        "ad_info": {
            "adcode": 510981,
            "province": "四川省",
            "city": "遂宁市",
            "district": "射洪市"
        }
    },
    {
        "id": "9380073003903484491",
        "title": "遂宁东服务区公共厕所",
        "address": "四川省遂宁市船山区成渝环线高速与遂宁东互通交叉口西北方向1670米左右",
        "tel": "",
        "category": "基础设施:公共设施:公共厕所",
        "type": 0,
        "location": {
            "lat": 30.54939,
            "lng": 105.634635
        },
        "ad_info": {
            "adcode": 510903,
            "province": "四川省",
            "city": "遂宁市",
            "district": "船山区"
        }
    },
    {
        "id": "18406201746707098322",
        "title": "公共厕所",
        "address": "四川省遂宁市射洪市物资计量站(射洪中学实验校北)",
        "tel": "",
        "category": "基础设施:公共设施:公共厕所",
        "type": 0,
        "location": {
            "lat": 30.867931,
            "lng": 105.3773
        },
        "ad_info": {
            "adcode": 510981,
            "province": "四川省",
            "city": "遂宁市",
            "district": "射洪市"
        }
    },
    {
        "id": "14103580345866441666",
        "title": "公共厕所",
        "address": "四川省遂宁市射洪市子昂广场南街与沱牌大道中段交叉口正东方向94米左右",
        "tel": "",
        "category": "基础设施:公共设施:公共厕所",
        "type": 0,
        "location": {
            "lat": 30.858198,
            "lng": 105.37248
        },
        "ad_info": {
            "adcode": 510981,
            "province": "四川省",
            "city": "遂宁市",
            "district": "射洪市"
        }
    },
    {
        "id": "7195026012861739100",
        "title": "公共厕所",
        "address": "四川省遂宁市船山区G318与旌忠路交叉口正南方向76米左右",
        "tel": "",
        "category": "基础设施:公共设施:公共厕所",
        "type": 0,
        "location": {
            "lat": 30.543423,
            "lng": 105.601713
        },
        "ad_info": {
            "adcode": 510903,
            "province": "四川省",
            "city": "遂宁市",
            "district": "船山区"
        }
    },
    {
        "id": "1956579656686395198",
        "title": "公共厕所",
        "address": "四川省遂宁市船山区藕园巷与遂州中路交叉口正西方向190米左右",
        "tel": "",
        "category": "基础设施:公共设施:公共厕所",
        "type": 0,
        "location": {
            "lat": 30.516697,
            "lng": 105.569023
        },
        "ad_info": {
            "adcode": 510903,
            "province": "四川省",
            "city": "遂宁市",
            "district": "船山区"
        }
    },
    {
        "id": "10108862392315608347",
        "title": "公共厕所",
        "address": "四川省遂宁市船山区G246与复兴上街交叉口西北方向966米左右",
        "tel": "",
        "category": "基础设施:公共设施:公共厕所",
        "type": 0,
        "location": {
            "lat": 30.428387,
            "lng": 105.605661
        },
        "ad_info": {
            "adcode": 510903,
            "province": "四川省",
            "city": "遂宁市",
            "district": "船山区"
        }
    },
    {
        "id": "3845851573314568468",
        "title": "公共厕所",
        "address": "四川省遂宁市蓬溪县锦春街与锦阳路交叉口东南方向103米左右",
        "tel": "",
        "category": "基础设施:公共设施:公共厕所",
        "type": 0,
        "location": {
            "lat": 30.768012,
            "lng": 105.718805
        },
        "ad_info": {
            "adcode": 510921,
            "province": "四川省",
            "city": "遂宁市",
            "district": "蓬溪县"
        }
    },
    {
        "id": "16997508608882089078",
        "title": "公共厕所",
        "address": "四川省遂宁市船山区玫瑰大道与达祥路交叉口东南方向332米左右",
        "tel": "",
        "category": "基础设施:公共设施:公共厕所",
        "type": 0,
        "location": {
            "lat": 30.474941,
            "lng": 105.582743
        },
        "ad_info": {
            "adcode": 510903,
            "province": "四川省",
            "city": "遂宁市",
            "district": "船山区"
        }
    },
    {
        "id": "2625512004407998462",
        "title": "公共厕所",
        "address": "四川省遂宁市大英县中天广场街与交通下街交叉口正西方向61米左右",
        "tel": "",
        "category": "基础设施:公共设施:公共厕所",
        "type": 0,
        "location": {
            "lat": 30.577799,
            "lng": 105.260471
        },
        "ad_info": {
            "adcode": 510923,
            "province": "四川省",
            "city": "遂宁市",
            "district": "大英县"
        }
    },
    {
        "id": "4498990387384467373",
        "title": "蓬南服务区公共厕所",
        "address": "四川省遂宁市蓬溪县三元街与烈蓬路交叉口正南方向1103米左右",
        "tel": "",
        "category": "基础设施:公共设施:公共厕所",
        "type": 0,
        "location": {
            "lat": 30.430481,
            "lng": 105.971234
        },
        "ad_info": {
            "adcode": 510921,
            "province": "四川省",
            "city": "遂宁市",
            "district": "蓬溪县"
        }
    },
    {
        "id": "8223375370478532283",
        "title": "公共厕所",
        "address": "四川省遂宁市船山区滨江中路与紫东街交叉口正西方向25米左右",
        "tel": "",
        "category": "基础设施:公共设施:公共厕所",
        "type": 0,
        "location": {
            "lat": 30.507345,
            "lng": 105.582963
        },
        "ad_info": {
            "adcode": 510903,
            "province": "四川省",
            "city": "遂宁市",
            "district": "船山区"
        }
    },
    {
        "id": "16134060556153847037",
        "title": "公共厕所",
        "address": "四川省遂宁市射洪市兴建巷与建设街交叉口东北方向61米左右",
        "tel": "",
        "category": "基础设施:公共设施:公共厕所",
        "type": 0,
        "location": {
            "lat": 30.870153,
            "lng": 105.379935
        },
        "ad_info": {
            "adcode": 510981,
            "province": "四川省",
            "city": "遂宁市",
            "district": "射洪市"
        }
    },
    {
        "id": "1521965535912700521",
        "title": "公共厕所(开善路)",
        "address": "四川省遂宁市船山区开善路与渠河南路交叉口正南方向95米左右",
        "tel": "",
        "category": "基础设施:公共设施:公共厕所",
        "type": 0,
        "location": {
            "lat": 30.493636,
            "lng": 105.585182
        },
        "ad_info": {
            "adcode": 510903,
            "province": "四川省",
            "city": "遂宁市",
            "district": "船山区"
        }
    },
    {
        "id": "16557102741868187595",
        "title": "公共厕所",
        "address": "四川省遂宁市大英县交通下街与交通中街交叉口西北方向192米左右",
        "tel": "",
        "category": "基础设施:公共设施:公共厕所",
        "type": 0,
        "location": {
            "lat": 30.680522,
            "lng": 105.198681
        },
        "ad_info": {
            "adcode": 510923,
            "province": "四川省",
            "city": "遂宁市",
            "district": "大英县"
        }
    },
    {
        "id": "229603914476825722",
        "title": "公共厕所",
        "address": "四川省遂宁市安居区Y010与遂乐路交叉口西南方向1848米左右",
        "tel": "",
        "category": "基础设施:公共设施:公共厕所",
        "type": 0,
        "location": {
            "lat": 30.386351,
            "lng": 105.260057
        },
        "ad_info": {
            "adcode": 510904,
            "province": "四川省",
            "city": "遂宁市",
            "district": "安居区"
        }
    },
    {
        "id": "17326173217217383087",
        "title": "公共厕所",
        "address": "四川省遂宁市大英县成南高速与沪蓉高速交叉口正北方向1243米左右",
        "tel": "",
        "category": "基础设施:公共设施:公共厕所",
        "type": 0,
        "location": {
            "lat": 30.622737,
            "lng": 105.226792
        },
        "ad_info": {
            "adcode": 510923,
            "province": "四川省",
            "city": "遂宁市",
            "district": "大英县"
        }
    },
    {
        "id": "6461509638874408859",
        "title": "公共厕所",
        "address": "四川省遂宁市蓬溪县政通街与映月街交叉口正南方向137米左右",
        "tel": "",
        "category": "基础设施:公共设施:公共厕所",
        "type": 0,
        "location": {
            "lat": 30.757057,
            "lng": 105.705133
        },
        "ad_info": {
            "adcode": 510921,
            "province": "四川省",
            "city": "遂宁市",
            "district": "蓬溪县"
        }
    },
    {
        "id": "13338351371563951799",
        "title": "遂宁西服务区公共厕所",
        "address": "四川省遂宁市安居区S40广洪高速与遂宁西服务区交叉口东340米",
        "tel": "",
        "category": "基础设施:公共设施:公共厕所",
        "type": 0,
        "location": {
            "lat": 30.461952,
            "lng": 105.414265
        },
        "ad_info": {
            "adcode": 510904,
            "province": "四川省",
            "city": "遂宁市",
            "district": "安居区"
        }
    },
    {
        "id": "6316374842251557391",
        "title": "公共厕所",
        "address": "四川省遂宁市射洪市下南街与伯玉路交叉口正北方向95米左右",
        "tel": "",
        "category": "基础设施:公共设施:公共厕所",
        "type": 0,
        "location": {
            "lat": 30.866462,
            "lng": 105.384284
        },
        "ad_info": {
            "adcode": 510981,
            "province": "四川省",
            "city": "遂宁市",
            "district": "射洪市"
        }
    },
    {
        "id": "11636669360517469890",
        "title": "公共厕所",
        "address": "四川省遂宁市安居区步行街与石圣街交叉口西南方向91米左右",
        "tel": "",
        "category": "基础设施:公共设施:公共厕所",
        "type": 0,
        "location": {
            "lat": 30.335183,
            "lng": 105.632725
        },
        "ad_info": {
            "adcode": 510904,
            "province": "四川省",
            "city": "遂宁市",
            "district": "安居区"
        }
    },
    {
        "id": "7650952732877925510",
        "title": "公共厕所",
        "address": "四川省遂宁市射洪市新阳街2附12号附2号",
        "tel": "",
        "category": "基础设施:公共设施:公共厕所",
        "type": 0,
        "location": {
            "lat": 30.868126,
            "lng": 105.392398
        },
        "ad_info": {
            "adcode": 510981,
            "province": "四川省",
            "city": "遂宁市",
            "district": "射洪市"
        }
    },
    {
        "id": "16753630250761589376",
        "title": "公共厕所",
        "address": "四川省遂宁市射洪市射洪超强现代农牧业发展有限公司西侧60米",
        "tel": "",
        "category": "基础设施:公共设施:公共厕所",
        "type": 0,
        "location": {
            "lat": 30.843028,
            "lng": 105.505044
        },
        "ad_info": {
            "adcode": 510981,
            "province": "四川省",
            "city": "遂宁市",
            "district": "射洪市"
        }
    },
    {
        "id": "118498514656309276",
        "title": "公共厕所",
        "address": "四川省遂宁市射洪市滨江路北段与超强路交叉口正北方向141米左右",
        "tel": "",
        "category": "基础设施:公共设施:公共厕所",
        "type": 0,
        "location": {
            "lat": 30.888728,
            "lng": 105.394901
        },
        "ad_info": {
            "adcode": 510981,
            "province": "四川省",
            "city": "遂宁市",
            "district": "射洪市"
        }
    },
    {
        "id": "6979842657401168700",
        "title": "公共厕所",
        "address": "四川省遂宁市大英县郪江中路与郪江中路后街交叉口东南方向14米左右",
        "tel": "",
        "category": "基础设施:公共设施:公共厕所",
        "type": 0,
        "location": {
            "lat": 30.587939,
            "lng": 105.249741
        },
        "ad_info": {
            "adcode": 510923,
            "province": "四川省",
            "city": "遂宁市",
            "district": "大英县"
        }
    },
    {
        "id": "4829112414745870087",
        "title": "公共厕所",
        "address": "四川省遂宁市安居区东麻路与遂乐路交叉口正西方向52米左右",
        "tel": "",
        "category": "基础设施:公共设施:公共厕所",
        "type": 0,
        "location": {
            "lat": 30.396371,
            "lng": 105.28131
        },
        "ad_info": {
            "adcode": 510904,
            "province": "四川省",
            "city": "遂宁市",
            "district": "安居区"
        }
    },
    {
        "id": "18182912637787196727",
        "title": "公共厕所",
        "address": "四川省遂宁市船山区明月路与滨江北路交叉口西南方向147米左右",
        "tel": "",
        "category": "基础设施:公共设施:公共厕所",
        "type": 0,
        "location": {
            "lat": 30.52691,
            "lng": 105.569244
        },
        "ad_info": {
            "adcode": 510903,
            "province": "四川省",
            "city": "遂宁市",
            "district": "船山区"
        }
    },
    {
        "id": "14348882958338044795",
        "title": "无障碍公共厕所",
        "address": "四川省遂宁市船山区金玉横街与金玉街交叉口西南方向15米左右",
        "tel": "",
        "category": "基础设施:公共设施:公共厕所",
        "type": 0,
        "location": {
            "lat": 30.503652,
            "lng": 105.585257
        },
        "ad_info": {
            "adcode": 510903,
            "province": "四川省",
            "city": "遂宁市",
            "district": "船山区"
        }
    },
    {
        "id": "14490288832046826241",
        "title": "洗手间",
        "address": "四川省遂宁市船山区香林南路300号万达广场(遂宁店)F2",
        "tel": "",
        "category": "基础设施:公共设施:公共厕所",
        "type": 0,
        "location": {
            "lat": 30.530801,
            "lng": 105.594727
        },
        "ad_info": {
            "adcode": 510903,
            "province": "四川省",
            "city": "遂宁市",
            "district": "船山区"
        }
    },
    {
        "id": "7366780247825957337",
        "title": "万新村公共厕所",
        "address": "四川省遂宁市射洪市G247与蔚蓝桥交叉口正南方向1962米左右",
        "tel": "",
        "category": "基础设施:公共设施:公共厕所",
        "type": 0,
        "location": {
            "lat": 30.919581,
            "lng": 105.312554
        },
        "ad_info": {
            "adcode": 510981,
            "province": "四川省",
            "city": "遂宁市",
            "district": "射洪市"
        }
    },
    {
        "id": "17074077850992454600",
        "title": "公共厕所",
        "address": "四川省遂宁市船山区东平大道辅路与明德路交叉口西北方向111米左右",
        "tel": "",
        "category": "基础设施:公共设施:公共厕所",
        "type": 0,
        "location": {
            "lat": 30.52231,
            "lng": 105.602001
        },
        "ad_info": {
            "adcode": 510903,
            "province": "四川省",
            "city": "遂宁市",
            "district": "船山区"
        }
    },
    {
        "id": "7181645595888868559",
        "title": "公共厕所",
        "address": "四川省遂宁市船山区莲花街与遂州北路交叉口正东方向165米左右",
        "tel": "",
        "category": "基础设施:公共设施:公共厕所",
        "type": 0,
        "location": {
            "lat": 30.542674,
            "lng": 105.566115
        },
        "ad_info": {
            "adcode": 510903,
            "province": "四川省",
            "city": "遂宁市",
            "district": "船山区"
        }
    },
    {
        "id": "895619921211847766",
        "title": "公共厕所",
        "address": "四川省遂宁市船山区五彩缤纷路250号",
        "tel": "",
        "category": "基础设施:公共设施:公共厕所",
        "type": 0,
        "location": {
            "lat": 30.530624,
            "lng": 105.585206
        },
        "ad_info": {
            "adcode": 510903,
            "province": "四川省",
            "city": "遂宁市",
            "district": "船山区"
        }
    },
    {
        "id": "16387913588745629539",
        "title": "蓬溪红叶服务区公共厕所",
        "address": "四川省遂宁市蓬溪县",
        "tel": "",
        "category": "基础设施:公共设施:公共厕所",
        "type": 0,
        "location": {
            "lat": 30.793775,
            "lng": 105.667696
        },
        "ad_info": {
            "adcode": 510921,
            "province": "四川省",
            "city": "遂宁市",
            "district": "蓬溪县"
        }
    },
    {
        "id": "12088833013214928966",
        "title": "公共厕所",
        "address": "四川省遂宁市船山区春晓路与西宁大道交叉口东南方向80米左右",
        "tel": "",
        "category": "基础设施:公共设施:公共厕所",
        "type": 0,
        "location": {
            "lat": 30.481201,
            "lng": 105.56078
        },
        "ad_info": {
            "adcode": 510903,
            "province": "四川省",
            "city": "遂宁市",
            "district": "船山区"
        }
    },
    {
        "id": "5812995164596348307",
        "title": "公共厕所",
        "address": "四川省遂宁市船山区北湖路与春晓路交叉口正北方向114米左右",
        "tel": "",
        "category": "基础设施:公共设施:公共厕所",
        "type": 0,
        "location": {
            "lat": 30.478862,
            "lng": 105.562396
        },
        "ad_info": {
            "adcode": 510903,
            "province": "四川省",
            "city": "遂宁市",
            "district": "船山区"
        }
    },
    {
        "id": "17326173217217383087",
        "title": "公共厕所",
        "address": "四川省遂宁市大英县成南高速与沪蓉高速交叉口正北方向1243米左右",
        "tel": "",
        "category": "基础设施:公共设施:公共厕所",
        "type": 0,
        "location": {
            "lat": 30.622737,
            "lng": 105.226792
        },
        "ad_info": {
            "adcode": 510923,
            "province": "四川省",
            "city": "遂宁市",
            "district": "大英县"
        }
    },
    {
        "id": "6461509638874408859",
        "title": "公共厕所",
        "address": "四川省遂宁市蓬溪县政通街与映月街交叉口正南方向137米左右",
        "tel": "",
        "category": "基础设施:公共设施:公共厕所",
        "type": 0,
        "location": {
            "lat": 30.757057,
            "lng": 105.705133
        },
        "ad_info": {
            "adcode": 510921,
            "province": "四川省",
            "city": "遂宁市",
            "district": "蓬溪县"
        }
    },
    {
        "id": "13338351371563951799",
        "title": "遂宁西服务区公共厕所",
        "address": "四川省遂宁市安居区S40广洪高速与遂宁西服务区交叉口东340米",
        "tel": "",
        "category": "基础设施:公共设施:公共厕所",
        "type": 0,
        "location": {
            "lat": 30.461952,
            "lng": 105.414265
        },
        "ad_info": {
            "adcode": 510904,
            "province": "四川省",
            "city": "遂宁市",
            "district": "安居区"
        }
    },
    {
        "id": "6316374842251557391",
        "title": "公共厕所",
        "address": "四川省遂宁市射洪市下南街与伯玉路交叉口正北方向95米左右",
        "tel": "",
        "category": "基础设施:公共设施:公共厕所",
        "type": 0,
        "location": {
            "lat": 30.866462,
            "lng": 105.384284
        },
        "ad_info": {
            "adcode": 510981,
            "province": "四川省",
            "city": "遂宁市",
            "district": "射洪市"
        }
    },
    {
        "id": "11636669360517469890",
        "title": "公共厕所",
        "address": "四川省遂宁市安居区步行街与石圣街交叉口西南方向91米左右",
        "tel": "",
        "category": "基础设施:公共设施:公共厕所",
        "type": 0,
        "location": {
            "lat": 30.335183,
            "lng": 105.632725
        },
        "ad_info": {
            "adcode": 510904,
            "province": "四川省",
            "city": "遂宁市",
            "district": "安居区"
        }
    },
    {
        "id": "7650952732877925510",
        "title": "公共厕所",
        "address": "四川省遂宁市射洪市新阳街2附12号附2号",
        "tel": "",
        "category": "基础设施:公共设施:公共厕所",
        "type": 0,
        "location": {
            "lat": 30.868126,
            "lng": 105.392398
        },
        "ad_info": {
            "adcode": 510981,
            "province": "四川省",
            "city": "遂宁市",
            "district": "射洪市"
        }
    },
    {
        "id": "16753630250761589376",
        "title": "公共厕所",
        "address": "四川省遂宁市射洪市射洪超强现代农牧业发展有限公司西侧60米",
        "tel": "",
        "category": "基础设施:公共设施:公共厕所",
        "type": 0,
        "location": {
            "lat": 30.843028,
            "lng": 105.505044
        },
        "ad_info": {
            "adcode": 510981,
            "province": "四川省",
            "city": "遂宁市",
            "district": "射洪市"
        }
    },
    {
        "id": "118498514656309276",
        "title": "公共厕所",
        "address": "四川省遂宁市射洪市滨江路北段与超强路交叉口正北方向141米左右",
        "tel": "",
        "category": "基础设施:公共设施:公共厕所",
        "type": 0,
        "location": {
            "lat": 30.888728,
            "lng": 105.394901
        },
        "ad_info": {
            "adcode": 510981,
            "province": "四川省",
            "city": "遂宁市",
            "district": "射洪市"
        }
    },
    {
        "id": "6979842657401168700",
        "title": "公共厕所",
        "address": "四川省遂宁市大英县郪江中路与郪江中路后街交叉口东南方向14米左右",
        "tel": "",
        "category": "基础设施:公共设施:公共厕所",
        "type": 0,
        "location": {
            "lat": 30.587939,
            "lng": 105.249741
        },
        "ad_info": {
            "adcode": 510923,
            "province": "四川省",
            "city": "遂宁市",
            "district": "大英县"
        }
    },
    {
        "id": "4829112414745870087",
        "title": "公共厕所",
        "address": "四川省遂宁市安居区东麻路与遂乐路交叉口正西方向52米左右",
        "tel": "",
        "category": "基础设施:公共设施:公共厕所",
        "type": 0,
        "location": {
            "lat": 30.396371,
            "lng": 105.28131
        },
        "ad_info": {
            "adcode": 510904,
            "province": "四川省",
            "city": "遂宁市",
            "district": "安居区"
        }
    },
    {
        "id": "18182912637787196727",
        "title": "公共厕所",
        "address": "四川省遂宁市船山区明月路与滨江北路交叉口西南方向147米左右",
        "tel": "",
        "category": "基础设施:公共设施:公共厕所",
        "type": 0,
        "location": {
            "lat": 30.52691,
            "lng": 105.569244
        },
        "ad_info": {
            "adcode": 510903,
            "province": "四川省",
            "city": "遂宁市",
            "district": "船山区"
        }
    },
    {
        "id": "14348882958338044795",
        "title": "无障碍公共厕所",
        "address": "四川省遂宁市船山区金玉横街与金玉街交叉口西南方向15米左右",
        "tel": "",
        "category": "基础设施:公共设施:公共厕所",
        "type": 0,
        "location": {
            "lat": 30.503652,
            "lng": 105.585257
        },
        "ad_info": {
            "adcode": 510903,
            "province": "四川省",
            "city": "遂宁市",
            "district": "船山区"
        }
    },
    {
        "id": "14490288832046826241",
        "title": "洗手间",
        "address": "四川省遂宁市船山区香林南路300号万达广场(遂宁店)F2",
        "tel": "",
        "category": "基础设施:公共设施:公共厕所",
        "type": 0,
        "location": {
            "lat": 30.530801,
            "lng": 105.594727
        },
        "ad_info": {
            "adcode": 510903,
            "province": "四川省",
            "city": "遂宁市",
            "district": "船山区"
        }
    },
    {
        "id": "7366780247825957337",
        "title": "万新村公共厕所",
        "address": "四川省遂宁市射洪市G247与蔚蓝桥交叉口正南方向1962米左右",
        "tel": "",
        "category": "基础设施:公共设施:公共厕所",
        "type": 0,
        "location": {
            "lat": 30.919581,
            "lng": 105.312554
        },
        "ad_info": {
            "adcode": 510981,
            "province": "四川省",
            "city": "遂宁市",
            "district": "射洪市"
        }
    },
    {
        "id": "17074077850992454600",
        "title": "公共厕所",
        "address": "四川省遂宁市船山区东平大道辅路与明德路交叉口西北方向111米左右",
        "tel": "",
        "category": "基础设施:公共设施:公共厕所",
        "type": 0,
        "location": {
            "lat": 30.52231,
            "lng": 105.602001
        },
        "ad_info": {
            "adcode": 510903,
            "province": "四川省",
            "city": "遂宁市",
            "district": "船山区"
        }
    },
    {
        "id": "7181645595888868559",
        "title": "公共厕所",
        "address": "四川省遂宁市船山区莲花街与遂州北路交叉口正东方向165米左右",
        "tel": "",
        "category": "基础设施:公共设施:公共厕所",
        "type": 0,
        "location": {
            "lat": 30.542674,
            "lng": 105.566115
        },
        "ad_info": {
            "adcode": 510903,
            "province": "四川省",
            "city": "遂宁市",
            "district": "船山区"
        }
    },
    {
        "id": "895619921211847766",
        "title": "公共厕所",
        "address": "四川省遂宁市船山区五彩缤纷路250号",
        "tel": "",
        "category": "基础设施:公共设施:公共厕所",
        "type": 0,
        "location": {
            "lat": 30.530624,
            "lng": 105.585206
        },
        "ad_info": {
            "adcode": 510903,
            "province": "四川省",
            "city": "遂宁市",
            "district": "船山区"
        }
    },
    {
        "id": "16387913588745629539",
        "title": "蓬溪红叶服务区公共厕所",
        "address": "四川省遂宁市蓬溪县",
        "tel": "",
        "category": "基础设施:公共设施:公共厕所",
        "type": 0,
        "location": {
            "lat": 30.793775,
            "lng": 105.667696
        },
        "ad_info": {
            "adcode": 510921,
            "province": "四川省",
            "city": "遂宁市",
            "district": "蓬溪县"
        }
    },
    {
        "id": "12088833013214928966",
        "title": "公共厕所",
        "address": "四川省遂宁市船山区春晓路与西宁大道交叉口东南方向80米左右",
        "tel": "",
        "category": "基础设施:公共设施:公共厕所",
        "type": 0,
        "location": {
            "lat": 30.481201,
            "lng": 105.56078
        },
        "ad_info": {
            "adcode": 510903,
            "province": "四川省",
            "city": "遂宁市",
            "district": "船山区"
        }
    },
    {
        "id": "5812995164596348307",
        "title": "公共厕所",
        "address": "四川省遂宁市船山区北湖路与春晓路交叉口正北方向114米左右",
        "tel": "",
        "category": "基础设施:公共设施:公共厕所",
        "type": 0,
        "location": {
            "lat": 30.478862,
            "lng": 105.562396
        },
        "ad_info": {
            "adcode": 510903,
            "province": "四川省",
            "city": "遂宁市",
            "district": "船山区"
        }
    },
    {
        "id": "17326173217217383087",
        "title": "公共厕所",
        "address": "四川省遂宁市大英县成南高速与沪蓉高速交叉口正北方向1243米左右",
        "tel": "",
        "category": "基础设施:公共设施:公共厕所",
        "type": 0,
        "location": {
            "lat": 30.622737,
            "lng": 105.226792
        },
        "ad_info": {
            "adcode": 510923,
            "province": "四川省",
            "city": "遂宁市",
            "district": "大英县"
        }
    },
    {
        "id": "6461509638874408859",
        "title": "公共厕所",
        "address": "四川省遂宁市蓬溪县政通街与映月街交叉口正南方向137米左右",
        "tel": "",
        "category": "基础设施:公共设施:公共厕所",
        "type": 0,
        "location": {
            "lat": 30.757057,
            "lng": 105.705133
        },
        "ad_info": {
            "adcode": 510921,
            "province": "四川省",
            "city": "遂宁市",
            "district": "蓬溪县"
        }
    },
    {
        "id": "13338351371563951799",
        "title": "遂宁西服务区公共厕所",
        "address": "四川省遂宁市安居区S40广洪高速与遂宁西服务区交叉口东340米",
        "tel": "",
        "category": "基础设施:公共设施:公共厕所",
        "type": 0,
        "location": {
            "lat": 30.461952,
            "lng": 105.414265
        },
        "ad_info": {
            "adcode": 510904,
            "province": "四川省",
            "city": "遂宁市",
            "district": "安居区"
        }
    },
    {
        "id": "6316374842251557391",
        "title": "公共厕所",
        "address": "四川省遂宁市射洪市下南街与伯玉路交叉口正北方向95米左右",
        "tel": "",
        "category": "基础设施:公共设施:公共厕所",
        "type": 0,
        "location": {
            "lat": 30.866462,
            "lng": 105.384284
        },
        "ad_info": {
            "adcode": 510981,
            "province": "四川省",
            "city": "遂宁市",
            "district": "射洪市"
        }
    },
    {
        "id": "11636669360517469890",
        "title": "公共厕所",
        "address": "四川省遂宁市安居区步行街与石圣街交叉口西南方向91米左右",
        "tel": "",
        "category": "基础设施:公共设施:公共厕所",
        "type": 0,
        "location": {
            "lat": 30.335183,
            "lng": 105.632725
        },
        "ad_info": {
            "adcode": 510904,
            "province": "四川省",
            "city": "遂宁市",
            "district": "安居区"
        }
    },
    {
        "id": "7650952732877925510",
        "title": "公共厕所",
        "address": "四川省遂宁市射洪市新阳街2附12号附2号",
        "tel": "",
        "category": "基础设施:公共设施:公共厕所",
        "type": 0,
        "location": {
            "lat": 30.868126,
            "lng": 105.392398
        },
        "ad_info": {
            "adcode": 510981,
            "province": "四川省",
            "city": "遂宁市",
            "district": "射洪市"
        }
    },
    {
        "id": "16753630250761589376",
        "title": "公共厕所",
        "address": "四川省遂宁市射洪市射洪超强现代农牧业发展有限公司西侧60米",
        "tel": "",
        "category": "基础设施:公共设施:公共厕所",
        "type": 0,
        "location": {
            "lat": 30.843028,
            "lng": 105.505044
        },
        "ad_info": {
            "adcode": 510981,
            "province": "四川省",
            "city": "遂宁市",
            "district": "射洪市"
        }
    },
    {
        "id": "118498514656309276",
        "title": "公共厕所",
        "address": "四川省遂宁市射洪市滨江路北段与超强路交叉口正北方向141米左右",
        "tel": "",
        "category": "基础设施:公共设施:公共厕所",
        "type": 0,
        "location": {
            "lat": 30.888728,
            "lng": 105.394901
        },
        "ad_info": {
            "adcode": 510981,
            "province": "四川省",
            "city": "遂宁市",
            "district": "射洪市"
        }
    },
    {
        "id": "6979842657401168700",
        "title": "公共厕所",
        "address": "四川省遂宁市大英县郪江中路与郪江中路后街交叉口东南方向14米左右",
        "tel": "",
        "category": "基础设施:公共设施:公共厕所",
        "type": 0,
        "location": {
            "lat": 30.587939,
            "lng": 105.249741
        },
        "ad_info": {
            "adcode": 510923,
            "province": "四川省",
            "city": "遂宁市",
            "district": "大英县"
        }
    },
    {
        "id": "4829112414745870087",
        "title": "公共厕所",
        "address": "四川省遂宁市安居区东麻路与遂乐路交叉口正西方向52米左右",
        "tel": "",
        "category": "基础设施:公共设施:公共厕所",
        "type": 0,
        "location": {
            "lat": 30.396371,
            "lng": 105.28131
        },
        "ad_info": {
            "adcode": 510904,
            "province": "四川省",
            "city": "遂宁市",
            "district": "安居区"
        }
    },
    {
        "id": "18182912637787196727",
        "title": "公共厕所",
        "address": "四川省遂宁市船山区明月路与滨江北路交叉口西南方向147米左右",
        "tel": "",
        "category": "基础设施:公共设施:公共厕所",
        "type": 0,
        "location": {
            "lat": 30.52691,
            "lng": 105.569244
        },
        "ad_info": {
            "adcode": 510903,
            "province": "四川省",
            "city": "遂宁市",
            "district": "船山区"
        }
    },
    {
        "id": "14348882958338044795",
        "title": "无障碍公共厕所",
        "address": "四川省遂宁市船山区金玉横街与金玉街交叉口西南方向15米左右",
        "tel": "",
        "category": "基础设施:公共设施:公共厕所",
        "type": 0,
        "location": {
            "lat": 30.503652,
            "lng": 105.585257
        },
        "ad_info": {
            "adcode": 510903,
            "province": "四川省",
            "city": "遂宁市",
            "district": "船山区"
        }
    },
    {
        "id": "14490288832046826241",
        "title": "洗手间",
        "address": "四川省遂宁市船山区香林南路300号万达广场(遂宁店)F2",
        "tel": "",
        "category": "基础设施:公共设施:公共厕所",
        "type": 0,
        "location": {
            "lat": 30.530801,
            "lng": 105.594727
        },
        "ad_info": {
            "adcode": 510903,
            "province": "四川省",
            "city": "遂宁市",
            "district": "船山区"
        }
    },
    {
        "id": "7366780247825957337",
        "title": "万新村公共厕所",
        "address": "四川省遂宁市射洪市G247与蔚蓝桥交叉口正南方向1962米左右",
        "tel": "",
        "category": "基础设施:公共设施:公共厕所",
        "type": 0,
        "location": {
            "lat": 30.919581,
            "lng": 105.312554
        },
        "ad_info": {
            "adcode": 510981,
            "province": "四川省",
            "city": "遂宁市",
            "district": "射洪市"
        }
    },
    {
        "id": "17074077850992454600",
        "title": "公共厕所",
        "address": "四川省遂宁市船山区东平大道辅路与明德路交叉口西北方向111米左右",
        "tel": "",
        "category": "基础设施:公共设施:公共厕所",
        "type": 0,
        "location": {
            "lat": 30.52231,
            "lng": 105.602001
        },
        "ad_info": {
            "adcode": 510903,
            "province": "四川省",
            "city": "遂宁市",
            "district": "船山区"
        }
    },
    {
        "id": "7181645595888868559",
        "title": "公共厕所",
        "address": "四川省遂宁市船山区莲花街与遂州北路交叉口正东方向165米左右",
        "tel": "",
        "category": "基础设施:公共设施:公共厕所",
        "type": 0,
        "location": {
            "lat": 30.542674,
            "lng": 105.566115
        },
        "ad_info": {
            "adcode": 510903,
            "province": "四川省",
            "city": "遂宁市",
            "district": "船山区"
        }
    },
    {
        "id": "895619921211847766",
        "title": "公共厕所",
        "address": "四川省遂宁市船山区五彩缤纷路250号",
        "tel": "",
        "category": "基础设施:公共设施:公共厕所",
        "type": 0,
        "location": {
            "lat": 30.530624,
            "lng": 105.585206
        },
        "ad_info": {
            "adcode": 510903,
            "province": "四川省",
            "city": "遂宁市",
            "district": "船山区"
        }
    },
    {
        "id": "16387913588745629539",
        "title": "蓬溪红叶服务区公共厕所",
        "address": "四川省遂宁市蓬溪县",
        "tel": "",
        "category": "基础设施:公共设施:公共厕所",
        "type": 0,
        "location": {
            "lat": 30.793775,
            "lng": 105.667696
        },
        "ad_info": {
            "adcode": 510921,
            "province": "四川省",
            "city": "遂宁市",
            "district": "蓬溪县"
        }
    },
    {
        "id": "12088833013214928966",
        "title": "公共厕所",
        "address": "四川省遂宁市船山区春晓路与西宁大道交叉口东南方向80米左右",
        "tel": "",
        "category": "基础设施:公共设施:公共厕所",
        "type": 0,
        "location": {
            "lat": 30.481201,
            "lng": 105.56078
        },
        "ad_info": {
            "adcode": 510903,
            "province": "四川省",
            "city": "遂宁市",
            "district": "船山区"
        }
    },
    {
        "id": "5812995164596348307",
        "title": "公共厕所",
        "address": "四川省遂宁市船山区北湖路与春晓路交叉口正北方向114米左右",
        "tel": "",
        "category": "基础设施:公共设施:公共厕所",
        "type": 0,
        "location": {
            "lat": 30.478862,
            "lng": 105.562396
        },
        "ad_info": {
            "adcode": 510903,
            "province": "四川省",
            "city": "遂宁市",
            "district": "船山区"
        }
    },
    {
        "id": "17326173217217383087",
        "title": "公共厕所",
        "address": "四川省遂宁市大英县成南高速与沪蓉高速交叉口正北方向1243米左右",
        "tel": "",
        "category": "基础设施:公共设施:公共厕所",
        "type": 0,
        "location": {
            "lat": 30.622737,
            "lng": 105.226792
        },
        "ad_info": {
            "adcode": 510923,
            "province": "四川省",
            "city": "遂宁市",
            "district": "大英县"
        }
    },
    {
        "id": "6461509638874408859",
        "title": "公共厕所",
        "address": "四川省遂宁市蓬溪县政通街与映月街交叉口正南方向137米左右",
        "tel": "",
        "category": "基础设施:公共设施:公共厕所",
        "type": 0,
        "location": {
            "lat": 30.757057,
            "lng": 105.705133
        },
        "ad_info": {
            "adcode": 510921,
            "province": "四川省",
            "city": "遂宁市",
            "district": "蓬溪县"
        }
    },
    {
        "id": "13338351371563951799",
        "title": "遂宁西服务区公共厕所",
        "address": "四川省遂宁市安居区S40广洪高速与遂宁西服务区交叉口东340米",
        "tel": "",
        "category": "基础设施:公共设施:公共厕所",
        "type": 0,
        "location": {
            "lat": 30.461952,
            "lng": 105.414265
        },
        "ad_info": {
            "adcode": 510904,
            "province": "四川省",
            "city": "遂宁市",
            "district": "安居区"
        }
    },
    {
        "id": "6316374842251557391",
        "title": "公共厕所",
        "address": "四川省遂宁市射洪市下南街与伯玉路交叉口正北方向95米左右",
        "tel": "",
        "category": "基础设施:公共设施:公共厕所",
        "type": 0,
        "location": {
            "lat": 30.866462,
            "lng": 105.384284
        },
        "ad_info": {
            "adcode": 510981,
            "province": "四川省",
            "city": "遂宁市",
            "district": "射洪市"
        }
    },
    {
        "id": "11636669360517469890",
        "title": "公共厕所",
        "address": "四川省遂宁市安居区步行街与石圣街交叉口西南方向91米左右",
        "tel": "",
        "category": "基础设施:公共设施:公共厕所",
        "type": 0,
        "location": {
            "lat": 30.335183,
            "lng": 105.632725
        },
        "ad_info": {
            "adcode": 510904,
            "province": "四川省",
            "city": "遂宁市",
            "district": "安居区"
        }
    },
    {
        "id": "7650952732877925510",
        "title": "公共厕所",
        "address": "四川省遂宁市射洪市新阳街2附12号附2号",
        "tel": "",
        "category": "基础设施:公共设施:公共厕所",
        "type": 0,
        "location": {
            "lat": 30.868126,
            "lng": 105.392398
        },
        "ad_info": {
            "adcode": 510981,
            "province": "四川省",
            "city": "遂宁市",
            "district": "射洪市"
        }
    },
    {
        "id": "16753630250761589376",
        "title": "公共厕所",
        "address": "四川省遂宁市射洪市射洪超强现代农牧业发展有限公司西侧60米",
        "tel": "",
        "category": "基础设施:公共设施:公共厕所",
        "type": 0,
        "location": {
            "lat": 30.843028,
            "lng": 105.505044
        },
        "ad_info": {
            "adcode": 510981,
            "province": "四川省",
            "city": "遂宁市",
            "district": "射洪市"
        }
    },
    {
        "id": "118498514656309276",
        "title": "公共厕所",
        "address": "四川省遂宁市射洪市滨江路北段与超强路交叉口正北方向141米左右",
        "tel": "",
        "category": "基础设施:公共设施:公共厕所",
        "type": 0,
        "location": {
            "lat": 30.888728,
            "lng": 105.394901
        },
        "ad_info": {
            "adcode": 510981,
            "province": "四川省",
            "city": "遂宁市",
            "district": "射洪市"
        }
    },
    {
        "id": "6979842657401168700",
        "title": "公共厕所",
        "address": "四川省遂宁市大英县郪江中路与郪江中路后街交叉口东南方向14米左右",
        "tel": "",
        "category": "基础设施:公共设施:公共厕所",
        "type": 0,
        "location": {
            "lat": 30.587939,
            "lng": 105.249741
        },
        "ad_info": {
            "adcode": 510923,
            "province": "四川省",
            "city": "遂宁市",
            "district": "大英县"
        }
    },
    {
        "id": "4829112414745870087",
        "title": "公共厕所",
        "address": "四川省遂宁市安居区东麻路与遂乐路交叉口正西方向52米左右",
        "tel": "",
        "category": "基础设施:公共设施:公共厕所",
        "type": 0,
        "location": {
            "lat": 30.396371,
            "lng": 105.28131
        },
        "ad_info": {
            "adcode": 510904,
            "province": "四川省",
            "city": "遂宁市",
            "district": "安居区"
        }
    },
    {
        "id": "18182912637787196727",
        "title": "公共厕所",
        "address": "四川省遂宁市船山区明月路与滨江北路交叉口西南方向147米左右",
        "tel": "",
        "category": "基础设施:公共设施:公共厕所",
        "type": 0,
        "location": {
            "lat": 30.52691,
            "lng": 105.569244
        },
        "ad_info": {
            "adcode": 510903,
            "province": "四川省",
            "city": "遂宁市",
            "district": "船山区"
        }
    },
    {
        "id": "14348882958338044795",
        "title": "无障碍公共厕所",
        "address": "四川省遂宁市船山区金玉横街与金玉街交叉口西南方向15米左右",
        "tel": "",
        "category": "基础设施:公共设施:公共厕所",
        "type": 0,
        "location": {
            "lat": 30.503652,
            "lng": 105.585257
        },
        "ad_info": {
            "adcode": 510903,
            "province": "四川省",
            "city": "遂宁市",
            "district": "船山区"
        }
    },
    {
        "id": "14490288832046826241",
        "title": "洗手间",
        "address": "四川省遂宁市船山区香林南路300号万达广场(遂宁店)F2",
        "tel": "",
        "category": "基础设施:公共设施:公共厕所",
        "type": 0,
        "location": {
            "lat": 30.530801,
            "lng": 105.594727
        },
        "ad_info": {
            "adcode": 510903,
            "province": "四川省",
            "city": "遂宁市",
            "district": "船山区"
        }
    },
    {
        "id": "7366780247825957337",
        "title": "万新村公共厕所",
        "address": "四川省遂宁市射洪市G247与蔚蓝桥交叉口正南方向1962米左右",
        "tel": "",
        "category": "基础设施:公共设施:公共厕所",
        "type": 0,
        "location": {
            "lat": 30.919581,
            "lng": 105.312554
        },
        "ad_info": {
            "adcode": 510981,
            "province": "四川省",
            "city": "遂宁市",
            "district": "射洪市"
        }
    },
    {
        "id": "17074077850992454600",
        "title": "公共厕所",
        "address": "四川省遂宁市船山区东平大道辅路与明德路交叉口西北方向111米左右",
        "tel": "",
        "category": "基础设施:公共设施:公共厕所",
        "type": 0,
        "location": {
            "lat": 30.52231,
            "lng": 105.602001
        },
        "ad_info": {
            "adcode": 510903,
            "province": "四川省",
            "city": "遂宁市",
            "district": "船山区"
        }
    },
    {
        "id": "7181645595888868559",
        "title": "公共厕所",
        "address": "四川省遂宁市船山区莲花街与遂州北路交叉口正东方向165米左右",
        "tel": "",
        "category": "基础设施:公共设施:公共厕所",
        "type": 0,
        "location": {
            "lat": 30.542674,
            "lng": 105.566115
        },
        "ad_info": {
            "adcode": 510903,
            "province": "四川省",
            "city": "遂宁市",
            "district": "船山区"
        }
    },
    {
        "id": "895619921211847766",
        "title": "公共厕所",
        "address": "四川省遂宁市船山区五彩缤纷路250号",
        "tel": "",
        "category": "基础设施:公共设施:公共厕所",
        "type": 0,
        "location": {
            "lat": 30.530624,
            "lng": 105.585206
        },
        "ad_info": {
            "adcode": 510903,
            "province": "四川省",
            "city": "遂宁市",
            "district": "船山区"
        }
    },
    {
        "id": "16387913588745629539",
        "title": "蓬溪红叶服务区公共厕所",
        "address": "四川省遂宁市蓬溪县",
        "tel": "",
        "category": "基础设施:公共设施:公共厕所",
        "type": 0,
        "location": {
            "lat": 30.793775,
            "lng": 105.667696
        },
        "ad_info": {
            "adcode": 510921,
            "province": "四川省",
            "city": "遂宁市",
            "district": "蓬溪县"
        }
    },
    {
        "id": "12088833013214928966",
        "title": "公共厕所",
        "address": "四川省遂宁市船山区春晓路与西宁大道交叉口东南方向80米左右",
        "tel": "",
        "category": "基础设施:公共设施:公共厕所",
        "type": 0,
        "location": {
            "lat": 30.481201,
            "lng": 105.56078
        },
        "ad_info": {
            "adcode": 510903,
            "province": "四川省",
            "city": "遂宁市",
            "district": "船山区"
        }
    },
    {
        "id": "5812995164596348307",
        "title": "公共厕所",
        "address": "四川省遂宁市船山区北湖路与春晓路交叉口正北方向114米左右",
        "tel": "",
        "category": "基础设施:公共设施:公共厕所",
        "type": 0,
        "location": {
            "lat": 30.478862,
            "lng": 105.562396
        },
        "ad_info": {
            "adcode": 510903,
            "province": "四川省",
            "city": "遂宁市",
            "district": "船山区"
        }
    },
    {
        "id": "17326173217217383087",
        "title": "公共厕所",
        "address": "四川省遂宁市大英县成南高速与沪蓉高速交叉口正北方向1243米左右",
        "tel": "",
        "category": "基础设施:公共设施:公共厕所",
        "type": 0,
        "location": {
            "lat": 30.622737,
            "lng": 105.226792
        },
        "ad_info": {
            "adcode": 510923,
            "province": "四川省",
            "city": "遂宁市",
            "district": "大英县"
        }
    },
    {
        "id": "6461509638874408859",
        "title": "公共厕所",
        "address": "四川省遂宁市蓬溪县政通街与映月街交叉口正南方向137米左右",
        "tel": "",
        "category": "基础设施:公共设施:公共厕所",
        "type": 0,
        "location": {
            "lat": 30.757057,
            "lng": 105.705133
        },
        "ad_info": {
            "adcode": 510921,
            "province": "四川省",
            "city": "遂宁市",
            "district": "蓬溪县"
        }
    },
    {
        "id": "13338351371563951799",
        "title": "遂宁西服务区公共厕所",
        "address": "四川省遂宁市安居区S40广洪高速与遂宁西服务区交叉口东340米",
        "tel": "",
        "category": "基础设施:公共设施:公共厕所",
        "type": 0,
        "location": {
            "lat": 30.461952,
            "lng": 105.414265
        },
        "ad_info": {
            "adcode": 510904,
            "province": "四川省",
            "city": "遂宁市",
            "district": "安居区"
        }
    },
    {
        "id": "6316374842251557391",
        "title": "公共厕所",
        "address": "四川省遂宁市射洪市下南街与伯玉路交叉口正北方向95米左右",
        "tel": "",
        "category": "基础设施:公共设施:公共厕所",
        "type": 0,
        "location": {
            "lat": 30.866462,
            "lng": 105.384284
        },
        "ad_info": {
            "adcode": 510981,
            "province": "四川省",
            "city": "遂宁市",
            "district": "射洪市"
        }
    },
    {
        "id": "11636669360517469890",
        "title": "公共厕所",
        "address": "四川省遂宁市安居区步行街与石圣街交叉口西南方向91米左右",
        "tel": "",
        "category": "基础设施:公共设施:公共厕所",
        "type": 0,
        "location": {
            "lat": 30.335183,
            "lng": 105.632725
        },
        "ad_info": {
            "adcode": 510904,
            "province": "四川省",
            "city": "遂宁市",
            "district": "安居区"
        }
    },
    {
        "id": "7650952732877925510",
        "title": "公共厕所",
        "address": "四川省遂宁市射洪市新阳街2附12号附2号",
        "tel": "",
        "category": "基础设施:公共设施:公共厕所",
        "type": 0,
        "location": {
            "lat": 30.868126,
            "lng": 105.392398
        },
        "ad_info": {
            "adcode": 510981,
            "province": "四川省",
            "city": "遂宁市",
            "district": "射洪市"
        }
    },
    {
        "id": "16753630250761589376",
        "title": "公共厕所",
        "address": "四川省遂宁市射洪市射洪超强现代农牧业发展有限公司西侧60米",
        "tel": "",
        "category": "基础设施:公共设施:公共厕所",
        "type": 0,
        "location": {
            "lat": 30.843028,
            "lng": 105.505044
        },
        "ad_info": {
            "adcode": 510981,
            "province": "四川省",
            "city": "遂宁市",
            "district": "射洪市"
        }
    },
    {
        "id": "118498514656309276",
        "title": "公共厕所",
        "address": "四川省遂宁市射洪市滨江路北段与超强路交叉口正北方向141米左右",
        "tel": "",
        "category": "基础设施:公共设施:公共厕所",
        "type": 0,
        "location": {
            "lat": 30.888728,
            "lng": 105.394901
        },
        "ad_info": {
            "adcode": 510981,
            "province": "四川省",
            "city": "遂宁市",
            "district": "射洪市"
        }
    },
    {
        "id": "6979842657401168700",
        "title": "公共厕所",
        "address": "四川省遂宁市大英县郪江中路与郪江中路后街交叉口东南方向14米左右",
        "tel": "",
        "category": "基础设施:公共设施:公共厕所",
        "type": 0,
        "location": {
            "lat": 30.587939,
            "lng": 105.249741
        },
        "ad_info": {
            "adcode": 510923,
            "province": "四川省",
            "city": "遂宁市",
            "district": "大英县"
        }
    },
    {
        "id": "4829112414745870087",
        "title": "公共厕所",
        "address": "四川省遂宁市安居区东麻路与遂乐路交叉口正西方向52米左右",
        "tel": "",
        "category": "基础设施:公共设施:公共厕所",
        "type": 0,
        "location": {
            "lat": 30.396371,
            "lng": 105.28131
        },
        "ad_info": {
            "adcode": 510904,
            "province": "四川省",
            "city": "遂宁市",
            "district": "安居区"
        }
    },
    {
        "id": "18182912637787196727",
        "title": "公共厕所",
        "address": "四川省遂宁市船山区明月路与滨江北路交叉口西南方向147米左右",
        "tel": "",
        "category": "基础设施:公共设施:公共厕所",
        "type": 0,
        "location": {
            "lat": 30.52691,
            "lng": 105.569244
        },
        "ad_info": {
            "adcode": 510903,
            "province": "四川省",
            "city": "遂宁市",
            "district": "船山区"
        }
    },
    {
        "id": "14348882958338044795",
        "title": "无障碍公共厕所",
        "address": "四川省遂宁市船山区金玉横街与金玉街交叉口西南方向15米左右",
        "tel": "",
        "category": "基础设施:公共设施:公共厕所",
        "type": 0,
        "location": {
            "lat": 30.503652,
            "lng": 105.585257
        },
        "ad_info": {
            "adcode": 510903,
            "province": "四川省",
            "city": "遂宁市",
            "district": "船山区"
        }
    },
    {
        "id": "14490288832046826241",
        "title": "洗手间",
        "address": "四川省遂宁市船山区香林南路300号万达广场(遂宁店)F2",
        "tel": "",
        "category": "基础设施:公共设施:公共厕所",
        "type": 0,
        "location": {
            "lat": 30.530801,
            "lng": 105.594727
        },
        "ad_info": {
            "adcode": 510903,
            "province": "四川省",
            "city": "遂宁市",
            "district": "船山区"
        }
    },
    {
        "id": "7366780247825957337",
        "title": "万新村公共厕所",
        "address": "四川省遂宁市射洪市G247与蔚蓝桥交叉口正南方向1962米左右",
        "tel": "",
        "category": "基础设施:公共设施:公共厕所",
        "type": 0,
        "location": {
            "lat": 30.919581,
            "lng": 105.312554
        },
        "ad_info": {
            "adcode": 510981,
            "province": "四川省",
            "city": "遂宁市",
            "district": "射洪市"
        }
    },
    {
        "id": "17074077850992454600",
        "title": "公共厕所",
        "address": "四川省遂宁市船山区东平大道辅路与明德路交叉口西北方向111米左右",
        "tel": "",
        "category": "基础设施:公共设施:公共厕所",
        "type": 0,
        "location": {
            "lat": 30.52231,
            "lng": 105.602001
        },
        "ad_info": {
            "adcode": 510903,
            "province": "四川省",
            "city": "遂宁市",
            "district": "船山区"
        }
    },
    {
        "id": "7181645595888868559",
        "title": "公共厕所",
        "address": "四川省遂宁市船山区莲花街与遂州北路交叉口正东方向165米左右",
        "tel": "",
        "category": "基础设施:公共设施:公共厕所",
        "type": 0,
        "location": {
            "lat": 30.542674,
            "lng": 105.566115
        },
        "ad_info": {
            "adcode": 510903,
            "province": "四川省",
            "city": "遂宁市",
            "district": "船山区"
        }
    },
    {
        "id": "895619921211847766",
        "title": "公共厕所",
        "address": "四川省遂宁市船山区五彩缤纷路250号",
        "tel": "",
        "category": "基础设施:公共设施:公共厕所",
        "type": 0,
        "location": {
            "lat": 30.530624,
            "lng": 105.585206
        },
        "ad_info": {
            "adcode": 510903,
            "province": "四川省",
            "city": "遂宁市",
            "district": "船山区"
        }
    },
    {
        "id": "16387913588745629539",
        "title": "蓬溪红叶服务区公共厕所",
        "address": "四川省遂宁市蓬溪县",
        "tel": "",
        "category": "基础设施:公共设施:公共厕所",
        "type": 0,
        "location": {
            "lat": 30.793775,
            "lng": 105.667696
        },
        "ad_info": {
            "adcode": 510921,
            "province": "四川省",
            "city": "遂宁市",
            "district": "蓬溪县"
        }
    },
    {
        "id": "12088833013214928966",
        "title": "公共厕所",
        "address": "四川省遂宁市船山区春晓路与西宁大道交叉口东南方向80米左右",
        "tel": "",
        "category": "基础设施:公共设施:公共厕所",
        "type": 0,
        "location": {
            "lat": 30.481201,
            "lng": 105.56078
        },
        "ad_info": {
            "adcode": 510903,
            "province": "四川省",
            "city": "遂宁市",
            "district": "船山区"
        }
    },
    {
        "id": "5812995164596348307",
        "title": "公共厕所",
        "address": "四川省遂宁市船山区北湖路与春晓路交叉口正北方向114米左右",
        "tel": "",
        "category": "基础设施:公共设施:公共厕所",
        "type": 0,
        "location": {
            "lat": 30.478862,
            "lng": 105.562396
        },
        "ad_info": {
            "adcode": 510903,
            "province": "四川省",
            "city": "遂宁市",
            "district": "船山区"
        }
    },
    {
        "id": "17326173217217383087",
        "title": "公共厕所",
        "address": "四川省遂宁市大英县成南高速与沪蓉高速交叉口正北方向1243米左右",
        "tel": "",
        "category": "基础设施:公共设施:公共厕所",
        "type": 0,
        "location": {
            "lat": 30.622737,
            "lng": 105.226792
        },
        "ad_info": {
            "adcode": 510923,
            "province": "四川省",
            "city": "遂宁市",
            "district": "大英县"
        }
    },
    {
        "id": "6461509638874408859",
        "title": "公共厕所",
        "address": "四川省遂宁市蓬溪县政通街与映月街交叉口正南方向137米左右",
        "tel": "",
        "category": "基础设施:公共设施:公共厕所",
        "type": 0,
        "location": {
            "lat": 30.757057,
            "lng": 105.705133
        },
        "ad_info": {
            "adcode": 510921,
            "province": "四川省",
            "city": "遂宁市",
            "district": "蓬溪县"
        }
    },
    {
        "id": "13338351371563951799",
        "title": "遂宁西服务区公共厕所",
        "address": "四川省遂宁市安居区S40广洪高速与遂宁西服务区交叉口东340米",
        "tel": "",
        "category": "基础设施:公共设施:公共厕所",
        "type": 0,
        "location": {
            "lat": 30.461952,
            "lng": 105.414265
        },
        "ad_info": {
            "adcode": 510904,
            "province": "四川省",
            "city": "遂宁市",
            "district": "安居区"
        }
    },
    {
        "id": "6316374842251557391",
        "title": "公共厕所",
        "address": "四川省遂宁市射洪市下南街与伯玉路交叉口正北方向95米左右",
        "tel": "",
        "category": "基础设施:公共设施:公共厕所",
        "type": 0,
        "location": {
            "lat": 30.866462,
            "lng": 105.384284
        },
        "ad_info": {
            "adcode": 510981,
            "province": "四川省",
            "city": "遂宁市",
            "district": "射洪市"
        }
    },
    {
        "id": "11636669360517469890",
        "title": "公共厕所",
        "address": "四川省遂宁市安居区步行街与石圣街交叉口西南方向91米左右",
        "tel": "",
        "category": "基础设施:公共设施:公共厕所",
        "type": 0,
        "location": {
            "lat": 30.335183,
            "lng": 105.632725
        },
        "ad_info": {
            "adcode": 510904,
            "province": "四川省",
            "city": "遂宁市",
            "district": "安居区"
        }
    },
    {
        "id": "7650952732877925510",
        "title": "公共厕所",
        "address": "四川省遂宁市射洪市新阳街2附12号附2号",
        "tel": "",
        "category": "基础设施:公共设施:公共厕所",
        "type": 0,
        "location": {
            "lat": 30.868126,
            "lng": 105.392398
        },
        "ad_info": {
            "adcode": 510981,
            "province": "四川省",
            "city": "遂宁市",
            "district": "射洪市"
        }
    },
    {
        "id": "16753630250761589376",
        "title": "公共厕所",
        "address": "四川省遂宁市射洪市射洪超强现代农牧业发展有限公司西侧60米",
        "tel": "",
        "category": "基础设施:公共设施:公共厕所",
        "type": 0,
        "location": {
            "lat": 30.843028,
            "lng": 105.505044
        },
        "ad_info": {
            "adcode": 510981,
            "province": "四川省",
            "city": "遂宁市",
            "district": "射洪市"
        }
    },
    {
        "id": "118498514656309276",
        "title": "公共厕所",
        "address": "四川省遂宁市射洪市滨江路北段与超强路交叉口正北方向141米左右",
        "tel": "",
        "category": "基础设施:公共设施:公共厕所",
        "type": 0,
        "location": {
            "lat": 30.888728,
            "lng": 105.394901
        },
        "ad_info": {
            "adcode": 510981,
            "province": "四川省",
            "city": "遂宁市",
            "district": "射洪市"
        }
    },
    {
        "id": "6979842657401168700",
        "title": "公共厕所",
        "address": "四川省遂宁市大英县郪江中路与郪江中路后街交叉口东南方向14米左右",
        "tel": "",
        "category": "基础设施:公共设施:公共厕所",
        "type": 0,
        "location": {
            "lat": 30.587939,
            "lng": 105.249741
        },
        "ad_info": {
            "adcode": 510923,
            "province": "四川省",
            "city": "遂宁市",
            "district": "大英县"
        }
    },
    {
        "id": "4829112414745870087",
        "title": "公共厕所",
        "address": "四川省遂宁市安居区东麻路与遂乐路交叉口正西方向52米左右",
        "tel": "",
        "category": "基础设施:公共设施:公共厕所",
        "type": 0,
        "location": {
            "lat": 30.396371,
            "lng": 105.28131
        },
        "ad_info": {
            "adcode": 510904,
            "province": "四川省",
            "city": "遂宁市",
            "district": "安居区"
        }
    },
    {
        "id": "18182912637787196727",
        "title": "公共厕所",
        "address": "四川省遂宁市船山区明月路与滨江北路交叉口西南方向147米左右",
        "tel": "",
        "category": "基础设施:公共设施:公共厕所",
        "type": 0,
        "location": {
            "lat": 30.52691,
            "lng": 105.569244
        },
        "ad_info": {
            "adcode": 510903,
            "province": "四川省",
            "city": "遂宁市",
            "district": "船山区"
        }
    },
    {
        "id": "14348882958338044795",
        "title": "无障碍公共厕所",
        "address": "四川省遂宁市船山区金玉横街与金玉街交叉口西南方向15米左右",
        "tel": "",
        "category": "基础设施:公共设施:公共厕所",
        "type": 0,
        "location": {
            "lat": 30.503652,
            "lng": 105.585257
        },
        "ad_info": {
            "adcode": 510903,
            "province": "四川省",
            "city": "遂宁市",
            "district": "船山区"
        }
    },
    {
        "id": "14490288832046826241",
        "title": "洗手间",
        "address": "四川省遂宁市船山区香林南路300号万达广场(遂宁店)F2",
        "tel": "",
        "category": "基础设施:公共设施:公共厕所",
        "type": 0,
        "location": {
            "lat": 30.530801,
            "lng": 105.594727
        },
        "ad_info": {
            "adcode": 510903,
            "province": "四川省",
            "city": "遂宁市",
            "district": "船山区"
        }
    },
    {
        "id": "7366780247825957337",
        "title": "万新村公共厕所",
        "address": "四川省遂宁市射洪市G247与蔚蓝桥交叉口正南方向1962米左右",
        "tel": "",
        "category": "基础设施:公共设施:公共厕所",
        "type": 0,
        "location": {
            "lat": 30.919581,
            "lng": 105.312554
        },
        "ad_info": {
            "adcode": 510981,
            "province": "四川省",
            "city": "遂宁市",
            "district": "射洪市"
        }
    },
    {
        "id": "17074077850992454600",
        "title": "公共厕所",
        "address": "四川省遂宁市船山区东平大道辅路与明德路交叉口西北方向111米左右",
        "tel": "",
        "category": "基础设施:公共设施:公共厕所",
        "type": 0,
        "location": {
            "lat": 30.52231,
            "lng": 105.602001
        },
        "ad_info": {
            "adcode": 510903,
            "province": "四川省",
            "city": "遂宁市",
            "district": "船山区"
        }
    },
    {
        "id": "7181645595888868559",
        "title": "公共厕所",
        "address": "四川省遂宁市船山区莲花街与遂州北路交叉口正东方向165米左右",
        "tel": "",
        "category": "基础设施:公共设施:公共厕所",
        "type": 0,
        "location": {
            "lat": 30.542674,
            "lng": 105.566115
        },
        "ad_info": {
            "adcode": 510903,
            "province": "四川省",
            "city": "遂宁市",
            "district": "船山区"
        }
    },
    {
        "id": "895619921211847766",
        "title": "公共厕所",
        "address": "四川省遂宁市船山区五彩缤纷路250号",
        "tel": "",
        "category": "基础设施:公共设施:公共厕所",
        "type": 0,
        "location": {
            "lat": 30.530624,
            "lng": 105.585206
        },
        "ad_info": {
            "adcode": 510903,
            "province": "四川省",
            "city": "遂宁市",
            "district": "船山区"
        }
    },
    {
        "id": "16387913588745629539",
        "title": "蓬溪红叶服务区公共厕所",
        "address": "四川省遂宁市蓬溪县",
        "tel": "",
        "category": "基础设施:公共设施:公共厕所",
        "type": 0,
        "location": {
            "lat": 30.793775,
            "lng": 105.667696
        },
        "ad_info": {
            "adcode": 510921,
            "province": "四川省",
            "city": "遂宁市",
            "district": "蓬溪县"
        }
    },
    {
        "id": "12088833013214928966",
        "title": "公共厕所",
        "address": "四川省遂宁市船山区春晓路与西宁大道交叉口东南方向80米左右",
        "tel": "",
        "category": "基础设施:公共设施:公共厕所",
        "type": 0,
        "location": {
            "lat": 30.481201,
            "lng": 105.56078
        },
        "ad_info": {
            "adcode": 510903,
            "province": "四川省",
            "city": "遂宁市",
            "district": "船山区"
        }
    },
    {
        "id": "5812995164596348307",
        "title": "公共厕所",
        "address": "四川省遂宁市船山区北湖路与春晓路交叉口正北方向114米左右",
        "tel": "",
        "category": "基础设施:公共设施:公共厕所",
        "type": 0,
        "location": {
            "lat": 30.478862,
            "lng": 105.562396
        },
        "ad_info": {
            "adcode": 510903,
            "province": "四川省",
            "city": "遂宁市",
            "district": "船山区"
        }
    },
    {
        "id": "17326173217217383087",
        "title": "公共厕所",
        "address": "四川省遂宁市大英县成南高速与沪蓉高速交叉口正北方向1243米左右",
        "tel": "",
        "category": "基础设施:公共设施:公共厕所",
        "type": 0,
        "location": {
            "lat": 30.622737,
            "lng": 105.226792
        },
        "ad_info": {
            "adcode": 510923,
            "province": "四川省",
            "city": "遂宁市",
            "district": "大英县"
        }
    },
    {
        "id": "6461509638874408859",
        "title": "公共厕所",
        "address": "四川省遂宁市蓬溪县政通街与映月街交叉口正南方向137米左右",
        "tel": "",
        "category": "基础设施:公共设施:公共厕所",
        "type": 0,
        "location": {
            "lat": 30.757057,
            "lng": 105.705133
        },
        "ad_info": {
            "adcode": 510921,
            "province": "四川省",
            "city": "遂宁市",
            "district": "蓬溪县"
        }
    },
    {
        "id": "13338351371563951799",
        "title": "遂宁西服务区公共厕所",
        "address": "四川省遂宁市安居区S40广洪高速与遂宁西服务区交叉口东340米",
        "tel": "",
        "category": "基础设施:公共设施:公共厕所",
        "type": 0,
        "location": {
            "lat": 30.461952,
            "lng": 105.414265
        },
        "ad_info": {
            "adcode": 510904,
            "province": "四川省",
            "city": "遂宁市",
            "district": "安居区"
        }
    },
    {
        "id": "6316374842251557391",
        "title": "公共厕所",
        "address": "四川省遂宁市射洪市下南街与伯玉路交叉口正北方向95米左右",
        "tel": "",
        "category": "基础设施:公共设施:公共厕所",
        "type": 0,
        "location": {
            "lat": 30.866462,
            "lng": 105.384284
        },
        "ad_info": {
            "adcode": 510981,
            "province": "四川省",
            "city": "遂宁市",
            "district": "射洪市"
        }
    },
    {
        "id": "11636669360517469890",
        "title": "公共厕所",
        "address": "四川省遂宁市安居区步行街与石圣街交叉口西南方向91米左右",
        "tel": "",
        "category": "基础设施:公共设施:公共厕所",
        "type": 0,
        "location": {
            "lat": 30.335183,
            "lng": 105.632725
        },
        "ad_info": {
            "adcode": 510904,
            "province": "四川省",
            "city": "遂宁市",
            "district": "安居区"
        }
    },
    {
        "id": "7650952732877925510",
        "title": "公共厕所",
        "address": "四川省遂宁市射洪市新阳街2附12号附2号",
        "tel": "",
        "category": "基础设施:公共设施:公共厕所",
        "type": 0,
        "location": {
            "lat": 30.868126,
            "lng": 105.392398
        },
        "ad_info": {
            "adcode": 510981,
            "province": "四川省",
            "city": "遂宁市",
            "district": "射洪市"
        }
    },
    {
        "id": "16753630250761589376",
        "title": "公共厕所",
        "address": "四川省遂宁市射洪市射洪超强现代农牧业发展有限公司西侧60米",
        "tel": "",
        "category": "基础设施:公共设施:公共厕所",
        "type": 0,
        "location": {
            "lat": 30.843028,
            "lng": 105.505044
        },
        "ad_info": {
            "adcode": 510981,
            "province": "四川省",
            "city": "遂宁市",
            "district": "射洪市"
        }
    },
    {
        "id": "118498514656309276",
        "title": "公共厕所",
        "address": "四川省遂宁市射洪市滨江路北段与超强路交叉口正北方向141米左右",
        "tel": "",
        "category": "基础设施:公共设施:公共厕所",
        "type": 0,
        "location": {
            "lat": 30.888728,
            "lng": 105.394901
        },
        "ad_info": {
            "adcode": 510981,
            "province": "四川省",
            "city": "遂宁市",
            "district": "射洪市"
        }
    },
    {
        "id": "6979842657401168700",
        "title": "公共厕所",
        "address": "四川省遂宁市大英县郪江中路与郪江中路后街交叉口东南方向14米左右",
        "tel": "",
        "category": "基础设施:公共设施:公共厕所",
        "type": 0,
        "location": {
            "lat": 30.587939,
            "lng": 105.249741
        },
        "ad_info": {
            "adcode": 510923,
            "province": "四川省",
            "city": "遂宁市",
            "district": "大英县"
        }
    },
    {
        "id": "4829112414745870087",
        "title": "公共厕所",
        "address": "四川省遂宁市安居区东麻路与遂乐路交叉口正西方向52米左右",
        "tel": "",
        "category": "基础设施:公共设施:公共厕所",
        "type": 0,
        "location": {
            "lat": 30.396371,
            "lng": 105.28131
        },
        "ad_info": {
            "adcode": 510904,
            "province": "四川省",
            "city": "遂宁市",
            "district": "安居区"
        }
    },
    {
        "id": "18182912637787196727",
        "title": "公共厕所",
        "address": "四川省遂宁市船山区明月路与滨江北路交叉口西南方向147米左右",
        "tel": "",
        "category": "基础设施:公共设施:公共厕所",
        "type": 0,
        "location": {
            "lat": 30.52691,
            "lng": 105.569244
        },
        "ad_info": {
            "adcode": 510903,
            "province": "四川省",
            "city": "遂宁市",
            "district": "船山区"
        }
    },
    {
        "id": "14348882958338044795",
        "title": "无障碍公共厕所",
        "address": "四川省遂宁市船山区金玉横街与金玉街交叉口西南方向15米左右",
        "tel": "",
        "category": "基础设施:公共设施:公共厕所",
        "type": 0,
        "location": {
            "lat": 30.503652,
            "lng": 105.585257
        },
        "ad_info": {
            "adcode": 510903,
            "province": "四川省",
            "city": "遂宁市",
            "district": "船山区"
        }
    },
    {
        "id": "14490288832046826241",
        "title": "洗手间",
        "address": "四川省遂宁市船山区香林南路300号万达广场(遂宁店)F2",
        "tel": "",
        "category": "基础设施:公共设施:公共厕所",
        "type": 0,
        "location": {
            "lat": 30.530801,
            "lng": 105.594727
        },
        "ad_info": {
            "adcode": 510903,
            "province": "四川省",
            "city": "遂宁市",
            "district": "船山区"
        }
    },
    {
        "id": "7366780247825957337",
        "title": "万新村公共厕所",
        "address": "四川省遂宁市射洪市G247与蔚蓝桥交叉口正南方向1962米左右",
        "tel": "",
        "category": "基础设施:公共设施:公共厕所",
        "type": 0,
        "location": {
            "lat": 30.919581,
            "lng": 105.312554
        },
        "ad_info": {
            "adcode": 510981,
            "province": "四川省",
            "city": "遂宁市",
            "district": "射洪市"
        }
    },
    {
        "id": "17074077850992454600",
        "title": "公共厕所",
        "address": "四川省遂宁市船山区东平大道辅路与明德路交叉口西北方向111米左右",
        "tel": "",
        "category": "基础设施:公共设施:公共厕所",
        "type": 0,
        "location": {
            "lat": 30.52231,
            "lng": 105.602001
        },
        "ad_info": {
            "adcode": 510903,
            "province": "四川省",
            "city": "遂宁市",
            "district": "船山区"
        }
    },
    {
        "id": "7181645595888868559",
        "title": "公共厕所",
        "address": "四川省遂宁市船山区莲花街与遂州北路交叉口正东方向165米左右",
        "tel": "",
        "category": "基础设施:公共设施:公共厕所",
        "type": 0,
        "location": {
            "lat": 30.542674,
            "lng": 105.566115
        },
        "ad_info": {
            "adcode": 510903,
            "province": "四川省",
            "city": "遂宁市",
            "district": "船山区"
        }
    },
    {
        "id": "895619921211847766",
        "title": "公共厕所",
        "address": "四川省遂宁市船山区五彩缤纷路250号",
        "tel": "",
        "category": "基础设施:公共设施:公共厕所",
        "type": 0,
        "location": {
            "lat": 30.530624,
            "lng": 105.585206
        },
        "ad_info": {
            "adcode": 510903,
            "province": "四川省",
            "city": "遂宁市",
            "district": "船山区"
        }
    },
    {
        "id": "16387913588745629539",
        "title": "蓬溪红叶服务区公共厕所",
        "address": "四川省遂宁市蓬溪县",
        "tel": "",
        "category": "基础设施:公共设施:公共厕所",
        "type": 0,
        "location": {
            "lat": 30.793775,
            "lng": 105.667696
        },
        "ad_info": {
            "adcode": 510921,
            "province": "四川省",
            "city": "遂宁市",
            "district": "蓬溪县"
        }
    },
    {
        "id": "12088833013214928966",
        "title": "公共厕所",
        "address": "四川省遂宁市船山区春晓路与西宁大道交叉口东南方向80米左右",
        "tel": "",
        "category": "基础设施:公共设施:公共厕所",
        "type": 0,
        "location": {
            "lat": 30.481201,
            "lng": 105.56078
        },
        "ad_info": {
            "adcode": 510903,
            "province": "四川省",
            "city": "遂宁市",
            "district": "船山区"
        }
    },
    {
        "id": "5812995164596348307",
        "title": "公共厕所",
        "address": "四川省遂宁市船山区北湖路与春晓路交叉口正北方向114米左右",
        "tel": "",
        "category": "基础设施:公共设施:公共厕所",
        "type": 0,
        "location": {
            "lat": 30.478862,
            "lng": 105.562396
        },
        "ad_info": {
            "adcode": 510903,
            "province": "四川省",
            "city": "遂宁市",
            "district": "船山区"
        }
    },
    {
        "id": "17326173217217383087",
        "title": "公共厕所",
        "address": "四川省遂宁市大英县成南高速与沪蓉高速交叉口正北方向1243米左右",
        "tel": "",
        "category": "基础设施:公共设施:公共厕所",
        "type": 0,
        "location": {
            "lat": 30.622737,
            "lng": 105.226792
        },
        "ad_info": {
            "adcode": 510923,
            "province": "四川省",
            "city": "遂宁市",
            "district": "大英县"
        }
    },
    {
        "id": "6461509638874408859",
        "title": "公共厕所",
        "address": "四川省遂宁市蓬溪县政通街与映月街交叉口正南方向137米左右",
        "tel": "",
        "category": "基础设施:公共设施:公共厕所",
        "type": 0,
        "location": {
            "lat": 30.757057,
            "lng": 105.705133
        },
        "ad_info": {
            "adcode": 510921,
            "province": "四川省",
            "city": "遂宁市",
            "district": "蓬溪县"
        }
    },
    {
        "id": "13338351371563951799",
        "title": "遂宁西服务区公共厕所",
        "address": "四川省遂宁市安居区S40广洪高速与遂宁西服务区交叉口东340米",
        "tel": "",
        "category": "基础设施:公共设施:公共厕所",
        "type": 0,
        "location": {
            "lat": 30.461952,
            "lng": 105.414265
        },
        "ad_info": {
            "adcode": 510904,
            "province": "四川省",
            "city": "遂宁市",
            "district": "安居区"
        }
    },
    {
        "id": "6316374842251557391",
        "title": "公共厕所",
        "address": "四川省遂宁市射洪市下南街与伯玉路交叉口正北方向95米左右",
        "tel": "",
        "category": "基础设施:公共设施:公共厕所",
        "type": 0,
        "location": {
            "lat": 30.866462,
            "lng": 105.384284
        },
        "ad_info": {
            "adcode": 510981,
            "province": "四川省",
            "city": "遂宁市",
            "district": "射洪市"
        }
    },
    {
        "id": "11636669360517469890",
        "title": "公共厕所",
        "address": "四川省遂宁市安居区步行街与石圣街交叉口西南方向91米左右",
        "tel": "",
        "category": "基础设施:公共设施:公共厕所",
        "type": 0,
        "location": {
            "lat": 30.335183,
            "lng": 105.632725
        },
        "ad_info": {
            "adcode": 510904,
            "province": "四川省",
            "city": "遂宁市",
            "district": "安居区"
        }
    },
    {
        "id": "7650952732877925510",
        "title": "公共厕所",
        "address": "四川省遂宁市射洪市新阳街2附12号附2号",
        "tel": "",
        "category": "基础设施:公共设施:公共厕所",
        "type": 0,
        "location": {
            "lat": 30.868126,
            "lng": 105.392398
        },
        "ad_info": {
            "adcode": 510981,
            "province": "四川省",
            "city": "遂宁市",
            "district": "射洪市"
        }
    },
    {
        "id": "16753630250761589376",
        "title": "公共厕所",
        "address": "四川省遂宁市射洪市射洪超强现代农牧业发展有限公司西侧60米",
        "tel": "",
        "category": "基础设施:公共设施:公共厕所",
        "type": 0,
        "location": {
            "lat": 30.843028,
            "lng": 105.505044
        },
        "ad_info": {
            "adcode": 510981,
            "province": "四川省",
            "city": "遂宁市",
            "district": "射洪市"
        }
    },
    {
        "id": "118498514656309276",
        "title": "公共厕所",
        "address": "四川省遂宁市射洪市滨江路北段与超强路交叉口正北方向141米左右",
        "tel": "",
        "category": "基础设施:公共设施:公共厕所",
        "type": 0,
        "location": {
            "lat": 30.888728,
            "lng": 105.394901
        },
        "ad_info": {
            "adcode": 510981,
            "province": "四川省",
            "city": "遂宁市",
            "district": "射洪市"
        }
    },
    {
        "id": "6979842657401168700",
        "title": "公共厕所",
        "address": "四川省遂宁市大英县郪江中路与郪江中路后街交叉口东南方向14米左右",
        "tel": "",
        "category": "基础设施:公共设施:公共厕所",
        "type": 0,
        "location": {
            "lat": 30.587939,
            "lng": 105.249741
        },
        "ad_info": {
            "adcode": 510923,
            "province": "四川省",
            "city": "遂宁市",
            "district": "大英县"
        }
    },
    {
        "id": "4829112414745870087",
        "title": "公共厕所",
        "address": "四川省遂宁市安居区东麻路与遂乐路交叉口正西方向52米左右",
        "tel": "",
        "category": "基础设施:公共设施:公共厕所",
        "type": 0,
        "location": {
            "lat": 30.396371,
            "lng": 105.28131
        },
        "ad_info": {
            "adcode": 510904,
            "province": "四川省",
            "city": "遂宁市",
            "district": "安居区"
        }
    },
    {
        "id": "18182912637787196727",
        "title": "公共厕所",
        "address": "四川省遂宁市船山区明月路与滨江北路交叉口西南方向147米左右",
        "tel": "",
        "category": "基础设施:公共设施:公共厕所",
        "type": 0,
        "location": {
            "lat": 30.52691,
            "lng": 105.569244
        },
        "ad_info": {
            "adcode": 510903,
            "province": "四川省",
            "city": "遂宁市",
            "district": "船山区"
        }
    },
    {
        "id": "14348882958338044795",
        "title": "无障碍公共厕所",
        "address": "四川省遂宁市船山区金玉横街与金玉街交叉口西南方向15米左右",
        "tel": "",
        "category": "基础设施:公共设施:公共厕所",
        "type": 0,
        "location": {
            "lat": 30.503652,
            "lng": 105.585257
        },
        "ad_info": {
            "adcode": 510903,
            "province": "四川省",
            "city": "遂宁市",
            "district": "船山区"
        }
    },
    {
        "id": "14490288832046826241",
        "title": "洗手间",
        "address": "四川省遂宁市船山区香林南路300号万达广场(遂宁店)F2",
        "tel": "",
        "category": "基础设施:公共设施:公共厕所",
        "type": 0,
        "location": {
            "lat": 30.530801,
            "lng": 105.594727
        },
        "ad_info": {
            "adcode": 510903,
            "province": "四川省",
            "city": "遂宁市",
            "district": "船山区"
        }
    },
    {
        "id": "7366780247825957337",
        "title": "万新村公共厕所",
        "address": "四川省遂宁市射洪市G247与蔚蓝桥交叉口正南方向1962米左右",
        "tel": "",
        "category": "基础设施:公共设施:公共厕所",
        "type": 0,
        "location": {
            "lat": 30.919581,
            "lng": 105.312554
        },
        "ad_info": {
            "adcode": 510981,
            "province": "四川省",
            "city": "遂宁市",
            "district": "射洪市"
        }
    },
    {
        "id": "17074077850992454600",
        "title": "公共厕所",
        "address": "四川省遂宁市船山区东平大道辅路与明德路交叉口西北方向111米左右",
        "tel": "",
        "category": "基础设施:公共设施:公共厕所",
        "type": 0,
        "location": {
            "lat": 30.52231,
            "lng": 105.602001
        },
        "ad_info": {
            "adcode": 510903,
            "province": "四川省",
            "city": "遂宁市",
            "district": "船山区"
        }
    },
    {
        "id": "7181645595888868559",
        "title": "公共厕所",
        "address": "四川省遂宁市船山区莲花街与遂州北路交叉口正东方向165米左右",
        "tel": "",
        "category": "基础设施:公共设施:公共厕所",
        "type": 0,
        "location": {
            "lat": 30.542674,
            "lng": 105.566115
        },
        "ad_info": {
            "adcode": 510903,
            "province": "四川省",
            "city": "遂宁市",
            "district": "船山区"
        }
    },
    {
        "id": "895619921211847766",
        "title": "公共厕所",
        "address": "四川省遂宁市船山区五彩缤纷路250号",
        "tel": "",
        "category": "基础设施:公共设施:公共厕所",
        "type": 0,
        "location": {
            "lat": 30.530624,
            "lng": 105.585206
        },
        "ad_info": {
            "adcode": 510903,
            "province": "四川省",
            "city": "遂宁市",
            "district": "船山区"
        }
    },
    {
        "id": "16387913588745629539",
        "title": "蓬溪红叶服务区公共厕所",
        "address": "四川省遂宁市蓬溪县",
        "tel": "",
        "category": "基础设施:公共设施:公共厕所",
        "type": 0,
        "location": {
            "lat": 30.793775,
            "lng": 105.667696
        },
        "ad_info": {
            "adcode": 510921,
            "province": "四川省",
            "city": "遂宁市",
            "district": "蓬溪县"
        }
    },
    {
        "id": "12088833013214928966",
        "title": "公共厕所",
        "address": "四川省遂宁市船山区春晓路与西宁大道交叉口东南方向80米左右",
        "tel": "",
        "category": "基础设施:公共设施:公共厕所",
        "type": 0,
        "location": {
            "lat": 30.481201,
            "lng": 105.56078
        },
        "ad_info": {
            "adcode": 510903,
            "province": "四川省",
            "city": "遂宁市",
            "district": "船山区"
        }
    },
    {
        "id": "5812995164596348307",
        "title": "公共厕所",
        "address": "四川省遂宁市船山区北湖路与春晓路交叉口正北方向114米左右",
        "tel": "",
        "category": "基础设施:公共设施:公共厕所",
        "type": 0,
        "location": {
            "lat": 30.478862,
            "lng": 105.562396
        },
        "ad_info": {
            "adcode": 510903,
            "province": "四川省",
            "city": "遂宁市",
            "district": "船山区"
        }
    },
    {
        "id": "17326173217217383087",
        "title": "公共厕所",
        "address": "四川省遂宁市大英县成南高速与沪蓉高速交叉口正北方向1243米左右",
        "tel": "",
        "category": "基础设施:公共设施:公共厕所",
        "type": 0,
        "location": {
            "lat": 30.622737,
            "lng": 105.226792
        },
        "ad_info": {
            "adcode": 510923,
            "province": "四川省",
            "city": "遂宁市",
            "district": "大英县"
        }
    },
    {
        "id": "6461509638874408859",
        "title": "公共厕所",
        "address": "四川省遂宁市蓬溪县政通街与映月街交叉口正南方向137米左右",
        "tel": "",
        "category": "基础设施:公共设施:公共厕所",
        "type": 0,
        "location": {
            "lat": 30.757057,
            "lng": 105.705133
        },
        "ad_info": {
            "adcode": 510921,
            "province": "四川省",
            "city": "遂宁市",
            "district": "蓬溪县"
        }
    },
    {
        "id": "13338351371563951799",
        "title": "遂宁西服务区公共厕所",
        "address": "四川省遂宁市安居区S40广洪高速与遂宁西服务区交叉口东340米",
        "tel": "",
        "category": "基础设施:公共设施:公共厕所",
        "type": 0,
        "location": {
            "lat": 30.461952,
            "lng": 105.414265
        },
        "ad_info": {
            "adcode": 510904,
            "province": "四川省",
            "city": "遂宁市",
            "district": "安居区"
        }
    },
    {
        "id": "6316374842251557391",
        "title": "公共厕所",
        "address": "四川省遂宁市射洪市下南街与伯玉路交叉口正北方向95米左右",
        "tel": "",
        "category": "基础设施:公共设施:公共厕所",
        "type": 0,
        "location": {
            "lat": 30.866462,
            "lng": 105.384284
        },
        "ad_info": {
            "adcode": 510981,
            "province": "四川省",
            "city": "遂宁市",
            "district": "射洪市"
        }
    },
    {
        "id": "11636669360517469890",
        "title": "公共厕所",
        "address": "四川省遂宁市安居区步行街与石圣街交叉口西南方向91米左右",
        "tel": "",
        "category": "基础设施:公共设施:公共厕所",
        "type": 0,
        "location": {
            "lat": 30.335183,
            "lng": 105.632725
        },
        "ad_info": {
            "adcode": 510904,
            "province": "四川省",
            "city": "遂宁市",
            "district": "安居区"
        }
    },
    {
        "id": "7650952732877925510",
        "title": "公共厕所",
        "address": "四川省遂宁市射洪市新阳街2附12号附2号",
        "tel": "",
        "category": "基础设施:公共设施:公共厕所",
        "type": 0,
        "location": {
            "lat": 30.868126,
            "lng": 105.392398
        },
        "ad_info": {
            "adcode": 510981,
            "province": "四川省",
            "city": "遂宁市",
            "district": "射洪市"
        }
    },
    {
        "id": "16753630250761589376",
        "title": "公共厕所",
        "address": "四川省遂宁市射洪市射洪超强现代农牧业发展有限公司西侧60米",
        "tel": "",
        "category": "基础设施:公共设施:公共厕所",
        "type": 0,
        "location": {
            "lat": 30.843028,
            "lng": 105.505044
        },
        "ad_info": {
            "adcode": 510981,
            "province": "四川省",
            "city": "遂宁市",
            "district": "射洪市"
        }
    },
    {
        "id": "118498514656309276",
        "title": "公共厕所",
        "address": "四川省遂宁市射洪市滨江路北段与超强路交叉口正北方向141米左右",
        "tel": "",
        "category": "基础设施:公共设施:公共厕所",
        "type": 0,
        "location": {
            "lat": 30.888728,
            "lng": 105.394901
        },
        "ad_info": {
            "adcode": 510981,
            "province": "四川省",
            "city": "遂宁市",
            "district": "射洪市"
        }
    },
    {
        "id": "6979842657401168700",
        "title": "公共厕所",
        "address": "四川省遂宁市大英县郪江中路与郪江中路后街交叉口东南方向14米左右",
        "tel": "",
        "category": "基础设施:公共设施:公共厕所",
        "type": 0,
        "location": {
            "lat": 30.587939,
            "lng": 105.249741
        },
        "ad_info": {
            "adcode": 510923,
            "province": "四川省",
            "city": "遂宁市",
            "district": "大英县"
        }
    },
    {
        "id": "4829112414745870087",
        "title": "公共厕所",
        "address": "四川省遂宁市安居区东麻路与遂乐路交叉口正西方向52米左右",
        "tel": "",
        "category": "基础设施:公共设施:公共厕所",
        "type": 0,
        "location": {
            "lat": 30.396371,
            "lng": 105.28131
        },
        "ad_info": {
            "adcode": 510904,
            "province": "四川省",
            "city": "遂宁市",
            "district": "安居区"
        }
    },
    {
        "id": "18182912637787196727",
        "title": "公共厕所",
        "address": "四川省遂宁市船山区明月路与滨江北路交叉口西南方向147米左右",
        "tel": "",
        "category": "基础设施:公共设施:公共厕所",
        "type": 0,
        "location": {
            "lat": 30.52691,
            "lng": 105.569244
        },
        "ad_info": {
            "adcode": 510903,
            "province": "四川省",
            "city": "遂宁市",
            "district": "船山区"
        }
    },
    {
        "id": "14348882958338044795",
        "title": "无障碍公共厕所",
        "address": "四川省遂宁市船山区金玉横街与金玉街交叉口西南方向15米左右",
        "tel": "",
        "category": "基础设施:公共设施:公共厕所",
        "type": 0,
        "location": {
            "lat": 30.503652,
            "lng": 105.585257
        },
        "ad_info": {
            "adcode": 510903,
            "province": "四川省",
            "city": "遂宁市",
            "district": "船山区"
        }
    },
    {
        "id": "14490288832046826241",
        "title": "洗手间",
        "address": "四川省遂宁市船山区香林南路300号万达广场(遂宁店)F2",
        "tel": "",
        "category": "基础设施:公共设施:公共厕所",
        "type": 0,
        "location": {
            "lat": 30.530801,
            "lng": 105.594727
        },
        "ad_info": {
            "adcode": 510903,
            "province": "四川省",
            "city": "遂宁市",
            "district": "船山区"
        }
    },
    {
        "id": "7366780247825957337",
        "title": "万新村公共厕所",
        "address": "四川省遂宁市射洪市G247与蔚蓝桥交叉口正南方向1962米左右",
        "tel": "",
        "category": "基础设施:公共设施:公共厕所",
        "type": 0,
        "location": {
            "lat": 30.919581,
            "lng": 105.312554
        },
        "ad_info": {
            "adcode": 510981,
            "province": "四川省",
            "city": "遂宁市",
            "district": "射洪市"
        }
    },
    {
        "id": "17074077850992454600",
        "title": "公共厕所",
        "address": "四川省遂宁市船山区东平大道辅路与明德路交叉口西北方向111米左右",
        "tel": "",
        "category": "基础设施:公共设施:公共厕所",
        "type": 0,
        "location": {
            "lat": 30.52231,
            "lng": 105.602001
        },
        "ad_info": {
            "adcode": 510903,
            "province": "四川省",
            "city": "遂宁市",
            "district": "船山区"
        }
    },
    {
        "id": "7181645595888868559",
        "title": "公共厕所",
        "address": "四川省遂宁市船山区莲花街与遂州北路交叉口正东方向165米左右",
        "tel": "",
        "category": "基础设施:公共设施:公共厕所",
        "type": 0,
        "location": {
            "lat": 30.542674,
            "lng": 105.566115
        },
        "ad_info": {
            "adcode": 510903,
            "province": "四川省",
            "city": "遂宁市",
            "district": "船山区"
        }
    },
    {
        "id": "895619921211847766",
        "title": "公共厕所",
        "address": "四川省遂宁市船山区五彩缤纷路250号",
        "tel": "",
        "category": "基础设施:公共设施:公共厕所",
        "type": 0,
        "location": {
            "lat": 30.530624,
            "lng": 105.585206
        },
        "ad_info": {
            "adcode": 510903,
            "province": "四川省",
            "city": "遂宁市",
            "district": "船山区"
        }
    },
    {
        "id": "16387913588745629539",
        "title": "蓬溪红叶服务区公共厕所",
        "address": "四川省遂宁市蓬溪县",
        "tel": "",
        "category": "基础设施:公共设施:公共厕所",
        "type": 0,
        "location": {
            "lat": 30.793775,
            "lng": 105.667696
        },
        "ad_info": {
            "adcode": 510921,
            "province": "四川省",
            "city": "遂宁市",
            "district": "蓬溪县"
        }
    },
    {
        "id": "12088833013214928966",
        "title": "公共厕所",
        "address": "四川省遂宁市船山区春晓路与西宁大道交叉口东南方向80米左右",
        "tel": "",
        "category": "基础设施:公共设施:公共厕所",
        "type": 0,
        "location": {
            "lat": 30.481201,
            "lng": 105.56078
        },
        "ad_info": {
            "adcode": 510903,
            "province": "四川省",
            "city": "遂宁市",
            "district": "船山区"
        }
    },
    {
        "id": "5812995164596348307",
        "title": "公共厕所",
        "address": "四川省遂宁市船山区北湖路与春晓路交叉口正北方向114米左右",
        "tel": "",
        "category": "基础设施:公共设施:公共厕所",
        "type": 0,
        "location": {
            "lat": 30.478862,
            "lng": 105.562396
        },
        "ad_info": {
            "adcode": 510903,
            "province": "四川省",
            "city": "遂宁市",
            "district": "船山区"
        }
    }
]