[
    {
        "id": "3910765133569249708",
        "title": "公共厕所",
        "address": "西藏自治区那曲市索县亚拉北路与亚拉南路交叉口正东方向159米左右",
        "tel": "",
        "category": "基础设施:公共设施:公共厕所",
        "type": 0,
        "location": {
            "lat": 31.885489,
            "lng": 93.786568
        },
        "ad_info": {
            "adcode": 540626,
            "province": "西藏自治区",
            "city": "那曲市",
            "district": "索县"
        }
    },
    {
        "id": "141336212119475041",
        "title": "公共厕所",
        "address": "西藏自治区那曲市色尼区拉萨中路与浙江中路交叉口正东方向81米左右",
        "tel": "",
        "category": "基础设施:公共设施:公共厕所",
        "type": 0,
        "location": {
            "lat": 31.475588,
            "lng": 92.05531
        },
        "ad_info": {
            "adcode": 540602,
            "province": "西藏自治区",
            "city": "那曲市",
            "district": "色尼区"
        }
    },
    {
        "id": "11827071491483946070",
        "title": "公共厕所",
        "address": "西藏自治区那曲市色尼区文化中路与辽宁中路交叉口正南方向224米左右",
        "tel": "",
        "category": "基础设施:公共设施:公共厕所",
        "type": 0,
        "location": {
            "lat": 31.467227,
            "lng": 92.059171
        },
        "ad_info": {
            "adcode": 540602,
            "province": "西藏自治区",
            "city": "那曲市",
            "district": "色尼区"
        }
    },
    {
        "id": "15268061743734741420",
        "title": "公共厕所",
        "address": "西藏自治区那曲市色尼区拉萨南路与滨河路交叉口正东方向303米左右",
        "tel": "",
        "category": "基础设施:公共设施:公共厕所",
        "type": 0,
        "location": {
            "lat": 31.466026,
            "lng": 92.043822
        },
        "ad_info": {
            "adcode": 540602,
            "province": "西藏自治区",
            "city": "那曲市",
            "district": "色尼区"
        }
    },
    {
        "id": "17571079647209347965",
        "title": "公共厕所",
        "address": "西藏自治区那曲市色尼区辽宁中路与辽宁北路交叉口正南方向167米左右",
        "tel": "",
        "category": "基础设施:公共设施:公共厕所",
        "type": 0,
        "location": {
            "lat": 31.477102,
            "lng": 92.061333
        },
        "ad_info": {
            "adcode": 540602,
            "province": "西藏自治区",
            "city": "那曲市",
            "district": "色尼区"
        }
    },
    {
        "id": "8613901372156448413",
        "title": "公共厕所",
        "address": "西藏自治区那曲市色尼区拉萨中路与高原西路交叉口西南方向171米左右",
        "tel": "",
        "category": "基础设施:公共设施:公共厕所",
        "type": 0,
        "location": {
            "lat": 31.477962,
            "lng": 92.055758
        },
        "ad_info": {
            "adcode": 540602,
            "province": "西藏自治区",
            "city": "那曲市",
            "district": "色尼区"
        }
    },
    {
        "id": "8128760877351611124",
        "title": "公共厕所",
        "address": "西藏自治区那曲市色尼区扎空中路与扎空西路交叉口西北方向75米左右",
        "tel": "",
        "category": "基础设施:公共设施:公共厕所",
        "type": 0,
        "location": {
            "lat": 31.483992,
            "lng": 92.061711
        },
        "ad_info": {
            "adcode": 540602,
            "province": "西藏自治区",
            "city": "那曲市",
            "district": "色尼区"
        }
    },
    {
        "id": "17818937297943207035",
        "title": "公共厕所",
        "address": "西藏自治区那曲市色尼区滨河路那曲浙江中学",
        "tel": "",
        "category": "基础设施:公共设施:公共厕所",
        "type": 0,
        "location": {
            "lat": 31.47417,
            "lng": 92.044663
        },
        "ad_info": {
            "adcode": 540602,
            "province": "西藏自治区",
            "city": "那曲市",
            "district": "色尼区"
        }
    },
    {
        "id": "3618670400074514875",
        "title": "公共厕所",
        "address": "西藏自治区那曲市色尼区超丹中路与超丹北路交叉口正西方向181米左右",
        "tel": "",
        "category": "基础设施:公共设施:公共厕所",
        "type": 0,
        "location": {
            "lat": 31.478037,
            "lng": 92.064864
        },
        "ad_info": {
            "adcode": 540602,
            "province": "西藏自治区",
            "city": "那曲市",
            "district": "色尼区"
        }
    },
    {
        "id": "10400582779788462414",
        "title": "公共卫生间",
        "address": "西藏自治区那曲市索县中国石油索县加油站南侧90米",
        "tel": "",
        "category": "基础设施:公共设施:公共厕所",
        "type": 0,
        "location": {
            "lat": 31.893241,
            "lng": 93.79235
        },
        "ad_info": {
            "adcode": 540626,
            "province": "西藏自治区",
            "city": "那曲市",
            "district": "索县"
        }
    },
    {
        "id": "14853485338048452589",
        "title": "公共厕所",
        "address": "西藏自治区那曲市巴青县G317与德吉路交叉口正东方向67米左右",
        "tel": "",
        "category": "基础设施:公共设施:公共厕所",
        "type": 0,
        "location": {
            "lat": 31.918355,
            "lng": 94.060735
        },
        "ad_info": {
            "adcode": 540628,
            "province": "西藏自治区",
            "city": "那曲市",
            "district": "巴青县"
        }
    },
    {
        "id": "14934199893308593205",
        "title": "公共厕所",
        "address": "西藏自治区那曲市申扎县G562与甲仁路交叉口正北方向150米左右",
        "tel": "",
        "category": "基础设施:公共设施:公共厕所",
        "type": 0,
        "location": {
            "lat": 30.923248,
            "lng": 88.708991
        },
        "ad_info": {
            "adcode": 540625,
            "province": "西藏自治区",
            "city": "那曲市",
            "district": "申扎县"
        }
    },
    {
        "id": "10772510541439673194",
        "title": "公共厕所",
        "address": "西藏自治区那曲市安多县安狮东路与安狮西路交叉口西北方向359米左右",
        "tel": "",
        "category": "基础设施:公共设施:公共厕所",
        "type": 0,
        "location": {
            "lat": 32.264147,
            "lng": 91.679618
        },
        "ad_info": {
            "adcode": 540624,
            "province": "西藏自治区",
            "city": "那曲市",
            "district": "安多县"
        }
    },
    {
        "id": "705054417602705623",
        "title": "公共厕所",
        "address": "西藏自治区那曲市比如县宁波东路与宁波西路交叉口正西方向116米左右",
        "tel": "",
        "category": "基础设施:公共设施:公共厕所",
        "type": 0,
        "location": {
            "lat": 31.480156,
            "lng": 93.6777
        },
        "ad_info": {
            "adcode": 540622,
            "province": "西藏自治区",
            "city": "那曲市",
            "district": "比如县"
        }
    },
    {
        "id": "7902311148011492901",
        "title": "公共厕所",
        "address": "西藏自治区那曲市尼玛县团结路与建设路交叉口东北方向127米左右",
        "tel": "",
        "category": "基础设施:公共设施:公共厕所",
        "type": 0,
        "location": {
            "lat": 31.787474,
            "lng": 87.237345
        },
        "ad_info": {
            "adcode": 540629,
            "province": "西藏自治区",
            "city": "那曲市",
            "district": "尼玛县"
        }
    },
    {
        "id": "15679594443221571628",
        "title": "公共厕所",
        "address": "西藏自治区那曲市色尼区浙江中路与超丹中路交叉口正南方向67米左右",
        "tel": "",
        "category": "基础设施:公共设施:公共厕所",
        "type": 0,
        "location": {
            "lat": 31.473289,
            "lng": 92.066074
        },
        "ad_info": {
            "adcode": 540602,
            "province": "西藏自治区",
            "city": "那曲市",
            "district": "色尼区"
        }
    },
    {
        "id": "9509084189430246224",
        "title": "公共厕所",
        "address": "西藏自治区那曲市比如县吉扎路与绍兴北路交叉口正南方向92米左右",
        "tel": "",
        "category": "基础设施:公共设施:公共厕所",
        "type": 0,
        "location": {
            "lat": 31.478369,
            "lng": 93.679136
        },
        "ad_info": {
            "adcode": 540622,
            "province": "西藏自治区",
            "city": "那曲市",
            "district": "比如县"
        }
    },
    {
        "id": "14382431368887232642",
        "title": "公共厕所",
        "address": "西藏自治区那曲市尼玛县文部南村",
        "tel": "",
        "category": "基础设施:公共设施:公共厕所",
        "type": 0,
        "location": {
            "lat": 31.340662,
            "lng": 86.757735
        },
        "ad_info": {
            "adcode": 540629,
            "province": "西藏自治区",
            "city": "那曲市",
            "district": "尼玛县"
        }
    },
    {
        "id": "6007368106057107214",
        "title": "公共厕所",
        "address": "西藏自治区那曲市班戈县吉江扎西中路与吉江扎西南路交叉口正南方向243米左右",
        "tel": "",
        "category": "基础设施:公共设施:公共厕所",
        "type": 0,
        "location": {
            "lat": 31.394959,
            "lng": 90.011542
        },
        "ad_info": {
            "adcode": 540627,
            "province": "西藏自治区",
            "city": "那曲市",
            "district": "班戈县"
        }
    },
    {
        "id": "10345470488939996448",
        "title": "公共厕所",
        "address": "西藏自治区那曲市色尼区G109与谷露大桥交叉口东北方向587米左右",
        "tel": "",
        "category": "基础设施:公共设施:公共厕所",
        "type": 0,
        "location": {
            "lat": 30.720211,
            "lng": 91.562567
        },
        "ad_info": {
            "adcode": 540602,
            "province": "西藏自治区",
            "city": "那曲市",
            "district": "色尼区"
        }
    },
    {
        "id": "13540468797362365898",
        "title": "公共厕所",
        "address": "西藏自治区那曲市色尼区",
        "tel": "",
        "category": "基础设施:公共设施:公共厕所",
        "type": 0,
        "location": {
            "lat": 31.586037,
            "lng": 91.787673
        },
        "ad_info": {
            "adcode": 540602,
            "province": "西藏自治区",
            "city": "那曲市",
            "district": "色尼区"
        }
    },
    {
        "id": "3323551436186931988",
        "title": "公共厕所",
        "address": "西藏自治区那曲市比如县第一小学西侧260米",
        "tel": "",
        "category": "基础设施:公共设施:公共厕所",
        "type": 0,
        "location": {
            "lat": 31.481653,
            "lng": 93.670858
        },
        "ad_info": {
            "adcode": 540622,
            "province": "西藏自治区",
            "city": "那曲市",
            "district": "比如县"
        }
    },
    {
        "id": "14759373885624422912",
        "title": "公共厕所",
        "address": "西藏自治区那曲市聂荣县G345与中心路交叉口正东方向336米左右",
        "tel": "",
        "category": "基础设施:公共设施:公共厕所",
        "type": 0,
        "location": {
            "lat": 32.107137,
            "lng": 92.299192
        },
        "ad_info": {
            "adcode": 540623,
            "province": "西藏自治区",
            "city": "那曲市",
            "district": "聂荣县"
        }
    },
    {
        "id": "18175341209066985254",
        "title": "公共厕所",
        "address": "西藏自治区那曲市比如县邮政西侧290米",
        "tel": "",
        "category": "基础设施:公共设施:公共厕所",
        "type": 0,
        "location": {
            "lat": 31.804071,
            "lng": 92.827358
        },
        "ad_info": {
            "adcode": 540622,
            "province": "西藏自治区",
            "city": "那曲市",
            "district": "比如县"
        }
    },
    {
        "id": "14497857846849338292",
        "title": "公共厕所",
        "address": "西藏自治区那曲市安多县",
        "tel": "",
        "category": "基础设施:公共设施:公共厕所",
        "type": 0,
        "location": {
            "lat": 31.98054,
            "lng": 91.713136
        },
        "ad_info": {
            "adcode": 540624,
            "province": "西藏自治区",
            "city": "那曲市",
            "district": "安多县"
        }
    },
    {
        "id": "1121816087495469723",
        "title": "公共厕所",
        "address": "西藏自治区那曲市班戈县旺堆洗车场南侧230米",
        "tel": "",
        "category": "基础设施:公共设施:公共厕所",
        "type": 0,
        "location": {
            "lat": 31.386422,
            "lng": 90.013704
        },
        "ad_info": {
            "adcode": 540627,
            "province": "西藏自治区",
            "city": "那曲市",
            "district": "班戈县"
        }
    },
    {
        "id": "6978694358801438926",
        "title": "公共厕所",
        "address": "西藏自治区那曲市色尼区人民医院生活区南(超丹路北段西)",
        "tel": "",
        "category": "基础设施:公共设施:公共厕所",
        "type": 0,
        "location": {
            "lat": 31.475841,
            "lng": 92.066012
        },
        "ad_info": {
            "adcode": 540602,
            "province": "西藏自治区",
            "city": "那曲市",
            "district": "色尼区"
        }
    },
    {
        "id": "4280340569856546168",
        "title": "公共厕所",
        "address": "西藏自治区那曲市安多县",
        "tel": "",
        "category": "基础设施:公共设施:公共厕所",
        "type": 0,
        "location": {
            "lat": 31.733865,
            "lng": 91.797996
        },
        "ad_info": {
            "adcode": 540624,
            "province": "西藏自治区",
            "city": "那曲市",
            "district": "安多县"
        }
    },
    {
        "id": "2251797656147569366",
        "title": "公共厕所",
        "address": "西藏自治区那曲市聂荣县G345与中心路交叉口正北方向190米左右",
        "tel": "",
        "category": "基础设施:公共设施:公共厕所",
        "type": 0,
        "location": {
            "lat": 32.108398,
            "lng": 92.296209
        },
        "ad_info": {
            "adcode": 540623,
            "province": "西藏自治区",
            "city": "那曲市",
            "district": "聂荣县"
        }
    },
    {
        "id": "4535414821386806756",
        "title": "公共厕所",
        "address": "西藏自治区那曲市班戈县幸福路与江龙西路交叉口正南方向777米左右",
        "tel": "",
        "category": "基础设施:公共设施:公共厕所",
        "type": 0,
        "location": {
            "lat": 31.38486,
            "lng": 90.014247
        },
        "ad_info": {
            "adcode": 540627,
            "province": "西藏自治区",
            "city": "那曲市",
            "district": "班戈县"
        }
    },
    {
        "id": "15299995348544345404",
        "title": "公共厕所",
        "address": "西藏自治区那曲市聂荣县G345与中心路交叉口正南方向136米左右",
        "tel": "",
        "category": "基础设施:公共设施:公共厕所",
        "type": 0,
        "location": {
            "lat": 32.115965,
            "lng": 92.29719
        },
        "ad_info": {
            "adcode": 540623,
            "province": "西藏自治区",
            "city": "那曲市",
            "district": "聂荣县"
        }
    },
    {
        "id": "8204176648524090846",
        "title": "公共厕所",
        "address": "西藏自治区那曲市色尼区G317",
        "tel": "",
        "category": "基础设施:公共设施:公共厕所",
        "type": 0,
        "location": {
            "lat": 31.542365,
            "lng": 91.412749
        },
        "ad_info": {
            "adcode": 540602,
            "province": "西藏自治区",
            "city": "那曲市",
            "district": "色尼区"
        }
    },
    {
        "id": "16941559741194825166",
        "title": "公共厕所",
        "address": "西藏自治区那曲市聂荣县盘羊路与神华路交叉口正西方向141米左右",
        "tel": "",
        "category": "基础设施:公共设施:公共厕所",
        "type": 0,
        "location": {
            "lat": 32.107676,
            "lng": 92.302779
        },
        "ad_info": {
            "adcode": 540623,
            "province": "西藏自治区",
            "city": "那曲市",
            "district": "聂荣县"
        }
    },
    {
        "id": "13315793172049884677",
        "title": "公共厕所",
        "address": "西藏自治区那曲市嘉黎县G349与人民路交叉口西北方向41米左右",
        "tel": "",
        "category": "基础设施:公共设施:公共厕所",
        "type": 0,
        "location": {
            "lat": 30.641245,
            "lng": 93.220658
        },
        "ad_info": {
            "adcode": 540621,
            "province": "西藏自治区",
            "city": "那曲市",
            "district": "嘉黎县"
        }
    },
    {
        "id": "14147500654224247502",
        "title": "公共厕所",
        "address": "西藏自治区那曲市安多县109线十工区公路停车区",
        "tel": "",
        "category": "基础设施:公共设施:公共厕所",
        "type": 0,
        "location": {
            "lat": 32.374409,
            "lng": 91.709762
        },
        "ad_info": {
            "adcode": 540624,
            "province": "西藏自治区",
            "city": "那曲市",
            "district": "安多县"
        }
    },
    {
        "id": "12098207654294574353",
        "title": "公共厕所",
        "address": "西藏自治区那曲市巴青县317国道南50米",
        "tel": "",
        "category": "基础设施:公共设施:公共厕所",
        "type": 0,
        "location": {
            "lat": 31.838023,
            "lng": 94.440945
        },
        "ad_info": {
            "adcode": 540628,
            "province": "西藏自治区",
            "city": "那曲市",
            "district": "巴青县"
        }
    },
    {
        "id": "8677172436649836525",
        "title": "公共厕所",
        "address": "西藏自治区那曲市比如县G558与恰则中桥交叉口西南方向781米左右",
        "tel": "",
        "category": "基础设施:公共设施:公共厕所",
        "type": 0,
        "location": {
            "lat": 31.663319,
            "lng": 93.152157
        },
        "ad_info": {
            "adcode": 540622,
            "province": "西藏自治区",
            "city": "那曲市",
            "district": "比如县"
        }
    },
    {
        "id": "1476604602116510683",
        "title": "公共厕所",
        "address": "西藏自治区那曲市色尼区317国道东50米",
        "tel": "",
        "category": "基础设施:公共设施:公共厕所",
        "type": 0,
        "location": {
            "lat": 31.745888,
            "lng": 92.705017
        },
        "ad_info": {
            "adcode": 540602,
            "province": "西藏自治区",
            "city": "那曲市",
            "district": "色尼区"
        }
    },
    {
        "id": "4866095890786995644",
        "title": "公共厕所",
        "address": "西藏自治区那曲市色尼区文化东路与文化中路交叉口正北方向94米左右",
        "tel": "",
        "category": "基础设施:公共设施:公共厕所",
        "type": 0,
        "location": {
            "lat": 31.468247,
            "lng": 92.072076
        },
        "ad_info": {
            "adcode": 540602,
            "province": "西藏自治区",
            "city": "那曲市",
            "district": "色尼区"
        }
    },
    {
        "id": "12687364404872053865",
        "title": "那曲服务区公共厕所",
        "address": "西藏自治区那曲市色尼区东侧",
        "tel": "",
        "category": "基础设施:公共设施:公共厕所",
        "type": 0,
        "location": {
            "lat": 31.415807,
            "lng": 91.949735
        },
        "ad_info": {
            "adcode": 540602,
            "province": "西藏自治区",
            "city": "那曲市",
            "district": "色尼区"
        }
    }
]