[
    {
        "id": "14735496928629379976",
        "title": "公共厕所",
        "address": "河北省邯郸市大名县府西街52号",
        "tel": "",
        "category": "基础设施:公共设施:公共厕所",
        "type": 0,
        "location": {
            "lat": 36.287974,
            "lng": 115.144996
        },
        "ad_info": {
            "adcode": 130425,
            "province": "河北省",
            "city": "邯郸市",
            "district": "大名县"
        }
    },
    {
        "id": "9504739995236539598",
        "title": "公共厕所",
        "address": "河北省邯郸市邯山区邯山街与邯钢路交叉口东北方向24米左右",
        "tel": "",
        "category": "基础设施:公共设施:公共厕所",
        "type": 0,
        "location": {
            "lat": 36.590061,
            "lng": 114.481204
        },
        "ad_info": {
            "adcode": 130402,
            "province": "河北省",
            "city": "邯郸市",
            "district": "邯山区"
        }
    },
    {
        "id": "9242795384030192694",
        "title": "公共厕所",
        "address": "河北省邯郸市大名县滨河花园东区西南侧120米",
        "tel": "",
        "category": "基础设施:公共设施:公共厕所",
        "type": 0,
        "location": {
            "lat": 36.273006,
            "lng": 115.140645
        },
        "ad_info": {
            "adcode": 130425,
            "province": "河北省",
            "city": "邯郸市",
            "district": "大名县"
        }
    },
    {
        "id": "7174415880267109666",
        "title": "公共厕所",
        "address": "河北省邯郸市复兴区果园路与铁西北大街交叉口正西方向147米左右",
        "tel": "",
        "category": "基础设施:公共设施:公共厕所",
        "type": 0,
        "location": {
            "lat": 36.646826,
            "lng": 114.470324
        },
        "ad_info": {
            "adcode": 130404,
            "province": "河北省",
            "city": "邯郸市",
            "district": "复兴区"
        }
    },
    {
        "id": "9314977155958240947",
        "title": "公共厕所",
        "address": "河北省邯郸市邯山区绿化南路21号",
        "tel": "",
        "category": "基础设施:公共设施:公共厕所",
        "type": 0,
        "location": {
            "lat": 36.598356,
            "lng": 114.49664
        },
        "ad_info": {
            "adcode": 130402,
            "province": "河北省",
            "city": "邯郸市",
            "district": "邯山区"
        }
    },
    {
        "id": "10253643475702708185",
        "title": "公共厕所",
        "address": "河北省邯郸市曲周县人民西路与光明街交叉口东南方向76米左右",
        "tel": "",
        "category": "基础设施:公共设施:公共厕所",
        "type": 0,
        "location": {
            "lat": 36.761866,
            "lng": 114.949736
        },
        "ad_info": {
            "adcode": 130435,
            "province": "河北省",
            "city": "邯郸市",
            "district": "曲周县"
        }
    },
    {
        "id": "13624633131011843169",
        "title": "公共厕所",
        "address": "河北省邯郸市大名县北京路崇德广场(东侧)",
        "tel": "",
        "category": "基础设施:公共设施:公共厕所",
        "type": 0,
        "location": {
            "lat": 36.299808,
            "lng": 115.155937
        },
        "ad_info": {
            "adcode": 130425,
            "province": "河北省",
            "city": "邯郸市",
            "district": "大名县"
        }
    },
    {
        "id": "15346707277499323143",
        "title": "公共卫生间",
        "address": "河北省邯郸市丛台区丛台北路与广泰街交叉口西南方向33米左右",
        "tel": "",
        "category": "基础设施:公共设施:公共厕所",
        "type": 0,
        "location": {
            "lat": 36.620343,
            "lng": 114.5286
        },
        "ad_info": {
            "adcode": 130403,
            "province": "河北省",
            "city": "邯郸市",
            "district": "丛台区"
        }
    },
    {
        "id": "13395539823677695714",
        "title": "公共厕所",
        "address": "河北省邯郸市魏县兴源南大街与兴源大街交叉口正西方向58米左右",
        "tel": "",
        "category": "基础设施:公共设施:公共厕所",
        "type": 0,
        "location": {
            "lat": 36.355907,
            "lng": 114.957767
        },
        "ad_info": {
            "adcode": 130434,
            "province": "河北省",
            "city": "邯郸市",
            "district": "魏县"
        }
    },
    {
        "id": "17347299863202619710",
        "title": "公共厕所",
        "address": "河北省邯郸市邯山区光明南大街与滏明路交叉口东南方向155米左右",
        "tel": "",
        "category": "基础设施:公共设施:公共厕所",
        "type": 0,
        "location": {
            "lat": 36.582419,
            "lng": 114.500199
        },
        "ad_info": {
            "adcode": 130402,
            "province": "河北省",
            "city": "邯郸市",
            "district": "邯山区"
        }
    },
    {
        "id": "5936030114018401575",
        "title": "公共厕所",
        "address": "河北省邯郸市丛台区7号汽车维修车间东侧250米",
        "tel": "",
        "category": "基础设施:公共设施:公共厕所",
        "type": 0,
        "location": {
            "lat": 36.616969,
            "lng": 114.5541
        },
        "ad_info": {
            "adcode": 130403,
            "province": "河北省",
            "city": "邯郸市",
            "district": "丛台区"
        }
    },
    {
        "id": "12923422490701107606",
        "title": "公共厕所",
        "address": "河北省邯郸市丛台区和平路柳林小区",
        "tel": "",
        "category": "基础设施:公共设施:公共厕所",
        "type": 0,
        "location": {
            "lat": 36.599433,
            "lng": 114.522878
        },
        "ad_info": {
            "adcode": 130403,
            "province": "河北省",
            "city": "邯郸市",
            "district": "丛台区"
        }
    },
    {
        "id": "7613922860992993116",
        "title": "广夏公共厕所",
        "address": "河北省邯郸市丛台区广厦路10号(广厦小区南门对面)",
        "tel": "",
        "category": "基础设施:公共设施:公共厕所",
        "type": 0,
        "location": {
            "lat": 36.611044,
            "lng": 114.524615
        },
        "ad_info": {
            "adcode": 130403,
            "province": "河北省",
            "city": "邯郸市",
            "district": "丛台区"
        }
    },
    {
        "id": "5921801800108689841",
        "title": "公共厕所",
        "address": "河北省邯郸市丛台区建新街与西关街交叉口西北方向26米左右",
        "tel": "",
        "category": "基础设施:公共设施:公共厕所",
        "type": 0,
        "location": {
            "lat": 36.610487,
            "lng": 114.482103
        },
        "ad_info": {
            "adcode": 130403,
            "province": "河北省",
            "city": "邯郸市",
            "district": "丛台区"
        }
    },
    {
        "id": "9478693838516220209",
        "title": "公共厕所",
        "address": "河北省邯郸市复兴区建设大街245号",
        "tel": "",
        "category": "基础设施:公共设施:公共厕所",
        "type": 0,
        "location": {
            "lat": 36.624171,
            "lng": 114.460721
        },
        "ad_info": {
            "adcode": 130404,
            "province": "河北省",
            "city": "邯郸市",
            "district": "复兴区"
        }
    },
    {
        "id": "11520602340118394746",
        "title": "公共厕所",
        "address": "河北省邯郸市丛台区华泽路中国石油",
        "tel": "",
        "category": "基础设施:公共设施:公共厕所",
        "type": 0,
        "location": {
            "lat": 36.636013,
            "lng": 114.535981
        },
        "ad_info": {
            "adcode": 130403,
            "province": "河北省",
            "city": "邯郸市",
            "district": "丛台区"
        }
    },
    {
        "id": "12042481556482757988",
        "title": "公共厕所",
        "address": "河北省邯郸市邯山区华耀城轻纺市场A16-107门市",
        "tel": "",
        "category": "基础设施:公共设施:公共厕所",
        "type": 0,
        "location": {
            "lat": 36.557756,
            "lng": 114.513579
        },
        "ad_info": {
            "adcode": 130402,
            "province": "河北省",
            "city": "邯郸市",
            "district": "邯山区"
        }
    },
    {
        "id": "7217730452965243629",
        "title": "公共厕所",
        "address": "河北省邯郸市邯山区浴新南大街与火磨街交叉口正西方向176米左右",
        "tel": "",
        "category": "基础设施:公共设施:公共厕所",
        "type": 0,
        "location": {
            "lat": 36.602291,
            "lng": 114.476031
        },
        "ad_info": {
            "adcode": 130402,
            "province": "河北省",
            "city": "邯郸市",
            "district": "邯山区"
        }
    },
    {
        "id": "9657248197882256471",
        "title": "公共厕所",
        "address": "河北省邯郸市丛台区丛台路与新兴大街交叉口西北方向110米左右",
        "tel": "",
        "category": "基础设施:公共设施:公共厕所",
        "type": 0,
        "location": {
            "lat": 36.618672,
            "lng": 114.496416
        },
        "ad_info": {
            "adcode": 130403,
            "province": "河北省",
            "city": "邯郸市",
            "district": "丛台区"
        }
    },
    {
        "id": "8206388318865535707",
        "title": "公共厕所",
        "address": "河北省邯郸市邯山区渚河路155号邯郸职业技术学院",
        "tel": "",
        "category": "基础设施:公共设施:公共厕所",
        "type": 0,
        "location": {
            "lat": 36.58528,
            "lng": 114.512286
        },
        "ad_info": {
            "adcode": 130402,
            "province": "河北省",
            "city": "邯郸市",
            "district": "邯山区"
        }
    },
    {
        "id": "3726400862814415909",
        "title": "公共厕所",
        "address": "河北省邯郸市大名县天雄东路与滨河街交叉口正南方向116米左右",
        "tel": "",
        "category": "基础设施:公共设施:公共厕所",
        "type": 0,
        "location": {
            "lat": 36.289928,
            "lng": 115.17061
        },
        "ad_info": {
            "adcode": 130425,
            "province": "河北省",
            "city": "邯郸市",
            "district": "大名县"
        }
    },
    {
        "id": "17221432210132319371",
        "title": "公共厕所",
        "address": "河北省邯郸市邯山区东柳西街与兴华路交叉口西南角正西方向40米",
        "tel": "",
        "category": "基础设施:公共设施:公共厕所",
        "type": 0,
        "location": {
            "lat": 36.59527,
            "lng": 114.52538
        },
        "ad_info": {
            "adcode": 130402,
            "province": "河北省",
            "city": "邯郸市",
            "district": "邯山区"
        }
    },
    {
        "id": "13885653051181826577",
        "title": "公共厕所",
        "address": "河北省邯郸市丛台区东风街与王庄西街交叉口东南方向140米左右",
        "tel": "",
        "category": "基础设施:公共设施:公共厕所",
        "type": 0,
        "location": {
            "lat": 36.613217,
            "lng": 114.48421
        },
        "ad_info": {
            "adcode": 130403,
            "province": "河北省",
            "city": "邯郸市",
            "district": "丛台区"
        }
    },
    {
        "id": "6299181281013178793",
        "title": "公共厕所",
        "address": "河北省邯郸市永年区迎春街永年太极广场(西南角)",
        "tel": "",
        "category": "基础设施:公共设施:公共厕所",
        "type": 0,
        "location": {
            "lat": 36.781254,
            "lng": 114.494163
        },
        "ad_info": {
            "adcode": 130408,
            "province": "河北省",
            "city": "邯郸市",
            "district": "永年区"
        }
    },
    {
        "id": "5551655466604882307",
        "title": "公共厕所",
        "address": "河北省邯郸市魏县天安大道(东段)与魏都南大街交叉口东40米",
        "tel": "",
        "category": "基础设施:公共设施:公共厕所",
        "type": 0,
        "location": {
            "lat": 36.34114,
            "lng": 114.936112
        },
        "ad_info": {
            "adcode": 130434,
            "province": "河北省",
            "city": "邯郸市",
            "district": "魏县"
        }
    },
    {
        "id": "17674972327478536607",
        "title": "公共厕所",
        "address": "河北省邯郸市永年区富强路与广源街交叉口西北方向31米左右",
        "tel": "",
        "category": "基础设施:公共设施:公共厕所",
        "type": 0,
        "location": {
            "lat": 36.767919,
            "lng": 114.501123
        },
        "ad_info": {
            "adcode": 130408,
            "province": "河北省",
            "city": "邯郸市",
            "district": "永年区"
        }
    },
    {
        "id": "6189437698017227640",
        "title": "公共厕所",
        "address": "河北省邯郸市馆陶县陶山街与魏征路交叉口正南方向48米左右",
        "tel": "",
        "category": "基础设施:公共设施:公共厕所",
        "type": 0,
        "location": {
            "lat": 36.535786,
            "lng": 115.292996
        },
        "ad_info": {
            "adcode": 130433,
            "province": "河北省",
            "city": "邯郸市",
            "district": "馆陶县"
        }
    },
    {
        "id": "18366713523020262130",
        "title": "公共厕所",
        "address": "河北省邯郸市丛台区邯郸商业步行街与西南庄前街交叉口东北120米",
        "tel": "",
        "category": "基础设施:公共设施:公共厕所",
        "type": 0,
        "location": {
            "lat": 36.605753,
            "lng": 114.482395
        },
        "ad_info": {
            "adcode": 130403,
            "province": "河北省",
            "city": "邯郸市",
            "district": "丛台区"
        }
    },
    {
        "id": "5751864437038313869",
        "title": "公共厕所",
        "address": "河北省邯郸市丛台区中心大街与通达街交叉口西北方向103米左右",
        "tel": "",
        "category": "基础设施:公共设施:公共厕所",
        "type": 0,
        "location": {
            "lat": 36.646069,
            "lng": 114.530531
        },
        "ad_info": {
            "adcode": 130403,
            "province": "河北省",
            "city": "邯郸市",
            "district": "丛台区"
        }
    },
    {
        "id": "12464465799811238391",
        "title": "公共厕所",
        "address": "河北省邯郸市丛台区中华北大街与联纺东路交叉口正东方向97米左右",
        "tel": "",
        "category": "基础设施:公共设施:公共厕所",
        "type": 0,
        "location": {
            "lat": 36.627573,
            "lng": 114.496191
        },
        "ad_info": {
            "adcode": 130403,
            "province": "河北省",
            "city": "邯郸市",
            "district": "丛台区"
        }
    },
    {
        "id": "2175139852180720079",
        "title": "公共厕所",
        "address": "河北省邯郸市丛台区东柳西街与酒厂北路交叉口正西方向165米左右",
        "tel": "",
        "category": "基础设施:公共设施:公共厕所",
        "type": 0,
        "location": {
            "lat": 36.606081,
            "lng": 114.525671
        },
        "ad_info": {
            "adcode": 130403,
            "province": "河北省",
            "city": "邯郸市",
            "district": "丛台区"
        }
    },
    {
        "id": "16572026345186640288",
        "title": "公共厕所",
        "address": "河北省邯郸市肥乡区井堂街与长安路交叉口东南方向41米左右",
        "tel": "",
        "category": "基础设施:公共设施:公共厕所",
        "type": 0,
        "location": {
            "lat": 36.556713,
            "lng": 114.800384
        },
        "ad_info": {
            "adcode": 130407,
            "province": "河北省",
            "city": "邯郸市",
            "district": "肥乡区"
        }
    },
    {
        "id": "11096243836775219761",
        "title": "公共厕所",
        "address": "河北省邯郸市肥乡区兴华街与兴安路交叉口西南方向122米左右",
        "tel": "",
        "category": "基础设施:公共设施:公共厕所",
        "type": 0,
        "location": {
            "lat": 36.560735,
            "lng": 114.808187
        },
        "ad_info": {
            "adcode": 130407,
            "province": "河北省",
            "city": "邯郸市",
            "district": "肥乡区"
        }
    },
    {
        "id": "2918102093009431252",
        "title": "公共厕所",
        "address": "河北省邯郸市丛台区诚信街与邯临公路交叉口西北方向483米左右",
        "tel": "",
        "category": "基础设施:公共设施:公共厕所",
        "type": 0,
        "location": {
            "lat": 36.6654,
            "lng": 114.581518
        },
        "ad_info": {
            "adcode": 130403,
            "province": "河北省",
            "city": "邯郸市",
            "district": "丛台区"
        }
    },
    {
        "id": "13449904078416864874",
        "title": "公共厕所",
        "address": "河北省邯郸市武安市X206与桥南街交叉口正南方向159米左右",
        "tel": "",
        "category": "基础设施:公共设施:公共厕所",
        "type": 0,
        "location": {
            "lat": 36.676923,
            "lng": 114.211976
        },
        "ad_info": {
            "adcode": 130481,
            "province": "河北省",
            "city": "邯郸市",
            "district": "武安市"
        }
    },
    {
        "id": "9295929691775342139",
        "title": "公共厕所",
        "address": "河北省邯郸市复兴区光华大街与联纺西路交叉口东南方向77米左右",
        "tel": "",
        "category": "基础设施:公共设施:公共厕所",
        "type": 0,
        "location": {
            "lat": 36.629736,
            "lng": 114.454569
        },
        "ad_info": {
            "adcode": 130404,
            "province": "河北省",
            "city": "邯郸市",
            "district": "复兴区"
        }
    },
    {
        "id": "6001774511587885040",
        "title": "公共厕所",
        "address": "河北省邯郸市复兴区人民西路与铁西北大街交叉口东北方向203米左右",
        "tel": "",
        "category": "基础设施:公共设施:公共厕所",
        "type": 0,
        "location": {
            "lat": 36.613121,
            "lng": 114.474087
        },
        "ad_info": {
            "adcode": 130404,
            "province": "河北省",
            "city": "邯郸市",
            "district": "复兴区"
        }
    },
    {
        "id": "15154302899852998135",
        "title": "公共厕所",
        "address": "河北省邯郸市丛台区和平路西南庄前街-15号院",
        "tel": "",
        "category": "基础设施:公共设施:公共厕所",
        "type": 0,
        "location": {
            "lat": 36.604038,
            "lng": 114.480961
        },
        "ad_info": {
            "adcode": 130403,
            "province": "河北省",
            "city": "邯郸市",
            "district": "丛台区"
        }
    },
    {
        "id": "17558958662331104334",
        "title": "公共厕所",
        "address": "河北省邯郸市邯山区学院北路与浴新南大街交叉口正北方向137米左右",
        "tel": "",
        "category": "基础设施:公共设施:公共厕所",
        "type": 0,
        "location": {
            "lat": 36.577604,
            "lng": 114.476822
        },
        "ad_info": {
            "adcode": 130402,
            "province": "河北省",
            "city": "邯郸市",
            "district": "邯山区"
        }
    },
    {
        "id": "3000552736712108910",
        "title": "公共厕所",
        "address": "河北省邯郸市武安市富强街武安汽车站",
        "tel": "",
        "category": "基础设施:公共设施:公共厕所",
        "type": 0,
        "location": {
            "lat": 36.686767,
            "lng": 114.186685
        },
        "ad_info": {
            "adcode": 130481,
            "province": "河北省",
            "city": "邯郸市",
            "district": "武安市"
        }
    },
    {
        "id": "3793561312247776020",
        "title": "火车站广场-公共厕所",
        "address": "河北省邯郸市邯山区浴新南大街与陵园路交叉口正西方向54米左右",
        "tel": "",
        "category": "基础设施:公共设施:公共厕所",
        "type": 0,
        "location": {
            "lat": 36.600167,
            "lng": 114.477623
        },
        "ad_info": {
            "adcode": 130402,
            "province": "河北省",
            "city": "邯郸市",
            "district": "邯山区"
        }
    },
    {
        "id": "2533958305944193180",
        "title": "公共厕所",
        "address": "河北省邯郸市邯山区贸西农贸市场对面",
        "tel": "",
        "category": "基础设施:公共设施:公共厕所",
        "type": 0,
        "location": {
            "lat": 36.596388,
            "lng": 114.48201
        },
        "ad_info": {
            "adcode": 130402,
            "province": "河北省",
            "city": "邯郸市",
            "district": "邯山区"
        }
    },
    {
        "id": "14027490918703784095",
        "title": "公共厕所",
        "address": "河北省邯郸市磁县健康路与平安路交叉口东北方向136米左右",
        "tel": "",
        "category": "基础设施:公共设施:公共厕所",
        "type": 0,
        "location": {
            "lat": 36.380936,
            "lng": 114.398049
        },
        "ad_info": {
            "adcode": 130427,
            "province": "河北省",
            "city": "邯郸市",
            "district": "磁县"
        }
    },
    {
        "id": "5155293303961755945",
        "title": "公共厕所",
        "address": "河北省邯郸市邯山区张庄桥街与通济路交叉口西南方向14米左右",
        "tel": "",
        "category": "基础设施:公共设施:公共厕所",
        "type": 0,
        "location": {
            "lat": 36.560565,
            "lng": 114.483245
        },
        "ad_info": {
            "adcode": 130402,
            "province": "河北省",
            "city": "邯郸市",
            "district": "邯山区"
        }
    },
    {
        "id": "7177515811753083027",
        "title": "公共厕所",
        "address": "河北省邯郸市丛台区丛台路与东环路交叉口西南方向296米左右",
        "tel": "",
        "category": "基础设施:公共设施:公共厕所",
        "type": 0,
        "location": {
            "lat": 36.613582,
            "lng": 114.535535
        },
        "ad_info": {
            "adcode": 130403,
            "province": "河北省",
            "city": "邯郸市",
            "district": "丛台区"
        }
    },
    {
        "id": "13542782133711212996",
        "title": "公共厕所",
        "address": "河北省邯郸市武安市X206与守信街交叉口正北方向591米左右",
        "tel": "",
        "category": "基础设施:公共设施:公共厕所",
        "type": 0,
        "location": {
            "lat": 36.66436,
            "lng": 114.210285
        },
        "ad_info": {
            "adcode": 130481,
            "province": "河北省",
            "city": "邯郸市",
            "district": "武安市"
        }
    },
    {
        "id": "4633651953679658783",
        "title": "公共厕所",
        "address": "河北省邯郸市永年区健康东大街与健康大街交叉口西北方向32米左右",
        "tel": "",
        "category": "基础设施:公共设施:公共厕所",
        "type": 0,
        "location": {
            "lat": 36.782678,
            "lng": 114.498332
        },
        "ad_info": {
            "adcode": 130408,
            "province": "河北省",
            "city": "邯郸市",
            "district": "永年区"
        }
    },
    {
        "id": "4974620799336046212",
        "title": "公共厕所",
        "address": "河北省邯郸市广平县人民东路与民运巷交叉口正南方向71米左右",
        "tel": "",
        "category": "基础设施:公共设施:公共厕所",
        "type": 0,
        "location": {
            "lat": 36.480809,
            "lng": 114.95424
        },
        "ad_info": {
            "adcode": 130432,
            "province": "河北省",
            "city": "邯郸市",
            "district": "广平县"
        }
    },
    {
        "id": "17543460016554969742",
        "title": "公共厕所",
        "address": "河北省邯郸市丛台区中心大街与通达街交叉口正西方向32米左右",
        "tel": "",
        "category": "基础设施:公共设施:公共厕所",
        "type": 0,
        "location": {
            "lat": 36.645297,
            "lng": 114.530979
        },
        "ad_info": {
            "adcode": 130403,
            "province": "河北省",
            "city": "邯郸市",
            "district": "丛台区"
        }
    },
    {
        "id": "6539269192708500150",
        "title": "公共厕所",
        "address": "河北省邯郸市邯山区渚河路与滏阳街交叉口东南方向196米左右",
        "tel": "",
        "category": "基础设施:公共设施:公共厕所",
        "type": 0,
        "location": {
            "lat": 36.584986,
            "lng": 114.504045
        },
        "ad_info": {
            "adcode": 130402,
            "province": "河北省",
            "city": "邯郸市",
            "district": "邯山区"
        }
    },
    {
        "id": "629036992030137445",
        "title": "金碧苑公共厕所",
        "address": "河北省邯郸市邯山区邯山街金碧苑",
        "tel": "",
        "category": "基础设施:公共设施:公共厕所",
        "type": 0,
        "location": {
            "lat": 36.57098,
            "lng": 114.478381
        },
        "ad_info": {
            "adcode": 130402,
            "province": "河北省",
            "city": "邯郸市",
            "district": "邯山区"
        }
    },
    {
        "id": "296225306358966939",
        "title": "公共厕所",
        "address": "河北省邯郸市临漳县人民路与铜雀南大街交叉口正西方向83米左右",
        "tel": "",
        "category": "基础设施:公共设施:公共厕所",
        "type": 0,
        "location": {
            "lat": 36.328097,
            "lng": 114.600908
        },
        "ad_info": {
            "adcode": 130423,
            "province": "河北省",
            "city": "邯郸市",
            "district": "临漳县"
        }
    },
    {
        "id": "3211466014407268708",
        "title": "公共厕所",
        "address": "河北省邯郸市广平县东城北街与东城南街交叉口正南方向142米左右",
        "tel": "",
        "category": "基础设施:公共设施:公共厕所",
        "type": 0,
        "location": {
            "lat": 36.480364,
            "lng": 114.949158
        },
        "ad_info": {
            "adcode": 130432,
            "province": "河北省",
            "city": "邯郸市",
            "district": "广平县"
        }
    },
    {
        "id": "17549524982939397543",
        "title": "公共厕所",
        "address": "河北省邯郸市丛台区东环路与油漆厂路交叉口西北方向175米左右",
        "tel": "",
        "category": "基础设施:公共设施:公共厕所",
        "type": 0,
        "location": {
            "lat": 36.630649,
            "lng": 114.535354
        },
        "ad_info": {
            "adcode": 130403,
            "province": "河北省",
            "city": "邯郸市",
            "district": "丛台区"
        }
    },
    {
        "id": "15019183932863050268",
        "title": "公共厕所",
        "address": "河北省邯郸市魏县开元西路与望远北街交叉口正东方向147米左右",
        "tel": "",
        "category": "基础设施:公共设施:公共厕所",
        "type": 0,
        "location": {
            "lat": 36.364122,
            "lng": 114.933619
        },
        "ad_info": {
            "adcode": 130434,
            "province": "河北省",
            "city": "邯郸市",
            "district": "魏县"
        }
    },
    {
        "id": "12960238293456107975",
        "title": "无障碍公共厕所",
        "address": "河北省邯郸市邯山区报社胡同与绿化街交叉口西南方向26米左右",
        "tel": "",
        "category": "基础设施:公共设施:公共厕所",
        "type": 0,
        "location": {
            "lat": 36.599762,
            "lng": 114.496254
        },
        "ad_info": {
            "adcode": 130402,
            "province": "河北省",
            "city": "邯郸市",
            "district": "邯山区"
        }
    },
    {
        "id": "3004644940493579006",
        "title": "公共卫生间",
        "address": "河北省邯郸市永年区建安街与新洺路交叉口正西方向106米左右",
        "tel": "",
        "category": "基础设施:公共设施:公共厕所",
        "type": 0,
        "location": {
            "lat": 36.772926,
            "lng": 114.493853
        },
        "ad_info": {
            "adcode": 130408,
            "province": "河北省",
            "city": "邯郸市",
            "district": "永年区"
        }
    },
    {
        "id": "12313895014744101067",
        "title": "招贤公共厕所",
        "address": "河北省邯郸市丛台区人民东路98-1号附近(招贤大厦附近)",
        "tel": "",
        "category": "基础设施:公共设施:公共厕所",
        "type": 0,
        "location": {
            "lat": 36.609823,
            "lng": 114.487216
        },
        "ad_info": {
            "adcode": 130403,
            "province": "河北省",
            "city": "邯郸市",
            "district": "丛台区"
        }
    },
    {
        "id": "18300141306502799674",
        "title": "公共厕所",
        "address": "河北省邯郸市丛台区人民路与曙光街交叉路口南行150米路东",
        "tel": "",
        "category": "基础设施:公共设施:公共厕所",
        "type": 0,
        "location": {
            "lat": 36.608021,
            "lng": 114.499629
        },
        "ad_info": {
            "adcode": 130403,
            "province": "河北省",
            "city": "邯郸市",
            "district": "丛台区"
        }
    },
    {
        "id": "856750466439555345",
        "title": "公共厕所",
        "address": "河北省邯郸市临漳县厚载大街与建安路交叉口正东方向89米左右",
        "tel": "",
        "category": "基础设施:公共设施:公共厕所",
        "type": 0,
        "location": {
            "lat": 36.338486,
            "lng": 114.581871
        },
        "ad_info": {
            "adcode": 130423,
            "province": "河北省",
            "city": "邯郸市",
            "district": "临漳县"
        }
    },
    {
        "id": "17938372712217743626",
        "title": "公共厕所",
        "address": "河北省邯郸市肥乡区广安路西120号",
        "tel": "",
        "category": "基础设施:公共设施:公共厕所",
        "type": 0,
        "location": {
            "lat": 36.548016,
            "lng": 114.792825
        },
        "ad_info": {
            "adcode": 130407,
            "province": "河北省",
            "city": "邯郸市",
            "district": "肥乡区"
        }
    },
    {
        "id": "228554271937361656",
        "title": "公共卫生间",
        "address": "河北省邯郸市邯山区浴新南大街与火磨街交叉口正西方向59米左右",
        "tel": "",
        "category": "基础设施:公共设施:公共厕所",
        "type": 0,
        "location": {
            "lat": 36.60245,
            "lng": 114.477325
        },
        "ad_info": {
            "adcode": 130402,
            "province": "河北省",
            "city": "邯郸市",
            "district": "邯山区"
        }
    },
    {
        "id": "10709866820004199544",
        "title": "公共厕所",
        "address": "河北省邯郸市武安市光明街观澜城",
        "tel": "",
        "category": "基础设施:公共设施:公共厕所",
        "type": 0,
        "location": {
            "lat": 36.69563,
            "lng": 114.16742
        },
        "ad_info": {
            "adcode": 130481,
            "province": "河北省",
            "city": "邯郸市",
            "district": "武安市"
        }
    },
    {
        "id": "11071154786102108318",
        "title": "公共厕所",
        "address": "河北省邯郸市武安市向阳路与建设大街交叉口西南方向292米左右",
        "tel": "",
        "category": "基础设施:公共设施:公共厕所",
        "type": 0,
        "location": {
            "lat": 36.700245,
            "lng": 114.16934
        },
        "ad_info": {
            "adcode": 130481,
            "province": "河北省",
            "city": "邯郸市",
            "district": "武安市"
        }
    },
    {
        "id": "16123505273308908017",
        "title": "安居东城公共厕所",
        "address": "河北省邯郸市丛台区丛台北路159号陆和商厦1层东北部正北方向70米",
        "tel": "",
        "category": "基础设施:公共设施:公共厕所",
        "type": 0,
        "location": {
            "lat": 36.621995,
            "lng": 114.525186
        },
        "ad_info": {
            "adcode": 130403,
            "province": "河北省",
            "city": "邯郸市",
            "district": "丛台区"
        }
    },
    {
        "id": "8954948160393370690",
        "title": "无障碍公共厕所",
        "address": "河北省邯郸市武安市中兴路与建东街交叉口正南方向48米左右",
        "tel": "",
        "category": "基础设施:公共设施:公共厕所",
        "type": 0,
        "location": {
            "lat": 36.691823,
            "lng": 114.182121
        },
        "ad_info": {
            "adcode": 130481,
            "province": "河北省",
            "city": "邯郸市",
            "district": "武安市"
        }
    },
    {
        "id": "3314103332171314365",
        "title": "公共厕所",
        "address": "河北省邯郸市磁县博物馆西街与磁州路辅路交叉口正东方向37米左右",
        "tel": "",
        "category": "基础设施:公共设施:公共厕所",
        "type": 0,
        "location": {
            "lat": 36.374123,
            "lng": 114.384144
        },
        "ad_info": {
            "adcode": 130427,
            "province": "河北省",
            "city": "邯郸市",
            "district": "磁县"
        }
    },
    {
        "id": "15073097702769143407",
        "title": "公共厕所",
        "address": "河北省邯郸市复兴区王郎前街与铁西北大街交叉口正北方向129米左右",
        "tel": "",
        "category": "基础设施:公共设施:公共厕所",
        "type": 0,
        "location": {
            "lat": 36.609987,
            "lng": 114.472169
        },
        "ad_info": {
            "adcode": 130404,
            "province": "河北省",
            "city": "邯郸市",
            "district": "复兴区"
        }
    },
    {
        "id": "15197660836600447374",
        "title": "公共厕所",
        "address": "河北省邯郸市邯山区清山路与罗南街交叉口正北方向53米左右",
        "tel": "",
        "category": "基础设施:公共设施:公共厕所",
        "type": 0,
        "location": {
            "lat": 36.582282,
            "lng": 114.502134
        },
        "ad_info": {
            "adcode": 130402,
            "province": "河北省",
            "city": "邯郸市",
            "district": "邯山区"
        }
    },
    {
        "id": "16917429787548784760",
        "title": "公共厕所",
        "address": "河北省邯郸市武安市体育路与建华街交叉口正北方向128米左右",
        "tel": "",
        "category": "基础设施:公共设施:公共厕所",
        "type": 0,
        "location": {
            "lat": 36.690268,
            "lng": 114.175122
        },
        "ad_info": {
            "adcode": 130481,
            "province": "河北省",
            "city": "邯郸市",
            "district": "武安市"
        }
    },
    {
        "id": "8534879275605786134",
        "title": "中柳林公共厕所",
        "address": "河北省邯郸市丛台区滏东北大街与轴北路交叉口正南方向91米左右",
        "tel": "",
        "category": "基础设施:公共设施:公共厕所",
        "type": 0,
        "location": {
            "lat": 36.603513,
            "lng": 114.520379
        },
        "ad_info": {
            "adcode": 130403,
            "province": "河北省",
            "city": "邯郸市",
            "district": "丛台区"
        }
    },
    {
        "id": "3834510957875438151",
        "title": "公共厕所",
        "address": "河北省邯郸市邯山区中华南大街与南环立交桥交叉口正南方向108米左右",
        "tel": "",
        "category": "基础设施:公共设施:公共厕所",
        "type": 0,
        "location": {
            "lat": 36.568904,
            "lng": 114.490136
        },
        "ad_info": {
            "adcode": 130402,
            "province": "河北省",
            "city": "邯郸市",
            "district": "邯山区"
        }
    },
    {
        "id": "18002216002235950607",
        "title": "公共卫生间",
        "address": "河北省邯郸市复兴区建设大街与联纺西路交叉口东南方向81米左右",
        "tel": "",
        "category": "基础设施:公共设施:公共厕所",
        "type": 0,
        "location": {
            "lat": 36.629027,
            "lng": 114.462538
        },
        "ad_info": {
            "adcode": 130404,
            "province": "河北省",
            "city": "邯郸市",
            "district": "复兴区"
        }
    },
    {
        "id": "9395928960299032319",
        "title": "公共厕所",
        "address": "河北省邯郸市丛台区群英路香兰雅居",
        "tel": "",
        "category": "基础设施:公共设施:公共厕所",
        "type": 0,
        "location": {
            "lat": 36.59025,
            "lng": 114.541625
        },
        "ad_info": {
            "adcode": 130403,
            "province": "河北省",
            "city": "邯郸市",
            "district": "丛台区"
        }
    },
    {
        "id": "11020246408320702763",
        "title": "无障碍公共厕所",
        "address": "河北省邯郸市武安市富强街与建富路交叉口正南方向146米左右",
        "tel": "",
        "category": "基础设施:公共设施:公共厕所",
        "type": 0,
        "location": {
            "lat": 36.695002,
            "lng": 114.187475
        },
        "ad_info": {
            "adcode": 130481,
            "province": "河北省",
            "city": "邯郸市",
            "district": "武安市"
        }
    },
    {
        "id": "159742553852079007",
        "title": "公共卫生间",
        "address": "河北省邯郸市邯山区曙光街邯郸市中医院",
        "tel": "",
        "category": "基础设施:公共设施:公共厕所",
        "type": 0,
        "location": {
            "lat": 36.602253,
            "lng": 114.498919
        },
        "ad_info": {
            "adcode": 130402,
            "province": "河北省",
            "city": "邯郸市",
            "district": "邯山区"
        }
    },
    {
        "id": "5186199437526837635",
        "title": "公共厕所",
        "address": "河北省邯郸市丛台区果园南路与滏东北大街交叉口西南方向112米左右",
        "tel": "",
        "category": "基础设施:公共设施:公共厕所",
        "type": 0,
        "location": {
            "lat": 36.640897,
            "lng": 114.522638
        },
        "ad_info": {
            "adcode": 130403,
            "province": "河北省",
            "city": "邯郸市",
            "district": "丛台区"
        }
    },
    {
        "id": "9667297486699715919",
        "title": "公共厕所",
        "address": "河北省邯郸市广平县建新北街与怡心路交叉口东南方向30米左右",
        "tel": "",
        "category": "基础设施:公共设施:公共厕所",
        "type": 0,
        "location": {
            "lat": 36.483111,
            "lng": 114.945084
        },
        "ad_info": {
            "adcode": 130432,
            "province": "河北省",
            "city": "邯郸市",
            "district": "广平县"
        }
    },
    {
        "id": "2967221982368490521",
        "title": "公共厕所",
        "address": "河北省邯郸市丛台区汉王路与荀子大街交叉口东南方向208米左右",
        "tel": "",
        "category": "基础设施:公共设施:公共厕所",
        "type": 0,
        "location": {
            "lat": 36.602036,
            "lng": 114.567762
        },
        "ad_info": {
            "adcode": 130403,
            "province": "河北省",
            "city": "邯郸市",
            "district": "丛台区"
        }
    },
    {
        "id": "12955010458848096690",
        "title": "公共厕所",
        "address": "河北省邯郸市邯山区光明南大街与光明大街交叉口正北方向159米左右",
        "tel": "",
        "category": "基础设施:公共设施:公共厕所",
        "type": 0,
        "location": {
            "lat": 36.594634,
            "lng": 114.50044
        },
        "ad_info": {
            "adcode": 130402,
            "province": "河北省",
            "city": "邯郸市",
            "district": "邯山区"
        }
    },
    {
        "id": "6098159833339657099",
        "title": "公共厕所",
        "address": "河北省邯郸市丛台区丛台北路与滏东北大街交叉口西南方向24米左右",
        "tel": "",
        "category": "基础设施:公共设施:公共厕所",
        "type": 0,
        "location": {
            "lat": 36.620987,
            "lng": 114.521466
        },
        "ad_info": {
            "adcode": 130403,
            "province": "河北省",
            "city": "邯郸市",
            "district": "丛台区"
        }
    },
    {
        "id": "10000997234710302841",
        "title": "公共厕所",
        "address": "河北省邯郸市丛台区黎明街黎明小学",
        "tel": "",
        "category": "基础设施:公共设施:公共厕所",
        "type": 0,
        "location": {
            "lat": 36.604497,
            "lng": 114.505299
        },
        "ad_info": {
            "adcode": 130403,
            "province": "河北省",
            "city": "邯郸市",
            "district": "丛台区"
        }
    },
    {
        "id": "5120861175641692423",
        "title": "美食林公共厕所",
        "address": "河北省邯郸市丛台区丛台路与滏河北大街交叉口正东方向155米左右",
        "tel": "",
        "category": "基础设施:公共设施:公共厕所",
        "type": 0,
        "location": {
            "lat": 36.616806,
            "lng": 114.510825
        },
        "ad_info": {
            "adcode": 130403,
            "province": "河北省",
            "city": "邯郸市",
            "district": "丛台区"
        }
    },
    {
        "id": "1562913015734565018",
        "title": "公共厕所",
        "address": "河北省邯郸市邯山区光明南大街161号",
        "tel": "",
        "category": "基础设施:公共设施:公共厕所",
        "type": 0,
        "location": {
            "lat": 36.57684,
            "lng": 114.499082
        },
        "ad_info": {
            "adcode": 130402,
            "province": "河北省",
            "city": "邯郸市",
            "district": "邯山区"
        }
    },
    {
        "id": "2964257751659659161",
        "title": "公共厕所",
        "address": "河北省邯郸市丛台区新兴大街与果园路交叉口正北方向81米左右",
        "tel": "",
        "category": "基础设施:公共设施:公共厕所",
        "type": 0,
        "location": {
            "lat": 36.646369,
            "lng": 114.500023
        },
        "ad_info": {
            "adcode": 130403,
            "province": "河北省",
            "city": "邯郸市",
            "district": "丛台区"
        }
    },
    {
        "id": "4052304086326851591",
        "title": "公共厕所",
        "address": "河北省邯郸市邯山区农林路与邯山街交叉口正西方向147米左右",
        "tel": "",
        "category": "基础设施:公共设施:公共厕所",
        "type": 0,
        "location": {
            "lat": 36.592881,
            "lng": 114.477988
        },
        "ad_info": {
            "adcode": 130402,
            "province": "河北省",
            "city": "邯郸市",
            "district": "邯山区"
        }
    },
    {
        "id": "14888443553557521826",
        "title": "公共厕所",
        "address": "河北省邯郸市丛台区人民东路125号",
        "tel": "",
        "category": "基础设施:公共设施:公共厕所",
        "type": 0,
        "location": {
            "lat": 36.610272,
            "lng": 114.497757
        },
        "ad_info": {
            "adcode": 130403,
            "province": "河北省",
            "city": "邯郸市",
            "district": "丛台区"
        }
    },
    {
        "id": "12034998258311681558",
        "title": "公共厕所",
        "address": "河北省邯郸市丛台区东柳西街邯郸市传染病医院第六医院",
        "tel": "",
        "category": "基础设施:公共设施:公共厕所",
        "type": 0,
        "location": {
            "lat": 36.600905,
            "lng": 114.526697
        },
        "ad_info": {
            "adcode": 130403,
            "province": "河北省",
            "city": "邯郸市",
            "district": "丛台区"
        }
    },
    {
        "id": "17707342139818984235",
        "title": "和平澡堂公共厕所",
        "address": "河北省邯郸市丛台区土山前街与城东街交叉口西北方向70米左右",
        "tel": "",
        "category": "基础设施:公共设施:公共厕所",
        "type": 0,
        "location": {
            "lat": 36.605846,
            "lng": 114.48788
        },
        "ad_info": {
            "adcode": 130403,
            "province": "河北省",
            "city": "邯郸市",
            "district": "丛台区"
        }
    },
    {
        "id": "16370124646971469737",
        "title": "公共厕所",
        "address": "河北省邯郸市大名县天雄东路与贵乡北大街交叉口正南方向414米左右",
        "tel": "",
        "category": "基础设施:公共设施:公共厕所",
        "type": 0,
        "location": {
            "lat": 36.288005,
            "lng": 115.163123
        },
        "ad_info": {
            "adcode": 130425,
            "province": "河北省",
            "city": "邯郸市",
            "district": "大名县"
        }
    },
    {
        "id": "9883770518874712244",
        "title": "公共卫生间",
        "address": "河北省邯郸市丛台区沁河街与邯郸商业步行街交叉口正西方向105米左右",
        "tel": "",
        "category": "基础设施:公共设施:公共厕所",
        "type": 0,
        "location": {
            "lat": 36.605994,
            "lng": 114.480599
        },
        "ad_info": {
            "adcode": 130403,
            "province": "河北省",
            "city": "邯郸市",
            "district": "丛台区"
        }
    },
    {
        "id": "13490135737209377816",
        "title": "公共厕所",
        "address": "河北省邯郸市峰峰矿区保卫路与滏临南大街交叉口西北方向71米左右",
        "tel": "",
        "category": "基础设施:公共设施:公共厕所",
        "type": 0,
        "location": {
            "lat": 36.419357,
            "lng": 114.209997
        },
        "ad_info": {
            "adcode": 130406,
            "province": "河北省",
            "city": "邯郸市",
            "district": "峰峰矿区"
        }
    },
    {
        "id": "5541428960041875318",
        "title": "公共厕所",
        "address": "河北省邯郸市成安县同心街与敬业路交叉口东南方向24米左右",
        "tel": "",
        "category": "基础设施:公共设施:公共厕所",
        "type": 0,
        "location": {
            "lat": 36.44655,
            "lng": 114.691819
        },
        "ad_info": {
            "adcode": 130424,
            "province": "河北省",
            "city": "邯郸市",
            "district": "成安县"
        }
    },
    {
        "id": "15410260404792521583",
        "title": "邯郸服务区公共厕所",
        "address": "河北省邯郸市邯山区京港澳高速邯郸服务区",
        "tel": "",
        "category": "基础设施:公共设施:公共厕所",
        "type": 0,
        "location": {
            "lat": 36.563761,
            "lng": 114.545078
        },
        "ad_info": {
            "adcode": 130402,
            "province": "河北省",
            "city": "邯郸市",
            "district": "邯山区"
        }
    },
    {
        "id": "11567044057118341633",
        "title": "公共厕所",
        "address": "河北省邯郸市邯山区张庄桥街与河堤路交叉口正西方向54米左右",
        "tel": "",
        "category": "基础设施:公共设施:公共厕所",
        "type": 0,
        "location": {
            "lat": 36.558766,
            "lng": 114.482548
        },
        "ad_info": {
            "adcode": 130402,
            "province": "河北省",
            "city": "邯郸市",
            "district": "邯山区"
        }
    },
    {
        "id": "952175797929349102",
        "title": "女洗手间(峰峰新世纪商业广场)",
        "address": "河北省邯郸市峰峰矿区滏临南大街12号峰峰新世纪商业广场F4层",
        "tel": "",
        "category": "基础设施:公共设施:公共厕所",
        "type": 0,
        "location": {
            "lat": 36.422798,
            "lng": 114.20966
        },
        "ad_info": {
            "adcode": 130406,
            "province": "河北省",
            "city": "邯郸市",
            "district": "峰峰矿区"
        }
    },
    {
        "id": "17117488264080471523",
        "title": "邯郸服务区第三公共厕所",
        "address": "河北省邯郸市复兴区景廊路与走廊路交叉口西北方向634米左右",
        "tel": "",
        "category": "基础设施:公共设施:公共厕所",
        "type": 0,
        "location": {
            "lat": 36.618705,
            "lng": 114.353202
        },
        "ad_info": {
            "adcode": 130404,
            "province": "河北省",
            "city": "邯郸市",
            "district": "复兴区"
        }
    },
    {
        "id": "7495694897599059406",
        "title": "公共厕所",
        "address": "河北省邯郸市永年区政府街与新洺路交叉口正西方向163米左右",
        "tel": "13931037267",
        "category": "基础设施:公共设施:公共厕所",
        "type": 0,
        "location": {
            "lat": 36.777573,
            "lng": 114.493462
        },
        "ad_info": {
            "adcode": 130408,
            "province": "河北省",
            "city": "邯郸市",
            "district": "永年区"
        }
    },
    {
        "id": "20406453779575526",
        "title": "肯德基(人民餐厅)-洗手间",
        "address": "河北省邯郸市丛台区人民东路与光明北大街交叉口正南方向122米左右",
        "tel": "",
        "category": "基础设施:公共设施:公共厕所",
        "type": 0,
        "location": {
            "lat": 36.608475,
            "lng": 114.50273
        },
        "ad_info": {
            "adcode": 130403,
            "province": "河北省",
            "city": "邯郸市",
            "district": "丛台区"
        }
    },
    {
        "id": "12218633180268103757",
        "title": "公共厕所",
        "address": "河北省邯郸市大名县京府大街与北关村二街交叉口东南方向33米左右",
        "tel": "",
        "category": "基础设施:公共设施:公共厕所",
        "type": 0,
        "location": {
            "lat": 36.293668,
            "lng": 115.15145
        },
        "ad_info": {
            "adcode": 130425,
            "province": "河北省",
            "city": "邯郸市",
            "district": "大名县"
        }
    },
    {
        "id": "8631463656029608088",
        "title": "公共厕所",
        "address": "河北省邯郸市肥乡区兴华街与建安路交叉口正南方向93米左右",
        "tel": "",
        "category": "基础设施:公共设施:公共厕所",
        "type": 0,
        "location": {
            "lat": 36.552226,
            "lng": 114.80883
        },
        "ad_info": {
            "adcode": 130407,
            "province": "河北省",
            "city": "邯郸市",
            "district": "肥乡区"
        }
    },
    {
        "id": "1033991030517140809",
        "title": "邯郸服务区公共厕所",
        "address": "河北省邯郸市复兴区景廊路与走廊路交叉口西北方向948米左右",
        "tel": "",
        "category": "基础设施:公共设施:公共厕所",
        "type": 0,
        "location": {
            "lat": 36.619555,
            "lng": 114.349736
        },
        "ad_info": {
            "adcode": 130404,
            "province": "河北省",
            "city": "邯郸市",
            "district": "复兴区"
        }
    },
    {
        "id": "9009919982649926403",
        "title": "邱县服务区公共厕所",
        "address": "河北省邯郸市邱县东方大街与后南大街交叉口正西方向1682米左右",
        "tel": "",
        "category": "基础设施:公共设施:公共厕所",
        "type": 0,
        "location": {
            "lat": 36.728766,
            "lng": 115.196935
        },
        "ad_info": {
            "adcode": 130430,
            "province": "河北省",
            "city": "邯郸市",
            "district": "邱县"
        }
    },
    {
        "id": "16718566625804813030",
        "title": "公共卫生间",
        "address": "河北省邯郸市魏县魏州西路与龙乡南大街交叉口西南方向45米左右",
        "tel": "",
        "category": "基础设施:公共设施:公共厕所",
        "type": 0,
        "location": {
            "lat": 36.360769,
            "lng": 114.924689
        },
        "ad_info": {
            "adcode": 130434,
            "province": "河北省",
            "city": "邯郸市",
            "district": "魏县"
        }
    },
    {
        "id": "6139448663421031550",
        "title": "人民广场-公共厕所",
        "address": "河北省邯郸市曲周县府东街人民广场(凤凰城西北)",
        "tel": "",
        "category": "基础设施:公共设施:公共厕所",
        "type": 0,
        "location": {
            "lat": 36.763909,
            "lng": 114.958904
        },
        "ad_info": {
            "adcode": 130435,
            "province": "河北省",
            "city": "邯郸市",
            "district": "曲周县"
        }
    },
    {
        "id": "4224119725678219673",
        "title": "广安公共厕所",
        "address": "河北省邯郸市丛台区广安路23正西方向30米",
        "tel": "",
        "category": "基础设施:公共设施:公共厕所",
        "type": 0,
        "location": {
            "lat": 36.613848,
            "lng": 114.524933
        },
        "ad_info": {
            "adcode": 130403,
            "province": "河北省",
            "city": "邯郸市",
            "district": "丛台区"
        }
    },
    {
        "id": "13962812854915274410",
        "title": "磁县服务区公共厕所",
        "address": "河北省邯郸市磁县光明二街与马义线交叉口东北方向1402米左右",
        "tel": "",
        "category": "基础设施:公共设施:公共厕所",
        "type": 0,
        "location": {
            "lat": 36.383445,
            "lng": 114.430966
        },
        "ad_info": {
            "adcode": 130427,
            "province": "河北省",
            "city": "邯郸市",
            "district": "磁县"
        }
    },
    {
        "id": "13418745052866895567",
        "title": "无障碍公共厕所",
        "address": "河北省邯郸市武安市明星加油站西侧180米",
        "tel": "",
        "category": "基础设施:公共设施:公共厕所",
        "type": 0,
        "location": {
            "lat": 36.692371,
            "lng": 114.219781
        },
        "ad_info": {
            "adcode": 130481,
            "province": "河北省",
            "city": "邯郸市",
            "district": "武安市"
        }
    },
    {
        "id": "16735720114010435070",
        "title": "麦当劳(和平路店)洗手间",
        "address": "河北省邯郸市丛台区和平路与陵西北大街交叉口西北方向62米左右",
        "tel": "",
        "category": "基础设施:公共设施:公共厕所",
        "type": 0,
        "location": {
            "lat": 36.604196,
            "lng": 114.484064
        },
        "ad_info": {
            "adcode": 130403,
            "province": "河北省",
            "city": "邯郸市",
            "district": "丛台区"
        }
    },
    {
        "id": "7233545907703780525",
        "title": "磁县服务区公共厕所",
        "address": "河北省邯郸市磁县光明二街与马义线交叉口正北方向1356米左右",
        "tel": "",
        "category": "基础设施:公共设施:公共厕所",
        "type": 0,
        "location": {
            "lat": 36.384074,
            "lng": 114.427225
        },
        "ad_info": {
            "adcode": 130427,
            "province": "河北省",
            "city": "邯郸市",
            "district": "磁县"
        }
    },
    {
        "id": "16991702362609407136",
        "title": "肥乡服务区公共厕所",
        "address": "河北省邯郸市肥乡区安康西路与建设街交叉口西北方向1103米左右",
        "tel": "",
        "category": "基础设施:公共设施:公共厕所",
        "type": 0,
        "location": {
            "lat": 36.61423,
            "lng": 114.768127
        },
        "ad_info": {
            "adcode": 130407,
            "province": "河北省",
            "city": "邯郸市",
            "district": "肥乡区"
        }
    },
    {
        "id": "3652455289651215148",
        "title": "公共厕所",
        "address": "河北省邯郸市成安县有所为路30号",
        "tel": "",
        "category": "基础设施:公共设施:公共厕所",
        "type": 0,
        "location": {
            "lat": 36.443416,
            "lng": 114.678795
        },
        "ad_info": {
            "adcode": 130424,
            "province": "河北省",
            "city": "邯郸市",
            "district": "成安县"
        }
    },
    {
        "id": "5994115688148514054",
        "title": "公共厕所",
        "address": "河北省邯郸市成安县新兴西路与迎宾北大街交叉口东北方向96米左右",
        "tel": "",
        "category": "基础设施:公共设施:公共厕所",
        "type": 0,
        "location": {
            "lat": 36.447442,
            "lng": 114.683116
        },
        "ad_info": {
            "adcode": 130424,
            "province": "河北省",
            "city": "邯郸市",
            "district": "成安县"
        }
    },
    {
        "id": "18324598948211433526",
        "title": "肥乡服务区公共厕所",
        "address": "河北省邯郸市肥乡区安康西路与建设街交叉口西北方向983米左右",
        "tel": "",
        "category": "基础设施:公共设施:公共厕所",
        "type": 0,
        "location": {
            "lat": 36.611486,
            "lng": 114.766802
        },
        "ad_info": {
            "adcode": 130407,
            "province": "河北省",
            "city": "邯郸市",
            "district": "肥乡区"
        }
    },
    {
        "id": "17681802280476981777",
        "title": "蔚庄西公共厕所",
        "address": "河北省邯郸市丛台区蔚庄村中街10号戏台旁边",
        "tel": "",
        "category": "基础设施:公共设施:公共厕所",
        "type": 0,
        "location": {
            "lat": 36.621487,
            "lng": 114.482441
        },
        "ad_info": {
            "adcode": 130403,
            "province": "河北省",
            "city": "邯郸市",
            "district": "丛台区"
        }
    },
    {
        "id": "18364744572965142992",
        "title": "公共厕所",
        "address": "河北省邯郸市永年区环村东街与紫荆路交叉口正东方向124米左右",
        "tel": "",
        "category": "基础设施:公共设施:公共厕所",
        "type": 0,
        "location": {
            "lat": 36.725867,
            "lng": 114.528189
        },
        "ad_info": {
            "adcode": 130408,
            "province": "河北省",
            "city": "邯郸市",
            "district": "永年区"
        }
    },
    {
        "id": "13264038624098388344",
        "title": "公共厕所",
        "address": "河北省邯郸市邯山区汇通巷地铁沁园小区",
        "tel": "",
        "category": "基础设施:公共设施:公共厕所",
        "type": 0,
        "location": {
            "lat": 36.597459,
            "lng": 114.523007
        },
        "ad_info": {
            "adcode": 130402,
            "province": "河北省",
            "city": "邯郸市",
            "district": "邯山区"
        }
    },
    {
        "id": "17735886070984402469",
        "title": "无障碍公共厕所",
        "address": "河北省邯郸市丛台区土山前街与中华北大街交叉口西60米",
        "tel": "",
        "category": "基础设施:公共设施:公共厕所",
        "type": 0,
        "location": {
            "lat": 36.605281,
            "lng": 114.492291
        },
        "ad_info": {
            "adcode": 130403,
            "province": "河北省",
            "city": "邯郸市",
            "district": "丛台区"
        }
    },
    {
        "id": "15436316217472205621",
        "title": "公共厕所",
        "address": "河北省邯郸市邯山区学院北路与陵西南大街交叉口正东方向294米左右",
        "tel": "",
        "category": "基础设施:公共设施:公共厕所",
        "type": 0,
        "location": {
            "lat": 36.57741,
            "lng": 114.485395
        },
        "ad_info": {
            "adcode": 130402,
            "province": "河北省",
            "city": "邯郸市",
            "district": "邯山区"
        }
    },
    {
        "id": "3583327950844338565",
        "title": "公共厕所",
        "address": "河北省邯郸市复兴区丛台西路与建设大街交叉口向北70米路东申大饭店楼下南边",
        "tel": "",
        "category": "基础设施:公共设施:公共厕所",
        "type": 0,
        "location": {
            "lat": 36.622259,
            "lng": 114.461531
        },
        "ad_info": {
            "adcode": 130404,
            "province": "河北省",
            "city": "邯郸市",
            "district": "复兴区"
        }
    },
    {
        "id": "10324835284282321097",
        "title": "公共厕所",
        "address": "河北省邯郸市邱县迎宾街与鸿鑫东路交叉口正东方向56米左右",
        "tel": "",
        "category": "基础设施:公共设施:公共厕所",
        "type": 0,
        "location": {
            "lat": 36.817346,
            "lng": 115.178387
        },
        "ad_info": {
            "adcode": 130430,
            "province": "河北省",
            "city": "邯郸市",
            "district": "邱县"
        }
    },
    {
        "id": "14620966651438418228",
        "title": "公共厕所",
        "address": "河北省邯郸市邯山区气象局",
        "tel": "",
        "category": "基础设施:公共设施:公共厕所",
        "type": 0,
        "location": {
            "lat": 36.600531,
            "lng": 114.512633
        },
        "ad_info": {
            "adcode": 130402,
            "province": "河北省",
            "city": "邯郸市",
            "district": "邯山区"
        }
    },
    {
        "id": "4949162722503955712",
        "title": "公共厕所",
        "address": "河北省邯郸市磁县仁和路与博物馆东街交叉口正南方向46米左右",
        "tel": "",
        "category": "基础设施:公共设施:公共厕所",
        "type": 0,
        "location": {
            "lat": 36.377176,
            "lng": 114.385428
        },
        "ad_info": {
            "adcode": 130427,
            "province": "河北省",
            "city": "邯郸市",
            "district": "磁县"
        }
    },
    {
        "id": "13340963456554584755",
        "title": "公共厕所",
        "address": "河北省邯郸市丛台区市政巷与滏河北大街交叉口西南方向75米左右",
        "tel": "",
        "category": "基础设施:公共设施:公共厕所",
        "type": 0,
        "location": {
            "lat": 36.614262,
            "lng": 114.508607
        },
        "ad_info": {
            "adcode": 130403,
            "province": "河北省",
            "city": "邯郸市",
            "district": "丛台区"
        }
    },
    {
        "id": "16809900806052528777",
        "title": "公共厕所",
        "address": "河北省邯郸市永年区交警北路122西北方向80米",
        "tel": "",
        "category": "基础设施:公共设施:公共厕所",
        "type": 0,
        "location": {
            "lat": 36.764356,
            "lng": 114.497574
        },
        "ad_info": {
            "adcode": 130408,
            "province": "河北省",
            "city": "邯郸市",
            "district": "永年区"
        }
    },
    {
        "id": "6701323265382759073",
        "title": "公共厕所",
        "address": "河北省邯郸市邯山区胜利街与贸易路交叉口正南方向194米左右",
        "tel": "",
        "category": "基础设施:公共设施:公共厕所",
        "type": 0,
        "location": {
            "lat": 36.593595,
            "lng": 114.485627
        },
        "ad_info": {
            "adcode": 130402,
            "province": "河北省",
            "city": "邯郸市",
            "district": "邯山区"
        }
    },
    {
        "id": "5181451263866015988",
        "title": "世纪文化广场公共厕所",
        "address": "河北省邯郸市曲周县振兴东路与振华巷交叉口东南方向181米左右",
        "tel": "",
        "category": "基础设施:公共设施:公共厕所",
        "type": 0,
        "location": {
            "lat": 36.772753,
            "lng": 114.959704
        },
        "ad_info": {
            "adcode": 130435,
            "province": "河北省",
            "city": "邯郸市",
            "district": "曲周县"
        }
    },
    {
        "id": "11311055354810349594",
        "title": "中华办-公共厕所",
        "address": "河北省邯郸市丛台区土山街怡都花园小区6号楼中华街道办院内",
        "tel": "",
        "category": "基础设施:公共设施:公共厕所",
        "type": 0,
        "location": {
            "lat": 36.605733,
            "lng": 114.49117
        },
        "ad_info": {
            "adcode": 130403,
            "province": "河北省",
            "city": "邯郸市",
            "district": "丛台区"
        }
    },
    {
        "id": "17631250140719462398",
        "title": "公共卫生间",
        "address": "河北省邯郸市永年区新洺路海明亚公寓",
        "tel": "",
        "category": "基础设施:公共设施:公共厕所",
        "type": 0,
        "location": {
            "lat": 36.775885,
            "lng": 114.494925
        },
        "ad_info": {
            "adcode": 130408,
            "province": "河北省",
            "city": "邯郸市",
            "district": "永年区"
        }
    },
    {
        "id": "14860603073664437073",
        "title": "公共厕所",
        "address": "河北省邯郸市永年区利民街与新洺路交叉口东南方向37米左右",
        "tel": "",
        "category": "基础设施:公共设施:公共厕所",
        "type": 0,
        "location": {
            "lat": 36.771298,
            "lng": 114.495299
        },
        "ad_info": {
            "adcode": 130408,
            "province": "河北省",
            "city": "邯郸市",
            "district": "永年区"
        }
    },
    {
        "id": "16215460454684292208",
        "title": "无障碍公共厕所",
        "address": "河北省邯郸市邱县中兴路与旭光街交叉口正西方向68米左右",
        "tel": "",
        "category": "基础设施:公共设施:公共厕所",
        "type": 0,
        "location": {
            "lat": 36.81628,
            "lng": 115.171504
        },
        "ad_info": {
            "adcode": 130430,
            "province": "河北省",
            "city": "邯郸市",
            "district": "邱县"
        }
    },
    {
        "id": "12936776257358645702",
        "title": "公共厕所",
        "address": "河北省邯郸市复兴区丰泽路与砖窑路交叉口正北方向498米左右",
        "tel": "",
        "category": "基础设施:公共设施:公共厕所",
        "type": 0,
        "location": {
            "lat": 36.644313,
            "lng": 114.457831
        },
        "ad_info": {
            "adcode": 130404,
            "province": "河北省",
            "city": "邯郸市",
            "district": "复兴区"
        }
    },
    {
        "id": "1944018395364106278",
        "title": "河东市场公共厕所",
        "address": "河北省邯郸市丛台区联纺东路与达康街交叉口正北方向171米左右",
        "tel": "",
        "category": "基础设施:公共设施:公共厕所",
        "type": 0,
        "location": {
            "lat": 36.627467,
            "lng": 114.516574
        },
        "ad_info": {
            "adcode": 130403,
            "province": "河北省",
            "city": "邯郸市",
            "district": "丛台区"
        }
    },
    {
        "id": "1493471919451752142",
        "title": "公共厕所",
        "address": "河北省邯郸市馆陶县英才路与陶山街交叉口正东方向183米左右",
        "tel": "",
        "category": "基础设施:公共设施:公共厕所",
        "type": 0,
        "location": {
            "lat": 36.538288,
            "lng": 115.276956
        },
        "ad_info": {
            "adcode": 130433,
            "province": "河北省",
            "city": "邯郸市",
            "district": "馆陶县"
        }
    },
    {
        "id": "9214061237580796767",
        "title": "公共厕所",
        "address": "河北省邯郸市磁县商都南一街与商都南一路交叉口正东方向83米左右",
        "tel": "",
        "category": "基础设施:公共设施:公共厕所",
        "type": 0,
        "location": {
            "lat": 36.375658,
            "lng": 114.370539
        },
        "ad_info": {
            "adcode": 130427,
            "province": "河北省",
            "city": "邯郸市",
            "district": "磁县"
        }
    },
    {
        "id": "2775588845223862030",
        "title": "无障碍公共厕所",
        "address": "河北省邯郸市武安市光明街与向阳路交叉口正北方向80米左右",
        "tel": "",
        "category": "基础设施:公共设施:公共厕所",
        "type": 0,
        "location": {
            "lat": 36.703397,
            "lng": 114.167765
        },
        "ad_info": {
            "adcode": 130481,
            "province": "河北省",
            "city": "邯郸市",
            "district": "武安市"
        }
    },
    {
        "id": "13749748506883423394",
        "title": "公共厕所",
        "address": "河北省邯郸市鸡泽县会盟南大街与煤建巷交叉口西北方向28米左右",
        "tel": "",
        "category": "基础设施:公共设施:公共厕所",
        "type": 0,
        "location": {
            "lat": 36.914792,
            "lng": 114.876227
        },
        "ad_info": {
            "adcode": 130431,
            "province": "河北省",
            "city": "邯郸市",
            "district": "鸡泽县"
        }
    },
    {
        "id": "15918356389823137760",
        "title": "公共厕所",
        "address": "河北省邯郸市魏县科教东路与科教西路交叉口西南方向133米左右",
        "tel": "",
        "category": "基础设施:公共设施:公共厕所",
        "type": 0,
        "location": {
            "lat": 36.344001,
            "lng": 114.935266
        },
        "ad_info": {
            "adcode": 130434,
            "province": "河北省",
            "city": "邯郸市",
            "district": "魏县"
        }
    },
    {
        "id": "16440459025391102148",
        "title": "公共厕所",
        "address": "河北省邯郸市肥乡区隆富花园东北侧220米",
        "tel": "",
        "category": "基础设施:公共设施:公共厕所",
        "type": 0,
        "location": {
            "lat": 36.565524,
            "lng": 114.755588
        },
        "ad_info": {
            "adcode": 130407,
            "province": "河北省",
            "city": "邯郸市",
            "district": "肥乡区"
        }
    },
    {
        "id": "12701526315441173724",
        "title": "公共厕所",
        "address": "河北省邯郸市馆陶县政府东街78号",
        "tel": "",
        "category": "基础设施:公共设施:公共厕所",
        "type": 0,
        "location": {
            "lat": 36.536909,
            "lng": 115.295988
        },
        "ad_info": {
            "adcode": 130433,
            "province": "河北省",
            "city": "邯郸市",
            "district": "馆陶县"
        }
    },
    {
        "id": "16377415740327202327",
        "title": "公共厕所",
        "address": "河北省邯郸市丛台区阳光水岸(新兴大街东)",
        "tel": "",
        "category": "基础设施:公共设施:公共厕所",
        "type": 0,
        "location": {
            "lat": 36.620753,
            "lng": 114.498052
        },
        "ad_info": {
            "adcode": 130403,
            "province": "河北省",
            "city": "邯郸市",
            "district": "丛台区"
        }
    },
    {
        "id": "13027838960233866118",
        "title": "公共厕所",
        "address": "河北省邯郸市邱县振兴东路与振兴路交叉口正北方向153米左右",
        "tel": "",
        "category": "基础设施:公共设施:公共厕所",
        "type": 0,
        "location": {
            "lat": 36.812634,
            "lng": 115.17544
        },
        "ad_info": {
            "adcode": 130430,
            "province": "河北省",
            "city": "邯郸市",
            "district": "邱县"
        }
    },
    {
        "id": "16563411617761315562",
        "title": "公共厕所",
        "address": "河北省邯郸市成安县S315与平安街交叉口正西方向223米左右",
        "tel": "",
        "category": "基础设施:公共设施:公共厕所",
        "type": 0,
        "location": {
            "lat": 36.450921,
            "lng": 114.567344
        },
        "ad_info": {
            "adcode": 130424,
            "province": "河北省",
            "city": "邯郸市",
            "district": "成安县"
        }
    },
    {
        "id": "5221853430392411888",
        "title": "公共厕所",
        "address": "河北省邯郸市大名县元城街与天雄西路交叉口西南方向142米左右",
        "tel": "",
        "category": "基础设施:公共设施:公共厕所",
        "type": 0,
        "location": {
            "lat": 36.292696,
            "lng": 115.139986
        },
        "ad_info": {
            "adcode": 130425,
            "province": "河北省",
            "city": "邯郸市",
            "district": "大名县"
        }
    },
    {
        "id": "12247323673543298458",
        "title": "公共厕所",
        "address": "河北省邯郸市武安市建东街与放射路交叉口东北方向47米左右",
        "tel": "",
        "category": "基础设施:公共设施:公共厕所",
        "type": 0,
        "location": {
            "lat": 36.701808,
            "lng": 114.182735
        },
        "ad_info": {
            "adcode": 130481,
            "province": "河北省",
            "city": "邯郸市",
            "district": "武安市"
        }
    },
    {
        "id": "18347683528033444726",
        "title": "公共卫生间",
        "address": "河北省邯郸市永年区为民路与迎春街交叉口西北方向26米左右",
        "tel": "",
        "category": "基础设施:公共设施:公共厕所",
        "type": 0,
        "location": {
            "lat": 36.781159,
            "lng": 114.489811
        },
        "ad_info": {
            "adcode": 130408,
            "province": "河北省",
            "city": "邯郸市",
            "district": "永年区"
        }
    },
    {
        "id": "15300032833111286529",
        "title": "公共厕所",
        "address": "河北省邯郸市邯山区和平路279号",
        "tel": "",
        "category": "基础设施:公共设施:公共厕所",
        "type": 0,
        "location": {
            "lat": 36.602827,
            "lng": 114.495578
        },
        "ad_info": {
            "adcode": 130402,
            "province": "河北省",
            "city": "邯郸市",
            "district": "邯山区"
        }
    },
    {
        "id": "11383755892193746491",
        "title": "公共厕所",
        "address": "河北省邯郸市邯山区光明南大街与渚河路交叉口正北方向74米左右",
        "tel": "",
        "category": "基础设施:公共设施:公共厕所",
        "type": 0,
        "location": {
            "lat": 36.588207,
            "lng": 114.499648
        },
        "ad_info": {
            "adcode": 130402,
            "province": "河北省",
            "city": "邯郸市",
            "district": "邯山区"
        }
    },
    {
        "id": "17452513620402634150",
        "title": "公共厕所",
        "address": "河北省邯郸市邯山区滏阳公园内",
        "tel": "",
        "category": "基础设施:公共设施:公共厕所",
        "type": 0,
        "location": {
            "lat": 36.595506,
            "lng": 114.511721
        },
        "ad_info": {
            "adcode": 130402,
            "province": "河北省",
            "city": "邯郸市",
            "district": "邯山区"
        }
    },
    {
        "id": "6037045827757505140",
        "title": "公共厕所",
        "address": "河北省邯郸市涉县龙南路与龙山大街交叉口正西方向101米左右",
        "tel": "",
        "category": "基础设施:公共设施:公共厕所",
        "type": 0,
        "location": {
            "lat": 36.570061,
            "lng": 113.679272
        },
        "ad_info": {
            "adcode": 130426,
            "province": "河北省",
            "city": "邯郸市",
            "district": "涉县"
        }
    },
    {
        "id": "17190455002443182693",
        "title": "公共厕所",
        "address": "河北省邯郸市临漳县东门南大街与永平胡同交叉口西北方向37米左右",
        "tel": "",
        "category": "基础设施:公共设施:公共厕所",
        "type": 0,
        "location": {
            "lat": 36.33381,
            "lng": 114.618056
        },
        "ad_info": {
            "adcode": 130423,
            "province": "河北省",
            "city": "邯郸市",
            "district": "临漳县"
        }
    },
    {
        "id": "13255480224523842384",
        "title": "公共厕所",
        "address": "河北省邯郸市武安市桥西路富安小区",
        "tel": "",
        "category": "基础设施:公共设施:公共厕所",
        "type": 0,
        "location": {
            "lat": 36.687862,
            "lng": 114.205338
        },
        "ad_info": {
            "adcode": 130481,
            "province": "河北省",
            "city": "邯郸市",
            "district": "武安市"
        }
    },
    {
        "id": "16756639801235525070",
        "title": "公共厕所",
        "address": "河北省邯郸市馆陶县云涛宾馆(新华路西)",
        "tel": "",
        "category": "基础设施:公共设施:公共厕所",
        "type": 0,
        "location": {
            "lat": 36.544723,
            "lng": 115.288007
        },
        "ad_info": {
            "adcode": 130433,
            "province": "河北省",
            "city": "邯郸市",
            "district": "馆陶县"
        }
    },
    {
        "id": "11922756827486848556",
        "title": "公共厕所",
        "address": "河北省邯郸市丛台区陵西北大街63号",
        "tel": "",
        "category": "基础设施:公共设施:公共厕所",
        "type": 0,
        "location": {
            "lat": 36.606868,
            "lng": 114.485076
        },
        "ad_info": {
            "adcode": 130403,
            "province": "河北省",
            "city": "邯郸市",
            "district": "丛台区"
        }
    },
    {
        "id": "17440748257258157738",
        "title": "公共卫生间",
        "address": "河北省邯郸市馆陶县文卫街与新华路交叉口正东方向259米左右",
        "tel": "",
        "category": "基础设施:公共设施:公共厕所",
        "type": 0,
        "location": {
            "lat": 36.540296,
            "lng": 115.290176
        },
        "ad_info": {
            "adcode": 130433,
            "province": "河北省",
            "city": "邯郸市",
            "district": "馆陶县"
        }
    },
    {
        "id": "10538731195474479210",
        "title": "无障碍公共厕所",
        "address": "河北省邯郸市邯山区防汛路与陵西南大街交叉口西南方向24米左右",
        "tel": "",
        "category": "基础设施:公共设施:公共厕所",
        "type": 0,
        "location": {
            "lat": 36.587416,
            "lng": 114.48331
        },
        "ad_info": {
            "adcode": 130402,
            "province": "河北省",
            "city": "邯郸市",
            "district": "邯山区"
        }
    },
    {
        "id": "15044611406551858128",
        "title": "公共卫生间",
        "address": "河北省邯郸市邯山区渚河路天润雅园",
        "tel": "",
        "category": "基础设施:公共设施:公共厕所",
        "type": 0,
        "location": {
            "lat": 36.587945,
            "lng": 114.477639
        },
        "ad_info": {
            "adcode": 130402,
            "province": "河北省",
            "city": "邯郸市",
            "district": "邯山区"
        }
    },
    {
        "id": "11009994973023699923",
        "title": "公共厕所",
        "address": "河北省邯郸市邯山区农林路康丰小区",
        "tel": "",
        "category": "基础设施:公共设施:公共厕所",
        "type": 0,
        "location": {
            "lat": 36.592977,
            "lng": 114.47374
        },
        "ad_info": {
            "adcode": 130402,
            "province": "河北省",
            "city": "邯郸市",
            "district": "邯山区"
        }
    },
    {
        "id": "15721993268708100749",
        "title": "公共厕所",
        "address": "河北省邯郸市肥乡区正义街与邯馆公路交叉口正北方向463米左右",
        "tel": "",
        "category": "基础设施:公共设施:公共厕所",
        "type": 0,
        "location": {
            "lat": 36.567234,
            "lng": 114.766345
        },
        "ad_info": {
            "adcode": 130407,
            "province": "河北省",
            "city": "邯郸市",
            "district": "肥乡区"
        }
    },
    {
        "id": "17506743528201310196",
        "title": "公共厕所",
        "address": "河北省邯郸市邯山区滏园街18号",
        "tel": "",
        "category": "基础设施:公共设施:公共厕所",
        "type": 0,
        "location": {
            "lat": 36.59214,
            "lng": 114.511373
        },
        "ad_info": {
            "adcode": 130402,
            "province": "河北省",
            "city": "邯郸市",
            "district": "邯山区"
        }
    },
    {
        "id": "9277167343253483313",
        "title": "公共厕所",
        "address": "河北省邯郸市丛台区丛台路与滏西大街交叉口北行200米路西",
        "tel": "",
        "category": "基础设施:公共设施:公共厕所",
        "type": 0,
        "location": {
            "lat": 36.619177,
            "lng": 114.509014
        },
        "ad_info": {
            "adcode": 130403,
            "province": "河北省",
            "city": "邯郸市",
            "district": "丛台区"
        }
    },
    {
        "id": "17674292158731750963",
        "title": "公共厕所",
        "address": "河北省邯郸市丛台区广厦路与滏东北大街交叉口正南方向147米左右",
        "tel": "",
        "category": "基础设施:公共设施:公共厕所",
        "type": 0,
        "location": {
            "lat": 36.61012,
            "lng": 114.520251
        },
        "ad_info": {
            "adcode": 130403,
            "province": "河北省",
            "city": "邯郸市",
            "district": "丛台区"
        }
    },
    {
        "id": "12624301919770580010",
        "title": "公共厕所",
        "address": "河北省邯郸市永年区广源街与洺兴路交叉口正南方向139米左右",
        "tel": "",
        "category": "基础设施:公共设施:公共厕所",
        "type": 0,
        "location": {
            "lat": 36.766414,
            "lng": 114.488879
        },
        "ad_info": {
            "adcode": 130408,
            "province": "河北省",
            "city": "邯郸市",
            "district": "永年区"
        }
    },
    {
        "id": "10896586979065847700",
        "title": "公共厕所",
        "address": "河北省邯郸市广平县宇康路与长春大道南段交叉口西北方向175米左右",
        "tel": "",
        "category": "基础设施:公共设施:公共厕所",
        "type": 0,
        "location": {
            "lat": 36.469734,
            "lng": 114.949922
        },
        "ad_info": {
            "adcode": 130432,
            "province": "河北省",
            "city": "邯郸市",
            "district": "广平县"
        }
    },
    {
        "id": "69985688739385000",
        "title": "公共卫生间",
        "address": "河北省邯郸市邯山区清山路与罗南街交叉口西南方向94米左右",
        "tel": "",
        "category": "基础设施:公共设施:公共厕所",
        "type": 0,
        "location": {
            "lat": 36.581437,
            "lng": 114.501195
        },
        "ad_info": {
            "adcode": 130402,
            "province": "河北省",
            "city": "邯郸市",
            "district": "邯山区"
        }
    },
    {
        "id": "869401630769812876",
        "title": "公共卫生间",
        "address": "河北省邯郸市丛台区北仓路与新兴大街交叉口东北方向277米左右",
        "tel": "",
        "category": "基础设施:公共设施:公共厕所",
        "type": 0,
        "location": {
            "lat": 36.637592,
            "lng": 114.5011
        },
        "ad_info": {
            "adcode": 130403,
            "province": "河北省",
            "city": "邯郸市",
            "district": "丛台区"
        }
    },
    {
        "id": "1916357244645693068",
        "title": "公共厕所",
        "address": "河北省邯郸市邯山区一中路与锦康大街交叉口正东方向65米左右",
        "tel": "",
        "category": "基础设施:公共设施:公共厕所",
        "type": 0,
        "location": {
            "lat": 36.538708,
            "lng": 114.492991
        },
        "ad_info": {
            "adcode": 130402,
            "province": "河北省",
            "city": "邯郸市",
            "district": "邯山区"
        }
    },
    {
        "id": "10800129293162879918",
        "title": "公共厕所",
        "address": "河北省邯郸市邯山区滏园路26号",
        "tel": "",
        "category": "基础设施:公共设施:公共厕所",
        "type": 0,
        "location": {
            "lat": 36.589918,
            "lng": 114.511607
        },
        "ad_info": {
            "adcode": 130402,
            "province": "河北省",
            "city": "邯郸市",
            "district": "邯山区"
        }
    },
    {
        "id": "240034666361795803",
        "title": "公共厕所",
        "address": "河北省邯郸市馆陶县政府街与筑先路交叉口西260米",
        "tel": "",
        "category": "基础设施:公共设施:公共厕所",
        "type": 0,
        "location": {
            "lat": 36.540257,
            "lng": 115.279457
        },
        "ad_info": {
            "adcode": 130433,
            "province": "河北省",
            "city": "邯郸市",
            "district": "馆陶县"
        }
    },
    {
        "id": "1173213593209146925",
        "title": "公共厕所",
        "address": "河北省邯郸市邯山区陵园路世纪皇冠大酒店",
        "tel": "",
        "category": "基础设施:公共设施:公共厕所",
        "type": 0,
        "location": {
            "lat": 36.595244,
            "lng": 114.517765
        },
        "ad_info": {
            "adcode": 130402,
            "province": "河北省",
            "city": "邯郸市",
            "district": "邯山区"
        }
    },
    {
        "id": "1282130746469344882",
        "title": "丛台公园公共厕所",
        "address": "河北省邯郸市丛台区丛台路与中华北大街交叉口正南方向41米左右",
        "tel": "",
        "category": "基础设施:公共设施:公共厕所",
        "type": 0,
        "location": {
            "lat": 36.617937,
            "lng": 114.492968
        },
        "ad_info": {
            "adcode": 130403,
            "province": "河北省",
            "city": "邯郸市",
            "district": "丛台区"
        }
    },
    {
        "id": "15367822610231580634",
        "title": "公共卫生间",
        "address": "河北省邯郸市丛台区东环路与联通北路交叉口正西方向51米左右",
        "tel": "",
        "category": "基础设施:公共设施:公共厕所",
        "type": 0,
        "location": {
            "lat": 36.625661,
            "lng": 114.536165
        },
        "ad_info": {
            "adcode": 130403,
            "province": "河北省",
            "city": "邯郸市",
            "district": "丛台区"
        }
    },
    {
        "id": "2025904673044196822",
        "title": "公共厕所",
        "address": "河北省邯郸市魏县魏州西路魏县第四中学",
        "tel": "",
        "category": "基础设施:公共设施:公共厕所",
        "type": 0,
        "location": {
            "lat": 36.360333,
            "lng": 114.932462
        },
        "ad_info": {
            "adcode": 130434,
            "province": "河北省",
            "city": "邯郸市",
            "district": "魏县"
        }
    },
    {
        "id": "3348505116911028798",
        "title": "公共厕所",
        "address": "河北省邯郸市邯山区中华南大街与文安路交叉口正西方向125米左右",
        "tel": "",
        "category": "基础设施:公共设施:公共厕所",
        "type": 0,
        "location": {
            "lat": 36.578894,
            "lng": 114.489201
        },
        "ad_info": {
            "adcode": 130402,
            "province": "河北省",
            "city": "邯郸市",
            "district": "邯山区"
        }
    },
    {
        "id": "13849709392111492928",
        "title": "公共厕所",
        "address": "河北省邯郸市丛台区滏东大街与富强路交叉口南行200米路西",
        "tel": "",
        "category": "基础设施:公共设施:公共厕所",
        "type": 0,
        "location": {
            "lat": 36.636261,
            "lng": 114.522979
        },
        "ad_info": {
            "adcode": 130403,
            "province": "河北省",
            "city": "邯郸市",
            "district": "丛台区"
        }
    },
    {
        "id": "17736298653570066305",
        "title": "劳动路公共厕所",
        "address": "河北省邯郸市邯山区劳动路与小光明街交叉口东南方向35米左右",
        "tel": "",
        "category": "基础设施:公共设施:公共厕所",
        "type": 0,
        "location": {
            "lat": 36.597362,
            "lng": 114.479621
        },
        "ad_info": {
            "adcode": 130402,
            "province": "河北省",
            "city": "邯郸市",
            "district": "邯山区"
        }
    },
    {
        "id": "3350091250759465745",
        "title": "公共厕所",
        "address": "河北省邯郸市曲周县利民街与振兴东路交叉口正西方向146米左右",
        "tel": "",
        "category": "基础设施:公共设施:公共厕所",
        "type": 0,
        "location": {
            "lat": 36.774345,
            "lng": 114.963259
        },
        "ad_info": {
            "adcode": 130435,
            "province": "河北省",
            "city": "邯郸市",
            "district": "曲周县"
        }
    },
    {
        "id": "9541329957748494962",
        "title": "公共厕所",
        "address": "河北省邯郸市临漳县金凤北大街金凤公园内",
        "tel": "",
        "category": "基础设施:公共设施:公共厕所",
        "type": 0,
        "location": {
            "lat": 36.340144,
            "lng": 114.596203
        },
        "ad_info": {
            "adcode": 130423,
            "province": "河北省",
            "city": "邯郸市",
            "district": "临漳县"
        }
    },
    {
        "id": "17762623755411421406",
        "title": "公共厕所",
        "address": "河北省邯郸市大名县兴大街与天雄西路交叉口正南方向165米左右",
        "tel": "",
        "category": "基础设施:公共设施:公共厕所",
        "type": 0,
        "location": {
            "lat": 36.292614,
            "lng": 115.135539
        },
        "ad_info": {
            "adcode": 130425,
            "province": "河北省",
            "city": "邯郸市",
            "district": "大名县"
        }
    },
    {
        "id": "15599551799315784206",
        "title": "招商大酒店公共厕所",
        "address": "河北省邯郸市丛台区联纺东路512号招商大酒店内",
        "tel": "",
        "category": "基础设施:公共设施:公共厕所",
        "type": 0,
        "location": {
            "lat": 36.625012,
            "lng": 114.523959
        },
        "ad_info": {
            "adcode": 130403,
            "province": "河北省",
            "city": "邯郸市",
            "district": "丛台区"
        }
    },
    {
        "id": "10026371800466907022",
        "title": "公共厕所",
        "address": "河北省邯郸市邯山区农林路与邯山街交叉口东北方向156米左右",
        "tel": "",
        "category": "基础设施:公共设施:公共厕所",
        "type": 0,
        "location": {
            "lat": 36.593266,
            "lng": 114.481017
        },
        "ad_info": {
            "adcode": 130402,
            "province": "河北省",
            "city": "邯郸市",
            "district": "邯山区"
        }
    },
    {
        "id": "15469666623753102951",
        "title": "公共卫生间",
        "address": "河北省邯郸市丛台区东柳北大街与联纺东路交叉口东北方向69米左右",
        "tel": "",
        "category": "基础设施:公共设施:公共厕所",
        "type": 0,
        "location": {
            "lat": 36.625351,
            "lng": 114.533165
        },
        "ad_info": {
            "adcode": 130403,
            "province": "河北省",
            "city": "邯郸市",
            "district": "丛台区"
        }
    },
    {
        "id": "5698194854918128672",
        "title": "公共卫生间",
        "address": "河北省邯郸市邯山区文化宫",
        "tel": "",
        "category": "基础设施:公共设施:公共厕所",
        "type": 0,
        "location": {
            "lat": 36.598513,
            "lng": 114.492155
        },
        "ad_info": {
            "adcode": 130402,
            "province": "河北省",
            "city": "邯郸市",
            "district": "邯山区"
        }
    },
    {
        "id": "13400234676307370770",
        "title": "公共厕所",
        "address": "河北省邯郸市丛台区展后街中央公园",
        "tel": "",
        "category": "基础设施:公共设施:公共厕所",
        "type": 0,
        "location": {
            "lat": 36.615028,
            "lng": 114.496613
        },
        "ad_info": {
            "adcode": 130403,
            "province": "河北省",
            "city": "邯郸市",
            "district": "丛台区"
        }
    },
    {
        "id": "8375086910568534212",
        "title": "公共厕所",
        "address": "河北省邯郸市峰峰矿区大众路与滏临南大街交叉口正东方向160米左右",
        "tel": "",
        "category": "基础设施:公共设施:公共厕所",
        "type": 0,
        "location": {
            "lat": 36.4234,
            "lng": 114.212891
        },
        "ad_info": {
            "adcode": 130406,
            "province": "河北省",
            "city": "邯郸市",
            "district": "峰峰矿区"
        }
    },
    {
        "id": "13169254365192474222",
        "title": "公共厕所",
        "address": "河北省邯郸市丛台区复兴路与浴新北大街交叉口西南方向78米左右",
        "tel": "",
        "category": "基础设施:公共设施:公共厕所",
        "type": 0,
        "location": {
            "lat": 36.606884,
            "lng": 114.477296
        },
        "ad_info": {
            "adcode": 130403,
            "province": "河北省",
            "city": "邯郸市",
            "district": "丛台区"
        }
    },
    {
        "id": "2904353405270583977",
        "title": "公共厕所管理间",
        "address": "河北省邯郸市丛台区光明北大街与沁河北路交叉口西南方向24米左右",
        "tel": "",
        "category": "基础设施:公共设施:公共厕所",
        "type": 0,
        "location": {
            "lat": 36.621163,
            "lng": 114.503544
        },
        "ad_info": {
            "adcode": 130403,
            "province": "河北省",
            "city": "邯郸市",
            "district": "丛台区"
        }
    },
    {
        "id": "10005929714570004907",
        "title": "无障碍公共厕所",
        "address": "河北省邯郸市磁县107国道与磁州路交叉口北40米",
        "tel": "",
        "category": "基础设施:公共设施:公共厕所",
        "type": 0,
        "location": {
            "lat": 36.374191,
            "lng": 114.370302
        },
        "ad_info": {
            "adcode": 130427,
            "province": "河北省",
            "city": "邯郸市",
            "district": "磁县"
        }
    },
    {
        "id": "17747758198803481594",
        "title": "公共厕所",
        "address": "河北省邯郸市广平县和易胡同与长春大道北段交叉口东南方向62米左右",
        "tel": "",
        "category": "基础设施:公共设施:公共厕所",
        "type": 0,
        "location": {
            "lat": 36.491043,
            "lng": 114.954697
        },
        "ad_info": {
            "adcode": 130432,
            "province": "河北省",
            "city": "邯郸市",
            "district": "广平县"
        }
    },
    {
        "id": "9414003263317814378",
        "title": "公共厕所",
        "address": "河北省邯郸市邯山区渚河路8号",
        "tel": "",
        "category": "基础设施:公共设施:公共厕所",
        "type": 0,
        "location": {
            "lat": 36.584783,
            "lng": 114.477572
        },
        "ad_info": {
            "adcode": 130402,
            "province": "河北省",
            "city": "邯郸市",
            "district": "邯山区"
        }
    },
    {
        "id": "545747543747167158",
        "title": "公共厕所",
        "address": "河北省邯郸市丛台区联纺东路与芳林西巷交叉口西南方向253米左右",
        "tel": "",
        "category": "基础设施:公共设施:公共厕所",
        "type": 0,
        "location": {
            "lat": 36.623972,
            "lng": 114.513172
        },
        "ad_info": {
            "adcode": 130403,
            "province": "河北省",
            "city": "邯郸市",
            "district": "丛台区"
        }
    },
    {
        "id": "8762972640086836933",
        "title": "公共厕所",
        "address": "河北省邯郸市邯山区陵东街邯郸市中心医院(西区)",
        "tel": "",
        "category": "基础设施:公共设施:公共厕所",
        "type": 0,
        "location": {
            "lat": 36.59999,
            "lng": 114.490707
        },
        "ad_info": {
            "adcode": 130402,
            "province": "河北省",
            "city": "邯郸市",
            "district": "邯山区"
        }
    },
    {
        "id": "11574841094821055687",
        "title": "公共厕所",
        "address": "河北省邯郸市峰峰矿区滨河南路与通安路交叉口东北方向208米左右",
        "tel": "",
        "category": "基础设施:公共设施:公共厕所",
        "type": 0,
        "location": {
            "lat": 36.416804,
            "lng": 114.212821
        },
        "ad_info": {
            "adcode": 130406,
            "province": "河北省",
            "city": "邯郸市",
            "district": "峰峰矿区"
        }
    },
    {
        "id": "12835038578041431586",
        "title": "公共厕所",
        "address": "河北省邯郸市邯山区中华南大街与学院北路交叉口正东方向130米左右",
        "tel": "",
        "category": "基础设施:公共设施:公共厕所",
        "type": 0,
        "location": {
            "lat": 36.576299,
            "lng": 114.491649
        },
        "ad_info": {
            "adcode": 130402,
            "province": "河北省",
            "city": "邯郸市",
            "district": "邯山区"
        }
    },
    {
        "id": "10664092628397486562",
        "title": "公共厕所",
        "address": "河北省邯郸市永年区永河线与西滩头北街交叉口正南方向413米左右",
        "tel": "",
        "category": "基础设施:公共设施:公共厕所",
        "type": 0,
        "location": {
            "lat": 36.802114,
            "lng": 114.508809
        },
        "ad_info": {
            "adcode": 130408,
            "province": "河北省",
            "city": "邯郸市",
            "district": "永年区"
        }
    },
    {
        "id": "4559128396556485782",
        "title": "公共厕所",
        "address": "河北省邯郸市大名县五得利街与大名府路交叉口正东方向381米左右",
        "tel": "",
        "category": "基础设施:公共设施:公共厕所",
        "type": 0,
        "location": {
            "lat": 36.281172,
            "lng": 115.181683
        },
        "ad_info": {
            "adcode": 130425,
            "province": "河北省",
            "city": "邯郸市",
            "district": "大名县"
        }
    },
    {
        "id": "5818595666833033489",
        "title": "火车站公共厕所",
        "address": "河北省邯郸市丛台区浴新北大街与西南庄前街交叉口西南方向168米左右",
        "tel": "",
        "category": "基础设施:公共设施:公共厕所",
        "type": 0,
        "location": {
            "lat": 36.603994,
            "lng": 114.476026
        },
        "ad_info": {
            "adcode": 130403,
            "province": "河北省",
            "city": "邯郸市",
            "district": "丛台区"
        }
    },
    {
        "id": "12900984215025637965",
        "title": "公共厕所",
        "address": "河北省邯郸市邯山区滏河南大街邯郸职业技术学院西150米",
        "tel": "",
        "category": "基础设施:公共设施:公共厕所",
        "type": 0,
        "location": {
            "lat": 36.585422,
            "lng": 114.507351
        },
        "ad_info": {
            "adcode": 130402,
            "province": "河北省",
            "city": "邯郸市",
            "district": "邯山区"
        }
    },
    {
        "id": "11088196889959883750",
        "title": "公共厕所",
        "address": "河北省邯郸市永年区G107与邯邢南路交叉口西北方向55米左右",
        "tel": "",
        "category": "基础设施:公共设施:公共厕所",
        "type": 0,
        "location": {
            "lat": 36.757413,
            "lng": 114.487341
        },
        "ad_info": {
            "adcode": 130408,
            "province": "河北省",
            "city": "邯郸市",
            "district": "永年区"
        }
    },
    {
        "id": "12833395640209371340",
        "title": "公共厕所",
        "address": "河北省邯郸市大名县京府大街250号",
        "tel": "",
        "category": "基础设施:公共设施:公共厕所",
        "type": 0,
        "location": {
            "lat": 36.289856,
            "lng": 115.150998
        },
        "ad_info": {
            "adcode": 130425,
            "province": "河北省",
            "city": "邯郸市",
            "district": "大名县"
        }
    },
    {
        "id": "10026371800466907022",
        "title": "公共厕所",
        "address": "河北省邯郸市邯山区农林路与邯山街交叉口东北方向156米左右",
        "tel": "",
        "category": "基础设施:公共设施:公共厕所",
        "type": 0,
        "location": {
            "lat": 36.593266,
            "lng": 114.481017
        },
        "ad_info": {
            "adcode": 130402,
            "province": "河北省",
            "city": "邯郸市",
            "district": "邯山区"
        }
    },
    {
        "id": "15469666623753102951",
        "title": "公共卫生间",
        "address": "河北省邯郸市丛台区东柳北大街与联纺东路交叉口东北方向69米左右",
        "tel": "",
        "category": "基础设施:公共设施:公共厕所",
        "type": 0,
        "location": {
            "lat": 36.625351,
            "lng": 114.533165
        },
        "ad_info": {
            "adcode": 130403,
            "province": "河北省",
            "city": "邯郸市",
            "district": "丛台区"
        }
    },
    {
        "id": "5698194854918128672",
        "title": "公共卫生间",
        "address": "河北省邯郸市邯山区文化宫",
        "tel": "",
        "category": "基础设施:公共设施:公共厕所",
        "type": 0,
        "location": {
            "lat": 36.598513,
            "lng": 114.492155
        },
        "ad_info": {
            "adcode": 130402,
            "province": "河北省",
            "city": "邯郸市",
            "district": "邯山区"
        }
    },
    {
        "id": "13400234676307370770",
        "title": "公共厕所",
        "address": "河北省邯郸市丛台区展后街中央公园",
        "tel": "",
        "category": "基础设施:公共设施:公共厕所",
        "type": 0,
        "location": {
            "lat": 36.615028,
            "lng": 114.496613
        },
        "ad_info": {
            "adcode": 130403,
            "province": "河北省",
            "city": "邯郸市",
            "district": "丛台区"
        }
    },
    {
        "id": "8375086910568534212",
        "title": "公共厕所",
        "address": "河北省邯郸市峰峰矿区大众路与滏临南大街交叉口正东方向160米左右",
        "tel": "",
        "category": "基础设施:公共设施:公共厕所",
        "type": 0,
        "location": {
            "lat": 36.4234,
            "lng": 114.212891
        },
        "ad_info": {
            "adcode": 130406,
            "province": "河北省",
            "city": "邯郸市",
            "district": "峰峰矿区"
        }
    },
    {
        "id": "13169254365192474222",
        "title": "公共厕所",
        "address": "河北省邯郸市丛台区复兴路与浴新北大街交叉口西南方向78米左右",
        "tel": "",
        "category": "基础设施:公共设施:公共厕所",
        "type": 0,
        "location": {
            "lat": 36.606884,
            "lng": 114.477296
        },
        "ad_info": {
            "adcode": 130403,
            "province": "河北省",
            "city": "邯郸市",
            "district": "丛台区"
        }
    },
    {
        "id": "2904353405270583977",
        "title": "公共厕所管理间",
        "address": "河北省邯郸市丛台区光明北大街与沁河北路交叉口西南方向24米左右",
        "tel": "",
        "category": "基础设施:公共设施:公共厕所",
        "type": 0,
        "location": {
            "lat": 36.621163,
            "lng": 114.503544
        },
        "ad_info": {
            "adcode": 130403,
            "province": "河北省",
            "city": "邯郸市",
            "district": "丛台区"
        }
    },
    {
        "id": "10005929714570004907",
        "title": "无障碍公共厕所",
        "address": "河北省邯郸市磁县107国道与磁州路交叉口北40米",
        "tel": "",
        "category": "基础设施:公共设施:公共厕所",
        "type": 0,
        "location": {
            "lat": 36.374191,
            "lng": 114.370302
        },
        "ad_info": {
            "adcode": 130427,
            "province": "河北省",
            "city": "邯郸市",
            "district": "磁县"
        }
    },
    {
        "id": "17747758198803481594",
        "title": "公共厕所",
        "address": "河北省邯郸市广平县和易胡同与长春大道北段交叉口东南方向62米左右",
        "tel": "",
        "category": "基础设施:公共设施:公共厕所",
        "type": 0,
        "location": {
            "lat": 36.491043,
            "lng": 114.954697
        },
        "ad_info": {
            "adcode": 130432,
            "province": "河北省",
            "city": "邯郸市",
            "district": "广平县"
        }
    },
    {
        "id": "9414003263317814378",
        "title": "公共厕所",
        "address": "河北省邯郸市邯山区渚河路8号",
        "tel": "",
        "category": "基础设施:公共设施:公共厕所",
        "type": 0,
        "location": {
            "lat": 36.584783,
            "lng": 114.477572
        },
        "ad_info": {
            "adcode": 130402,
            "province": "河北省",
            "city": "邯郸市",
            "district": "邯山区"
        }
    },
    {
        "id": "545747543747167158",
        "title": "公共厕所",
        "address": "河北省邯郸市丛台区联纺东路与芳林西巷交叉口西南方向253米左右",
        "tel": "",
        "category": "基础设施:公共设施:公共厕所",
        "type": 0,
        "location": {
            "lat": 36.623972,
            "lng": 114.513172
        },
        "ad_info": {
            "adcode": 130403,
            "province": "河北省",
            "city": "邯郸市",
            "district": "丛台区"
        }
    },
    {
        "id": "8762972640086836933",
        "title": "公共厕所",
        "address": "河北省邯郸市邯山区陵东街邯郸市中心医院(西区)",
        "tel": "",
        "category": "基础设施:公共设施:公共厕所",
        "type": 0,
        "location": {
            "lat": 36.59999,
            "lng": 114.490707
        },
        "ad_info": {
            "adcode": 130402,
            "province": "河北省",
            "city": "邯郸市",
            "district": "邯山区"
        }
    },
    {
        "id": "11574841094821055687",
        "title": "公共厕所",
        "address": "河北省邯郸市峰峰矿区滨河南路与通安路交叉口东北方向208米左右",
        "tel": "",
        "category": "基础设施:公共设施:公共厕所",
        "type": 0,
        "location": {
            "lat": 36.416804,
            "lng": 114.212821
        },
        "ad_info": {
            "adcode": 130406,
            "province": "河北省",
            "city": "邯郸市",
            "district": "峰峰矿区"
        }
    },
    {
        "id": "12835038578041431586",
        "title": "公共厕所",
        "address": "河北省邯郸市邯山区中华南大街与学院北路交叉口正东方向130米左右",
        "tel": "",
        "category": "基础设施:公共设施:公共厕所",
        "type": 0,
        "location": {
            "lat": 36.576299,
            "lng": 114.491649
        },
        "ad_info": {
            "adcode": 130402,
            "province": "河北省",
            "city": "邯郸市",
            "district": "邯山区"
        }
    },
    {
        "id": "10664092628397486562",
        "title": "公共厕所",
        "address": "河北省邯郸市永年区永河线与西滩头北街交叉口正南方向413米左右",
        "tel": "",
        "category": "基础设施:公共设施:公共厕所",
        "type": 0,
        "location": {
            "lat": 36.802114,
            "lng": 114.508809
        },
        "ad_info": {
            "adcode": 130408,
            "province": "河北省",
            "city": "邯郸市",
            "district": "永年区"
        }
    },
    {
        "id": "4559128396556485782",
        "title": "公共厕所",
        "address": "河北省邯郸市大名县五得利街与大名府路交叉口正东方向381米左右",
        "tel": "",
        "category": "基础设施:公共设施:公共厕所",
        "type": 0,
        "location": {
            "lat": 36.281172,
            "lng": 115.181683
        },
        "ad_info": {
            "adcode": 130425,
            "province": "河北省",
            "city": "邯郸市",
            "district": "大名县"
        }
    },
    {
        "id": "5818595666833033489",
        "title": "火车站公共厕所",
        "address": "河北省邯郸市丛台区浴新北大街与西南庄前街交叉口西南方向168米左右",
        "tel": "",
        "category": "基础设施:公共设施:公共厕所",
        "type": 0,
        "location": {
            "lat": 36.603994,
            "lng": 114.476026
        },
        "ad_info": {
            "adcode": 130403,
            "province": "河北省",
            "city": "邯郸市",
            "district": "丛台区"
        }
    },
    {
        "id": "12900984215025637965",
        "title": "公共厕所",
        "address": "河北省邯郸市邯山区滏河南大街邯郸职业技术学院西150米",
        "tel": "",
        "category": "基础设施:公共设施:公共厕所",
        "type": 0,
        "location": {
            "lat": 36.585422,
            "lng": 114.507351
        },
        "ad_info": {
            "adcode": 130402,
            "province": "河北省",
            "city": "邯郸市",
            "district": "邯山区"
        }
    },
    {
        "id": "11088196889959883750",
        "title": "公共厕所",
        "address": "河北省邯郸市永年区G107与邯邢南路交叉口西北方向55米左右",
        "tel": "",
        "category": "基础设施:公共设施:公共厕所",
        "type": 0,
        "location": {
            "lat": 36.757413,
            "lng": 114.487341
        },
        "ad_info": {
            "adcode": 130408,
            "province": "河北省",
            "city": "邯郸市",
            "district": "永年区"
        }
    },
    {
        "id": "12833395640209371340",
        "title": "公共厕所",
        "address": "河北省邯郸市大名县京府大街250号",
        "tel": "",
        "category": "基础设施:公共设施:公共厕所",
        "type": 0,
        "location": {
            "lat": 36.289856,
            "lng": 115.150998
        },
        "ad_info": {
            "adcode": 130425,
            "province": "河北省",
            "city": "邯郸市",
            "district": "大名县"
        }
    },
    {
        "id": "10026371800466907022",
        "title": "公共厕所",
        "address": "河北省邯郸市邯山区农林路与邯山街交叉口东北方向156米左右",
        "tel": "",
        "category": "基础设施:公共设施:公共厕所",
        "type": 0,
        "location": {
            "lat": 36.593266,
            "lng": 114.481017
        },
        "ad_info": {
            "adcode": 130402,
            "province": "河北省",
            "city": "邯郸市",
            "district": "邯山区"
        }
    },
    {
        "id": "15469666623753102951",
        "title": "公共卫生间",
        "address": "河北省邯郸市丛台区东柳北大街与联纺东路交叉口东北方向69米左右",
        "tel": "",
        "category": "基础设施:公共设施:公共厕所",
        "type": 0,
        "location": {
            "lat": 36.625351,
            "lng": 114.533165
        },
        "ad_info": {
            "adcode": 130403,
            "province": "河北省",
            "city": "邯郸市",
            "district": "丛台区"
        }
    },
    {
        "id": "5698194854918128672",
        "title": "公共卫生间",
        "address": "河北省邯郸市邯山区文化宫",
        "tel": "",
        "category": "基础设施:公共设施:公共厕所",
        "type": 0,
        "location": {
            "lat": 36.598513,
            "lng": 114.492155
        },
        "ad_info": {
            "adcode": 130402,
            "province": "河北省",
            "city": "邯郸市",
            "district": "邯山区"
        }
    },
    {
        "id": "13400234676307370770",
        "title": "公共厕所",
        "address": "河北省邯郸市丛台区展后街中央公园",
        "tel": "",
        "category": "基础设施:公共设施:公共厕所",
        "type": 0,
        "location": {
            "lat": 36.615028,
            "lng": 114.496613
        },
        "ad_info": {
            "adcode": 130403,
            "province": "河北省",
            "city": "邯郸市",
            "district": "丛台区"
        }
    },
    {
        "id": "8375086910568534212",
        "title": "公共厕所",
        "address": "河北省邯郸市峰峰矿区大众路与滏临南大街交叉口正东方向160米左右",
        "tel": "",
        "category": "基础设施:公共设施:公共厕所",
        "type": 0,
        "location": {
            "lat": 36.4234,
            "lng": 114.212891
        },
        "ad_info": {
            "adcode": 130406,
            "province": "河北省",
            "city": "邯郸市",
            "district": "峰峰矿区"
        }
    },