[
    {
        "id": "1392259631358849832",
        "title": "公共厕所",
        "address": "湖南省邵阳市邵东市G320与枫林路交叉口正南方向178米左右",
        "tel": "",
        "category": "基础设施:公共设施:公共厕所",
        "type": 0,
        "location": {
            "lat": 27.27397,
            "lng": 111.731086
        },
        "ad_info": {
            "adcode": 430582,
            "province": "湖南省",
            "city": "邵阳市",
            "district": "邵东市"
        }
    },
    {
        "id": "10070686635184458778",
        "title": "公共厕所",
        "address": "湖南省邵阳市邵东市机关星城幼儿园(金龙大道东)",
        "tel": "",
        "category": "基础设施:公共设施:公共厕所",
        "type": 0,
        "location": {
            "lat": 27.263122,
            "lng": 111.742517
        },
        "ad_info": {
            "adcode": 430582,
            "province": "湖南省",
            "city": "邵阳市",
            "district": "邵东市"
        }
    },
    {
        "id": "1864937780163299368",
        "title": "公共厕所",
        "address": "湖南省邵阳市邵东市荷花路286号",
        "tel": "",
        "category": "基础设施:公共设施:公共厕所",
        "type": 0,
        "location": {
            "lat": 27.252396,
            "lng": 111.746027
        },
        "ad_info": {
            "adcode": 430582,
            "province": "湖南省",
            "city": "邵阳市",
            "district": "邵东市"
        }
    },
    {
        "id": "4093670118697119433",
        "title": "公共厕所",
        "address": "湖南省邵阳市邵东市景秀路与高丽路交叉口正西方向107米左右",
        "tel": "",
        "category": "基础设施:公共设施:公共厕所",
        "type": 0,
        "location": {
            "lat": 27.265786,
            "lng": 111.751632
        },
        "ad_info": {
            "adcode": 430582,
            "province": "湖南省",
            "city": "邵阳市",
            "district": "邵东市"
        }
    },
    {
        "id": "1459180368980289524",
        "title": "公共厕所",
        "address": "湖南省邵阳市新宁县S218(崀山大道)财政局旁",
        "tel": "",
        "category": "基础设施:公共设施:公共厕所",
        "type": 0,
        "location": {
            "lat": 26.446324,
            "lng": 110.849139
        },
        "ad_info": {
            "adcode": 430528,
            "province": "湖南省",
            "city": "邵阳市",
            "district": "新宁县"
        }
    },
    {
        "id": "17083448144949084387",
        "title": "公共厕所",
        "address": "湖南省邵阳市邵东市红岭路412号,414号",
        "tel": "",
        "category": "基础设施:公共设施:公共厕所",
        "type": 0,
        "location": {
            "lat": 27.261441,
            "lng": 111.746876
        },
        "ad_info": {
            "adcode": 430582,
            "province": "湖南省",
            "city": "邵阳市",
            "district": "邵东市"
        }
    },
    {
        "id": "6880049401106345569",
        "title": "公共厕所",
        "address": "湖南省邵阳市邵东市竹岭路268号",
        "tel": "",
        "category": "基础设施:公共设施:公共厕所",
        "type": 0,
        "location": {
            "lat": 27.263381,
            "lng": 111.726219
        },
        "ad_info": {
            "adcode": 430582,
            "province": "湖南省",
            "city": "邵阳市",
            "district": "邵东市"
        }
    },
    {
        "id": "9303519528646336330",
        "title": "公共厕所",
        "address": "湖南省邵阳市邵东市雷祖路金世纪家园",
        "tel": "",
        "category": "基础设施:公共设施:公共厕所",
        "type": 0,
        "location": {
            "lat": 27.264635,
            "lng": 111.747861
        },
        "ad_info": {
            "adcode": 430582,
            "province": "湖南省",
            "city": "邵阳市",
            "district": "邵东市"
        }
    },
    {
        "id": "16019729137318952348",
        "title": "公共厕所",
        "address": "湖南省邵阳市大祥区西湖路240号",
        "tel": "",
        "category": "基础设施:公共设施:公共厕所",
        "type": 0,
        "location": {
            "lat": 27.231006,
            "lng": 111.454673
        },
        "ad_info": {
            "adcode": 430503,
            "province": "湖南省",
            "city": "邵阳市",
            "district": "大祥区"
        }
    },
    {
        "id": "4004277133817523624",
        "title": "公共厕所",
        "address": "湖南省邵阳市邵东市胜利街与衡宝路交叉口正东方向86米左右",
        "tel": "",
        "category": "基础设施:公共设施:公共厕所",
        "type": 0,
        "location": {
            "lat": 27.246463,
            "lng": 111.748651
        },
        "ad_info": {
            "adcode": 430582,
            "province": "湖南省",
            "city": "邵阳市",
            "district": "邵东市"
        }
    },
    {
        "id": "10828753968917396847",
        "title": "公共厕所",
        "address": "湖南省邵阳市隆回县桃花路与紫霞路交叉口正西方向57米左右",
        "tel": "",
        "category": "基础设施:公共设施:公共厕所",
        "type": 0,
        "location": {
            "lat": 27.109572,
            "lng": 111.040482
        },
        "ad_info": {
            "adcode": 430524,
            "province": "湖南省",
            "city": "邵阳市",
            "district": "隆回县"
        }
    },
    {
        "id": "5697394062987202454",
        "title": "公共厕所",
        "address": "湖南省邵阳市邵东市兴和大道与红岭路交叉口东南方向47米左右",
        "tel": "",
        "category": "基础设施:公共设施:公共厕所",
        "type": 0,
        "location": {
            "lat": 27.257909,
            "lng": 111.746585
        },
        "ad_info": {
            "adcode": 430582,
            "province": "湖南省",
            "city": "邵阳市",
            "district": "邵东市"
        }
    },
    {
        "id": "13094188304983227279",
        "title": "公共厕所",
        "address": "湖南省邵阳市邵东市建龙路与成园路交叉口西北方向82米左右",
        "tel": "",
        "category": "基础设施:公共设施:公共厕所",
        "type": 0,
        "location": {
            "lat": 27.260089,
            "lng": 111.749307
        },
        "ad_info": {
            "adcode": 430582,
            "province": "湖南省",
            "city": "邵阳市",
            "district": "邵东市"
        }
    },
    {
        "id": "17350487376079352837",
        "title": "公共厕所",
        "address": "湖南省邵阳市邵东市公园路与景秀路交叉口正西方向197米左右",
        "tel": "",
        "category": "基础设施:公共设施:公共厕所",
        "type": 0,
        "location": {
            "lat": 27.267978,
            "lng": 111.726449
        },
        "ad_info": {
            "adcode": 430582,
            "province": "湖南省",
            "city": "邵阳市",
            "district": "邵东市"
        }
    },
    {
        "id": "10457539917491410677",
        "title": "公共厕所",
        "address": "湖南省邵阳市邵东市贺祺北路与贺祺路交叉口东南方向14米左右",
        "tel": "",
        "category": "基础设施:公共设施:公共厕所",
        "type": 0,
        "location": {
            "lat": 27.261615,
            "lng": 111.736824
        },
        "ad_info": {
            "adcode": 430582,
            "province": "湖南省",
            "city": "邵阳市",
            "district": "邵东市"
        }
    },
    {
        "id": "5449983207559770247",
        "title": "公共厕所",
        "address": "湖南省邵阳市邵东市荷花路与金龙大道交叉口正南方向41米左右",
        "tel": "",
        "category": "基础设施:公共设施:公共厕所",
        "type": 0,
        "location": {
            "lat": 27.253417,
            "lng": 111.741571
        },
        "ad_info": {
            "adcode": 430582,
            "province": "湖南省",
            "city": "邵阳市",
            "district": "邵东市"
        }
    },
    {
        "id": "10817521876886486851",
        "title": "公共厕所",
        "address": "湖南省邵阳市绥宁县车站路与黄桑路交叉口正东方向102米左右",
        "tel": "",
        "category": "基础设施:公共设施:公共厕所",
        "type": 0,
        "location": {
            "lat": 26.587838,
            "lng": 110.154344
        },
        "ad_info": {
            "adcode": 430527,
            "province": "湖南省",
            "city": "邵阳市",
            "district": "绥宁县"
        }
    },
    {
        "id": "15779776079614027842",
        "title": "公共厕所",
        "address": "湖南省邵阳市邵东市景秀路与竹苑路交叉口东北方向108米左右",
        "tel": "",
        "category": "基础设施:公共设施:公共厕所",
        "type": 0,
        "location": {
            "lat": 27.266807,
            "lng": 111.741057
        },
        "ad_info": {
            "adcode": 430582,
            "province": "湖南省",
            "city": "邵阳市",
            "district": "邵东市"
        }
    },
    {
        "id": "9731288727058270558",
        "title": "公共厕所",
        "address": "湖南省邵阳市邵东市百富路与百荷路交叉口东南方向87米左右",
        "tel": "",
        "category": "基础设施:公共设施:公共厕所",
        "type": 0,
        "location": {
            "lat": 27.253615,
            "lng": 111.748169
        },
        "ad_info": {
            "adcode": 430582,
            "province": "湖南省",
            "city": "邵阳市",
            "district": "邵东市"
        }
    },
    {
        "id": "4621964915033256294",
        "title": "公共厕所",
        "address": "湖南省邵阳市隆回县桃洪镇朝阳路桃花坪中学(隆回一中东)",
        "tel": "",
        "category": "基础设施:公共设施:公共厕所",
        "type": 0,
        "location": {
            "lat": 27.109161,
            "lng": 111.03626
        },
        "ad_info": {
            "adcode": 430524,
            "province": "湖南省",
            "city": "邵阳市",
            "district": "隆回县"
        }
    },
    {
        "id": "9897039493278957963",
        "title": "公共厕所",
        "address": "湖南省邵阳市大祥区燎原南路与邵阳大道交叉口西南方向42米左右",
        "tel": "",
        "category": "基础设施:公共设施:公共厕所",
        "type": 0,
        "location": {
            "lat": 27.217051,
            "lng": 111.46777
        },
        "ad_info": {
            "adcode": 430503,
            "province": "湖南省",
            "city": "邵阳市",
            "district": "大祥区"
        }
    },
    {
        "id": "13604449346064988744",
        "title": "公共厕所",
        "address": "湖南省邵阳市大祥区电大路与西湖路交叉口正北方向115米左右",
        "tel": "",
        "category": "基础设施:公共设施:公共厕所",
        "type": 0,
        "location": {
            "lat": 27.228947,
            "lng": 111.454995
        },
        "ad_info": {
            "adcode": 430503,
            "province": "湖南省",
            "city": "邵阳市",
            "district": "大祥区"
        }
    },
    {
        "id": "10347708840735442095",
        "title": "公共厕所",
        "address": "湖南省邵阳市邵东市X014与X020交叉口正北方向744米左右",
        "tel": "",
        "category": "基础设施:公共设施:公共厕所",
        "type": 0,
        "location": {
            "lat": 27.232976,
            "lng": 111.796968
        },
        "ad_info": {
            "adcode": 430582,
            "province": "湖南省",
            "city": "邵阳市",
            "district": "邵东市"
        }
    },
    {
        "id": "11145310672863382297",
        "title": "公共厕所",
        "address": "湖南省邵阳市隆回县府后街与建设街交叉口正北方向88米左右",
        "tel": "",
        "category": "基础设施:公共设施:公共厕所",
        "type": 0,
        "location": {
            "lat": 27.11314,
            "lng": 111.032462
        },
        "ad_info": {
            "adcode": 430524,
            "province": "湖南省",
            "city": "邵阳市",
            "district": "隆回县"
        }
    },
    {
        "id": "5395554382342929328",
        "title": "公共厕所",
        "address": "湖南省邵阳市绥宁县东正路与中心路交叉口东北方向68米左右",
        "tel": "",
        "category": "基础设施:公共设施:公共厕所",
        "type": 0,
        "location": {
            "lat": 26.58031,
            "lng": 110.15674
        },
        "ad_info": {
            "adcode": 430527,
            "province": "湖南省",
            "city": "邵阳市",
            "district": "绥宁县"
        }
    },
    {
        "id": "16745445089434423064",
        "title": "公共厕所",
        "address": "湖南省邵阳市大祥区电机路与邵水西路交叉口东北方向223米左右",
        "tel": "",
        "category": "基础设施:公共设施:公共厕所",
        "type": 0,
        "location": {
            "lat": 27.22267,
            "lng": 111.474809
        },
        "ad_info": {
            "adcode": 430503,
            "province": "湖南省",
            "city": "邵阳市",
            "district": "大祥区"
        }
    },
    {
        "id": "13931660980184454482",
        "title": "公共厕所",
        "address": "湖南省邵阳市大祥区中心路与城北路交叉口正北方向79米左右",
        "tel": "",
        "category": "基础设施:公共设施:公共厕所",
        "type": 0,
        "location": {
            "lat": 27.239091,
            "lng": 111.465414
        },
        "ad_info": {
            "adcode": 430503,
            "province": "湖南省",
            "city": "邵阳市",
            "district": "大祥区"
        }
    },
    {
        "id": "13359439856040943342",
        "title": "公共厕所",
        "address": "湖南省邵阳市双清区建设中路与建设北路交叉口正南方向301米左右",
        "tel": "",
        "category": "基础设施:公共设施:公共厕所",
        "type": 0,
        "location": {
            "lat": 27.235992,
            "lng": 111.485519
        },
        "ad_info": {
            "adcode": 430502,
            "province": "湖南省",
            "city": "邵阳市",
            "district": "双清区"
        }
    },
    {
        "id": "4537034351462849877",
        "title": "公共厕所",
        "address": "湖南省邵阳市双清区东风路与板井巷交叉口东北方向28米左右",
        "tel": "",
        "category": "基础设施:公共设施:公共厕所",
        "type": 0,
        "location": {
            "lat": 27.23938,
            "lng": 111.479016
        },
        "ad_info": {
            "adcode": 430502,
            "province": "湖南省",
            "city": "邵阳市",
            "district": "双清区"
        }
    },
    {
        "id": "12164331783850566708",
        "title": "公共厕所",
        "address": "湖南省邵阳市邵东市人民路与人民路四巷交叉口东北方向89米左右",
        "tel": "",
        "category": "基础设施:公共设施:公共厕所",
        "type": 0,
        "location": {
            "lat": 27.237549,
            "lng": 111.742705
        },
        "ad_info": {
            "adcode": 430582,
            "province": "湖南省",
            "city": "邵阳市",
            "district": "邵东市"
        }
    },
    {
        "id": "5770000575007611120",
        "title": "公共厕所",
        "address": "湖南省邵阳市新宁县春风路98号东北方向10米",
        "tel": "",
        "category": "基础设施:公共设施:公共厕所",
        "type": 0,
        "location": {
            "lat": 26.442961,
            "lng": 110.8608
        },
        "ad_info": {
            "adcode": 430528,
            "province": "湖南省",
            "city": "邵阳市",
            "district": "新宁县"
        }
    },
    {
        "id": "15494233288522215247",
        "title": "公共厕所",
        "address": "湖南省邵阳市大祥区客村路与红星一巷交叉口东北方向24米左右",
        "tel": "",
        "category": "基础设施:公共设施:公共厕所",
        "type": 0,
        "location": {
            "lat": 27.223128,
            "lng": 111.462569
        },
        "ad_info": {
            "adcode": 430503,
            "province": "湖南省",
            "city": "邵阳市",
            "district": "大祥区"
        }
    },
    {
        "id": "8840435203820742472",
        "title": "公共厕所",
        "address": "湖南省邵阳市新邵县内环东路与内环北街交叉口正北方向38米左右",
        "tel": "",
        "category": "基础设施:公共设施:公共厕所",
        "type": 0,
        "location": {
            "lat": 27.312326,
            "lng": 111.461741
        },
        "ad_info": {
            "adcode": 430522,
            "province": "湖南省",
            "city": "邵阳市",
            "district": "新邵县"
        }
    },
    {
        "id": "9990816847997127426",
        "title": "公共厕所",
        "address": "湖南省邵阳市大祥区中心路与红旗路交叉口东南方向47米左右",
        "tel": "",
        "category": "基础设施:公共设施:公共厕所",
        "type": 0,
        "location": {
            "lat": 27.235388,
            "lng": 111.466201
        },
        "ad_info": {
            "adcode": 430503,
            "province": "湖南省",
            "city": "邵阳市",
            "district": "大祥区"
        }
    },
    {
        "id": "1393078105854414994",
        "title": "公共厕所",
        "address": "湖南省邵阳市隆回县九龙中路与九龙南路交叉口正东方向69米左右",
        "tel": "",
        "category": "基础设施:公共设施:公共厕所",
        "type": 0,
        "location": {
            "lat": 27.115627,
            "lng": 111.010076
        },
        "ad_info": {
            "adcode": 430524,
            "province": "湖南省",
            "city": "邵阳市",
            "district": "隆回县"
        }
    },
    {
        "id": "2754603920636402934",
        "title": "公共厕所",
        "address": "湖南省邵阳市城步苗族自治县南山风景名胜区紫阳峰东北侧680米",
        "tel": "",
        "category": "基础设施:公共设施:公共厕所",
        "type": 0,
        "location": {
            "lat": 26.178825,
            "lng": 110.11396
        },
        "ad_info": {
            "adcode": 430529,
            "province": "湖南省",
            "city": "邵阳市",
            "district": "城步苗族自治县"
        }
    },
    {
        "id": "11000222181914503500",
        "title": "公共厕所",
        "address": "湖南省邵阳市大祥区科文路与邵水西路交叉口正北方向36米左右",
        "tel": "",
        "category": "基础设施:公共设施:公共厕所",
        "type": 0,
        "location": {
            "lat": 27.23089,
            "lng": 111.474162
        },
        "ad_info": {
            "adcode": 430503,
            "province": "湖南省",
            "city": "邵阳市",
            "district": "大祥区"
        }
    },
    {
        "id": "8971110745637073449",
        "title": "公共厕所(百富广场)",
        "address": "湖南省邵阳市邵东市百富广场内(南侧)",
        "tel": "",
        "category": "基础设施:公共设施:公共厕所",
        "type": 0,
        "location": {
            "lat": 27.255122,
            "lng": 111.741498
        },
        "ad_info": {
            "adcode": 430582,
            "province": "湖南省",
            "city": "邵阳市",
            "district": "邵东市"
        }
    },
    {
        "id": "4431925596040437740",
        "title": "公共厕所",
        "address": "湖南省邵阳市新邵县小溪路与新涟街交叉口东南方向77米左右",
        "tel": "",
        "category": "基础设施:公共设施:公共厕所",
        "type": 0,
        "location": {
            "lat": 27.322411,
            "lng": 111.467159
        },
        "ad_info": {
            "adcode": 430522,
            "province": "湖南省",
            "city": "邵阳市",
            "district": "新邵县"
        }
    },
    {
        "id": "3468973031883708921",
        "title": "公共厕所",
        "address": "湖南省邵阳市新邵县南北路与大新街交叉口正北方向133米左右",
        "tel": "",
        "category": "基础设施:公共设施:公共厕所",
        "type": 0,
        "location": {
            "lat": 27.322147,
            "lng": 111.460119
        },
        "ad_info": {
            "adcode": 430522,
            "province": "湖南省",
            "city": "邵阳市",
            "district": "新邵县"
        }
    },
    {
        "id": "15510542930167309255",
        "title": "公共厕所",
        "address": "湖南省邵阳市新邵县内环南路与蔡锷大道交叉口东南方向105米左右",
        "tel": "",
        "category": "基础设施:公共设施:公共厕所",
        "type": 0,
        "location": {
            "lat": 27.308162,
            "lng": 111.462548
        },
        "ad_info": {
            "adcode": 430522,
            "province": "湖南省",
            "city": "邵阳市",
            "district": "新邵县"
        }
    },
    {
        "id": "15798017912431419894",
        "title": "公共厕所",
        "address": "湖南省邵阳市邵阳县振羽大道与金塘路交叉口东南方向197米左右",
        "tel": "",
        "category": "基础设施:公共设施:公共厕所",
        "type": 0,
        "location": {
            "lat": 27.001149,
            "lng": 111.306973
        },
        "ad_info": {
            "adcode": 430523,
            "province": "湖南省",
            "city": "邵阳市",
            "district": "邵阳县"
        }
    },
    {
        "id": "15195257009545950472",
        "title": "公共厕所",
        "address": "湖南省邵阳市隆回县赧水北路与锦江路交叉口西南方向31米左右",
        "tel": "",
        "category": "基础设施:公共设施:公共厕所",
        "type": 0,
        "location": {
            "lat": 27.110265,
            "lng": 111.010817
        },
        "ad_info": {
            "adcode": 430524,
            "province": "湖南省",
            "city": "邵阳市",
            "district": "隆回县"
        }
    },
    {
        "id": "13543912005577256309",
        "title": "公共厕所",
        "address": "湖南省邵阳市大祥区宝春路与迎春路交叉口正东方向29米左右",
        "tel": "",
        "category": "基础设施:公共设施:公共厕所",
        "type": 0,
        "location": {
            "lat": 27.22561,
            "lng": 111.430974
        },
        "ad_info": {
            "adcode": 430503,
            "province": "湖南省",
            "city": "邵阳市",
            "district": "大祥区"
        }
    },
    {
        "id": "16489234433865845228",
        "title": "公共厕所",
        "address": "湖南省邵阳市邵东市文化路与解放路交叉口西北方向87米左右",
        "tel": "",
        "category": "基础设施:公共设施:公共厕所",
        "type": 0,
        "location": {
            "lat": 27.240402,
            "lng": 111.745542
        },
        "ad_info": {
            "adcode": 430582,
            "province": "湖南省",
            "city": "邵阳市",
            "district": "邵东市"
        }
    },
    {
        "id": "6517455917952072224",
        "title": "公共厕所",
        "address": "湖南省邵阳市双清区塔北路与长岭路交叉口西南方向179米左右",
        "tel": "",
        "category": "基础设施:公共设施:公共厕所",
        "type": 0,
        "location": {
            "lat": 27.247206,
            "lng": 111.487496
        },
        "ad_info": {
            "adcode": 430502,
            "province": "湖南省",
            "city": "邵阳市",
            "district": "双清区"
        }
    },
    {
        "id": "14050905234385611153",
        "title": "公共厕所",
        "address": "湖南省邵阳市邵东市百富路212号",
        "tel": "",
        "category": "基础设施:公共设施:公共厕所",
        "type": 0,
        "location": {
            "lat": 27.254859,
            "lng": 111.744176
        },
        "ad_info": {
            "adcode": 430582,
            "province": "湖南省",
            "city": "邵阳市",
            "district": "邵东市"
        }
    },
    {
        "id": "15208550603315024407",
        "title": "公共厕所",
        "address": "湖南省邵阳市武冈市机场路与航三路交叉口正南方向923米左右",
        "tel": "",
        "category": "基础设施:公共设施:公共厕所",
        "type": 0,
        "location": {
            "lat": 26.787513,
            "lng": 110.644353
        },
        "ad_info": {
            "adcode": 430581,
            "province": "湖南省",
            "city": "邵阳市",
            "district": "武冈市"
        }
    },
    {
        "id": "16417391422553588709",
        "title": "洗手间",
        "address": "湖南省邵阳市双清区宝庆东路与五一南路交叉口西南角友阿国际广场L4",
        "tel": "",
        "category": "基础设施:公共设施:公共厕所",
        "type": 0,
        "location": {
            "lat": 27.232326,
            "lng": 111.479705
        },
        "ad_info": {
            "adcode": 430502,
            "province": "湖南省",
            "city": "邵阳市",
            "district": "双清区"
        }
    },
    {
        "id": "9428493022452698879",
        "title": "公共厕所",
        "address": "湖南省邵阳市双清区和谐路与建设南路交叉口正北方向57米左右",
        "tel": "",
        "category": "基础设施:公共设施:公共厕所",
        "type": 0,
        "location": {
            "lat": 27.212185,
            "lng": 111.487665
        },
        "ad_info": {
            "adcode": 430502,
            "province": "湖南省",
            "city": "邵阳市",
            "district": "双清区"
        }
    },
    {
        "id": "3321895892462521231",
        "title": "公共厕所",
        "address": "湖南省邵阳市大祥区戴家路与敏州路交叉口西北方向72米左右",
        "tel": "",
        "category": "基础设施:公共设施:公共厕所",
        "type": 0,
        "location": {
            "lat": 27.221982,
            "lng": 111.466797
        },
        "ad_info": {
            "adcode": 430503,
            "province": "湖南省",
            "city": "邵阳市",
            "district": "大祥区"
        }
    },
    {
        "id": "11833141777368197077",
        "title": "公共厕所",
        "address": "湖南省邵阳市大祥区民族路与西湖路交叉口西北方向23米左右",
        "tel": "",
        "category": "基础设施:公共设施:公共厕所",
        "type": 0,
        "location": {
            "lat": 27.234062,
            "lng": 111.455488
        },
        "ad_info": {
            "adcode": 430503,
            "province": "湖南省",
            "city": "邵阳市",
            "district": "大祥区"
        }
    },
    {
        "id": "102676375378056806",
        "title": "公共厕所",
        "address": "湖南省邵阳市大祥区城北路与武圣街交叉口西北方向49米左右",
        "tel": "",
        "category": "基础设施:公共设施:公共厕所",
        "type": 0,
        "location": {
            "lat": 27.238597,
            "lng": 111.46477
        },
        "ad_info": {
            "adcode": 430503,
            "province": "湖南省",
            "city": "邵阳市",
            "district": "大祥区"
        }
    },
    {
        "id": "13807266482053920384",
        "title": "公共厕所",
        "address": "湖南省邵阳市双清区东大路与新兴路交叉口西南方向123米左右",
        "tel": "",
        "category": "基础设施:公共设施:公共厕所",
        "type": 0,
        "location": {
            "lat": 27.246771,
            "lng": 111.501419
        },
        "ad_info": {
            "adcode": 430502,
            "province": "湖南省",
            "city": "邵阳市",
            "district": "双清区"
        }
    },
    {
        "id": "9387807670579478087",
        "title": "公共厕所",
        "address": "湖南省邵阳市大祥区步月星城(联都国际购物中心东)",
        "tel": "",
        "category": "基础设施:公共设施:公共厕所",
        "type": 0,
        "location": {
            "lat": 27.237498,
            "lng": 111.457408
        },
        "ad_info": {
            "adcode": 430503,
            "province": "湖南省",
            "city": "邵阳市",
            "district": "大祥区"
        }
    },
    {
        "id": "17961105915912034486",
        "title": "公共厕所",
        "address": "湖南省邵阳市大祥区商干路与宝庆中路交叉口西北方向37米左右",
        "tel": "",
        "category": "基础设施:公共设施:公共厕所",
        "type": 0,
        "location": {
            "lat": 27.233792,
            "lng": 111.467289
        },
        "ad_info": {
            "adcode": 430503,
            "province": "湖南省",
            "city": "邵阳市",
            "district": "大祥区"
        }
    },
    {
        "id": "12465515171143115590",
        "title": "公共厕所",
        "address": "湖南省邵阳市洞口县桔城东路中国石化加油站(雪峰东路)",
        "tel": "",
        "category": "基础设施:公共设施:公共厕所",
        "type": 0,
        "location": {
            "lat": 27.062692,
            "lng": 110.592593
        },
        "ad_info": {
            "adcode": 430525,
            "province": "湖南省",
            "city": "邵阳市",
            "district": "洞口县"
        }
    },
    {
        "id": "5821861017863888557",
        "title": "公共厕所",
        "address": "湖南省邵阳市大祥区曹婆井鹏鹏理发店旁边",
        "tel": "",
        "category": "基础设施:公共设施:公共厕所",
        "type": 0,
        "location": {
            "lat": 27.237665,
            "lng": 111.468986
        },
        "ad_info": {
            "adcode": 430503,
            "province": "湖南省",
            "city": "邵阳市",
            "district": "大祥区"
        }
    },
    {
        "id": "14785379452592681528",
        "title": "公共厕所",
        "address": "湖南省邵阳市邵东市华电路与河南路交叉口正西方向390米左右",
        "tel": "",
        "category": "基础设施:公共设施:公共厕所",
        "type": 0,
        "location": {
            "lat": 27.254271,
            "lng": 111.722822
        },
        "ad_info": {
            "adcode": 430582,
            "province": "湖南省",
            "city": "邵阳市",
            "district": "邵东市"
        }
    },
    {
        "id": "11156057115174252735",
        "title": "公共厕所",
        "address": "湖南省邵阳市双清区五一南路与湘运新村路交叉口正东方向295米左右",
        "tel": "",
        "category": "基础设施:公共设施:公共厕所",
        "type": 0,
        "location": {
            "lat": 27.235624,
            "lng": 111.483558
        },
        "ad_info": {
            "adcode": 430502,
            "province": "湖南省",
            "city": "邵阳市",
            "district": "双清区"
        }
    },
    {
        "id": "3838960225349154724",
        "title": "公共厕所",
        "address": "湖南省邵阳市隆回县兴工路与桃花路交叉口西南方向199米左右",
        "tel": "",
        "category": "基础设施:公共设施:公共厕所",
        "type": 0,
        "location": {
            "lat": 27.090831,
            "lng": 111.058419
        },
        "ad_info": {
            "adcode": 430524,
            "province": "湖南省",
            "city": "邵阳市",
            "district": "隆回县"
        }
    },
    {
        "id": "251251741158066100",
        "title": "公共厕所",
        "address": "湖南省邵阳市邵东市湾林路垃圾收集站",
        "tel": "",
        "category": "基础设施:公共设施:公共厕所",
        "type": 0,
        "location": {
            "lat": 27.257559,
            "lng": 111.736355
        },
        "ad_info": {
            "adcode": 430582,
            "province": "湖南省",
            "city": "邵阳市",
            "district": "邵东市"
        }
    },
    {
        "id": "15848986097760985358",
        "title": "公共厕所",
        "address": "湖南省邵阳市北塔区状元东路一巷与状元路交叉口正东方向44米左右",
        "tel": "",
        "category": "基础设施:公共设施:公共厕所",
        "type": 0,
        "location": {
            "lat": 27.243597,
            "lng": 111.457824
        },
        "ad_info": {
            "adcode": 430511,
            "province": "湖南省",
            "city": "邵阳市",
            "district": "北塔区"
        }
    },
    {
        "id": "17607327371402340389",
        "title": "公共厕所",
        "address": "湖南省邵阳市双清区昭陵西路与资江一桥交叉口东北方向142米左右",
        "tel": "",
        "category": "基础设施:公共设施:公共厕所",
        "type": 0,
        "location": {
            "lat": 27.242811,
            "lng": 111.473754
        },
        "ad_info": {
            "adcode": 430502,
            "province": "湖南省",
            "city": "邵阳市",
            "district": "双清区"
        }
    },
    {
        "id": "6004287242747925970",
        "title": "公共厕所",
        "address": "湖南省邵阳市双清区G207与新阳路交叉口西南方向28米左右",
        "tel": "",
        "category": "基础设施:公共设施:公共厕所",
        "type": 0,
        "location": {
            "lat": 27.270307,
            "lng": 111.497094
        },
        "ad_info": {
            "adcode": 430502,
            "province": "湖南省",
            "city": "邵阳市",
            "district": "双清区"
        }
    },
    {
        "id": "9353616809752231015",
        "title": "公共厕所",
        "address": "湖南省邵阳市双清区昭陵西路与资江一桥交叉口正东方向134米左右",
        "tel": "",
        "category": "基础设施:公共设施:公共厕所",
        "type": 0,
        "location": {
            "lat": 27.242099,
            "lng": 111.473991
        },
        "ad_info": {
            "adcode": 430502,
            "province": "湖南省",
            "city": "邵阳市",
            "district": "双清区"
        }
    },
    {
        "id": "14653077870536748922",
        "title": "公共厕所",
        "address": "湖南省邵阳市邵东市成园路与金鸡路交叉口西南方向44米左右",
        "tel": "",
        "category": "基础设施:公共设施:公共厕所",
        "type": 0,
        "location": {
            "lat": 27.256944,
            "lng": 111.749314
        },
        "ad_info": {
            "adcode": 430582,
            "province": "湖南省",
            "city": "邵阳市",
            "district": "邵东市"
        }
    },
    {
        "id": "8034422095768111682",
        "title": "公共厕所",
        "address": "湖南省邵阳市邵东市衡宝路814号",
        "tel": "",
        "category": "基础设施:公共设施:公共厕所",
        "type": 0,
        "location": {
            "lat": 27.25607,
            "lng": 111.735541
        },
        "ad_info": {
            "adcode": 430582,
            "province": "湖南省",
            "city": "邵阳市",
            "district": "邵东市"
        }
    },
    {
        "id": "1101939278195629612",
        "title": "公共厕所",
        "address": "湖南省邵阳市双清区回栏街与昭陵西路交叉口东南方向65米左右",
        "tel": "",
        "category": "基础设施:公共设施:公共厕所",
        "type": 0,
        "location": {
            "lat": 27.241689,
            "lng": 111.475715
        },
        "ad_info": {
            "adcode": 430502,
            "province": "湖南省",
            "city": "邵阳市",
            "district": "双清区"
        }
    },
    {
        "id": "11907248314634914843",
        "title": "公共厕所",
        "address": "湖南省邵阳市大祥区南正街与城北路交叉口正西方向66米左右",
        "tel": "",
        "category": "基础设施:公共设施:公共厕所",
        "type": 0,
        "location": {
            "lat": 27.23642,
            "lng": 111.457871
        },
        "ad_info": {
            "adcode": 430503,
            "province": "湖南省",
            "city": "邵阳市",
            "district": "大祥区"
        }
    },
    {
        "id": "14438144273060072637",
        "title": "公共厕所",
        "address": "湖南省邵阳市双清区五一北路与大堤路交叉口正北方向107米左右",
        "tel": "",
        "category": "基础设施:公共设施:公共厕所",
        "type": 0,
        "location": {
            "lat": 27.257178,
            "lng": 111.474859
        },
        "ad_info": {
            "adcode": 430502,
            "province": "湖南省",
            "city": "邵阳市",
            "district": "双清区"
        }
    },
    {
        "id": "7132235847272699215",
        "title": "公共厕所",
        "address": "湖南省邵阳市洞口县大水互通与洞新高速交叉口西南方向398米左右",
        "tel": "",
        "category": "基础设施:公共设施:公共厕所",
        "type": 0,
        "location": {
            "lat": 27.007234,
            "lng": 110.687897
        },
        "ad_info": {
            "adcode": 430525,
            "province": "湖南省",
            "city": "邵阳市",
            "district": "洞口县"
        }
    },
    {
        "id": "5728374556810213206",
        "title": "公共厕所",
        "address": "湖南省邵阳市邵阳县G320与S334交叉口正西方向950米左右",
        "tel": "",
        "category": "基础设施:公共设施:公共厕所",
        "type": 0,
        "location": {
            "lat": 27.248163,
            "lng": 111.270695
        },
        "ad_info": {
            "adcode": 430523,
            "province": "湖南省",
            "city": "邵阳市",
            "district": "邵阳县"
        }
    },
    {
        "id": "4213324883389342652",
        "title": "公共厕所",
        "address": "湖南省邵阳市隆回县鸭乐路与鸭田大道交叉口正东方向640米左右",
        "tel": "",
        "category": "基础设施:公共设施:公共厕所",
        "type": 0,
        "location": {
            "lat": 27.589491,
            "lng": 111.023231
        },
        "ad_info": {
            "adcode": 430524,
            "province": "湖南省",
            "city": "邵阳市",
            "district": "隆回县"
        }
    },
    {
        "id": "11586780790583264885",
        "title": "公共厕所",
        "address": "湖南省邵阳市北塔区云山路与龙源路交叉口正西方向274米左右",
        "tel": "",
        "category": "基础设施:公共设施:公共厕所",
        "type": 0,
        "location": {
            "lat": 27.26046,
            "lng": 111.45311
        },
        "ad_info": {
            "adcode": 430511,
            "province": "湖南省",
            "city": "邵阳市",
            "district": "北塔区"
        }
    },
    {
        "id": "12206701560489814549",
        "title": "公共厕所",
        "address": "湖南省邵阳市北塔区资园十二巷与魏源路交叉口正北方向196米左右",
        "tel": "",
        "category": "基础设施:公共设施:公共厕所",
        "type": 0,
        "location": {
            "lat": 27.24725,
            "lng": 111.451084
        },
        "ad_info": {
            "adcode": 430511,
            "province": "湖南省",
            "city": "邵阳市",
            "district": "北塔区"
        }
    },
    {
        "id": "4550078331455932205",
        "title": "公共厕所",
        "address": "湖南省邵阳市双清区财桥路与集仙路交叉口东北方向82米左右",
        "tel": "",
        "category": "基础设施:公共设施:公共厕所",
        "type": 0,
        "location": {
            "lat": 27.248564,
            "lng": 111.530837
        },
        "ad_info": {
            "adcode": 430502,
            "province": "湖南省",
            "city": "邵阳市",
            "district": "双清区"
        }
    },
    {
        "id": "8230609921992964232",
        "title": "公共厕所",
        "address": "湖南省邵阳市大祥区双园路火车南站建材城8号安置小区",
        "tel": "",
        "category": "基础设施:公共设施:公共厕所",
        "type": 0,
        "location": {
            "lat": 27.218492,
            "lng": 111.456436
        },
        "ad_info": {
            "adcode": 430503,
            "province": "湖南省",
            "city": "邵阳市",
            "district": "大祥区"
        }
    },
    {
        "id": "4996171770521589585",
        "title": "公共厕所",
        "address": "湖南省邵阳市北塔区中山路与西湖北路交叉口西南方向385米左右",
        "tel": "",
        "category": "基础设施:公共设施:公共厕所",
        "type": 0,
        "location": {
            "lat": 27.277056,
            "lng": 111.456686
        },
        "ad_info": {
            "adcode": 430511,
            "province": "湖南省",
            "city": "邵阳市",
            "district": "北塔区"
        }
    },
    {
        "id": "9394067488210860539",
        "title": "公共厕所",
        "address": "湖南省邵阳市洞口县广场北入口与砚龙路交叉口东北方向36米左右",
        "tel": "",
        "category": "基础设施:公共设施:公共厕所",
        "type": 0,
        "location": {
            "lat": 27.0638,
            "lng": 110.587063
        },
        "ad_info": {
            "adcode": 430525,
            "province": "湖南省",
            "city": "邵阳市",
            "district": "洞口县"
        }
    },
    {
        "id": "9462506859669305891",
        "title": "公共厕所",
        "address": "湖南省邵阳市武冈市G241与X130交叉口正北方向647米左右",
        "tel": "",
        "category": "基础设施:公共设施:公共厕所",
        "type": 0,
        "location": {
            "lat": 26.880884,
            "lng": 110.643689
        },
        "ad_info": {
            "adcode": 430581,
            "province": "湖南省",
            "city": "邵阳市",
            "district": "武冈市"
        }
    },
    {
        "id": "4588748963317645462",
        "title": "邵东火车站卫生间",
        "address": "湖南省邵阳市邵东市站前佳苑东侧270米",
        "tel": "",
        "category": "基础设施:公共设施:公共厕所",
        "type": 0,
        "location": {
            "lat": 27.274304,
            "lng": 111.747049
        },
        "ad_info": {
            "adcode": 430582,
            "province": "湖南省",
            "city": "邵阳市",
            "district": "邵东市"
        }
    },
    {
        "id": "8236307940765885902",
        "title": "公共厕所",
        "address": "湖南省邵阳市洞口县G241与X067交叉口正北方向934米左右",
        "tel": "",
        "category": "基础设施:公共设施:公共厕所",
        "type": 0,
        "location": {
            "lat": 26.97021,
            "lng": 110.679809
        },
        "ad_info": {
            "adcode": 430525,
            "province": "湖南省",
            "city": "邵阳市",
            "district": "洞口县"
        }
    },
    {
        "id": "16798133135147095624",
        "title": "公共厕所",
        "address": "湖南省邵阳市北塔区宜兴路四巷与宜旺街交叉口西南方向13米左右",
        "tel": "",
        "category": "基础设施:公共设施:公共厕所",
        "type": 0,
        "location": {
            "lat": 27.241932,
            "lng": 111.454191
        },
        "ad_info": {
            "adcode": 430511,
            "province": "湖南省",
            "city": "邵阳市",
            "district": "北塔区"
        }
    },
    {
        "id": "15913106746576781342",
        "title": "公共厕所",
        "address": "湖南省邵阳市新邵县云岭路与江南路交叉口东北方向28米左右",
        "tel": "",
        "category": "基础设施:公共设施:公共厕所",
        "type": 0,
        "location": {
            "lat": 27.304869,
            "lng": 111.466415
        },
        "ad_info": {
            "adcode": 430522,
            "province": "湖南省",
            "city": "邵阳市",
            "district": "新邵县"
        }
    },
    {
        "id": "6836353626532769232",
        "title": "公共厕所",
        "address": "湖南省邵阳市双清区昭陵西路与资江一桥交叉口东南方向102米左右",
        "tel": "",
        "category": "基础设施:公共设施:公共厕所",
        "type": 0,
        "location": {
            "lat": 27.241402,
            "lng": 111.47343
        },
        "ad_info": {
            "adcode": 430502,
            "province": "湖南省",
            "city": "邵阳市",
            "district": "双清区"
        }
    },
    {
        "id": "4176051827346037503",
        "title": "公共厕所",
        "address": "湖南省邵阳市武冈市乐洋路与电台路交叉口东北方向35米左右",
        "tel": "",
        "category": "基础设施:公共设施:公共厕所",
        "type": 0,
        "location": {
            "lat": 26.730074,
            "lng": 110.63323
        },
        "ad_info": {
            "adcode": 430581,
            "province": "湖南省",
            "city": "邵阳市",
            "district": "武冈市"
        }
    },
    {
        "id": "11087460003556005105",
        "title": "公共厕所",
        "address": "湖南省邵阳市隆回县帽子石街与赧水北路交叉口东南方向57米左右",
        "tel": "",
        "category": "基础设施:公共设施:公共厕所",
        "type": 0,
        "location": {
            "lat": 27.11001,
            "lng": 111.02788
        },
        "ad_info": {
            "adcode": 430524,
            "province": "湖南省",
            "city": "邵阳市",
            "district": "隆回县"
        }
    },
    {
        "id": "17183696288540318702",
        "title": "公共厕所",
        "address": "湖南省邵阳市洞口县G320与X117交叉口东北方向216米左右",
        "tel": "",
        "category": "基础设施:公共设施:公共厕所",
        "type": 0,
        "location": {
            "lat": 27.091942,
            "lng": 110.693419
        },
        "ad_info": {
            "adcode": 430525,
            "province": "湖南省",
            "city": "邵阳市",
            "district": "洞口县"
        }
    },
    {
        "id": "14095476204285585294",
        "title": "公共厕所",
        "address": "湖南省邵阳市邵阳县市场路与环湖路交叉口正西方向195米左右",
        "tel": "",
        "category": "基础设施:公共设施:公共厕所",
        "type": 0,
        "location": {
            "lat": 27.001295,
            "lng": 111.307462
        },
        "ad_info": {
            "adcode": 430523,
            "province": "湖南省",
            "city": "邵阳市",
            "district": "邵阳县"
        }
    },
    {
        "id": "17087586407271589633",
        "title": "公共厕所",
        "address": "湖南省邵阳市洞口县双龙东路与新华中路交叉口正南方向74米左右",
        "tel": "",
        "category": "基础设施:公共设施:公共厕所",
        "type": 0,
        "location": {
            "lat": 27.060336,
            "lng": 110.589279
        },
        "ad_info": {
            "adcode": 430525,
            "province": "湖南省",
            "city": "邵阳市",
            "district": "洞口县"
        }
    },
    {
        "id": "13692743887508844076",
        "title": "公共厕所",
        "address": "湖南省邵阳市新宁县迎宾街与金龟路交叉口正南方向62米左右",
        "tel": "",
        "category": "基础设施:公共设施:公共厕所",
        "type": 0,
        "location": {
            "lat": 26.446466,
            "lng": 110.854802
        },
        "ad_info": {
            "adcode": 430528,
            "province": "湖南省",
            "city": "邵阳市",
            "district": "新宁县"
        }
    },
    {
        "id": "3019748064253816235",
        "title": "公共厕所",
        "address": "湖南省邵阳市隆回县朝阳路与洪塘街交叉口东南方向19米左右",
        "tel": "",
        "category": "基础设施:公共设施:公共厕所",
        "type": 0,
        "location": {
            "lat": 27.112511,
            "lng": 111.035355
        },
        "ad_info": {
            "adcode": 430524,
            "province": "湖南省",
            "city": "邵阳市",
            "district": "隆回县"
        }
    },
    {
        "id": "14568852405380389896",
        "title": "公共厕所",
        "address": "湖南省邵阳市邵阳县大桥路与环虎路交叉口正北方向37米左右",
        "tel": "",
        "category": "基础设施:公共设施:公共厕所",
        "type": 0,
        "location": {
            "lat": 26.989063,
            "lng": 111.274767
        },
        "ad_info": {
            "adcode": 430523,
            "province": "湖南省",
            "city": "邵阳市",
            "district": "邵阳县"
        }
    },
    {
        "id": "16517509232348410263",
        "title": "公共厕所",
        "address": "湖南省邵阳市大祥区苗圃巷与铜铃西路交叉口东南方向30米左右",
        "tel": "",
        "category": "基础设施:公共设施:公共厕所",
        "type": 0,
        "location": {
            "lat": 27.213941,
            "lng": 111.45894
        },
        "ad_info": {
            "adcode": 430503,
            "province": "湖南省",
            "city": "邵阳市",
            "district": "大祥区"
        }
    },
    {
        "id": "9039403255546902887",
        "title": "公共厕所",
        "address": "湖南省邵阳市洞口县健民路与桔城西路交叉口正东方向94米左右",
        "tel": "",
        "category": "基础设施:公共设施:公共厕所",
        "type": 0,
        "location": {
            "lat": 27.061299,
            "lng": 110.57485
        },
        "ad_info": {
            "adcode": 430525,
            "province": "湖南省",
            "city": "邵阳市",
            "district": "洞口县"
        }
    },
    {
        "id": "4105992538747404326",
        "title": "公共厕所",
        "address": "湖南省邵阳市新宁县箭楼街新宁县人民政府",
        "tel": "",
        "category": "基础设施:公共设施:公共厕所",
        "type": 0,
        "location": {
            "lat": 26.433771,
            "lng": 110.857215
        },
        "ad_info": {
            "adcode": 430528,
            "province": "湖南省",
            "city": "邵阳市",
            "district": "新宁县"
        }
    },
    {
        "id": "13938226608733360401",
        "title": "公共厕所",
        "address": "湖南省邵阳市双清区东大路与五一北路交叉口正北方向64米左右",
        "tel": "",
        "category": "基础设施:公共设施:公共厕所",
        "type": 0,
        "location": {
            "lat": 27.24096,
            "lng": 111.480299
        },
        "ad_info": {
            "adcode": 430502,
            "province": "湖南省",
            "city": "邵阳市",
            "district": "双清区"
        }
    },
    {
        "id": "16475458171177938386",
        "title": "上堡古国-公共厕所",
        "address": "湖南省邵阳市绥宁县上堡古国-菩萨崖西侧80米",
        "tel": "",
        "category": "基础设施:公共设施:公共厕所",
        "type": 0,
        "location": {
            "lat": 26.455826,
            "lng": 110.106837
        },
        "ad_info": {
            "adcode": 430527,
            "province": "湖南省",
            "city": "邵阳市",
            "district": "绥宁县"
        }
    },
    {
        "id": "14417811432691898802",
        "title": "邵阳服务区公共厕所",
        "address": "湖南省邵阳市邵阳县G55二广高速与邵阳服务区交叉口西南300米",
        "tel": "",
        "category": "基础设施:公共设施:公共厕所",
        "type": 0,
        "location": {
            "lat": 26.974125,
            "lng": 111.353455
        },
        "ad_info": {
            "adcode": 430523,
            "province": "湖南省",
            "city": "邵阳市",
            "district": "邵阳县"
        }
    },
    {
        "id": "7696479023174872533",
        "title": "公共厕所",
        "address": "湖南省邵阳市城步苗族自治县儒林大道与新田路交叉口东南方向87米左右",
        "tel": "",
        "category": "基础设施:公共设施:公共厕所",
        "type": 0,
        "location": {
            "lat": 26.364261,
            "lng": 110.315606
        },
        "ad_info": {
            "adcode": 430529,
            "province": "湖南省",
            "city": "邵阳市",
            "district": "城步苗族自治县"
        }
    },
    {
        "id": "5570429723753623611",
        "title": "肯德基(帝王餐厅)洗手间",
        "address": "湖南省邵阳市北塔区西湖北路与魏源路交叉口东北方向83米左右",
        "tel": "",
        "category": "基础设施:公共设施:公共厕所",
        "type": 0,
        "location": {
            "lat": 27.245757,
            "lng": 111.457267
        },
        "ad_info": {
            "adcode": 430511,
            "province": "湖南省",
            "city": "邵阳市",
            "district": "北塔区"
        }
    },
    {
        "id": "4132308172526435202",
        "title": "公共厕所",
        "address": "湖南省邵阳市双清区保宁一巷与邵水东路交叉口东北方向69米左右",
        "tel": "",
        "category": "基础设施:公共设施:公共厕所",
        "type": 0,
        "location": {
            "lat": 27.237032,
            "lng": 111.473603
        },
        "ad_info": {
            "adcode": 430502,
            "province": "湖南省",
            "city": "邵阳市",
            "district": "双清区"
        }
    },
    {
        "id": "10281399695285763801",
        "title": "公共厕所",
        "address": "湖南省邵阳市大祥区乾元巷与碟子塘路交叉口西北方向52米左右",
        "tel": "",
        "category": "基础设施:公共设施:公共厕所",
        "type": 0,
        "location": {
            "lat": 27.234514,
            "lng": 111.46016
        },
        "ad_info": {
            "adcode": 430503,
            "province": "湖南省",
            "city": "邵阳市",
            "district": "大祥区"
        }
    },
    {
        "id": "12165343700689632324",
        "title": "八角寨风景区-公共厕所",
        "address": "湖南省邵阳市新宁县",
        "tel": "",
        "category": "基础设施:公共设施:公共厕所",
        "type": 0,
        "location": {
            "lat": 26.273398,
            "lng": 110.743438
        },
        "ad_info": {
            "adcode": 430528,
            "province": "湖南省",
            "city": "邵阳市",
            "district": "新宁县"
        }
    },
    {
        "id": "15710467942018489336",
        "title": "呙家园小学公共厕所",
        "address": "湖南省邵阳市大祥区乾元二巷与大安街交叉口正西方向41米左右",
        "tel": "",
        "category": "基础设施:公共设施:公共厕所",
        "type": 0,
        "location": {
            "lat": 27.233551,
            "lng": 111.458184
        },
        "ad_info": {
            "adcode": 430503,
            "province": "湖南省",
            "city": "邵阳市",
            "district": "大祥区"
        }
    },
    {
        "id": "4681784842414702188",
        "title": "友阿国际商业广场-男洗手间",
        "address": "湖南省邵阳市双清区宝庆东路与五一南路交叉口西南角友阿国际广场L6",
        "tel": "",
        "category": "基础设施:公共设施:公共厕所",
        "type": 0,
        "location": {
            "lat": 27.232326,
            "lng": 111.479705
        },
        "ad_info": {
            "adcode": 430502,
            "province": "湖南省",
            "city": "邵阳市",
            "district": "双清区"
        }
    },
    {
        "id": "15304051680428752309",
        "title": "宝庆服务区公共厕所",
        "address": "湖南省邵阳市大祥区檀江乡双江沪昆高速公路宝庆服务区",
        "tel": "",
        "category": "基础设施:公共设施:公共厕所",
        "type": 0,
        "location": {
            "lat": 27.187041,
            "lng": 111.507499
        },
        "ad_info": {
            "adcode": 430503,
            "province": "湖南省",
            "city": "邵阳市",
            "district": "大祥区"
        }
    },
    {
        "id": "10569977977124185089",
        "title": "邵阳服务区-公共厕所",
        "address": "湖南省邵阳市邵阳县二广高速",
        "tel": "",
        "category": "基础设施:公共设施:公共厕所",
        "type": 0,
        "location": {
            "lat": 26.973322,
            "lng": 111.354423
        },
        "ad_info": {
            "adcode": 430523,
            "province": "湖南省",
            "city": "邵阳市",
            "district": "邵阳县"
        }
    },
    {
        "id": "5408477809230210214",
        "title": "洞口服务区第二公共厕所",
        "address": "湖南省邵阳市洞口县木桥路与经开路交叉口正南方向333米左右",
        "tel": "",
        "category": "基础设施:公共设施:公共厕所",
        "type": 0,
        "location": {
            "lat": 27.036262,
            "lng": 110.608021
        },
        "ad_info": {
            "adcode": 430525,
            "province": "湖南省",
            "city": "邵阳市",
            "district": "洞口县"
        }
    },
    {
        "id": "1554958103179712629",
        "title": "八角寨风景区-公共厕所",
        "address": "湖南省邵阳市新宁县",
        "tel": "",
        "category": "基础设施:公共设施:公共厕所",
        "type": 0,
        "location": {
            "lat": 26.276742,
            "lng": 110.745988
        },
        "ad_info": {
            "adcode": 430528,
            "province": "湖南省",
            "city": "邵阳市",
            "district": "新宁县"
        }
    },
    {
        "id": "3580137866369165187",
        "title": "公共厕所",
        "address": "湖南省邵阳市大祥区大祥路与资江南路交叉口正西方向254米左右",
        "tel": "",
        "category": "基础设施:公共设施:公共厕所",
        "type": 0,
        "location": {
            "lat": 27.23774,
            "lng": 111.441785
        },
        "ad_info": {
            "adcode": 430503,
            "province": "湖南省",
            "city": "邵阳市",
            "district": "大祥区"
        }
    },
    {
        "id": "9256514100794191833",
        "title": "火厂坪服务区公共厕所",
        "address": "湖南省邵阳市邵东市衡邵高速火厂坪服务区",
        "tel": "",
        "category": "基础设施:公共设施:公共厕所",
        "type": 0,
        "location": {
            "lat": 27.165386,
            "lng": 111.868992
        },
        "ad_info": {
            "adcode": 430582,
            "province": "湖南省",
            "city": "邵阳市",
            "district": "邵东市"
        }
    },
    {
        "id": "694071874292871091",
        "title": "洞口服务区公共厕所",
        "address": "湖南省邵阳市洞口县木桥路与经开路交叉口正南方向463米左右",
        "tel": "",
        "category": "基础设施:公共设施:公共厕所",
        "type": 0,
        "location": {
            "lat": 27.035146,
            "lng": 110.607381
        },
        "ad_info": {
            "adcode": 430525,
            "province": "湖南省",
            "city": "邵阳市",
            "district": "洞口县"
        }
    },
    {
        "id": "17377279388416195910",
        "title": "蔡锷服务区公共厕所",
        "address": "湖南省邵阳市新邵县二广高速蔡锷服务区",
        "tel": "",
        "category": "基础设施:公共设施:公共厕所",
        "type": 0,
        "location": {
            "lat": 27.339964,
            "lng": 111.425188
        },
        "ad_info": {
            "adcode": 430522,
            "province": "湖南省",
            "city": "邵阳市",
            "district": "新邵县"
        }
    },
    {
        "id": "11949074960034600893",
        "title": "公共厕所",
        "address": "湖南省邵阳市大祥区城北路与西湖路辅路交叉口东100米",
        "tel": "",
        "category": "基础设施:公共设施:公共厕所",
        "type": 0,
        "location": {
            "lat": 27.236713,
            "lng": 111.457136
        },
        "ad_info": {
            "adcode": 430503,
            "province": "湖南省",
            "city": "邵阳市",
            "district": "大祥区"
        }
    },
    {
        "id": "7065865903425937001",
        "title": "洞口服务区公共厕所",
        "address": "湖南省邵阳市洞口县木桥路与经开路交叉口正南方向288米左右",
        "tel": "",
        "category": "基础设施:公共设施:公共厕所",
        "type": 0,
        "location": {
            "lat": 27.036686,
            "lng": 110.608547
        },
        "ad_info": {
            "adcode": 430525,
            "province": "湖南省",
            "city": "邵阳市",
            "district": "洞口县"
        }
    },
    {
        "id": "11759881388010789450",
        "title": "武冈服务区第二公共厕所",
        "address": "湖南省邵阳市洞口县X062与X130交叉口西南方向1191米左右",
        "tel": "",
        "category": "基础设施:公共设施:公共厕所",
        "type": 0,
        "location": {
            "lat": 26.880895,
            "lng": 110.68519
        },
        "ad_info": {
            "adcode": 430525,
            "province": "湖南省",
            "city": "邵阳市",
            "district": "洞口县"
        }
    },
    {
        "id": "603552015259234224",
        "title": "无障碍公共厕所",
        "address": "湖南省邵阳市大祥区宝庆西路与金家路交叉口正东方向119米左右",
        "tel": "",
        "category": "基础设施:公共设施:公共厕所",
        "type": 0,
        "location": {
            "lat": 27.230128,
            "lng": 111.442424
        },
        "ad_info": {
            "adcode": 430503,
            "province": "湖南省",
            "city": "邵阳市",
            "district": "大祥区"
        }
    },
    {
        "id": "9302016710124905897",
        "title": "公共厕所",
        "address": "湖南省邵阳市邵东市翰林农庄景区停车场",
        "tel": "",
        "category": "基础设施:公共设施:公共厕所",
        "type": 0,
        "location": {
            "lat": 27.169177,
            "lng": 111.613845
        },
        "ad_info": {
            "adcode": 430582,
            "province": "湖南省",
            "city": "邵阳市",
            "district": "邵东市"
        }
    },
    {
        "id": "2185360522344839423",
        "title": "公共厕所",
        "address": "湖南省邵阳市双清区保宁三巷与保宁二巷交叉口正北方向132米左右",
        "tel": "",
        "category": "基础设施:公共设施:公共厕所",
        "type": 0,
        "location": {
            "lat": 27.237299,
            "lng": 111.474288
        },
        "ad_info": {
            "adcode": 430502,
            "province": "湖南省",
            "city": "邵阳市",
            "district": "双清区"
        }
    },
    {
        "id": "12074721201740818699",
        "title": "公共厕所",
        "address": "湖南省邵阳市邵东市兴和大道与宋矿路交叉口正南方向90米左右",
        "tel": "",
        "category": "基础设施:公共设施:公共厕所",
        "type": 0,
        "location": {
            "lat": 27.257395,
            "lng": 111.754891
        },
        "ad_info": {
            "adcode": 430582,
            "province": "湖南省",
            "city": "邵阳市",
            "district": "邵东市"
        }
    },
    {
        "id": "10299334357337487132",
        "title": "公共厕所",
        "address": "湖南省邵阳市双清区五井塘路与双坡南路交叉口东北方向123米左右",
        "tel": "",
        "category": "基础设施:公共设施:公共厕所",
        "type": 0,
        "location": {
            "lat": 27.240558,
            "lng": 111.497641
        },
        "ad_info": {
            "adcode": 430502,
            "province": "湖南省",
            "city": "邵阳市",
            "district": "双清区"
        }
    },
    {
        "id": "12909023871080550294",
        "title": "大祥群众文化广场-公共厕所",
        "address": "湖南省邵阳市大祥区复兴巷与红旗路交叉口西南方向42米左右",
        "tel": "",
        "category": "基础设施:公共设施:公共厕所",
        "type": 0,
        "location": {
            "lat": 27.234885,
            "lng": 111.461386
        },
        "ad_info": {
            "adcode": 430503,
            "province": "湖南省",
            "city": "邵阳市",
            "district": "大祥区"
        }
    },
    {
        "id": "17040906921042962014",
        "title": "公共厕所",
        "address": "湖南省邵阳市大祥区宝庆西路与樟垅路交叉口正东方向160米左右",
        "tel": "",
        "category": "基础设施:公共设施:公共厕所",
        "type": 0,
        "location": {
            "lat": 27.230372,
            "lng": 111.436207
        },
        "ad_info": {
            "adcode": 430503,
            "province": "湖南省",
            "city": "邵阳市",
            "district": "大祥区"
        }
    },
    {
        "id": "1619691668674704010",
        "title": "公共厕所",
        "address": "湖南省邵阳市邵东市宋矿路与昭阳大道交叉口正东方向172米左右",
        "tel": "",
        "category": "基础设施:公共设施:公共厕所",
        "type": 0,
        "location": {
            "lat": 27.26259,
            "lng": 111.756668
        },
        "ad_info": {
            "adcode": 430582,
            "province": "湖南省",
            "city": "邵阳市",
            "district": "邵东市"
        }
    },
    {
        "id": "15072134754478229405",
        "title": "公共厕所",
        "address": "湖南省邵阳市双清区工业街公园一号家常馆",
        "tel": "",
        "category": "基础设施:公共设施:公共厕所",
        "type": 0,
        "location": {
            "lat": 27.25026,
            "lng": 111.476447
        },
        "ad_info": {
            "adcode": 430502,
            "province": "湖南省",
            "city": "邵阳市",
            "district": "双清区"
        }
    },
    {
        "id": "18377340413876906735",
        "title": "砂塘中转站公共厕所",
        "address": "湖南省邵阳市双清区博文小学西侧160米",
        "tel": "",
        "category": "基础设施:公共设施:公共厕所",
        "type": 0,
        "location": {
            "lat": 27.24028,
            "lng": 111.540854
        },
        "ad_info": {
            "adcode": 430502,
            "province": "湖南省",
            "city": "邵阳市",
            "district": "双清区"
        }
    },
    {
        "id": "13095627283672032826",
        "title": "公共厕所",
        "address": "湖南省邵阳市大祥区九井湾巷与青云街交叉口东南方向142米左右",
        "tel": "",
        "category": "基础设施:公共设施:公共厕所",
        "type": 0,
        "location": {
            "lat": 27.233666,
            "lng": 111.464902
        },
        "ad_info": {
            "adcode": 430503,
            "province": "湖南省",
            "city": "邵阳市",
            "district": "大祥区"
        }
    },
    {
        "id": "10364145923646945552",
        "title": "公共厕所",
        "address": "湖南省邵阳市邵阳县振兴路与振羽大道交叉口正南方向132米左右",
        "tel": "",
        "category": "基础设施:公共设施:公共厕所",
        "type": 0,
        "location": {
            "lat": 27.000687,
            "lng": 111.304265
        },
        "ad_info": {
            "adcode": 430523,
            "province": "湖南省",
            "city": "邵阳市",
            "district": "邵阳县"
        }
    },
    {
        "id": "1952116314931920844",
        "title": "公共厕所",
        "address": "湖南省邵阳市武冈市司马冲镇九年制学校南侧240米",
        "tel": "",
        "category": "基础设施:公共设施:公共厕所",
        "type": 0,
        "location": {
            "lat": 26.595843,
            "lng": 110.737752
        },
        "ad_info": {
            "adcode": 430581,
            "province": "湖南省",
            "city": "邵阳市",
            "district": "武冈市"
        }
    },
    {
        "id": "3087547334155460536",
        "title": "公共厕所",
        "address": "湖南省邵阳市城步苗族自治县中心路与儒林大道交叉口正东方向53米左右",
        "tel": "",
        "category": "基础设施:公共设施:公共厕所",
        "type": 0,
        "location": {
            "lat": 26.360251,
            "lng": 110.313041
        },
        "ad_info": {
            "adcode": 430529,
            "province": "湖南省",
            "city": "邵阳市",
            "district": "城步苗族自治县"
        }
    },
    {
        "id": "1102674791876498870",
        "title": "公共厕所",
        "address": "湖南省邵阳市邵东市乾元路与北岭路交叉口东南方向111米左右",
        "tel": "",
        "category": "基础设施:公共设施:公共厕所",
        "type": 0,
        "location": {
            "lat": 27.268488,
            "lng": 111.745984
        },
        "ad_info": {
            "adcode": 430582,
            "province": "湖南省",
            "city": "邵阳市",
            "district": "邵东市"
        }
    },
    {
        "id": "9488731678266632581",
        "title": "公共厕所",
        "address": "湖南省邵阳市武冈市商三街与城壕西路交叉口西南方向31米左右",
        "tel": "",
        "category": "基础设施:公共设施:公共厕所",
        "type": 0,
        "location": {
            "lat": 26.732635,
            "lng": 110.62608
        },
        "ad_info": {
            "adcode": 430581,
            "province": "湖南省",
            "city": "邵阳市",
            "district": "武冈市"
        }
    },
    {
        "id": "6147996955259326192",
        "title": "公共厕所",
        "address": "湖南省邵阳市大祥区民族二巷与西外街交叉口正西方向87米左右",
        "tel": "",
        "category": "基础设施:公共设施:公共厕所",
        "type": 0,
        "location": {
            "lat": 27.236945,
            "lng": 111.451475
        },
        "ad_info": {
            "adcode": 430503,
            "province": "湖南省",
            "city": "邵阳市",
            "district": "大祥区"
        }
    },
    {
        "id": "3131583033130884707",
        "title": "公共厕所",
        "address": "湖南省邵阳市邵东市北岭路与竹苑路交叉口西南方向56米左右",
        "tel": "",
        "category": "基础设施:公共设施:公共厕所",
        "type": 0,
        "location": {
            "lat": 27.269114,
            "lng": 111.739416
        },
        "ad_info": {
            "adcode": 430582,
            "province": "湖南省",
            "city": "邵阳市",
            "district": "邵东市"
        }
    },
    {
        "id": "17082244748205271945",
        "title": "呙家园大公共厕所",
        "address": "湖南省邵阳市大祥区乾元二巷与大安街交叉口正西方向147米左右",
        "tel": "",
        "category": "基础设施:公共设施:公共厕所",
        "type": 0,
        "location": {
            "lat": 27.234038,
            "lng": 111.457206
        },
        "ad_info": {
            "adcode": 430503,
            "province": "湖南省",
            "city": "邵阳市",
            "district": "大祥区"
        }
    },
    {
        "id": "6022296749388476663",
        "title": "公共厕所",
        "address": "湖南省邵阳市新宁县220省道东50米",
        "tel": "",
        "category": "基础设施:公共设施:公共厕所",
        "type": 0,
        "location": {
            "lat": 26.543247,
            "lng": 110.757789
        },
        "ad_info": {
            "adcode": 430528,
            "province": "湖南省",
            "city": "邵阳市",
            "district": "新宁县"
        }
    },
    {
        "id": "1213268019288656995",
        "title": "公共厕所",
        "address": "湖南省邵阳市大祥区科文路与邵水西路交叉口正北方向52米左右",
        "tel": "",
        "category": "基础设施:公共设施:公共厕所",
        "type": 0,
        "location": {
            "lat": 27.231034,
            "lng": 111.473962
        },
        "ad_info": {
            "adcode": 430503,
            "province": "湖南省",
            "city": "邵阳市",
            "district": "大祥区"
        }
    },
    {
        "id": "6440156145611105229",
        "title": "公共厕所",
        "address": "湖南省邵阳市大祥区乾元二巷与大安街交叉口正西方向123米左右",
        "tel": "",
        "category": "基础设施:公共设施:公共厕所",
        "type": 0,
        "location": {
            "lat": 27.233377,
            "lng": 111.45737
        },
        "ad_info": {
            "adcode": 430503,
            "province": "湖南省",
            "city": "邵阳市",
            "district": "大祥区"
        }
    },
    {
        "id": "11349936988121477752",
        "title": "公共厕所",
        "address": "湖南省邵阳市双清区五一北路与刘家巷交叉口正东方向28米左右",
        "tel": "",
        "category": "基础设施:公共设施:公共厕所",
        "type": 0,
        "location": {
            "lat": 27.25963,
            "lng": 111.47289
        },
        "ad_info": {
            "adcode": 430502,
            "province": "湖南省",
            "city": "邵阳市",
            "district": "双清区"
        }
    },
    {
        "id": "15738134290167074499",
        "title": "公共厕所",
        "address": "湖南省邵阳市大祥区立新街与红旗路交叉口东南方向113米左右",
        "tel": "",
        "category": "基础设施:公共设施:公共厕所",
        "type": 0,
        "location": {
            "lat": 27.2348,
            "lng": 111.466936
        },
        "ad_info": {
            "adcode": 430503,
            "province": "湖南省",
            "city": "邵阳市",
            "district": "大祥区"
        }
    },
    {
        "id": "17924254113775869930",
        "title": "公共厕所",
        "address": "湖南省邵阳市邵阳县科峰苗木南侧90米",
        "tel": "",
        "category": "基础设施:公共设施:公共厕所",
        "type": 0,
        "location": {
            "lat": 26.849483,
            "lng": 111.426854
        },
        "ad_info": {
            "adcode": 430523,
            "province": "湖南省",
            "city": "邵阳市",
            "district": "邵阳县"
        }
    },
    {
        "id": "12958733609086947343",
        "title": "公共厕所",
        "address": "湖南省邵阳市双清区中河街与邵水东路交叉口正北方向135米左右",
        "tel": "",
        "category": "基础设施:公共设施:公共厕所",
        "type": 0,
        "location": {
            "lat": 27.24011,
            "lng": 111.4717
        },
        "ad_info": {
            "adcode": 430502,
            "province": "湖南省",
            "city": "邵阳市",
            "district": "双清区"
        }
    },
    {
        "id": "3741834170580140182",
        "title": "公共厕所",
        "address": "湖南省邵阳市双清区和谐路与建设南路交叉口东南方向232米左右",
        "tel": "",
        "category": "基础设施:公共设施:公共厕所",
        "type": 0,
        "location": {
            "lat": 27.20999,
            "lng": 111.48882
        },
        "ad_info": {
            "adcode": 430502,
            "province": "湖南省",
            "city": "邵阳市",
            "district": "双清区"
        }
    },
    {
        "id": "15545554748739355065",
        "title": "公共厕所",
        "address": "湖南省邵阳市新邵县东西路与文化街交叉口正东方向103米左右",
        "tel": "",
        "category": "基础设施:公共设施:公共厕所",
        "type": 0,
        "location": {
            "lat": 27.326746,
            "lng": 111.463517
        },
        "ad_info": {
            "adcode": 430522,
            "province": "湖南省",
            "city": "邵阳市",
            "district": "新邵县"
        }
    },
    {
        "id": "2738128173817774746",
        "title": "公共厕所",
        "address": "湖南省邵阳市双清区双清路与城北路交叉口正南方向60米左右",
        "tel": "",
        "category": "基础设施:公共设施:公共厕所",
        "type": 0,
        "location": {
            "lat": 27.240269,
            "lng": 111.470439
        },
        "ad_info": {
            "adcode": 430502,
            "province": "湖南省",
            "city": "邵阳市",
            "district": "双清区"
        }
    },
    {
        "id": "18272244990597906248",
        "title": "公共厕所",
        "address": "湖南省邵阳市新邵县双清路与大塘路交叉口东北方向250米左右",
        "tel": "",
        "category": "基础设施:公共设施:公共厕所",
        "type": 0,
        "location": {
            "lat": 27.316323,
            "lng": 111.458608
        },
        "ad_info": {
            "adcode": 430522,
            "province": "湖南省",
            "city": "邵阳市",
            "district": "新邵县"
        }
    },
    {
        "id": "5503647280095071188",
        "title": "洗手间",
        "address": "湖南省邵阳市双清区宝庆东路与五一南路交叉口西南角友阿国际广场B1",
        "tel": "",
        "category": "基础设施:公共设施:公共厕所",
        "type": 0,
        "location": {
            "lat": 27.232365,
            "lng": 111.478595
        },
        "ad_info": {
            "adcode": 430502,
            "province": "湖南省",
            "city": "邵阳市",
            "district": "双清区"
        }
    },
    {
        "id": "13040045596400776926",
        "title": "洗手间",
        "address": "湖南省邵阳市双清区宝庆东路与五一南路交叉口西南角友阿国际广场L2",
        "tel": "",
        "category": "基础设施:公共设施:公共厕所",
        "type": 0,
        "location": {
            "lat": 27.232012,
            "lng": 111.479534
        },
        "ad_info": {
            "adcode": 430502,
            "province": "湖南省",
            "city": "邵阳市",
            "district": "双清区"
        }
    },
    {
        "id": "18191119379474073004",
        "title": "洗手间",
        "address": "湖南省邵阳市双清区宝庆东路与五一南路交叉口西南角友阿国际广场L6",
        "tel": "",
        "category": "基础设施:公共设施:公共厕所",
        "type": 0,
        "location": {
            "lat": 27.232128,
            "lng": 111.47865
        },
        "ad_info": {
            "adcode": 430502,
            "province": "湖南省",
            "city": "邵阳市",
            "district": "双清区"
        }
    },
    {
        "id": "17463427877053879131",
        "title": "公共厕所",
        "address": "湖南省邵阳市城步苗族自治县儒林大道与兴业路交叉口东南方向97米左右",
        "tel": "",
        "category": "基础设施:公共设施:公共厕所",
        "type": 0,
        "location": {
            "lat": 26.382581,
            "lng": 110.322479
        },
        "ad_info": {
            "adcode": 430529,
            "province": "湖南省",
            "city": "邵阳市",
            "district": "城步苗族自治县"
        }
    },
    {
        "id": "417074533977653984",
        "title": "公共厕所",
        "address": "湖南省邵阳市双清区东大路与跃进路交叉口正南方向137米左右",
        "tel": "",
        "category": "基础设施:公共设施:公共厕所",
        "type": 0,
        "location": {
            "lat": 27.252768,
            "lng": 111.518877
        },
        "ad_info": {
            "adcode": 430502,
            "province": "湖南省",
            "city": "邵阳市",
            "district": "双清区"
        }
    },
    {
        "id": "3492068969776051066",
        "title": "洗手间",
        "address": "湖南省邵阳市双清区邵阳大道与建设南路交汇处西北侧步步高邵阳新天地L4",
        "tel": "",
        "category": "基础设施:公共设施:公共厕所",
        "type": 0,
        "location": {
            "lat": 27.222914,
            "lng": 111.484733
        },
        "ad_info": {
            "adcode": 430502,
            "province": "湖南省",
            "city": "邵阳市",
            "district": "双清区"
        }
    },
    {
        "id": "15341878204175788348",
        "title": "洗手间",
        "address": "湖南省邵阳市邵东市红岭路与荷花路交叉口处缤纷环球城2F",
        "tel": "",
        "category": "基础设施:公共设施:公共厕所",
        "type": 0,
        "location": {
            "lat": 27.251418,
            "lng": 111.745034
        },
        "ad_info": {
            "adcode": 430582,
            "province": "湖南省",
            "city": "邵阳市",
            "district": "邵东市"
        }
    },
    {
        "id": "13225123961646078715",
        "title": "公共厕所",
        "address": "湖南省邵阳市邵东市建设北路与荷田路交叉口西北方向15米左右",
        "tel": "",
        "category": "基础设施:公共设施:公共厕所",
        "type": 0,
        "location": {
            "lat": 27.256299,
            "lng": 111.750445
        },
        "ad_info": {
            "adcode": 430582,
            "province": "湖南省",
            "city": "邵阳市",
            "district": "邵东市"
        }
    },
    {
        "id": "2244202503900387411",
        "title": "卫生间",
        "address": "湖南省邵阳市双清区东风路与五一路交叉路口西南侧大汉悦中心4F",
        "tel": "",
        "category": "基础设施:公共设施:公共厕所",
        "type": 0,
        "location": {
            "lat": 27.238747,
            "lng": 111.479172
        },
        "ad_info": {
            "adcode": 430502,
            "province": "湖南省",
            "city": "邵阳市",
            "district": "双清区"
        }
    },
    {
        "id": "15009048272851078408",
        "title": "公共厕所",
        "address": "湖南省邵阳市邵阳县沿河街与荑江南路交叉口正南方向127米左右",
        "tel": "",
        "category": "基础设施:公共设施:公共厕所",
        "type": 0,
        "location": {
            "lat": 26.986243,
            "lng": 111.272855
        },
        "ad_info": {
            "adcode": 430523,
            "province": "湖南省",
            "city": "邵阳市",
            "district": "邵阳县"
        }
    },
    {
        "id": "3854879188850133766",
        "title": "洗手间",
        "address": "湖南省邵阳市双清区邵阳大道与建设南路交汇处西北侧步步高邵阳新天地L2",
        "tel": "",
        "category": "基础设施:公共设施:公共厕所",
        "type": 0,
        "location": {
            "lat": 27.222045,
            "lng": 111.483957
        },
        "ad_info": {
            "adcode": 430502,
            "province": "湖南省",
            "city": "邵阳市",
            "district": "双清区"
        }
    },
    {
        "id": "17652445351607446969",
        "title": "无障碍公共厕所",
        "address": "湖南省邵阳市武冈市天宁街与西直街交叉口西南方向215米左右",
        "tel": "",
        "category": "基础设施:公共设施:公共厕所",
        "type": 0,
        "location": {
            "lat": 26.719446,
            "lng": 110.63211
        },
        "ad_info": {
            "adcode": 430581,
            "province": "湖南省",
            "city": "邵阳市",
            "district": "武冈市"
        }
    },
    {
        "id": "644716355721164033",
        "title": "洗手间",
        "address": "湖南省邵阳市双清区宝庆东路与五一南路交叉口西南角友阿国际广场L2",
        "tel": "",
        "category": "基础设施:公共设施:公共厕所",
        "type": 0,
        "location": {
            "lat": 27.232316,
            "lng": 111.479724
        },
        "ad_info": {
            "adcode": 430502,
            "province": "湖南省",
            "city": "邵阳市",
            "district": "双清区"
        }
    },
    {
        "id": "629737090137310732",
        "title": "公共厕所",
        "address": "湖南省邵阳市武冈市武强北路与狮子山路交叉口东南方向92米左右",
        "tel": "",
        "category": "基础设施:公共设施:公共厕所",
        "type": 0,
        "location": {
            "lat": 26.750938,
            "lng": 110.633744
        },
        "ad_info": {
            "adcode": 430581,
            "province": "湖南省",
            "city": "邵阳市",
            "district": "武冈市"
        }
    },
    {
        "id": "2051622389069693411",
        "title": "友阿国际商业广场-男洗手间",
        "address": "湖南省邵阳市双清区宝庆东路与五一南路交叉口西南角友阿国际广场L4",
        "tel": "",
        "category": "基础设施:公共设施:公共厕所",
        "type": 0,
        "location": {
            "lat": 27.232016,
            "lng": 111.479509
        },
        "ad_info": {
            "adcode": 430502,
            "province": "湖南省",
            "city": "邵阳市",
            "district": "双清区"
        }
    },
    {
        "id": "9916010861194255736",
        "title": "公共厕所",
        "address": "湖南省邵阳市双清区兴业路与宝庆东路交叉口西南方向143米左右",
        "tel": "",
        "category": "基础设施:公共设施:公共厕所",
        "type": 0,
        "location": {
            "lat": 27.25681,
            "lng": 111.525592
        },
        "ad_info": {
            "adcode": 430502,
            "province": "湖南省",
            "city": "邵阳市",
            "district": "双清区"
        }
    },
    {
        "id": "771978580772809776",
        "title": "卫生间",
        "address": "湖南省邵阳市城步苗族自治县儒林大道与再兴路交叉口正东方向161米左右",
        "tel": "",
        "category": "基础设施:公共设施:公共厕所",
        "type": 0,
        "location": {
            "lat": 26.381155,
            "lng": 110.322762
        },
        "ad_info": {
            "adcode": 430529,
            "province": "湖南省",
            "city": "邵阳市",
            "district": "城步苗族自治县"
        }
    },
    {
        "id": "6631169870893159710",
        "title": "公共厕所",
        "address": "湖南省邵阳市大祥区中心路与城北路交叉口东北方向23米左右",
        "tel": "",
        "category": "基础设施:公共设施:公共厕所",
        "type": 0,
        "location": {
            "lat": 27.238594,
            "lng": 111.465757
        },
        "ad_info": {
            "adcode": 430503,
            "province": "湖南省",
            "city": "邵阳市",
            "district": "大祥区"
        }
    },
    {
        "id": "16620320789946683177",
        "title": "公共厕所",
        "address": "湖南省邵阳市邵东市新辉路8号",
        "tel": "",
        "category": "基础设施:公共设施:公共厕所",
        "type": 0,
        "location": {
            "lat": 27.248115,
            "lng": 111.741298
        },
        "ad_info": {
            "adcode": 430582,
            "province": "湖南省",
            "city": "邵阳市",
            "district": "邵东市"
        }
    },
    {
        "id": "17217018652536232250",
        "title": "卫生间",
        "address": "湖南省邵阳市双清区东风路与五一路交叉路口西南侧大汉悦中心2F",
        "tel": "",
        "category": "基础设施:公共设施:公共厕所",
        "type": 0,
        "location": {
            "lat": 27.238389,
            "lng": 111.478199
        },
        "ad_info": {
            "adcode": 430502,
            "province": "湖南省",
            "city": "邵阳市",
            "district": "双清区"
        }
    },
    {
        "id": "5396690644850638134",
        "title": "邵东服务区公共厕所",
        "address": "湖南省邵阳市邵东市湖南高速能源邵东服务区加油站东北侧150米",
        "tel": "",
        "category": "基础设施:公共设施:公共厕所",
        "type": 0,
        "location": {
            "lat": 27.359798,
            "lng": 111.903665
        },
        "ad_info": {
            "adcode": 430582,
            "province": "湖南省",
            "city": "邵阳市",
            "district": "邵东市"
        }
    },
    {
        "id": "14428293595602568039",
        "title": "公共厕所",
        "address": "湖南省邵阳市双清区宝庆东路与进站路交叉口正西方向214米左右",
        "tel": "",
        "category": "基础设施:公共设施:公共厕所",
        "type": 0,
        "location": {
            "lat": 27.257829,
            "lng": 111.53243
        },
        "ad_info": {
            "adcode": 430502,
            "province": "湖南省",
            "city": "邵阳市",
            "district": "双清区"
        }
    },
    {
        "id": "10364661980157251112",
        "title": "卫生间",
        "address": "湖南省邵阳市双清区东风路与五一路交叉路口西南侧大汉悦中心3F",
        "tel": "",
        "category": "基础设施:公共设施:公共厕所",
        "type": 0,
        "location": {
            "lat": 27.238744,
            "lng": 111.479171
        },
        "ad_info": {
            "adcode": 430502,
            "province": "湖南省",
            "city": "邵阳市",
            "district": "双清区"
        }
    },
    {
        "id": "11864433821030995784",
        "title": "洗手间",
        "address": "湖南省邵阳市邵东市红岭路与荷花路交叉口处缤纷环球城B1",
        "tel": "",
        "category": "基础设施:公共设施:公共厕所",
        "type": 0,
        "location": {
            "lat": 27.251079,
            "lng": 111.745645
        },
        "ad_info": {
            "adcode": 430582,
            "province": "湖南省",
            "city": "邵阳市",
            "district": "邵东市"
        }
    },
    {
        "id": "18173171927882838959",
        "title": "卫生间",
        "address": "湖南省邵阳市双清区东风路与五一路交叉路口西南侧大汉悦中心3F",
        "tel": "",
        "category": "基础设施:公共设施:公共厕所",
        "type": 0,
        "location": {
            "lat": 27.238419,
            "lng": 111.478284
        },
        "ad_info": {
            "adcode": 430502,
            "province": "湖南省",
            "city": "邵阳市",
            "district": "双清区"
        }
    },
    {
        "id": "4573900461499176475",
        "title": "卫生间",
        "address": "湖南省邵阳市双清区东风路与五一路交叉路口西南侧大汉悦中心1F",
        "tel": "",
        "category": "基础设施:公共设施:公共厕所",
        "type": 0,
        "location": {
            "lat": 27.237798,
            "lng": 111.47859
        },
        "ad_info": {
            "adcode": 430502,
            "province": "湖南省",
            "city": "邵阳市",
            "district": "双清区"
        }
    },
    {
        "id": "6351431478121950846",
        "title": "邵阳服务区公共厕所",
        "address": "湖南省邵阳市邵阳县G55二广高速与邵阳服务区交叉口西南360米",
        "tel": "",
        "category": "基础设施:公共设施:公共厕所",
        "type": 0,
        "location": {
            "lat": 26.973076,
            "lng": 111.354241
        },
        "ad_info": {
            "adcode": 430523,
            "province": "湖南省",
            "city": "邵阳市",
            "district": "邵阳县"
        }
    },
    {
        "id": "6908143348058276977",
        "title": "公共厕所",
        "address": "湖南省邵阳市邵阳县河伯岭乡五皇村济公岩游客服务中心",
        "tel": "",
        "category": "基础设施:公共设施:公共厕所",
        "type": 0,
        "location": {
            "lat": 26.758817,
            "lng": 111.291811
        },
        "ad_info": {
            "adcode": 430523,
            "province": "湖南省",
            "city": "邵阳市",
            "district": "邵阳县"
        }
    },
    {
        "id": "7997177538636728481",
        "title": "洗手间",
        "address": "湖南省邵阳市双清区宝庆东路与五一南路交叉口西南角友阿国际广场L6",
        "tel": "",
        "category": "基础设施:公共设施:公共厕所",
        "type": 0,
        "location": {
            "lat": 27.232629,
            "lng": 111.478887
        },
        "ad_info": {
            "adcode": 430502,
            "province": "湖南省",
            "city": "邵阳市",
            "district": "双清区"
        }
    },
    {
        "id": "1027925736101725082",
        "title": "公共厕所",
        "address": "湖南省邵阳市洞口县城西大道与雪峰西路交叉口西南方向46米左右",
        "tel": "",
        "category": "基础设施:公共设施:公共厕所",
        "type": 0,
        "location": {
            "lat": 27.06522,
            "lng": 110.566411
        },
        "ad_info": {
            "adcode": 430525,
            "province": "湖南省",
            "city": "邵阳市",
            "district": "洞口县"
        }
    },
    {
        "id": "9537175399359240073",
        "title": "公共厕所",
        "address": "湖南省邵阳市双清区佘湖路与玉清宫路交叉口正南方向121米左右",
        "tel": "",
        "category": "基础设施:公共设施:公共厕所",
        "type": 0,
        "location": {
            "lat": 27.223269,
            "lng": 111.488301
        },
        "ad_info": {
            "adcode": 430502,
            "province": "湖南省",
            "city": "邵阳市",
            "district": "双清区"
        }
    },
    {
        "id": "9257677743171118459",
        "title": "公共厕所",
        "address": "湖南省邵阳市邵东市建设中路与建设北路交叉口西北方向16米左右",
        "tel": "",
        "category": "基础设施:公共设施:公共厕所",
        "type": 0,
        "location": {
            "lat": 27.251183,
            "lng": 111.748061
        },
        "ad_info": {
            "adcode": 430582,
            "province": "湖南省",
            "city": "邵阳市",
            "district": "邵东市"
        }
    },
    {
        "id": "11482620641958797617",
        "title": "公共厕所",
        "address": "湖南省邵阳市洞口县双洲西路与双洲路交叉口正西方向81米左右",
        "tel": "",
        "category": "基础设施:公共设施:公共厕所",
        "type": 0,
        "location": {
            "lat": 27.053407,
            "lng": 110.570172
        },
        "ad_info": {
            "adcode": 430525,
            "province": "湖南省",
            "city": "邵阳市",
            "district": "洞口县"
        }
    },
    {
        "id": "13973296056935635246",
        "title": "公共厕所",
        "address": "湖南省邵阳市双清区芙蓉兴盛(洋溪店)东北侧230米",
        "tel": "",
        "category": "基础设施:公共设施:公共厕所",
        "type": 0,
        "location": {
            "lat": 27.28482,
            "lng": 111.501421
        },
        "ad_info": {
            "adcode": 430502,
            "province": "湖南省",
            "city": "邵阳市",
            "district": "双清区"
        }
    },
    {
        "id": "11046230826793605822",
        "title": "崀山八角寨景区福寿亭卫生间",
        "address": "湖南省邵阳市新宁县",
        "tel": "",
        "category": "基础设施:公共设施:公共厕所",
        "type": 0,
        "location": {
            "lat": 26.273805,
            "lng": 110.741788
        },
        "ad_info": {
            "adcode": 430528,
            "province": "湖南省",
            "city": "邵阳市",
            "district": "新宁县"
        }
    },
    {
        "id": "11568131086651818960",
        "title": "洗手间",
        "address": "湖南省邵阳市邵东市红岭路与荷花路交叉口处缤纷环球城3F",
        "tel": "",
        "category": "基础设施:公共设施:公共厕所",
        "type": 0,
        "location": {
            "lat": 27.25111,
            "lng": 111.745677
        },
        "ad_info": {
            "adcode": 430582,
            "province": "湖南省",
            "city": "邵阳市",
            "district": "邵东市"
        }
    },
    {
        "id": "12435467330436261424",
        "title": "公共厕所",
        "address": "湖南省邵阳市隆回县创园街与桃花路交叉口东北200米",
        "tel": "",
        "category": "基础设施:公共设施:公共厕所",
        "type": 0,
        "location": {
            "lat": 27.093685,
            "lng": 111.061088
        },
        "ad_info": {
            "adcode": 430524,
            "province": "湖南省",
            "city": "邵阳市",
            "district": "隆回县"
        }
    },
    {
        "id": "452977657914188640",
        "title": "无障碍-洗手间",
        "address": "湖南省邵阳市双清区邵阳大道与建设南路交汇处西北侧步步高邵阳新天地L1",
        "tel": "",
        "category": "基础设施:公共设施:无障碍洗手间",
        "type": 0,
        "location": {
            "lat": 27.222043,
            "lng": 111.483969
        },
        "ad_info": {
            "adcode": 430502,
            "province": "湖南省",
            "city": "邵阳市",
            "district": "双清区"
        }
    },
    {
        "id": "2239562117018223978",
        "title": "洗手间",
        "address": "湖南省邵阳市双清区宝庆东路与五一南路交叉口西南角友阿国际广场L4",
        "tel": "",
        "category": "基础设施:公共设施:公共厕所",
        "type": 0,
        "location": {
            "lat": 27.232608,
            "lng": 111.478882
        },
        "ad_info": {
            "adcode": 430502,
            "province": "湖南省",
            "city": "邵阳市",
            "district": "双清区"
        }
    },
    {
        "id": "15171209067956931476",
        "title": "公共厕所",
        "address": "湖南省邵阳市新邵县东昌路与酿溪大道交叉口正东方向465米左右",
        "tel": "",
        "category": "基础设施:公共设施:公共厕所",
        "type": 0,
        "location": {
            "lat": 27.329765,
            "lng": 111.474698
        },
        "ad_info": {
            "adcode": 430522,
            "province": "湖南省",
            "city": "邵阳市",
            "district": "新邵县"
        }
    },
    {
        "id": "16139410824014809467",
        "title": "无障碍公共厕所",
        "address": "湖南省邵阳市大祥区民族二巷与西外街交叉口正北方向40米左右",
        "tel": "",
        "category": "基础设施:公共设施:公共厕所",
        "type": 0,
        "location": {
            "lat": 27.237152,
            "lng": 111.452436
        },
        "ad_info": {
            "adcode": 430503,
            "province": "湖南省",
            "city": "邵阳市",
            "district": "大祥区"
        }
    },
    {
        "id": "13186941408357003899",
        "title": "隆回服务区公共厕所",
        "address": "湖南省邵阳市隆回县S552与X050交叉口东北方向524米左右",
        "tel": "",
        "category": "基础设施:公共设施:公共厕所",
        "type": 0,
        "location": {
            "lat": 27.095104,
            "lng": 111.029295
        },
        "ad_info": {
            "adcode": 430524,
            "province": "湖南省",
            "city": "邵阳市",
            "district": "隆回县"
        }
    },
    {
        "id": "12042017635964086822",
        "title": "洗手间",
        "address": "湖南省邵阳市邵东市红岭路与荷花路交叉口处缤纷环球城2F",
        "tel": "",
        "category": "基础设施:公共设施:公共厕所",
        "type": 0,
        "location": {
            "lat": 27.25111,
            "lng": 111.745677
        },
        "ad_info": {
            "adcode": 430582,
            "province": "湖南省",
            "city": "邵阳市",
            "district": "邵东市"
        }
    },
    {
        "id": "7784213347156331594",
        "title": "公共厕所",
        "address": "湖南省邵阳市武冈市东塔路与安园路一巷交叉口东北方向37米左右",
        "tel": "",
        "category": "基础设施:公共设施:公共厕所",
        "type": 0,
        "location": {
            "lat": 26.736312,
            "lng": 110.638056
        },
        "ad_info": {
            "adcode": 430581,
            "province": "湖南省",
            "city": "邵阳市",
            "district": "武冈市"
        }
    },
    {
        "id": "6358284581860544003",
        "title": "公共厕所",
        "address": "湖南省邵阳市邵东市X019与孟仙路交叉口东南方向1597米左右",
        "tel": "",
        "category": "基础设施:公共设施:公共厕所",
        "type": 0,
        "location": {
            "lat": 27.151714,
            "lng": 111.72365
        },
        "ad_info": {
            "adcode": 430582,
            "province": "湖南省",
            "city": "邵阳市",
            "district": "邵东市"
        }
    },
    {
        "id": "13035958578103091868",
        "title": "洗手间",
        "address": "湖南省邵阳市双清区宝庆东路与五一南路交叉口西南角友阿国际广场L3",
        "tel": "",
        "category": "基础设施:公共设施:公共厕所",
        "type": 0,
        "location": {
            "lat": 27.23202,
            "lng": 111.47873
        },
        "ad_info": {
            "adcode": 430502,
            "province": "湖南省",
            "city": "邵阳市",
            "district": "双清区"
        }
    },
    {
        "id": "3015593315865196567",
        "title": "卫生间",
        "address": "湖南省邵阳市双清区东风路与五一路交叉路口西南侧大汉悦中心1F",
        "tel": "",
        "category": "基础设施:公共设施:公共厕所",
        "type": 0,
        "location": {
            "lat": 27.238418,
            "lng": 111.478225
        },
        "ad_info": {
            "adcode": 430502,
            "province": "湖南省",
            "city": "邵阳市",
            "district": "双清区"
        }
    },
    {
        "id": "16989531237267023801",
        "title": "洗手间",
        "address": "湖南省邵阳市邵东市红岭路与荷花路交叉口处缤纷环球城B1",
        "tel": "",
        "category": "基础设施:公共设施:公共厕所",
        "type": 0,
        "location": {
            "lat": 27.250126,
            "lng": 111.745593
        },
        "ad_info": {
            "adcode": 430582,
            "province": "湖南省",
            "city": "邵阳市",
            "district": "邵东市"
        }
    },
    {
        "id": "4273253819350565281",
        "title": "爱莲巷无障碍公共厕所",
        "address": "湖南省邵阳市大祥区下曹婆井路与邵水西路交叉口正西方向125米左右",
        "tel": "",
        "category": "基础设施:公共设施:公共厕所",
        "type": 0,
        "location": {
            "lat": 27.238435,
            "lng": 111.469524
        },
        "ad_info": {
            "adcode": 430503,
            "province": "湖南省",
            "city": "邵阳市",
            "district": "大祥区"
        }
    },
    {
        "id": "8826392102419925372",
        "title": "公共厕所",
        "address": "湖南省邵阳市新邵县S236与S334交叉口西北方向175米左右",
        "tel": "",
        "category": "基础设施:公共设施:公共厕所",
        "type": 0,
        "location": {
            "lat": 27.331302,
            "lng": 111.344285
        },
        "ad_info": {
            "adcode": 430522,
            "province": "湖南省",
            "city": "邵阳市",
            "district": "新邵县"
        }
    },
    {
        "id": "7666879305455056347",
        "title": "公共厕所",
        "address": "湖南省邵阳市绥宁县兴工路与黄桑路交叉口正南方向331米左右",
        "tel": "",
        "category": "基础设施:公共设施:公共厕所",
        "type": 0,
        "location": {
            "lat": 26.601661,
            "lng": 110.156384
        },
        "ad_info": {
            "adcode": 430527,
            "province": "湖南省",
            "city": "邵阳市",
            "district": "绥宁县"
        }
    },
    {
        "id": "13498723444754337185",
        "title": "公共厕所",
        "address": "湖南省邵阳市邵阳县塘渡口镇第三完小西侧100米",
        "tel": "",
        "category": "基础设施:公共设施:公共厕所",
        "type": 0,
        "location": {
            "lat": 26.985597,
            "lng": 111.266167
        },
        "ad_info": {
            "adcode": 430523,
            "province": "湖南省",
            "city": "邵阳市",
            "district": "邵阳县"
        }
    },
    {
        "id": "11482620641958797617",
        "title": "公共厕所",
        "address": "湖南省邵阳市洞口县双洲西路与双洲路交叉口正西方向81米左右",
        "tel": "",
        "category": "基础设施:公共设施:公共厕所",
        "type": 0,
        "location": {
            "lat": 27.053407,
            "lng": 110.570172
        },
        "ad_info": {
            "adcode": 430525,
            "province": "湖南省",
            "city": "邵阳市",
            "district": "洞口县"
        }
    },
    {
        "id": "13973296056935635246",
        "title": "公共厕所",
        "address": "湖南省邵阳市双清区芙蓉兴盛(洋溪店)东北侧230米",
        "tel": "",
        "category": "基础设施:公共设施:公共厕所",
        "type": 0,
        "location": {
            "lat": 27.28482,
            "lng": 111.501421
        },
        "ad_info": {
            "adcode": 430502,
            "province": "湖南省",
            "city": "邵阳市",
            "district": "双清区"
        }
    },
    {
        "id": "11046230826793605822",
        "title": "崀山八角寨景区福寿亭卫生间",
        "address": "湖南省邵阳市新宁县",
        "tel": "",
        "category": "基础设施:公共设施:公共厕所",
        "type": 0,
        "location": {
            "lat": 26.273805,
            "lng": 110.741788
        },
        "ad_info": {
            "adcode": 430528,
            "province": "湖南省",
            "city": "邵阳市",
            "district": "新宁县"
        }
    },
    {
        "id": "11568131086651818960",
        "title": "洗手间",
        "address": "湖南省邵阳市邵东市红岭路与荷花路交叉口处缤纷环球城3F",
        "tel": "",
        "category": "基础设施:公共设施:公共厕所",
        "type": 0,
        "location": {
            "lat": 27.25111,
            "lng": 111.745677
        },
        "ad_info": {
            "adcode": 430582,
            "province": "湖南省",
            "city": "邵阳市",
            "district": "邵东市"
        }
    },
    {
        "id": "12435467330436261424",
        "title": "公共厕所",
        "address": "湖南省邵阳市隆回县创园街与桃花路交叉口东北200米",
        "tel": "",
        "category": "基础设施:公共设施:公共厕所",
        "type": 0,
        "location": {
            "lat": 27.093685,
            "lng": 111.061088
        },
        "ad_info": {
            "adcode": 430524,
            "province": "湖南省",
            "city": "邵阳市",
            "district": "隆回县"
        }
    },
    {
        "id": "452977657914188640",
        "title": "无障碍-洗手间",
        "address": "湖南省邵阳市双清区邵阳大道与建设南路交汇处西北侧步步高邵阳新天地L1",
        "tel": "",
        "category": "基础设施:公共设施:无障碍洗手间",
        "type": 0,
        "location": {
            "lat": 27.222043,
            "lng": 111.483969
        },
        "ad_info": {
            "adcode": 430502,
            "province": "湖南省",
            "city": "邵阳市",
            "district": "双清区"
        }
    },
    {
        "id": "2239562117018223978",
        "title": "洗手间",
        "address": "湖南省邵阳市双清区宝庆东路与五一南路交叉口西南角友阿国际广场L4",
        "tel": "",
        "category": "基础设施:公共设施:公共厕所",
        "type": 0,
        "location": {
            "lat": 27.232608,
            "lng": 111.478882
        },
        "ad_info": {
            "adcode": 430502,
            "province": "湖南省",
            "city": "邵阳市",
            "district": "双清区"
        }
    },
    {
        "id": "15171209067956931476",
        "title": "公共厕所",
        "address": "湖南省邵阳市新邵县东昌路与酿溪大道交叉口正东方向465米左右",
        "tel": "",
        "category": "基础设施:公共设施:公共厕所",
        "type": 0,
        "location": {
            "lat": 27.329765,
            "lng": 111.474698
        },
        "ad_info": {
            "adcode": 430522,
            "province": "湖南省",
            "city": "邵阳市",
            "district": "新邵县"
        }
    },
    {
        "id": "16139410824014809467",
        "title": "无障碍公共厕所",
        "address": "湖南省邵阳市大祥区民族二巷与西外街交叉口正北方向40米左右",
        "tel": "",
        "category": "基础设施:公共设施:公共厕所",
        "type": 0,
        "location": {
            "lat": 27.237152,
            "lng": 111.452436
        },
        "ad_info": {
            "adcode": 430503,
            "province": "湖南省",
            "city": "邵阳市",
            "district": "大祥区"
        }
    },
    {
        "id": "13186941408357003899",
        "title": "隆回服务区公共厕所",
        "address": "湖南省邵阳市隆回县S552与X050交叉口东北方向524米左右",
        "tel": "",
        "category": "基础设施:公共设施:公共厕所",
        "type": 0,
        "location": {
            "lat": 27.095104,
            "lng": 111.029295
        },
        "ad_info": {
            "adcode": 430524,
            "province": "湖南省",
            "city": "邵阳市",
            "district": "隆回县"
        }
    },
    {
        "id": "12042017635964086822",
        "title": "洗手间",
        "address": "湖南省邵阳市邵东市红岭路与荷花路交叉口处缤纷环球城2F",
        "tel": "",
        "category": "基础设施:公共设施:公共厕所",
        "type": 0,
        "location": {
            "lat": 27.25111,
            "lng": 111.745677
        },
        "ad_info": {
            "adcode": 430582,
            "province": "湖南省",
            "city": "邵阳市",
            "district": "邵东市"
        }
    },
    {
        "id": "7784213347156331594",
        "title": "公共厕所",
        "address": "湖南省邵阳市武冈市东塔路与安园路一巷交叉口东北方向37米左右",
        "tel": "",
        "category": "基础设施:公共设施:公共厕所",
        "type": 0,
        "location": {
            "lat": 26.736312,
            "lng": 110.638056
        },
        "ad_info": {
            "adcode": 430581,
            "province": "湖南省",
            "city": "邵阳市",
            "district": "武冈市"
        }
    },
    {
        "id": "6358284581860544003",
        "title": "公共厕所",
        "address": "湖南省邵阳市邵东市X019与孟仙路交叉口东南方向1597米左右",
        "tel": "",
        "category": "基础设施:公共设施:公共厕所",
        "type": 0,
        "location": {
            "lat": 27.151714,
            "lng": 111.72365
        },
        "ad_info": {
            "adcode": 430582,
            "province": "湖南省",
            "city": "邵阳市",
            "district": "邵东市"
        }
    },
    {
        "id": "13035958578103091868",
        "title": "洗手间",
        "address": "湖南省邵阳市双清区宝庆东路与五一南路交叉口西南角友阿国际广场L3",
        "tel": "",
        "category": "基础设施:公共设施:公共厕所",
        "type": 0,
        "location": {
            "lat": 27.23202,
            "lng": 111.47873
        },
        "ad_info": {
            "adcode": 430502,
            "province": "湖南省",
            "city": "邵阳市",
            "district": "双清区"
        }
    },
    {
        "id": "3015593315865196567",
        "title": "卫生间",
        "address": "湖南省邵阳市双清区东风路与五一路交叉路口西南侧大汉悦中心1F",
        "tel": "",
        "category": "基础设施:公共设施:公共厕所",
        "type": 0,
        "location": {
            "lat": 27.238418,
            "lng": 111.478225
        },
        "ad_info": {
            "adcode": 430502,
            "province": "湖南省",
            "city": "邵阳市",
            "district": "双清区"
        }
    },
    {
        "id": "16989531237267023801",
        "title": "洗手间",
        "address": "湖南省邵阳市邵东市红岭路与荷花路交叉口处缤纷环球城B1",
        "tel": "",
        "category": "基础设施:公共设施:公共厕所",
        "type": 0,
        "location": {
            "lat": 27.250126,
            "lng": 111.745593
        },
        "ad_info": {
            "adcode": 430582,
            "province": "湖南省",
            "city": "邵阳市",
            "district": "邵东市"
        }
    },
    {
        "id": "4273253819350565281",
        "title": "爱莲巷无障碍公共厕所",
        "address": "湖南省邵阳市大祥区下曹婆井路与邵水西路交叉口正西方向125米左右",
        "tel": "",
        "category": "基础设施:公共设施:公共厕所",
        "type": 0,
        "location": {
            "lat": 27.238435,
            "lng": 111.469524
        },
        "ad_info": {
            "adcode": 430503,
            "province": "湖南省",
            "city": "邵阳市",
            "district": "大祥区"
        }
    },
    {
        "id": "8826392102419925372",
        "title": "公共厕所",
        "address": "湖南省邵阳市新邵县S236与S334交叉口西北方向175米左右",
        "tel": "",
        "category": "基础设施:公共设施:公共厕所",
        "type": 0,
        "location": {
            "lat": 27.331302,
            "lng": 111.344285
        },
        "ad_info": {
            "adcode": 430522,
            "province": "湖南省",
            "city": "邵阳市",
            "district": "新邵县"
        }
    },
    {
        "id": "7666879305455056347",
        "title": "公共厕所",
        "address": "湖南省邵阳市绥宁县兴工路与黄桑路交叉口正南方向331米左右",
        "tel": "",
        "category": "基础设施:公共设施:公共厕所",
        "type": 0,
        "location": {
            "lat": 26.601661,
            "lng": 110.156384
        },
        "ad_info": {
            "adcode": 430527,
            "province": "湖南省",
            "city": "邵阳市",
            "district": "绥宁县"
        }
    },
    {
        "id": "13498723444754337185",
        "title": "公共厕所",
        "address": "湖南省邵阳市邵阳县塘渡口镇第三完小西侧100米",
        "tel": "",
        "category": "基础设施:公共设施:公共厕所",
        "type": 0,
        "location": {
            "lat": 26.985597,
            "lng": 111.266167
        },
        "ad_info": {
            "adcode": 430523,
            "province": "湖南省",
            "city": "邵阳市",
            "district": "邵阳县"
        }
    },
    {
        "id": "11482620641958797617",
        "title": "公共厕所",
        "address": "湖南省邵阳市洞口县双洲西路与双洲路交叉口正西方向81米左右",
        "tel": "",
        "category": "基础设施:公共设施:公共厕所",
        "type": 0,
        "location": {
            "lat": 27.053407,
            "lng": 110.570172
        },
        "ad_info": {
            "adcode": 430525,
            "province": "湖南省",
            "city": "邵阳市",
            "district": "洞口县"
        }
    },
    {
        "id": "13973296056935635246",
        "title": "公共厕所",
        "address": "湖南省邵阳市双清区芙蓉兴盛(洋溪店)东北侧230米",
        "tel": "",
        "category": "基础设施:公共设施:公共厕所",
        "type": 0,
        "location": {
            "lat": 27.28482,
            "lng": 111.501421
        },
        "ad_info": {
            "adcode": 430502,
            "province": "湖南省",
            "city": "邵阳市",
            "district": "双清区"
        }
    },
    {
        "id": "11046230826793605822",
        "title": "崀山八角寨景区福寿亭卫生间",
        "address": "湖南省邵阳市新宁县",
        "tel": "",
        "category": "基础设施:公共设施:公共厕所",
        "type": 0,
        "location": {
            "lat": 26.273805,
            "lng": 110.741788
        },
        "ad_info": {
            "adcode": 430528,
            "province": "湖南省",
            "city": "邵阳市",
            "district": "新宁县"
        }
    },
    {
        "id": "11568131086651818960",
        "title": "洗手间",
        "address": "湖南省邵阳市邵东市红岭路与荷花路交叉口处缤纷环球城3F",
        "tel": "",
        "category": "基础设施:公共设施:公共厕所",
        "type": 0,
        "location": {
            "lat": 27.25111,
            "lng": 111.745677
        },
        "ad_info": {
            "adcode": 430582,
            "province": "湖南省",
            "city": "邵阳市",
            "district": "邵东市"
        }
    },
    {
        "id": "12435467330436261424",
        "title": "公共厕所",
        "address": "湖南省邵阳市隆回县创园街与桃花路交叉口东北200米",
        "tel": "",
        "category": "基础设施:公共设施:公共厕所",
        "type": 0,
        "location": {
            "lat": 27.093685,
            "lng": 111.061088
        },
        "ad_info": {
            "adcode": 430524,
            "province": "湖南省",
            "city": "邵阳市",
            "district": "隆回县"
        }
    },
    {
        "id": "452977657914188640",
        "title": "无障碍-洗手间",
        "address": "湖南省邵阳市双清区邵阳大道与建设南路交汇处西北侧步步高邵阳新天地L1",
        "tel": "",
        "category": "基础设施:公共设施:无障碍洗手间",
        "type": 0,
        "location": {
            "lat": 27.222043,
            "lng": 111.483969
        },
        "ad_info": {
            "adcode": 430502,
            "province": "湖南省",
            "city": "邵阳市",
            "district": "双清区"
        }
    },
    {
        "id": "2239562117018223978",
        "title": "洗手间",
        "address": "湖南省邵阳市双清区宝庆东路与五一南路交叉口西南角友阿国际广场L4",
        "tel": "",
        "category": "基础设施:公共设施:公共厕所",
        "type": 0,
        "location": {
            "lat": 27.232608,
            "lng": 111.478882
        },
        "ad_info": {
            "adcode": 430502,
            "province": "湖南省",
            "city": "邵阳市",
            "district": "双清区"
        }
    },
    {
        "id": "15171209067956931476",
        "title": "公共厕所",
        "address": "湖南省邵阳市新邵县东昌路与酿溪大道交叉口正东方向465米左右",
        "tel": "",
        "category": "基础设施:公共设施:公共厕所",
        "type": 0,
        "location": {
            "lat": 27.329765,
            "lng": 111.474698
        },
        "ad_info": {
            "adcode": 430522,
            "province": "湖南省",
            "city": "邵阳市",
            "district": "新邵县"
        }
    },
    {
        "id": "16139410824014809467",
        "title": "无障碍公共厕所",
        "address": "湖南省邵阳市大祥区民族二巷与西外街交叉口正北方向40米左右",
        "tel": "",
        "category": "基础设施:公共设施:公共厕所",
        "type": 0,
        "location": {
            "lat": 27.237152,
            "lng": 111.452436
        },
        "ad_info": {
            "adcode": 430503,
            "province": "湖南省",
            "city": "邵阳市",
            "district": "大祥区"
        }
    },
    {
        "id": "13186941408357003899",
        "title": "隆回服务区公共厕所",
        "address": "湖南省邵阳市隆回县S552与X050交叉口东北方向524米左右",
        "tel": "",
        "category": "基础设施:公共设施:公共厕所",
        "type": 0,
        "location": {
            "lat": 27.095104,
            "lng": 111.029295
        },
        "ad_info": {
            "adcode": 430524,
            "province": "湖南省",
            "city": "邵阳市",
            "district": "隆回县"
        }
    },
    {
        "id": "12042017635964086822",
        "title": "洗手间",
        "address": "湖南省邵阳市邵东市红岭路与荷花路交叉口处缤纷环球城2F",
        "tel": "",
        "category": "基础设施:公共设施:公共厕所",
        "type": 0,
        "location": {
            "lat": 27.25111,
            "lng": 111.745677
        },
        "ad_info": {
            "adcode": 430582,
            "province": "湖南省",
            "city": "邵阳市",
            "district": "邵东市"
        }
    },
    {
        "id": "7784213347156331594",
        "title": "公共厕所",
        "address": "湖南省邵阳市武冈市东塔路与安园路一巷交叉口东北方向37米左右",
        "tel": "",
        "category": "基础设施:公共设施:公共厕所",
        "type": 0,
        "location": {
            "lat": 26.736312,
            "lng": 110.638056
        },
        "ad_info": {
            "adcode": 430581,
            "province": "湖南省",
            "city": "邵阳市",
            "district": "武冈市"
        }
    },
    {
        "id": "6358284581860544003",
        "title": "公共厕所",
        "address": "湖南省邵阳市邵东市X019与孟仙路交叉口东南方向1597米左右",
        "tel": "",
        "category": "基础设施:公共设施:公共厕所",
        "type": 0,
        "location": {
            "lat": 27.151714,
            "lng": 111.72365
        },
        "ad_info": {
            "adcode": 430582,
            "province": "湖南省",
            "city": "邵阳市",
            "district": "邵东市"
        }
    },
    {
        "id": "13035958578103091868",
        "title": "洗手间",
        "address": "湖南省邵阳市双清区宝庆东路与五一南路交叉口西南角友阿国际广场L3",
        "tel": "",
        "category": "基础设施:公共设施:公共厕所",
        "type": 0,
        "location": {
            "lat": 27.23202,
            "lng": 111.47873
        },
        "ad_info": {
            "adcode": 430502,
            "province": "湖南省",
            "city": "邵阳市",
            "district": "双清区"
        }
    },
    {
        "id": "3015593315865196567",
        "title": "卫生间",
        "address": "湖南省邵阳市双清区东风路与五一路交叉路口西南侧大汉悦中心1F",
        "tel": "",
        "category": "基础设施:公共设施:公共厕所",
        "type": 0,
        "location": {
            "lat": 27.238418,
            "lng": 111.478225
        },
        "ad_info": {
            "adcode": 430502,
            "province": "湖南省",
            "city": "邵阳市",
            "district": "双清区"
        }
    },
    {
        "id": "16989531237267023801",
        "title": "洗手间",
        "address": "湖南省邵阳市邵东市红岭路与荷花路交叉口处缤纷环球城B1",
        "tel": "",
        "category": "基础设施:公共设施:公共厕所",
        "type": 0,
        "location": {
            "lat": 27.250126,
            "lng": 111.745593
        },
        "ad_info": {
            "adcode": 430582,
            "province": "湖南省",
            "city": "邵阳市",
            "district": "邵东市"
        }
    },
    {
        "id": "4273253819350565281",
        "title": "爱莲巷无障碍公共厕所",
        "address": "湖南省邵阳市大祥区下曹婆井路与邵水西路交叉口正西方向125米左右",
        "tel": "",
        "category": "基础设施:公共设施:公共厕所",
        "type": 0,
        "location": {
            "lat": 27.238435,
            "lng": 111.469524
        },
        "ad_info": {
            "adcode": 430503,
            "province": "湖南省",
            "city": "邵阳市",
            "district": "大祥区"
        }
    },
    {
        "id": "8826392102419925372",
        "title": "公共厕所",
        "address": "湖南省邵阳市新邵县S236与S334交叉口西北方向175米左右",
        "tel": "",
        "category": "基础设施:公共设施:公共厕所",
        "type": 0,
        "location": {
            "lat": 27.331302,
            "lng": 111.344285
        },
        "ad_info": {
            "adcode": 430522,
            "province": "湖南省",
            "city": "邵阳市",
            "district": "新邵县"
        }
    },
    {
        "id": "7666879305455056347",
        "title": "公共厕所",
        "address": "湖南省邵阳市绥宁县兴工路与黄桑路交叉口正南方向331米左右",
        "tel": "",
        "category": "基础设施:公共设施:公共厕所",
        "type": 0,
        "location": {
            "lat": 26.601661,
            "lng": 110.156384
        },
        "ad_info": {
            "adcode": 430527,
            "province": "湖南省",
            "city": "邵阳市",
            "district": "绥宁县"
        }
    },
    {
        "id": "13498723444754337185",
        "title": "公共厕所",
        "address": "湖南省邵阳市邵阳县塘渡口镇第三完小西侧100米",
        "tel": "",
        "category": "基础设施:公共设施:公共厕所",
        "type": 0,
        "location": {
            "lat": 26.985597,
            "lng": 111.266167
        },
        "ad_info": {
            "adcode": 430523,
            "province": "湖南省",
            "city": "邵阳市",
            "district": "邵阳县"
        }
    },
    {
        "id": "11482620641958797617",
        "title": "公共厕所",
        "address": "湖南省邵阳市洞口县双洲西路与双洲路交叉口正西方向81米左右",
        "tel": "",
        "category": "基础设施:公共设施:公共厕所",
        "type": 0,
        "location": {
            "lat": 27.053407,
            "lng": 110.570172
        },
        "ad_info": {
            "adcode": 430525,
            "province": "湖南省",
            "city": "邵阳市",
            "district": "洞口县"
        }
    },
    {
        "id": "13973296056935635246",
        "title": "公共厕所",
        "address": "湖南省邵阳市双清区芙蓉兴盛(洋溪店)东北侧230米",
        "tel": "",
        "category": "基础设施:公共设施:公共厕所",
        "type": 0,
        "location": {
            "lat": 27.28482,
            "lng": 111.501421
        },
        "ad_info": {
            "adcode": 430502,
            "province": "湖南省",
            "city": "邵阳市",
            "district": "双清区"
        }
    },
    {
        "id": "11046230826793605822",
        "title": "崀山八角寨景区福寿亭卫生间",
        "address": "湖南省邵阳市新宁县",
        "tel": "",
        "category": "基础设施:公共设施:公共厕所",
        "type": 0,
        "location": {
            "lat": 26.273805,
            "lng": 110.741788
        },
        "ad_info": {
            "adcode": 430528,
            "province": "湖南省",
            "city": "邵阳市",
            "district": "新宁县"
        }
    },
    {
        "id": "11568131086651818960",
        "title": "洗手间",
        "address": "湖南省邵阳市邵东市红岭路与荷花路交叉口处缤纷环球城3F",
        "tel": "",
        "category": "基础设施:公共设施:公共厕所",
        "type": 0,
        "location": {
            "lat": 27.25111,
            "lng": 111.745677
        },
        "ad_info": {
            "adcode": 430582,
            "province": "湖南省",
            "city": "邵阳市",
            "district": "邵东市"
        }
    },
    {
        "id": "12435467330436261424",
        "title": "公共厕所",
        "address": "湖南省邵阳市隆回县创园街与桃花路交叉口东北200米",
        "tel": "",
        "category": "基础设施:公共设施:公共厕所",
        "type": 0,
        "location": {
            "lat": 27.093685,
            "lng": 111.061088
        },
        "ad_info": {
            "adcode": 430524,
            "province": "湖南省",
            "city": "邵阳市",
            "district": "隆回县"
        }
    },
    {
        "id": "452977657914188640",
        "title": "无障碍-洗手间",
        "address": "湖南省邵阳市双清区邵阳大道与建设南路交汇处西北侧步步高邵阳新天地L1",
        "tel": "",
        "category": "基础设施:公共设施:无障碍洗手间",
        "type": 0,
        "location": {
            "lat": 27.222043,
            "lng": 111.483969
        },
        "ad_info": {
            "adcode": 430502,
            "province": "湖南省",
            "city": "邵阳市",
            "district": "双清区"
        }
    },
    {
        "id": "2239562117018223978",
        "title": "洗手间",
        "address": "湖南省邵阳市双清区宝庆东路与五一南路交叉口西南角友阿国际广场L4",
        "tel": "",
        "category": "基础设施:公共设施:公共厕所",
        "type": 0,
        "location": {
            "lat": 27.232608,
            "lng": 111.478882
        },
        "ad_info": {
            "adcode": 430502,
            "province": "湖南省",
            "city": "邵阳市",
            "district": "双清区"
        }
    },
    {
        "id": "15171209067956931476",
        "title": "公共厕所",
        "address": "湖南省邵阳市新邵县东昌路与酿溪大道交叉口正东方向465米左右",
        "tel": "",
        "category": "基础设施:公共设施:公共厕所",
        "type": 0,
        "location": {
            "lat": 27.329765,
            "lng": 111.474698
        },
        "ad_info": {
            "adcode": 430522,
            "province": "湖南省",
            "city": "邵阳市",
            "district": "新邵县"
        }
    },
    {
        "id": "16139410824014809467",
        "title": "无障碍公共厕所",
        "address": "湖南省邵阳市大祥区民族二巷与西外街交叉口正北方向40米左右",
        "tel": "",
        "category": "基础设施:公共设施:公共厕所",
        "type": 0,
        "location": {
            "lat": 27.237152,
            "lng": 111.452436
        },
        "ad_info": {
            "adcode": 430503,
            "province": "湖南省",
            "city": "邵阳市",
            "district": "大祥区"
        }
    },
    {
        "id": "13186941408357003899",
        "title": "隆回服务区公共厕所",
        "address": "湖南省邵阳市隆回县S552与X050交叉口东北方向524米左右",
        "tel": "",
        "category": "基础设施:公共设施:公共厕所",
        "type": 0,
        "location": {
            "lat": 27.095104,
            "lng": 111.029295
        },
        "ad_info": {
            "adcode": 430524,
            "province": "湖南省",
            "city": "邵阳市",
            "district": "隆回县"
        }
    },
    {
        "id": "12042017635964086822",
        "title": "洗手间",
        "address": "湖南省邵阳市邵东市红岭路与荷花路交叉口处缤纷环球城2F",
        "tel": "",
        "category": "基础设施:公共设施:公共厕所",
        "type": 0,
        "location": {
            "lat": 27.25111,
            "lng": 111.745677
        },
        "ad_info": {
            "adcode": 430582,
            "province": "湖南省",
            "city": "邵阳市",
            "district": "邵东市"
        }
    },
    {
        "id": "7784213347156331594",
        "title": "公共厕所",
        "address": "湖南省邵阳市武冈市东塔路与安园路一巷交叉口东北方向37米左右",
        "tel": "",
        "category": "基础设施:公共设施:公共厕所",
        "type": 0,
        "location": {
            "lat": 26.736312,
            "lng": 110.638056
        },
        "ad_info": {
            "adcode": 430581,
            "province": "湖南省",
            "city": "邵阳市",
            "district": "武冈市"
        }
    },
    {
        "id": "6358284581860544003",
        "title": "公共厕所",
        "address": "湖南省邵阳市邵东市X019与孟仙路交叉口东南方向1597米左右",
        "tel": "",
        "category": "基础设施:公共设施:公共厕所",
        "type": 0,
        "location": {
            "lat": 27.151714,
            "lng": 111.72365
        },
        "ad_info": {
            "adcode": 430582,
            "province": "湖南省",
            "city": "邵阳市",
            "district": "邵东市"
        }
    },
    {
        "id": "13035958578103091868",
        "title": "洗手间",
        "address": "湖南省邵阳市双清区宝庆东路与五一南路交叉口西南角友阿国际广场L3",
        "tel": "",
        "category": "基础设施:公共设施:公共厕所",
        "type": 0,
        "location": {
            "lat": 27.23202,
            "lng": 111.47873
        },
        "ad_info": {
            "adcode": 430502,
            "province": "湖南省",
            "city": "邵阳市",
            "district": "双清区"
        }
    },
    {
        "id": "3015593315865196567",
        "title": "卫生间",
        "address": "湖南省邵阳市双清区东风路与五一路交叉路口西南侧大汉悦中心1F",
        "tel": "",
        "category": "基础设施:公共设施:公共厕所",
        "type": 0,
        "location": {
            "lat": 27.238418,
            "lng": 111.478225
        },
        "ad_info": {
            "adcode": 430502,
            "province": "湖南省",
            "city": "邵阳市",
            "district": "双清区"
        }
    },
    {
        "id": "16989531237267023801",
        "title": "洗手间",
        "address": "湖南省邵阳市邵东市红岭路与荷花路交叉口处缤纷环球城B1",
        "tel": "",
        "category": "基础设施:公共设施:公共厕所",
        "type": 0,
        "location": {
            "lat": 27.250126,
            "lng": 111.745593
        },
        "ad_info": {
            "adcode": 430582,
            "province": "湖南省",
            "city": "邵阳市",
            "district": "邵东市"
        }
    },
    {
        "id": "4273253819350565281",
        "title": "爱莲巷无障碍公共厕所",
        "address": "湖南省邵阳市大祥区下曹婆井路与邵水西路交叉口正西方向125米左右",
        "tel": "",
        "category": "基础设施:公共设施:公共厕所",
        "type": 0,
        "location": {
            "lat": 27.238435,
            "lng": 111.469524
        },
        "ad_info": {
            "adcode": 430503,
            "province": "湖南省",
            "city": "邵阳市",
            "district": "大祥区"
        }
    },
    {
        "id": "8826392102419925372",
        "title": "公共厕所",
        "address": "湖南省邵阳市新邵县S236与S334交叉口西北方向175米左右",
        "tel": "",
        "category": "基础设施:公共设施:公共厕所",
        "type": 0,
        "location": {
            "lat": 27.331302,
            "lng": 111.344285
        },
        "ad_info": {
            "adcode": 430522,
            "province": "湖南省",
            "city": "邵阳市",
            "district": "新邵县"
        }
    },
    {
        "id": "7666879305455056347",
        "title": "公共厕所",
        "address": "湖南省邵阳市绥宁县兴工路与黄桑路交叉口正南方向331米左右",
        "tel": "",
        "category": "基础设施:公共设施:公共厕所",
        "type": 0,
        "location": {
            "lat": 26.601661,
            "lng": 110.156384
        },
        "ad_info": {
            "adcode": 430527,
            "province": "湖南省",
            "city": "邵阳市",
            "district": "绥宁县"
        }
    },
    {
        "id": "13498723444754337185",
        "title": "公共厕所",
        "address": "湖南省邵阳市邵阳县塘渡口镇第三完小西侧100米",
        "tel": "",
        "category": "基础设施:公共设施:公共厕所",
        "type": 0,
        "location": {
            "lat": 26.985597,
            "lng": 111.266167
        },
        "ad_info": {
            "adcode": 430523,
            "province": "湖南省",
            "city": "邵阳市",
            "district": "邵阳县"
        }
    },
    {
        "id": "11482620641958797617",
        "title": "公共厕所",
        "address": "湖南省邵阳市洞口县双洲西路与双洲路交叉口正西方向81米左右",
        "tel": "",
        "category": "基础设施:公共设施:公共厕所",
        "type": 0,
        "location": {
            "lat": 27.053407,
            "lng": 110.570172
        },
        "ad_info": {
            "adcode": 430525,
            "province": "湖南省",
            "city": "邵阳市",
            "district": "洞口县"
        }
    },
    {
        "id": "13973296056935635246",
        "title": "公共厕所",
        "address": "湖南省邵阳市双清区芙蓉兴盛(洋溪店)东北侧230米",
        "tel": "",
        "category": "基础设施:公共设施:公共厕所",
        "type": 0,
        "location": {
            "lat": 27.28482,
            "lng": 111.501421
        },
        "ad_info": {
            "adcode": 430502,
            "province": "湖南省",
            "city": "邵阳市",
            "district": "双清区"
        }
    },
    {
        "id": "11046230826793605822",
        "title": "崀山八角寨景区福寿亭卫生间",
        "address": "湖南省邵阳市新宁县",
        "tel": "",
        "category": "基础设施:公共设施:公共厕所",
        "type": 0,
        "location": {
            "lat": 26.273805,
            "lng": 110.741788
        },
        "ad_info": {
            "adcode": 430528,
            "province": "湖南省",
            "city": "邵阳市",
            "district": "新宁县"
        }
    },
    {
        "id": "11568131086651818960",
        "title": "洗手间",
        "address": "湖南省邵阳市邵东市红岭路与荷花路交叉口处缤纷环球城3F",
        "tel": "",
        "category": "基础设施:公共设施:公共厕所",
        "type": 0,
        "location": {
            "lat": 27.25111,
            "lng": 111.745677
        },
        "ad_info": {
            "adcode": 430582,
            "province": "湖南省",
            "city": "邵阳市",
            "district": "邵东市"
        }
    },
    {
        "id": "12435467330436261424",
        "title": "公共厕所",
        "address": "湖南省邵阳市隆回县创园街与桃花路交叉口东北200米",
        "tel": "",
        "category": "基础设施:公共设施:公共厕所",
        "type": 0,
        "location": {
            "lat": 27.093685,
            "lng": 111.061088
        },
        "ad_info": {
            "adcode": 430524,
            "province": "湖南省",
            "city": "邵阳市",
            "district": "隆回县"
        }
    },
    {
        "id": "452977657914188640",
        "title": "无障碍-洗手间",
        "address": "湖南省邵阳市双清区邵阳大道与建设南路交汇处西北侧步步高邵阳新天地L1",
        "tel": "",
        "category": "基础设施:公共设施:无障碍洗手间",
        "type": 0,
        "location": {
            "lat": 27.222043,
            "lng": 111.483969
        },
        "ad_info": {
            "adcode": 430502,
            "province": "湖南省",
            "city": "邵阳市",
            "district": "双清区"
        }
    },
    {
        "id": "2239562117018223978",
        "title": "洗手间",
        "address": "湖南省邵阳市双清区宝庆东路与五一南路交叉口西南角友阿国际广场L4",
        "tel": "",
        "category": "基础设施:公共设施:公共厕所",
        "type": 0,
        "location": {
            "lat": 27.232608,
            "lng": 111.478882
        },
        "ad_info": {
            "adcode": 430502,
            "province": "湖南省",
            "city": "邵阳市",
            "district": "双清区"
        }
    },
    {
        "id": "15171209067956931476",
        "title": "公共厕所",
        "address": "湖南省邵阳市新邵县东昌路与酿溪大道交叉口正东方向465米左右",
        "tel": "",
        "category": "基础设施:公共设施:公共厕所",
        "type": 0,
        "location": {
            "lat": 27.329765,
            "lng": 111.474698
        },
        "ad_info": {
            "adcode": 430522,
            "province": "湖南省",
            "city": "邵阳市",
            "district": "新邵县"
        }
    },
    {
        "id": "16139410824014809467",
        "title": "无障碍公共厕所",
        "address": "湖南省邵阳市大祥区民族二巷与西外街交叉口正北方向40米左右",
        "tel": "",
        "category": "基础设施:公共设施:公共厕所",
        "type": 0,
        "location": {
            "lat": 27.237152,
            "lng": 111.452436
        },
        "ad_info": {
            "adcode": 430503,
            "province": "湖南省",
            "city": "邵阳市",
            "district": "大祥区"
        }
    },
    {
        "id": "13186941408357003899",
        "title": "隆回服务区公共厕所",
        "address": "湖南省邵阳市隆回县S552与X050交叉口东北方向524米左右",
        "tel": "",
        "category": "基础设施:公共设施:公共厕所",
        "type": 0,
        "location": {
            "lat": 27.095104,
            "lng": 111.029295
        },
        "ad_info": {
            "adcode": 430524,
            "province": "湖南省",
            "city": "邵阳市",
            "district": "隆回县"
        }
    },
    {
        "id": "12042017635964086822",
        "title": "洗手间",
        "address": "湖南省邵阳市邵东市红岭路与荷花路交叉口处缤纷环球城2F",
        "tel": "",
        "category": "基础设施:公共设施:公共厕所",
        "type": 0,
        "location": {
            "lat": 27.25111,
            "lng": 111.745677
        },
        "ad_info": {
            "adcode": 430582,
            "province": "湖南省",
            "city": "邵阳市",
            "district": "邵东市"
        }
    },
    {
        "id": "7784213347156331594",
        "title": "公共厕所",
        "address": "湖南省邵阳市武冈市东塔路与安园路一巷交叉口东北方向37米左右",
        "tel": "",
        "category": "基础设施:公共设施:公共厕所",
        "type": 0,
        "location": {
            "lat": 26.736312,
            "lng": 110.638056
        },
        "ad_info": {
            "adcode": 430581,
            "province": "湖南省",
            "city": "邵阳市",
            "district": "武冈市"
        }
    },
    {
        "id": "6358284581860544003",
        "title": "公共厕所",
        "address": "湖南省邵阳市邵东市X019与孟仙路交叉口东南方向1597米左右",
        "tel": "",
        "category": "基础设施:公共设施:公共厕所",
        "type": 0,
        "location": {
            "lat": 27.151714,
            "lng": 111.72365
        },
        "ad_info": {
            "adcode": 430582,
            "province": "湖南省",
            "city": "邵阳市",
            "district": "邵东市"
        }
    },
    {
        "id": "13035958578103091868",
        "title": "洗手间",
        "address": "湖南省邵阳市双清区宝庆东路与五一南路交叉口西南角友阿国际广场L3",
        "tel": "",
        "category": "基础设施:公共设施:公共厕所",
        "type": 0,
        "location": {
            "lat": 27.23202,
            "lng": 111.47873
        },
        "ad_info": {
            "adcode": 430502,
            "province": "湖南省",
            "city": "邵阳市",
            "district": "双清区"
        }
    },
    {
        "id": "3015593315865196567",
        "title": "卫生间",
        "address": "湖南省邵阳市双清区东风路与五一路交叉路口西南侧大汉悦中心1F",
        "tel": "",
        "category": "基础设施:公共设施:公共厕所",
        "type": 0,
        "location": {
            "lat": 27.238418,
            "lng": 111.478225
        },
        "ad_info": {
            "adcode": 430502,
            "province": "湖南省",
            "city": "邵阳市",
            "district": "双清区"
        }
    },
    {
        "id": "16989531237267023801",
        "title": "洗手间",
        "address": "湖南省邵阳市邵东市红岭路与荷花路交叉口处缤纷环球城B1",
        "tel": "",
        "category": "基础设施:公共设施:公共厕所",
        "type": 0,
        "location": {
            "lat": 27.250126,
            "lng": 111.745593
        },
        "ad_info": {
            "adcode": 430582,
            "province": "湖南省",
            "city": "邵阳市",
            "district": "邵东市"
        }
    },
    {
        "id": "4273253819350565281",
        "title": "爱莲巷无障碍公共厕所",
        "address": "湖南省邵阳市大祥区下曹婆井路与邵水西路交叉口正西方向125米左右",
        "tel": "",
        "category": "基础设施:公共设施:公共厕所",
        "type": 0,
        "location": {
            "lat": 27.238435,
            "lng": 111.469524
        },
        "ad_info": {
            "adcode": 430503,
            "province": "湖南省",
            "city": "邵阳市",
            "district": "大祥区"
        }
    },
    {
        "id": "8826392102419925372",
        "title": "公共厕所",
        "address": "湖南省邵阳市新邵县S236与S334交叉口西北方向175米左右",
        "tel": "",
        "category": "基础设施:公共设施:公共厕所",
        "type": 0,
        "location": {
            "lat": 27.331302,
            "lng": 111.344285
        },
        "ad_info": {
            "adcode": 430522,
            "province": "湖南省",
            "city": "邵阳市",
            "district": "新邵县"
        }
    },
    {
        "id": "7666879305455056347",
        "title": "公共厕所",
        "address": "湖南省邵阳市绥宁县兴工路与黄桑路交叉口正南方向331米左右",
        "tel": "",
        "category": "基础设施:公共设施:公共厕所",
        "type": 0,
        "location": {
            "lat": 26.601661,
            "lng": 110.156384
        },
        "ad_info": {
            "adcode": 430527,
            "province": "湖南省",
            "city": "邵阳市",
            "district": "绥宁县"
        }
    },
    {
        "id": "13498723444754337185",
        "title": "公共厕所",
        "address": "湖南省邵阳市邵阳县塘渡口镇第三完小西侧100米",
        "tel": "",
        "category": "基础设施:公共设施:公共厕所",
        "type": 0,
        "location": {
            "lat": 26.985597,
            "lng": 111.266167
        },
        "ad_info": {
            "adcode": 430523,
            "province": "湖南省",
            "city": "邵阳市",
            "district": "邵阳县"
        }
    },
    {
        "id": "11482620641958797617",
        "title": "公共厕所",
        "address": "湖南省邵阳市洞口县双洲西路与双洲路交叉口正西方向81米左右",
        "tel": "",
        "category": "基础设施:公共设施:公共厕所",
        "type": 0,
        "location": {
            "lat": 27.053407,
            "lng": 110.570172
        },
        "ad_info": {
            "adcode": 430525,
            "province": "湖南省",
            "city": "邵阳市",
            "district": "洞口县"
        }
    },
    {
        "id": "13973296056935635246",
        "title": "公共厕所",
        "address": "湖南省邵阳市双清区芙蓉兴盛(洋溪店)东北侧230米",
        "tel": "",
        "category": "基础设施:公共设施:公共厕所",
        "type": 0,
        "location": {
            "lat": 27.28482,
            "lng": 111.501421
        },
        "ad_info": {
            "adcode": 430502,
            "province": "湖南省",
            "city": "邵阳市",
            "district": "双清区"
        }
    },
    {
        "id": "11046230826793605822",
        "title": "崀山八角寨景区福寿亭卫生间",
        "address": "湖南省邵阳市新宁县",
        "tel": "",
        "category": "基础设施:公共设施:公共厕所",
        "type": 0,
        "location": {
            "lat": 26.273805,
            "lng": 110.741788
        },
        "ad_info": {
            "adcode": 430528,
            "province": "湖南省",
            "city": "邵阳市",
            "district": "新宁县"
        }
    },
    {
        "id": "11568131086651818960",
        "title": "洗手间",
        "address": "湖南省邵阳市邵东市红岭路与荷花路交叉口处缤纷环球城3F",
        "tel": "",
        "category": "基础设施:公共设施:公共厕所",
        "type": 0,
        "location": {
            "lat": 27.25111,
            "lng": 111.745677
        },
        "ad_info": {
            "adcode": 430582,
            "province": "湖南省",
            "city": "邵阳市",
            "district": "邵东市"
        }
    },
    {
        "id": "12435467330436261424",
        "title": "公共厕所",
        "address": "湖南省邵阳市隆回县创园街与桃花路交叉口东北200米",
        "tel": "",
        "category": "基础设施:公共设施:公共厕所",
        "type": 0,
        "location": {
            "lat": 27.093685,
            "lng": 111.061088
        },
        "ad_info": {
            "adcode": 430524,
            "province": "湖南省",
            "city": "邵阳市",
            "district": "隆回县"
        }
    },
    {
        "id": "452977657914188640",
        "title": "无障碍-洗手间",
        "address": "湖南省邵阳市双清区邵阳大道与建设南路交汇处西北侧步步高邵阳新天地L1",
        "tel": "",
        "category": "基础设施:公共设施:无障碍洗手间",
        "type": 0,
        "location": {
            "lat": 27.222043,
            "lng": 111.483969
        },
        "ad_info": {
            "adcode": 430502,
            "province": "湖南省",
            "city": "邵阳市",
            "district": "双清区"
        }
    },
    {
        "id": "2239562117018223978",
        "title": "洗手间",
        "address": "湖南省邵阳市双清区宝庆东路与五一南路交叉口西南角友阿国际广场L4",
        "tel": "",
        "category": "基础设施:公共设施:公共厕所",
        "type": 0,
        "location": {
            "lat": 27.232608,
            "lng": 111.478882
        },
        "ad_info": {
            "adcode": 430502,
            "province": "湖南省",
            "city": "邵阳市",
            "district": "双清区"
        }
    },
    {
        "id": "15171209067956931476",
        "title": "公共厕所",
        "address": "湖南省邵阳市新邵县东昌路与酿溪大道交叉口正东方向465米左右",
        "tel": "",
        "category": "基础设施:公共设施:公共厕所",
        "type": 0,
        "location": {
            "lat": 27.329765,
            "lng": 111.474698
        },
        "ad_info": {
            "adcode": 430522,
            "province": "湖南省",
            "city": "邵阳市",
            "district": "新邵县"
        }
    },
    {
        "id": "16139410824014809467",
        "title": "无障碍公共厕所",
        "address": "湖南省邵阳市大祥区民族二巷与西外街交叉口正北方向40米左右",
        "tel": "",
        "category": "基础设施:公共设施:公共厕所",
        "type": 0,
        "location": {
            "lat": 27.237152,
            "lng": 111.452436
        },
        "ad_info": {
            "adcode": 430503,
            "province": "湖南省",
            "city": "邵阳市",
            "district": "大祥区"
        }
    },
    {
        "id": "13186941408357003899",
        "title": "隆回服务区公共厕所",
        "address": "湖南省邵阳市隆回县S552与X050交叉口东北方向524米左右",
        "tel": "",
        "category": "基础设施:公共设施:公共厕所",
        "type": 0,
        "location": {
            "lat": 27.095104,
            "lng": 111.029295
        },
        "ad_info": {
            "adcode": 430524,
            "province": "湖南省",
            "city": "邵阳市",
            "district": "隆回县"
        }
    },
    {
        "id": "12042017635964086822",
        "title": "洗手间",
        "address": "湖南省邵阳市邵东市红岭路与荷花路交叉口处缤纷环球城2F",
        "tel": "",
        "category": "基础设施:公共设施:公共厕所",
        "type": 0,
        "location": {
            "lat": 27.25111,
            "lng": 111.745677
        },
        "ad_info": {
            "adcode": 430582,
            "province": "湖南省",
            "city": "邵阳市",
            "district": "邵东市"
        }
    },
    {
        "id": "7784213347156331594",
        "title": "公共厕所",
        "address": "湖南省邵阳市武冈市东塔路与安园路一巷交叉口东北方向37米左右",
        "tel": "",
        "category": "基础设施:公共设施:公共厕所",
        "type": 0,
        "location": {
            "lat": 26.736312,
            "lng": 110.638056
        },
        "ad_info": {
            "adcode": 430581,
            "province": "湖南省",
            "city": "邵阳市",
            "district": "武冈市"
        }
    },
    {
        "id": "6358284581860544003",
        "title": "公共厕所",
        "address": "湖南省邵阳市邵东市X019与孟仙路交叉口东南方向1597米左右",
        "tel": "",
        "category": "基础设施:公共设施:公共厕所",
        "type": 0,
        "location": {
            "lat": 27.151714,
            "lng": 111.72365
        },
        "ad_info": {
            "adcode": 430582,
            "province": "湖南省",
            "city": "邵阳市",
            "district": "邵东市"
        }
    },
    {
        "id": "13035958578103091868",
        "title": "洗手间",
        "address": "湖南省邵阳市双清区宝庆东路与五一南路交叉口西南角友阿国际广场L3",
        "tel": "",
        "category": "基础设施:公共设施:公共厕所",
        "type": 0,
        "location": {
            "lat": 27.23202,
            "lng": 111.47873
        },
        "ad_info": {
            "adcode": 430502,
            "province": "湖南省",
            "city": "邵阳市",
            "district": "双清区"
        }
    },
    {
        "id": "3015593315865196567",
        "title": "卫生间",
        "address": "湖南省邵阳市双清区东风路与五一路交叉路口西南侧大汉悦中心1F",
        "tel": "",
        "category": "基础设施:公共设施:公共厕所",
        "type": 0,
        "location": {
            "lat": 27.238418,
            "lng": 111.478225
        },
        "ad_info": {
            "adcode": 430502,
            "province": "湖南省",
            "city": "邵阳市",
            "district": "双清区"
        }
    },
    {
        "id": "16989531237267023801",
        "title": "洗手间",
        "address": "湖南省邵阳市邵东市红岭路与荷花路交叉口处缤纷环球城B1",
        "tel": "",
        "category": "基础设施:公共设施:公共厕所",
        "type": 0,
        "location": {
            "lat": 27.250126,
            "lng": 111.745593
        },
        "ad_info": {
            "adcode": 430582,
            "province": "湖南省",
            "city": "邵阳市",
            "district": "邵东市"
        }
    },
    {
        "id": "4273253819350565281",
        "title": "爱莲巷无障碍公共厕所",
        "address": "湖南省邵阳市大祥区下曹婆井路与邵水西路交叉口正西方向125米左右",
        "tel": "",
        "category": "基础设施:公共设施:公共厕所",
        "type": 0,
        "location": {
            "lat": 27.238435,
            "lng": 111.469524
        },
        "ad_info": {
            "adcode": 430503,
            "province": "湖南省",
            "city": "邵阳市",
            "district": "大祥区"
        }
    },
    {
        "id": "8826392102419925372",
        "title": "公共厕所",
        "address": "湖南省邵阳市新邵县S236与S334交叉口西北方向175米左右",
        "tel": "",
        "category": "基础设施:公共设施:公共厕所",
        "type": 0,
        "location": {
            "lat": 27.331302,
            "lng": 111.344285
        },
        "ad_info": {
            "adcode": 430522,
            "province": "湖南省",
            "city": "邵阳市",
            "district": "新邵县"
        }
    },
    {
        "id": "7666879305455056347",
        "title": "公共厕所",
        "address": "湖南省邵阳市绥宁县兴工路与黄桑路交叉口正南方向331米左右",
        "tel": "",
        "category": "基础设施:公共设施:公共厕所",
        "type": 0,
        "location": {
            "lat": 26.601661,
            "lng": 110.156384
        },
        "ad_info": {
            "adcode": 430527,
            "province": "湖南省",
            "city": "邵阳市",
            "district": "绥宁县"
        }
    },
    {
        "id": "13498723444754337185",
        "title": "公共厕所",
        "address": "湖南省邵阳市邵阳县塘渡口镇第三完小西侧100米",
        "tel": "",
        "category": "基础设施:公共设施:公共厕所",
        "type": 0,
        "location": {
            "lat": 26.985597,
            "lng": 111.266167
        },
        "ad_info": {
            "adcode": 430523,
            "province": "湖南省",
            "city": "邵阳市",
            "district": "邵阳县"
        }
    },
    {
        "id": "11482620641958797617",
        "title": "公共厕所",
        "address": "湖南省邵阳市洞口县双洲西路与双洲路交叉口正西方向81米左右",
        "tel": "",
        "category": "基础设施:公共设施:公共厕所",
        "type": 0,
        "location": {
            "lat": 27.053407,
            "lng": 110.570172
        },
        "ad_info": {
            "adcode": 430525,
            "province": "湖南省",
            "city": "邵阳市",
            "district": "洞口县"
        }
    },
    {
        "id": "13973296056935635246",
        "title": "公共厕所",
        "address": "湖南省邵阳市双清区芙蓉兴盛(洋溪店)东北侧230米",
        "tel": "",
        "category": "基础设施:公共设施:公共厕所",
        "type": 0,
        "location": {
            "lat": 27.28482,
            "lng": 111.501421
        },
        "ad_info": {
            "adcode": 430502,
            "province": "湖南省",
            "city": "邵阳市",
            "district": "双清区"
        }
    },
    {
        "id": "11046230826793605822",
        "title": "崀山八角寨景区福寿亭卫生间",
        "address": "湖南省邵阳市新宁县",
        "tel": "",
        "category": "基础设施:公共设施:公共厕所",
        "type": 0,
        "location": {
            "lat": 26.273805,
            "lng": 110.741788
        },
        "ad_info": {
            "adcode": 430528,
            "province": "湖南省",
            "city": "邵阳市",
            "district": "新宁县"
        }
    },
    {
        "id": "11568131086651818960",
        "title": "洗手间",
        "address": "湖南省邵阳市邵东市红岭路与荷花路交叉口处缤纷环球城3F",
        "tel": "",
        "category": "基础设施:公共设施:公共厕所",
        "type": 0,
        "location": {
            "lat": 27.25111,
            "lng": 111.745677
        },
        "ad_info": {
            "adcode": 430582,
            "province": "湖南省",
            "city": "邵阳市",
            "district": "邵东市"
        }
    },
    {
        "id": "12435467330436261424",
        "title": "公共厕所",
        "address": "湖南省邵阳市隆回县创园街与桃花路交叉口东北200米",
        "tel": "",
        "category": "基础设施:公共设施:公共厕所",
        "type": 0,
        "location": {
            "lat": 27.093685,
            "lng": 111.061088
        },
        "ad_info": {
            "adcode": 430524,
            "province": "湖南省",
            "city": "邵阳市",
            "district": "隆回县"
        }
    },
    {
        "id": "452977657914188640",
        "title": "无障碍-洗手间",
        "address": "湖南省邵阳市双清区邵阳大道与建设南路交汇处西北侧步步高邵阳新天地L1",
        "tel": "",
        "category": "基础设施:公共设施:无障碍洗手间",
        "type": 0,
        "location": {
            "lat": 27.222043,
            "lng": 111.483969
        },
        "ad_info": {
            "adcode": 430502,
            "province": "湖南省",
            "city": "邵阳市",
            "district": "双清区"
        }
    },
    {
        "id": "2239562117018223978",
        "title": "洗手间",
        "address": "湖南省邵阳市双清区宝庆东路与五一南路交叉口西南角友阿国际广场L4",
        "tel": "",
        "category": "基础设施:公共设施:公共厕所",
        "type": 0,
        "location": {
            "lat": 27.232608,
            "lng": 111.478882
        },
        "ad_info": {
            "adcode": 430502,
            "province": "湖南省",
            "city": "邵阳市",
            "district": "双清区"
        }
    },
    {
        "id": "15171209067956931476",
        "title": "公共厕所",
        "address": "湖南省邵阳市新邵县东昌路与酿溪大道交叉口正东方向465米左右",
        "tel": "",
        "category": "基础设施:公共设施:公共厕所",
        "type": 0,
        "location": {
            "lat": 27.329765,
            "lng": 111.474698
        },
        "ad_info": {
            "adcode": 430522,
            "province": "湖南省",
            "city": "邵阳市",
            "district": "新邵县"
        }
    },
    {
        "id": "16139410824014809467",
        "title": "无障碍公共厕所",
        "address": "湖南省邵阳市大祥区民族二巷与西外街交叉口正北方向40米左右",
        "tel": "",
        "category": "基础设施:公共设施:公共厕所",
        "type": 0,
        "location": {
            "lat": 27.237152,
            "lng": 111.452436
        },
        "ad_info": {
            "adcode": 430503,
            "province": "湖南省",
            "city": "邵阳市",
            "district": "大祥区"
        }
    },
    {
        "id": "13186941408357003899",
        "title": "隆回服务区公共厕所",
        "address": "湖南省邵阳市隆回县S552与X050交叉口东北方向524米左右",
        "tel": "",
        "category": "基础设施:公共设施:公共厕所",
        "type": 0,
        "location": {
            "lat": 27.095104,
            "lng": 111.029295
        },
        "ad_info": {
            "adcode": 430524,
            "province": "湖南省",
            "city": "邵阳市",
            "district": "隆回县"
        }
    },
    {
        "id": "12042017635964086822",
        "title": "洗手间",
        "address": "湖南省邵阳市邵东市红岭路与荷花路交叉口处缤纷环球城2F",
        "tel": "",
        "category": "基础设施:公共设施:公共厕所",
        "type": 0,
        "location": {
            "lat": 27.25111,
            "lng": 111.745677
        },
        "ad_info": {
            "adcode": 430582,
            "province": "湖南省",
            "city": "邵阳市",
            "district": "邵东市"
        }
    },
    {
        "id": "7784213347156331594",
        "title": "公共厕所",
        "address": "湖南省邵阳市武冈市东塔路与安园路一巷交叉口东北方向37米左右",
        "tel": "",
        "category": "基础设施:公共设施:公共厕所",
        "type": 0,
        "location": {
            "lat": 26.736312,
            "lng": 110.638056
        },
        "ad_info": {
            "adcode": 430581,
            "province": "湖南省",
            "city": "邵阳市",
            "district": "武冈市"
        }
    },
    {
        "id": "6358284581860544003",
        "title": "公共厕所",
        "address": "湖南省邵阳市邵东市X019与孟仙路交叉口东南方向1597米左右",
        "tel": "",
        "category": "基础设施:公共设施:公共厕所",
        "type": 0,
        "location": {
            "lat": 27.151714,
            "lng": 111.72365
        },
        "ad_info": {
            "adcode": 430582,
            "province": "湖南省",
            "city": "邵阳市",
            "district": "邵东市"
        }
    },
    {
        "id": "13035958578103091868",
        "title": "洗手间",
        "address": "湖南省邵阳市双清区宝庆东路与五一南路交叉口西南角友阿国际广场L3",
        "tel": "",
        "category": "基础设施:公共设施:公共厕所",
        "type": 0,
        "location": {
            "lat": 27.23202,
            "lng": 111.47873
        },
        "ad_info": {
            "adcode": 430502,
            "province": "湖南省",
            "city": "邵阳市",
            "district": "双清区"
        }
    },
    {
        "id": "3015593315865196567",
        "title": "卫生间",
        "address": "湖南省邵阳市双清区东风路与五一路交叉路口西南侧大汉悦中心1F",
        "tel": "",
        "category": "基础设施:公共设施:公共厕所",
        "type": 0,
        "location": {
            "lat": 27.238418,
            "lng": 111.478225
        },
        "ad_info": {
            "adcode": 430502,
            "province": "湖南省",
            "city": "邵阳市",
            "district": "双清区"
        }
    },
    {
        "id": "16989531237267023801",
        "title": "洗手间",
        "address": "湖南省邵阳市邵东市红岭路与荷花路交叉口处缤纷环球城B1",
        "tel": "",
        "category": "基础设施:公共设施:公共厕所",
        "type": 0,
        "location": {
            "lat": 27.250126,
            "lng": 111.745593
        },
        "ad_info": {
            "adcode": 430582,
            "province": "湖南省",
            "city": "邵阳市",
            "district": "邵东市"
        }
    },
    {
        "id": "4273253819350565281",
        "title": "爱莲巷无障碍公共厕所",
        "address": "湖南省邵阳市大祥区下曹婆井路与邵水西路交叉口正西方向125米左右",
        "tel": "",
        "category": "基础设施:公共设施:公共厕所",
        "type": 0,
        "location": {
            "lat": 27.238435,
            "lng": 111.469524
        },
        "ad_info": {
            "adcode": 430503,
            "province": "湖南省",
            "city": "邵阳市",
            "district": "大祥区"
        }
    },
    {
        "id": "8826392102419925372",
        "title": "公共厕所",
        "address": "湖南省邵阳市新邵县S236与S334交叉口西北方向175米左右",
        "tel": "",
        "category": "基础设施:公共设施:公共厕所",
        "type": 0,
        "location": {
            "lat": 27.331302,
            "lng": 111.344285
        },
        "ad_info": {
            "adcode": 430522,
            "province": "湖南省",
            "city": "邵阳市",
            "district": "新邵县"
        }
    },
    {
        "id": "7666879305455056347",
        "title": "公共厕所",
        "address": "湖南省邵阳市绥宁县兴工路与黄桑路交叉口正南方向331米左右",
        "tel": "",
        "category": "基础设施:公共设施:公共厕所",
        "type": 0,
        "location": {
            "lat": 26.601661,
            "lng": 110.156384
        },
        "ad_info": {
            "adcode": 430527,
            "province": "湖南省",
            "city": "邵阳市",
            "district": "绥宁县"
        }
    },
    {
        "id": "13498723444754337185",
        "title": "公共厕所",
        "address": "湖南省邵阳市邵阳县塘渡口镇第三完小西侧100米",
        "tel": "",
        "category": "基础设施:公共设施:公共厕所",
        "type": 0,
        "location": {
            "lat": 26.985597,
            "lng": 111.266167
        },
        "ad_info": {
            "adcode": 430523,
            "province": "湖南省",
            "city": "邵阳市",
            "district": "邵阳县"
        }
    },
    {
        "id": "11482620641958797617",
        "title": "公共厕所",
        "address": "湖南省邵阳市洞口县双洲西路与双洲路交叉口正西方向81米左右",
        "tel": "",
        "category": "基础设施:公共设施:公共厕所",
        "type": 0,
        "location": {
            "lat": 27.053407,
            "lng": 110.570172
        },
        "ad_info": {
            "adcode": 430525,
            "province": "湖南省",
            "city": "邵阳市",
            "district": "洞口县"
        }
    },
    {
        "id": "13973296056935635246",
        "title": "公共厕所",
        "address": "湖南省邵阳市双清区芙蓉兴盛(洋溪店)东北侧230米",
        "tel": "",
        "category": "基础设施:公共设施:公共厕所",
        "type": 0,
        "location": {
            "lat": 27.28482,
            "lng": 111.501421
        },
        "ad_info": {
            "adcode": 430502,
            "province": "湖南省",
            "city": "邵阳市",
            "district": "双清区"
        }
    },
    {
        "id": "11046230826793605822",
        "title": "崀山八角寨景区福寿亭卫生间",
        "address": "湖南省邵阳市新宁县",
        "tel": "",
        "category": "基础设施:公共设施:公共厕所",
        "type": 0,
        "location": {
            "lat": 26.273805,
            "lng": 110.741788
        },
        "ad_info": {
            "adcode": 430528,
            "province": "湖南省",
            "city": "邵阳市",
            "district": "新宁县"
        }
    },
    {
        "id": "11568131086651818960",
        "title": "洗手间",
        "address": "湖南省邵阳市邵东市红岭路与荷花路交叉口处缤纷环球城3F",
        "tel": "",
        "category": "基础设施:公共设施:公共厕所",
        "type": 0,
        "location": {
            "lat": 27.25111,
            "lng": 111.745677
        },
        "ad_info": {
            "adcode": 430582,
            "province": "湖南省",
            "city": "邵阳市",
            "district": "邵东市"
        }
    },
    {
        "id": "12435467330436261424",
        "title": "公共厕所",
        "address": "湖南省邵阳市隆回县创园街与桃花路交叉口东北200米",
        "tel": "",
        "category": "基础设施:公共设施:公共厕所",
        "type": 0,
        "location": {
            "lat": 27.093685,
            "lng": 111.061088
        },
        "ad_info": {
            "adcode": 430524,
            "province": "湖南省",
            "city": "邵阳市",
            "district": "隆回县"
        }
    },
    {
        "id": "452977657914188640",
        "title": "无障碍-洗手间",
        "address": "湖南省邵阳市双清区邵阳大道与建设南路交汇处西北侧步步高邵阳新天地L1",
        "tel": "",
        "category": "基础设施:公共设施:无障碍洗手间",
        "type": 0,
        "location": {
            "lat": 27.222043,
            "lng": 111.483969
        },
        "ad_info": {
            "adcode": 430502,
            "province": "湖南省",
            "city": "邵阳市",
            "district": "双清区"
        }
    },
    {
        "id": "2239562117018223978",
        "title": "洗手间",
        "address": "湖南省邵阳市双清区宝庆东路与五一南路交叉口西南角友阿国际广场L4",
        "tel": "",
        "category": "基础设施:公共设施:公共厕所",
        "type": 0,
        "location": {
            "lat": 27.232608,
            "lng": 111.478882
        },
        "ad_info": {
            "adcode": 430502,
            "province": "湖南省",
            "city": "邵阳市",
            "district": "双清区"
        }
    },
    {
        "id": "15171209067956931476",
        "title": "公共厕所",
        "address": "湖南省邵阳市新邵县东昌路与酿溪大道交叉口正东方向465米左右",
        "tel": "",
        "category": "基础设施:公共设施:公共厕所",
        "type": 0,
        "location": {
            "lat": 27.329765,
            "lng": 111.474698
        },
        "ad_info": {
            "adcode": 430522,
            "province": "湖南省",
            "city": "邵阳市",
            "district": "新邵县"
        }
    },
    {
        "id": "16139410824014809467",
        "title": "无障碍公共厕所",
        "address": "湖南省邵阳市大祥区民族二巷与西外街交叉口正北方向40米左右",
        "tel": "",
        "category": "基础设施:公共设施:公共厕所",
        "type": 0,
        "location": {
            "lat": 27.237152,
            "lng": 111.452436
        },
        "ad_info": {
            "adcode": 430503,
            "province": "湖南省",
            "city": "邵阳市",
            "district": "大祥区"
        }
    },
    {
        "id": "13186941408357003899",
        "title": "隆回服务区公共厕所",
        "address": "湖南省邵阳市隆回县S552与X050交叉口东北方向524米左右",
        "tel": "",
        "category": "基础设施:公共设施:公共厕所",
        "type": 0,
        "location": {
            "lat": 27.095104,
            "lng": 111.029295
        },
        "ad_info": {
            "adcode": 430524,
            "province": "湖南省",
            "city": "邵阳市",
            "district": "隆回县"
        }
    },
    {
        "id": "12042017635964086822",
        "title": "洗手间",
        "address": "湖南省邵阳市邵东市红岭路与荷花路交叉口处缤纷环球城2F",
        "tel": "",
        "category": "基础设施:公共设施:公共厕所",
        "type": 0,
        "location": {
            "lat": 27.25111,
            "lng": 111.745677
        },
        "ad_info": {
            "adcode": 430582,
            "province": "湖南省",
            "city": "邵阳市",
            "district": "邵东市"
        }
    },
    {
        "id": "7784213347156331594",
        "title": "公共厕所",
        "address": "湖南省邵阳市武冈市东塔路与安园路一巷交叉口东北方向37米左右",
        "tel": "",
        "category": "基础设施:公共设施:公共厕所",
        "type": 0,
        "location": {
            "lat": 26.736312,
            "lng": 110.638056
        },
        "ad_info": {
            "adcode": 430581,
            "province": "湖南省",
            "city": "邵阳市",
            "district": "武冈市"
        }
    },
    {
        "id": "6358284581860544003",
        "title": "公共厕所",
        "address": "湖南省邵阳市邵东市X019与孟仙路交叉口东南方向1597米左右",
        "tel": "",
        "category": "基础设施:公共设施:公共厕所",
        "type": 0,
        "location": {
            "lat": 27.151714,
            "lng": 111.72365
        },
        "ad_info": {
            "adcode": 430582,
            "province": "湖南省",
            "city": "邵阳市",
            "district": "邵东市"
        }
    },
    {
        "id": "13035958578103091868",
        "title": "洗手间",
        "address": "湖南省邵阳市双清区宝庆东路与五一南路交叉口西南角友阿国际广场L3",
        "tel": "",
        "category": "基础设施:公共设施:公共厕所",
        "type": 0,
        "location": {
            "lat": 27.23202,
            "lng": 111.47873
        },
        "ad_info": {
            "adcode": 430502,
            "province": "湖南省",
            "city": "邵阳市",
            "district": "双清区"
        }
    },
    {
        "id": "3015593315865196567",
        "title": "卫生间",
        "address": "湖南省邵阳市双清区东风路与五一路交叉路口西南侧大汉悦中心1F",
        "tel": "",
        "category": "基础设施:公共设施:公共厕所",
        "type": 0,
        "location": {
            "lat": 27.238418,
            "lng": 111.478225
        },
        "ad_info": {
            "adcode": 430502,
            "province": "湖南省",
            "city": "邵阳市",
            "district": "双清区"
        }
    },
    {
        "id": "16989531237267023801",
        "title": "洗手间",
        "address": "湖南省邵阳市邵东市红岭路与荷花路交叉口处缤纷环球城B1",
        "tel": "",
        "category": "基础设施:公共设施:公共厕所",
        "type": 0,
        "location": {
            "lat": 27.250126,
            "lng": 111.745593
        },
        "ad_info": {
            "adcode": 430582,
            "province": "湖南省",
            "city": "邵阳市",
            "district": "邵东市"
        }
    },
    {
        "id": "4273253819350565281",
        "title": "爱莲巷无障碍公共厕所",
        "address": "湖南省邵阳市大祥区下曹婆井路与邵水西路交叉口正西方向125米左右",
        "tel": "",
        "category": "基础设施:公共设施:公共厕所",
        "type": 0,
        "location": {
            "lat": 27.238435,
            "lng": 111.469524
        },
        "ad_info": {
            "adcode": 430503,
            "province": "湖南省",
            "city": "邵阳市",
            "district": "大祥区"
        }
    },
    {
        "id": "8826392102419925372",
        "title": "公共厕所",
        "address": "湖南省邵阳市新邵县S236与S334交叉口西北方向175米左右",
        "tel": "",
        "category": "基础设施:公共设施:公共厕所",
        "type": 0,
        "location": {
            "lat": 27.331302,
            "lng": 111.344285
        },
        "ad_info": {
            "adcode": 430522,
            "province": "湖南省",
            "city": "邵阳市",
            "district": "新邵县"
        }
    },
    {
        "id": "7666879305455056347",
        "title": "公共厕所",
        "address": "湖南省邵阳市绥宁县兴工路与黄桑路交叉口正南方向331米左右",
        "tel": "",
        "category": "基础设施:公共设施:公共厕所",
        "type": 0,
        "location": {
            "lat": 26.601661,
            "lng": 110.156384
        },
        "ad_info": {
            "adcode": 430527,
            "province": "湖南省",
            "city": "邵阳市",
            "district": "绥宁县"
        }
    },
    {
        "id": "13498723444754337185",
        "title": "公共厕所",
        "address": "湖南省邵阳市邵阳县塘渡口镇第三完小西侧100米",
        "tel": "",
        "category": "基础设施:公共设施:公共厕所",
        "type": 0,
        "location": {
            "lat": 26.985597,
            "lng": 111.266167
        },
        "ad_info": {
            "adcode": 430523,
            "province": "湖南省",
            "city": "邵阳市",
            "district": "邵阳县"
        }
    },
    {
        "id": "11482620641958797617",
        "title": "公共厕所",
        "address": "湖南省邵阳市洞口县双洲西路与双洲路交叉口正西方向81米左右",
        "tel": "",
        "category": "基础设施:公共设施:公共厕所",
        "type": 0,
        "location": {
            "lat": 27.053407,
            "lng": 110.570172
        },
        "ad_info": {
            "adcode": 430525,
            "province": "湖南省",
            "city": "邵阳市",
            "district": "洞口县"
        }
    },
    {
        "id": "13973296056935635246",
        "title": "公共厕所",
        "address": "湖南省邵阳市双清区芙蓉兴盛(洋溪店)东北侧230米",
        "tel": "",
        "category": "基础设施:公共设施:公共厕所",
        "type": 0,
        "location": {
            "lat": 27.28482,
            "lng": 111.501421
        },
        "ad_info": {
            "adcode": 430502,
            "province": "湖南省",
            "city": "邵阳市",
            "district": "双清区"
        }
    },
    {
        "id": "11046230826793605822",
        "title": "崀山八角寨景区福寿亭卫生间",
        "address": "湖南省邵阳市新宁县",
        "tel": "",
        "category": "基础设施:公共设施:公共厕所",
        "type": 0,
        "location": {
            "lat": 26.273805,
            "lng": 110.741788
        },
        "ad_info": {
            "adcode": 430528,
            "province": "湖南省",
            "city": "邵阳市",
            "district": "新宁县"
        }
    },
    {
        "id": "11568131086651818960",
        "title": "洗手间",
        "address": "湖南省邵阳市邵东市红岭路与荷花路交叉口处缤纷环球城3F",
        "tel": "",
        "category": "基础设施:公共设施:公共厕所",
        "type": 0,
        "location": {
            "lat": 27.25111,
            "lng": 111.745677
        },
        "ad_info": {
            "adcode": 430582,
            "province": "湖南省",
            "city": "邵阳市",
            "district": "邵东市"
        }
    },
    {
        "id": "12435467330436261424",
        "title": "公共厕所",
        "address": "湖南省邵阳市隆回县创园街与桃花路交叉口东北200米",
        "tel": "",
        "category": "基础设施:公共设施:公共厕所",
        "type": 0,
        "location": {
            "lat": 27.093685,
            "lng": 111.061088
        },
        "ad_info": {
            "adcode": 430524,
            "province": "湖南省",
            "city": "邵阳市",
            "district": "隆回县"
        }
    },
    {
        "id": "452977657914188640",
        "title": "无障碍-洗手间",
        "address": "湖南省邵阳市双清区邵阳大道与建设南路交汇处西北侧步步高邵阳新天地L1",
        "tel": "",
        "category": "基础设施:公共设施:无障碍洗手间",
        "type": 0,
        "location": {
            "lat": 27.222043,
            "lng": 111.483969
        },
        "ad_info": {
            "adcode": 430502,
            "province": "湖南省",
            "city": "邵阳市",
            "district": "双清区"
        }
    },
    {
        "id": "2239562117018223978",
        "title": "洗手间",
        "address": "湖南省邵阳市双清区宝庆东路与五一南路交叉口西南角友阿国际广场L4",
        "tel": "",
        "category": "基础设施:公共设施:公共厕所",
        "type": 0,
        "location": {
            "lat": 27.232608,
            "lng": 111.478882
        },
        "ad_info": {
            "adcode": 430502,
            "province": "湖南省",
            "city": "邵阳市",
            "district": "双清区"
        }
    },
    {
        "id": "15171209067956931476",
        "title": "公共厕所",
        "address": "湖南省邵阳市新邵县东昌路与酿溪大道交叉口正东方向465米左右",
        "tel": "",
        "category": "基础设施:公共设施:公共厕所",
        "type": 0,
        "location": {
            "lat": 27.329765,
            "lng": 111.474698
        },
        "ad_info": {
            "adcode": 430522,
            "province": "湖南省",
            "city": "邵阳市",
            "district": "新邵县"
        }
    },
    {
        "id": "16139410824014809467",
        "title": "无障碍公共厕所",
        "address": "湖南省邵阳市大祥区民族二巷与西外街交叉口正北方向40米左右",
        "tel": "",
        "category": "基础设施:公共设施:公共厕所",
        "type": 0,
        "location": {
            "lat": 27.237152,
            "lng": 111.452436
        },
        "ad_info": {
            "adcode": 430503,
            "province": "湖南省",
            "city": "邵阳市",
            "district": "大祥区"
        }
    },
    {
        "id": "13186941408357003899",
        "title": "隆回服务区公共厕所",
        "address": "湖南省邵阳市隆回县S552与X050交叉口东北方向524米左右",
        "tel": "",
        "category": "基础设施:公共设施:公共厕所",
        "type": 0,
        "location": {
            "lat": 27.095104,
            "lng": 111.029295
        },
        "ad_info": {
            "adcode": 430524,
            "province": "湖南省",
            "city": "邵阳市",
            "district": "隆回县"
        }
    },
    {
        "id": "12042017635964086822",
        "title": "洗手间",
        "address": "湖南省邵阳市邵东市红岭路与荷花路交叉口处缤纷环球城2F",
        "tel": "",
        "category": "基础设施:公共设施:公共厕所",
        "type": 0,
        "location": {
            "lat": 27.25111,
            "lng": 111.745677
        },
        "ad_info": {
            "adcode": 430582,
            "province": "湖南省",
            "city": "邵阳市",
            "district": "邵东市"
        }
    },
    {
        "id": "7784213347156331594",
        "title": "公共厕所",
        "address": "湖南省邵阳市武冈市东塔路与安园路一巷交叉口东北方向37米左右",
        "tel": "",
        "category": "基础设施:公共设施:公共厕所",
        "type": 0,
        "location": {
            "lat": 26.736312,
            "lng": 110.638056
        },
        "ad_info": {
            "adcode": 430581,
            "province": "湖南省",
            "city": "邵阳市",
            "district": "武冈市"
        }
    },
    {
        "id": "6358284581860544003",
        "title": "公共厕所",
        "address": "湖南省邵阳市邵东市X019与孟仙路交叉口东南方向1597米左右",
        "tel": "",
        "category": "基础设施:公共设施:公共厕所",
        "type": 0,
        "location": {
            "lat": 27.151714,
            "lng": 111.72365
        },
        "ad_info": {
            "adcode": 430582,
            "province": "湖南省",
            "city": "邵阳市",
            "district": "邵东市"
        }
    },
    {
        "id": "13035958578103091868",
        "title": "洗手间",
        "address": "湖南省邵阳市双清区宝庆东路与五一南路交叉口西南角友阿国际广场L3",
        "tel": "",
        "category": "基础设施:公共设施:公共厕所",
        "type": 0,
        "location": {
            "lat": 27.23202,
            "lng": 111.47873
        },
        "ad_info": {
            "adcode": 430502,
            "province": "湖南省",
            "city": "邵阳市",
            "district": "双清区"
        }
    },
    {
        "id": "3015593315865196567",
        "title": "卫生间",
        "address": "湖南省邵阳市双清区东风路与五一路交叉路口西南侧大汉悦中心1F",
        "tel": "",
        "category": "基础设施:公共设施:公共厕所",
        "type": 0,
        "location": {
            "lat": 27.238418,
            "lng": 111.478225
        },
        "ad_info": {
            "adcode": 430502,
            "province": "湖南省",
            "city": "邵阳市",
            "district": "双清区"
        }
    },
    {
        "id": "16989531237267023801",
        "title": "洗手间",
        "address": "湖南省邵阳市邵东市红岭路与荷花路交叉口处缤纷环球城B1",
        "tel": "",
        "category": "基础设施:公共设施:公共厕所",
        "type": 0,
        "location": {
            "lat": 27.250126,
            "lng": 111.745593
        },
        "ad_info": {
            "adcode": 430582,
            "province": "湖南省",
            "city": "邵阳市",
            "district": "邵东市"
        }
    },
    {
        "id": "4273253819350565281",
        "title": "爱莲巷无障碍公共厕所",
        "address": "湖南省邵阳市大祥区下曹婆井路与邵水西路交叉口正西方向125米左右",
        "tel": "",
        "category": "基础设施:公共设施:公共厕所",
        "type": 0,
        "location": {
            "lat": 27.238435,
            "lng": 111.469524
        },
        "ad_info": {
            "adcode": 430503,
            "province": "湖南省",
            "city": "邵阳市",
            "district": "大祥区"
        }
    },
    {
        "id": "8826392102419925372",
        "title": "公共厕所",
        "address": "湖南省邵阳市新邵县S236与S334交叉口西北方向175米左右",
        "tel": "",
        "category": "基础设施:公共设施:公共厕所",
        "type": 0,
        "location": {
            "lat": 27.331302,
            "lng": 111.344285
        },
        "ad_info": {
            "adcode": 430522,
            "province": "湖南省",
            "city": "邵阳市",
            "district": "新邵县"
        }
    },
    {
        "id": "7666879305455056347",
        "title": "公共厕所",
        "address": "湖南省邵阳市绥宁县兴工路与黄桑路交叉口正南方向331米左右",
        "tel": "",
        "category": "基础设施:公共设施:公共厕所",
        "type": 0,
        "location": {
            "lat": 26.601661,
            "lng": 110.156384
        },
        "ad_info": {
            "adcode": 430527,
            "province": "湖南省",
            "city": "邵阳市",
            "district": "绥宁县"
        }
    },
    {
        "id": "13498723444754337185",
        "title": "公共厕所",
        "address": "湖南省邵阳市邵阳县塘渡口镇第三完小西侧100米",
        "tel": "",
        "category": "基础设施:公共设施:公共厕所",
        "type": 0,
        "location": {
            "lat": 26.985597,
            "lng": 111.266167
        },
        "ad_info": {
            "adcode": 430523,
            "province": "湖南省",
            "city": "邵阳市",
            "district": "邵阳县"
        }
    }
]