[
    {
        "id": "8141154229719690511",
        "title": "公共厕所",
        "address": "湖南省郴州市北湖区增湖路与清泉路交叉口西北方向197米左右",
        "tel": "",
        "category": "基础设施:公共设施:公共厕所",
        "type": 0,
        "location": {
            "lat": 25.735465,
            "lng": 112.970072
        },
        "ad_info": {
            "adcode": 431002,
            "province": "湖南省",
            "city": "郴州市",
            "district": "北湖区"
        }
    },
    {
        "id": "13696906664635193563",
        "title": "公共厕所",
        "address": "湖南省郴州市北湖区南岭大道辅路与骆福路交叉口东北方向203米左右",
        "tel": "",
        "category": "基础设施:公共设施:公共厕所",
        "type": 0,
        "location": {
            "lat": 25.788237,
            "lng": 113.013984
        },
        "ad_info": {
            "adcode": 431002,
            "province": "湖南省",
            "city": "郴州市",
            "district": "北湖区"
        }
    },
    {
        "id": "14158485470571950876",
        "title": "公共厕所",
        "address": "湖南省郴州市宜章县南京东路与南京路交叉口正北方向90米左右",
        "tel": "",
        "category": "基础设施:公共设施:公共厕所",
        "type": 0,
        "location": {
            "lat": 25.391667,
            "lng": 112.94913
        },
        "ad_info": {
            "adcode": 431022,
            "province": "湖南省",
            "city": "郴州市",
            "district": "宜章县"
        }
    },
    {
        "id": "9467724225332180897",
        "title": "公共厕所",
        "address": "湖南省郴州市宜章县文明北路广源宾馆(城北街)",
        "tel": "",
        "category": "基础设施:公共设施:公共厕所",
        "type": 0,
        "location": {
            "lat": 25.406867,
            "lng": 112.956221
        },
        "ad_info": {
            "adcode": 431022,
            "province": "湖南省",
            "city": "郴州市",
            "district": "宜章县"
        }
    },
    {
        "id": "6229987478772917561",
        "title": "公共厕所",
        "address": "湖南省郴州市桂阳县向阳路与胡滕路交叉口西南方向76米左右",
        "tel": "",
        "category": "基础设施:公共设施:公共厕所",
        "type": 0,
        "location": {
            "lat": 25.734556,
            "lng": 112.734223
        },
        "ad_info": {
            "adcode": 431021,
            "province": "湖南省",
            "city": "郴州市",
            "district": "桂阳县"
        }
    },
    {
        "id": "9031366509929192681",
        "title": "公共厕所",
        "address": "湖南省郴州市北湖区七里大道106-16号",
        "tel": "",
        "category": "基础设施:公共设施:公共厕所",
        "type": 0,
        "location": {
            "lat": 25.773441,
            "lng": 113.010941
        },
        "ad_info": {
            "adcode": 431002,
            "province": "湖南省",
            "city": "郴州市",
            "district": "北湖区"
        }
    },
    {
        "id": "6581082021708362459",
        "title": "公共厕所",
        "address": "湖南省郴州市北湖区丁家湾路与国庆南路交叉口西南方向71米左右",
        "tel": "",
        "category": "基础设施:公共设施:公共厕所",
        "type": 0,
        "location": {
            "lat": 25.762316,
            "lng": 113.040261
        },
        "ad_info": {
            "adcode": 431002,
            "province": "湖南省",
            "city": "郴州市",
            "district": "北湖区"
        }
    },
    {
        "id": "11644481596525219586",
        "title": "公共厕所",
        "address": "湖南省郴州市北湖区增湖路万华汽车站内",
        "tel": "",
        "category": "基础设施:公共设施:公共厕所",
        "type": 0,
        "location": {
            "lat": 25.733599,
            "lng": 112.97088
        },
        "ad_info": {
            "adcode": 431002,
            "province": "湖南省",
            "city": "郴州市",
            "district": "北湖区"
        }
    },
    {
        "id": "9097128853543410783",
        "title": "公共厕所",
        "address": "湖南省郴州市北湖区南岭大道辅路与隆盛巷交叉口正东方向118米左右",
        "tel": "",
        "category": "基础设施:公共设施:公共厕所",
        "type": 0,
        "location": {
            "lat": 25.75913,
            "lng": 113.003204
        },
        "ad_info": {
            "adcode": 431002,
            "province": "湖南省",
            "city": "郴州市",
            "district": "北湖区"
        }
    },
    {
        "id": "11386984904320996736",
        "title": "公共厕所",
        "address": "湖南省郴州市宜章县G535与建设西路交叉口正南方向295米左右",
        "tel": "",
        "category": "基础设施:公共设施:公共厕所",
        "type": 0,
        "location": {
            "lat": 25.398353,
            "lng": 113.018058
        },
        "ad_info": {
            "adcode": 431022,
            "province": "湖南省",
            "city": "郴州市",
            "district": "宜章县"
        }
    },
    {
        "id": "12926160747234349172",
        "title": "公共厕所",
        "address": "湖南省郴州市北湖区影宾路与文化路交叉口正南方向165米左右",
        "tel": "",
        "category": "基础设施:公共设施:公共厕所",
        "type": 0,
        "location": {
            "lat": 25.792998,
            "lng": 113.033196
        },
        "ad_info": {
            "adcode": 431002,
            "province": "湖南省",
            "city": "郴州市",
            "district": "北湖区"
        }
    },
    {
        "id": "13081895404228853570",
        "title": "公共厕所",
        "address": "湖南省郴州市宜章县024县道与701乡道交叉口西200米",
        "tel": "",
        "category": "基础设施:公共设施:公共厕所",
        "type": 0,
        "location": {
            "lat": 25.641785,
            "lng": 113.3191
        },
        "ad_info": {
            "adcode": 431022,
            "province": "湖南省",
            "city": "郴州市",
            "district": "宜章县"
        }
    },
    {
        "id": "11364198678318347283",
        "title": "公共厕所",
        "address": "湖南省郴州市北湖区南岭大道与燕泉南路交叉口东南方向145米左右",
        "tel": "",
        "category": "基础设施:公共设施:公共厕所",
        "type": 0,
        "location": {
            "lat": 25.77048,
            "lng": 113.012441
        },
        "ad_info": {
            "adcode": 431002,
            "province": "湖南省",
            "city": "郴州市",
            "district": "北湖区"
        }
    },
    {
        "id": "8357442816237033331",
        "title": "公共厕所",
        "address": "湖南省郴州市宜章县S324与X151交叉口西南方向1819米左右",
        "tel": "",
        "category": "基础设施:公共设施:公共厕所",
        "type": 0,
        "location": {
            "lat": 25.522727,
            "lng": 113.235637
        },
        "ad_info": {
            "adcode": 431022,
            "province": "湖南省",
            "city": "郴州市",
            "district": "宜章县"
        }
    },
    {
        "id": "18003717121053969364",
        "title": "公共厕所",
        "address": "湖南省郴州市北湖区龙泉路24-15-17号",
        "tel": "",
        "category": "基础设施:公共设施:公共厕所",
        "type": 0,
        "location": {
            "lat": 25.784801,
            "lng": 113.024452
        },
        "ad_info": {
            "adcode": 431002,
            "province": "湖南省",
            "city": "郴州市",
            "district": "北湖区"
        }
    },
    {
        "id": "5560434564831095225",
        "title": "公共厕所",
        "address": "湖南省郴州市北湖区增湖路与清泉路交叉口正西方向65米左右",
        "tel": "",
        "category": "基础设施:公共设施:公共厕所",
        "type": 0,
        "location": {
            "lat": 25.73426,
            "lng": 112.970662
        },
        "ad_info": {
            "adcode": 431002,
            "province": "湖南省",
            "city": "郴州市",
            "district": "北湖区"
        }
    },
    {
        "id": "4939252941903212517",
        "title": "公共厕所",
        "address": "湖南省郴州市嘉禾县金田路14号",
        "tel": "",
        "category": "基础设施:公共设施:公共厕所",
        "type": 0,
        "location": {
            "lat": 25.59226,
            "lng": 112.369919
        },
        "ad_info": {
            "adcode": 431024,
            "province": "湖南省",
            "city": "郴州市",
            "district": "嘉禾县"
        }
    },
    {
        "id": "10007816086498618982",
        "title": "公共厕所",
        "address": "湖南省郴州市北湖区南岭大道与工业大道交叉口西北方向195米左右",
        "tel": "",
        "category": "基础设施:公共设施:公共厕所",
        "type": 0,
        "location": {
            "lat": 25.692921,
            "lng": 112.981292
        },
        "ad_info": {
            "adcode": 431002,
            "province": "湖南省",
            "city": "郴州市",
            "district": "北湖区"
        }
    },
    {
        "id": "11250059396795291789",
        "title": "公共厕所",
        "address": "湖南省郴州市桂阳县珺山路与芙蓉东路交叉口西南方向181米左右",
        "tel": "",
        "category": "基础设施:公共设施:公共厕所",
        "type": 0,
        "location": {
            "lat": 25.741143,
            "lng": 112.740755
        },
        "ad_info": {
            "adcode": 431021,
            "province": "湖南省",
            "city": "郴州市",
            "district": "桂阳县"
        }
    },
    {
        "id": "14210888117309228793",
        "title": "公共厕所",
        "address": "湖南省郴州市北湖区八角山路与华府路交叉口正西方向40米左右",
        "tel": "",
        "category": "基础设施:公共设施:公共厕所",
        "type": 0,
        "location": {
            "lat": 25.775483,
            "lng": 112.984638
        },
        "ad_info": {
            "adcode": 431002,
            "province": "湖南省",
            "city": "郴州市",
            "district": "北湖区"
        }
    },
    {
        "id": "6010743193999930328",
        "title": "公共厕所",
        "address": "湖南省郴州市北湖区南岭大道与香雪路交叉口正南方向78米左右",
        "tel": "",
        "category": "基础设施:公共设施:公共厕所",
        "type": 0,
        "location": {
            "lat": 25.778301,
            "lng": 113.010198
        },
        "ad_info": {
            "adcode": 431002,
            "province": "湖南省",
            "city": "郴州市",
            "district": "北湖区"
        }
    },
    {
        "id": "1056871367233522123",
        "title": "公共厕所",
        "address": "湖南省郴州市北湖区和平路与燕泉北路交叉口正南方向73米左右",
        "tel": "",
        "category": "基础设施:公共设施:公共厕所",
        "type": 0,
        "location": {
            "lat": 25.790269,
            "lng": 113.032461
        },
        "ad_info": {
            "adcode": 431002,
            "province": "湖南省",
            "city": "郴州市",
            "district": "北湖区"
        }
    },
    {
        "id": "16553493475791510739",
        "title": "公共厕所",
        "address": "湖南省郴州市北湖区四清湖亲子营地西南侧",
        "tel": "",
        "category": "基础设施:公共设施:公共厕所",
        "type": 0,
        "location": {
            "lat": 25.713041,
            "lng": 112.88891
        },
        "ad_info": {
            "adcode": 431002,
            "province": "湖南省",
            "city": "郴州市",
            "district": "北湖区"
        }
    },
    {
        "id": "4572843597052731384",
        "title": "公共厕所",
        "address": "湖南省郴州市嘉禾县S215与嘉新路交叉口西北方向1386米左右",
        "tel": "",
        "category": "基础设施:公共设施:公共厕所",
        "type": 0,
        "location": {
            "lat": 25.657768,
            "lng": 112.354507
        },
        "ad_info": {
            "adcode": 431024,
            "province": "湖南省",
            "city": "郴州市",
            "district": "嘉禾县"
        }
    },
    {
        "id": "17027530819973689175",
        "title": "公共厕所",
        "address": "湖南省郴州市北湖区中山西街与文化路交叉口东北方向58米左右",
        "tel": "",
        "category": "基础设施:公共设施:公共厕所",
        "type": 0,
        "location": {
            "lat": 25.79165,
            "lng": 113.03402
        },
        "ad_info": {
            "adcode": 431002,
            "province": "湖南省",
            "city": "郴州市",
            "district": "北湖区"
        }
    },
    {
        "id": "15017732800925739352",
        "title": "公共厕所",
        "address": "湖南省郴州市北湖区温泉路与龙女路交叉口东南方向423米左右",
        "tel": "",
        "category": "基础设施:公共设施:公共厕所",
        "type": 0,
        "location": {
            "lat": 25.846746,
            "lng": 113.020236
        },
        "ad_info": {
            "adcode": 431002,
            "province": "湖南省",
            "city": "郴州市",
            "district": "北湖区"
        }
    },
    {
        "id": "15308435162438029797",
        "title": "公共厕所",
        "address": "湖南省郴州市北湖区国庆北路与桂门岭路交叉口东北方向121米左右",
        "tel": "",
        "category": "基础设施:公共设施:公共厕所",
        "type": 0,
        "location": {
            "lat": 25.812227,
            "lng": 113.025571
        },
        "ad_info": {
            "adcode": 431002,
            "province": "湖南省",
            "city": "郴州市",
            "district": "北湖区"
        }
    },
    {
        "id": "4610077488542171273",
        "title": "公共厕所",
        "address": "湖南省郴州市临武县沿江北路与陶然路交叉口正南方向106米左右",
        "tel": "",
        "category": "基础设施:公共设施:公共厕所",
        "type": 0,
        "location": {
            "lat": 25.279629,
            "lng": 112.574113
        },
        "ad_info": {
            "adcode": 431025,
            "province": "湖南省",
            "city": "郴州市",
            "district": "临武县"
        }
    },
    {
        "id": "11009437493133349448",
        "title": "公共厕所",
        "address": "湖南省郴州市北湖区桐梓坪路南塔市场",
        "tel": "",
        "category": "基础设施:公共设施:公共厕所",
        "type": 0,
        "location": {
            "lat": 25.786612,
            "lng": 113.033163
        },
        "ad_info": {
            "adcode": 431002,
            "province": "湖南省",
            "city": "郴州市",
            "district": "北湖区"
        }
    },
    {
        "id": "14191312603078500417",
        "title": "公共厕所",
        "address": "湖南省郴州市资兴市东江老街与文化南路交叉口东南方向73米左右",
        "tel": "",
        "category": "基础设施:公共设施:公共厕所",
        "type": 0,
        "location": {
            "lat": 25.937073,
            "lng": 113.258193
        },
        "ad_info": {
            "adcode": 431081,
            "province": "湖南省",
            "city": "郴州市",
            "district": "资兴市"
        }
    },
    {
        "id": "16820548455209026373",
        "title": "公共厕所",
        "address": "湖南省郴州市北湖区南岭大道与新泉巷交叉口西北方向421米左右",
        "tel": "",
        "category": "基础设施:公共设施:公共厕所",
        "type": 0,
        "location": {
            "lat": 25.845602,
            "lng": 113.022242
        },
        "ad_info": {
            "adcode": 431002,
            "province": "湖南省",
            "city": "郴州市",
            "district": "北湖区"
        }
    },
    {
        "id": "5396580353289857746",
        "title": "公共厕所",
        "address": "湖南省郴州市北湖区冲口路与双缘路交叉口东南方向54米左右",
        "tel": "",
        "category": "基础设施:公共设施:公共厕所",
        "type": 0,
        "location": {
            "lat": 25.757818,
            "lng": 113.013635
        },
        "ad_info": {
            "adcode": 431002,
            "province": "湖南省",
            "city": "郴州市",
            "district": "北湖区"
        }
    },
    {
        "id": "13772632626156320518",
        "title": "公共厕所",
        "address": "湖南省郴州市桂东县沙田镇纪律文化中心旁",
        "tel": "",
        "category": "基础设施:公共设施:公共厕所",
        "type": 0,
        "location": {
            "lat": 25.842642,
            "lng": 113.828215
        },
        "ad_info": {
            "adcode": 431027,
            "province": "湖南省",
            "city": "郴州市",
            "district": "桂东县"
        }
    },
    {
        "id": "5539412963542929110",
        "title": "公共厕所",
        "address": "湖南省郴州市北湖区东风路与广场东路交叉口西南方向178米左右",
        "tel": "",
        "category": "基础设施:公共设施:公共厕所",
        "type": 0,
        "location": {
            "lat": 25.790433,
            "lng": 113.027061
        },
        "ad_info": {
            "adcode": 431002,
            "province": "湖南省",
            "city": "郴州市",
            "district": "北湖区"
        }
    },
    {
        "id": "11252220997365787982",
        "title": "公共厕所",
        "address": "湖南省郴州市嘉禾县中华东路与健康街交叉口东北方向146米左右",
        "tel": "",
        "category": "基础设施:公共设施:公共厕所",
        "type": 0,
        "location": {
            "lat": 25.585268,
            "lng": 112.366849
        },
        "ad_info": {
            "adcode": 431024,
            "province": "湖南省",
            "city": "郴州市",
            "district": "嘉禾县"
        }
    },
    {
        "id": "7982243451004281263",
        "title": "公共厕所",
        "address": "湖南省郴州市桂东县沤江中路与维夏路交叉口正东方向57米左右",
        "tel": "",
        "category": "基础设施:公共设施:公共厕所",
        "type": 0,
        "location": {
            "lat": 26.072827,
            "lng": 113.945139
        },
        "ad_info": {
            "adcode": 431027,
            "province": "湖南省",
            "city": "郴州市",
            "district": "桂东县"
        }
    },
    {
        "id": "3583751834190230423",
        "title": "公共厕所",
        "address": "湖南省郴州市北湖区协作路与天和东路交叉口正东方向125米左右",
        "tel": "",
        "category": "基础设施:公共设施:公共厕所",
        "type": 0,
        "location": {
            "lat": 25.809289,
            "lng": 113.032594
        },
        "ad_info": {
            "adcode": 431002,
            "province": "湖南省",
            "city": "郴州市",
            "district": "北湖区"
        }
    },
    {
        "id": "10232229085469257000",
        "title": "公共厕所",
        "address": "湖南省郴州市北湖区东风路与龙泉路交叉口正北方向135米左右",
        "tel": "",
        "category": "基础设施:公共设施:公共厕所",
        "type": 0,
        "location": {
            "lat": 25.791941,
            "lng": 113.022713
        },
        "ad_info": {
            "adcode": 431002,
            "province": "湖南省",
            "city": "郴州市",
            "district": "北湖区"
        }
    },
    {
        "id": "18259064712425304457",
        "title": "公共厕所",
        "address": "湖南省郴州市北湖区民生路与香雪路交叉口西南方向62米左右",
        "tel": "",
        "category": "基础设施:公共设施:公共厕所",
        "type": 0,
        "location": {
            "lat": 25.779388,
            "lng": 113.018561
        },
        "ad_info": {
            "adcode": 431002,
            "province": "湖南省",
            "city": "郴州市",
            "district": "北湖区"
        }
    },
    {
        "id": "7759641689440271768",
        "title": "公共厕所",
        "address": "湖南省郴州市北湖区兴隆步行街与北湖路交叉口西北方向35米左右",
        "tel": "",
        "category": "基础设施:公共设施:公共厕所",
        "type": 0,
        "location": {
            "lat": 25.799094,
            "lng": 113.03347
        },
        "ad_info": {
            "adcode": 431002,
            "province": "湖南省",
            "city": "郴州市",
            "district": "北湖区"
        }
    },
    {
        "id": "14791651772335233321",
        "title": "公共厕所",
        "address": "湖南省郴州市临武县东云路与文昌路交叉口西南方向182米左右",
        "tel": "",
        "category": "基础设施:公共设施:公共厕所",
        "type": 0,
        "location": {
            "lat": 25.27832,
            "lng": 112.558
        },
        "ad_info": {
            "adcode": 431025,
            "province": "湖南省",
            "city": "郴州市",
            "district": "临武县"
        }
    },
    {
        "id": "17471988884624618916",
        "title": "公共厕所",
        "address": "湖南省郴州市苏仙区东兴街与兴中街交叉口东南方向60米左右",
        "tel": "",
        "category": "基础设施:公共设施:公共厕所",
        "type": 0,
        "location": {
            "lat": 25.790884,
            "lng": 113.039855
        },
        "ad_info": {
            "adcode": 431003,
            "province": "湖南省",
            "city": "郴州市",
            "district": "苏仙区"
        }
    },
    {
        "id": "8836533447582983413",
        "title": "公共厕所",
        "address": "湖南省郴州市苏仙区爱莲路爱莲湖公园内",
        "tel": "",
        "category": "基础设施:公共设施:公共厕所",
        "type": 0,
        "location": {
            "lat": 25.775776,
            "lng": 113.060673
        },
        "ad_info": {
            "adcode": 431003,
            "province": "湖南省",
            "city": "郴州市",
            "district": "苏仙区"
        }
    },
    {
        "id": "17140622974361808057",
        "title": "公共厕所",
        "address": "湖南省郴州市资兴市东江大道与沿江西路交叉口正南方向192米左右",
        "tel": "",
        "category": "基础设施:公共设施:公共厕所",
        "type": 0,
        "location": {
            "lat": 25.935299,
            "lng": 113.260762
        },
        "ad_info": {
            "adcode": 431081,
            "province": "湖南省",
            "city": "郴州市",
            "district": "资兴市"
        }
    },
    {
        "id": "3433199043971186585",
        "title": "公共厕所",
        "address": "湖南省郴州市临武县地税路与沿江北路交叉口东南方向52米左右",
        "tel": "",
        "category": "基础设施:公共设施:公共厕所",
        "type": 0,
        "location": {
            "lat": 25.27813,
            "lng": 112.56711
        },
        "ad_info": {
            "adcode": 431025,
            "province": "湖南省",
            "city": "郴州市",
            "district": "临武县"
        }
    },
    {
        "id": "5561194900836760068",
        "title": "公共厕所",
        "address": "湖南省郴州市苏仙区后营大道与白水路交叉口正东方向132米左右",
        "tel": "",
        "category": "基础设施:公共设施:公共厕所",
        "type": 0,
        "location": {
            "lat": 25.788503,
            "lng": 113.106942
        },
        "ad_info": {
            "adcode": 431003,
            "province": "湖南省",
            "city": "郴州市",
            "district": "苏仙区"
        }
    },
    {
        "id": "10174846343565237599",
        "title": "公共厕所",
        "address": "湖南省郴州市北湖区协作路与车站巷交叉口西南方向51米左右",
        "tel": "",
        "category": "基础设施:公共设施:公共厕所",
        "type": 0,
        "location": {
            "lat": 25.806129,
            "lng": 113.03178
        },
        "ad_info": {
            "adcode": 431002,
            "province": "湖南省",
            "city": "郴州市",
            "district": "北湖区"
        }
    },
    {
        "id": "315740300314244498",
        "title": "公共厕所",
        "address": "湖南省郴州市北湖区万华路与旭辉路交叉口东南方向130米左右",
        "tel": "",
        "category": "基础设施:公共设施:公共厕所",
        "type": 0,
        "location": {
            "lat": 25.750592,
            "lng": 112.991903
        },
        "ad_info": {
            "adcode": 431002,
            "province": "湖南省",
            "city": "郴州市",
            "district": "北湖区"
        }
    },
    {
        "id": "11461901407361530654",
        "title": "五岭广场公共厕所",
        "address": "湖南省郴州市北湖区燕泉南路与青年大道交叉口正南方向115米左右",
        "tel": "",
        "category": "基础设施:公共设施:公共厕所",
        "type": 0,
        "location": {
            "lat": 25.772417,
            "lng": 113.013083
        },
        "ad_info": {
            "adcode": 431002,
            "province": "湖南省",
            "city": "郴州市",
            "district": "北湖区"
        }
    },
    {
        "id": "16406681966258586321",
        "title": "公共厕所",
        "address": "湖南省郴州市苏仙区茶园路与郴州大道交叉口正南方向134米左右",
        "tel": "",
        "category": "基础设施:公共设施:公共厕所",
        "type": 0,
        "location": {
            "lat": 25.783169,
            "lng": 113.095215
        },
        "ad_info": {
            "adcode": 431003,
            "province": "湖南省",
            "city": "郴州市",
            "district": "苏仙区"
        }
    },
    {
        "id": "15729437794805225776",
        "title": "公共厕所",
        "address": "湖南省郴州市汝城县卢阳大道中国石油(环城加油站)",
        "tel": "",
        "category": "基础设施:公共设施:公共厕所",
        "type": 0,
        "location": {
            "lat": 25.546491,
            "lng": 113.681953
        },
        "ad_info": {
            "adcode": 431026,
            "province": "湖南省",
            "city": "郴州市",
            "district": "汝城县"
        }
    },
    {
        "id": "4788711835071673996",
        "title": "公共厕所",
        "address": "湖南省郴州市汝城县吉祥路与滨河东路交叉口正北方向97米左右",
        "tel": "",
        "category": "基础设施:公共设施:公共厕所",
        "type": 0,
        "location": {
            "lat": 25.560628,
            "lng": 113.688732
        },
        "ad_info": {
            "adcode": 431026,
            "province": "湖南省",
            "city": "郴州市",
            "district": "汝城县"
        }
    },
    {
        "id": "12899186639251600049",
        "title": "公共厕所",
        "address": "湖南省郴州市北湖区万兴市场路与国庆北路交叉口正西方向56米左右",
        "tel": "",
        "category": "基础设施:公共设施:公共厕所",
        "type": 0,
        "location": {
            "lat": 25.80559,
            "lng": 113.02698
        },
        "ad_info": {
            "adcode": 431002,
            "province": "湖南省",
            "city": "郴州市",
            "district": "北湖区"
        }
    },
    {
        "id": "12211435332457848121",
        "title": "公共厕所",
        "address": "湖南省郴州市苏仙区井水坪路与苏仙北路交叉口西北方向281米左右",
        "tel": "",
        "category": "基础设施:公共设施:公共厕所",
        "type": 0,
        "location": {
            "lat": 25.81702,
            "lng": 113.03756
        },
        "ad_info": {
            "adcode": 431003,
            "province": "湖南省",
            "city": "郴州市",
            "district": "苏仙区"
        }
    },
    {
        "id": "12447959225205938776",
        "title": "公共厕所",
        "address": "湖南省郴州市苏仙区曹家坪路与磨心塘路交叉口东南方向82米左右",
        "tel": "",
        "category": "基础设施:公共设施:公共厕所",
        "type": 0,
        "location": {
            "lat": 25.784739,
            "lng": 113.046207
        },
        "ad_info": {
            "adcode": 431003,
            "province": "湖南省",
            "city": "郴州市",
            "district": "苏仙区"
        }
    },
    {
        "id": "9983232650542367241",
        "title": "公共厕所",
        "address": "湖南省郴州市北湖区影宾路与文化路交叉口正东方向46米左右",
        "tel": "",
        "category": "基础设施:公共设施:公共厕所",
        "type": 0,
        "location": {
            "lat": 25.794416,
            "lng": 113.033355
        },
        "ad_info": {
            "adcode": 431002,
            "province": "湖南省",
            "city": "郴州市",
            "district": "北湖区"
        }
    },
    {
        "id": "10666289435585250520",
        "title": "公共厕所",
        "address": "湖南省郴州市临武县文昌路与东云路交叉口南100米",
        "tel": "",
        "category": "基础设施:公共设施:公共厕所",
        "type": 0,
        "location": {
            "lat": 25.278517,
            "lng": 112.559389
        },
        "ad_info": {
            "adcode": 431025,
            "province": "湖南省",
            "city": "郴州市",
            "district": "临武县"
        }
    },
    {
        "id": "7398050697769511273",
        "title": "北湖公园公共厕所",
        "address": "湖南省郴州市北湖区人民西路6号北湖公园内(西北角)",
        "tel": "",
        "category": "基础设施:公共设施:公共厕所",
        "type": 0,
        "location": {
            "lat": 25.802315,
            "lng": 113.024171
        },
        "ad_info": {
            "adcode": 431002,
            "province": "湖南省",
            "city": "郴州市",
            "district": "北湖区"
        }
    },
    {
        "id": "9219836272500292338",
        "title": "公共厕所",
        "address": "湖南省郴州市临武县S214与S215交叉口东南方向214米左右",
        "tel": "",
        "category": "基础设施:公共设施:公共厕所",
        "type": 0,
        "location": {
            "lat": 25.429262,
            "lng": 112.718222
        },
        "ad_info": {
            "adcode": 431025,
            "province": "湖南省",
            "city": "郴州市",
            "district": "临武县"
        }
    },
    {
        "id": "5954160094692426661",
        "title": "公共厕所",
        "address": "湖南省郴州市宜章县民主西路与玉溪街交叉口西北方向41米左右",
        "tel": "",
        "category": "基础设施:公共设施:公共厕所",
        "type": 0,
        "location": {
            "lat": 25.401611,
            "lng": 112.946354
        },
        "ad_info": {
            "adcode": 431022,
            "province": "湖南省",
            "city": "郴州市",
            "district": "宜章县"
        }
    },
    {
        "id": "16426971957762287794",
        "title": "公共厕所",
        "address": "湖南省郴州市北湖区寒溪路与美林桥交叉口西北方向65米左右",
        "tel": "",
        "category": "基础设施:公共设施:公共厕所",
        "type": 0,
        "location": {
            "lat": 25.783495,
            "lng": 112.991192
        },
        "ad_info": {
            "adcode": 431002,
            "province": "湖南省",
            "city": "郴州市",
            "district": "北湖区"
        }
    },
    {
        "id": "13758128673444953916",
        "title": "公共厕所",
        "address": "湖南省郴州市苏仙区西河沙滩公园(西河路西)西河沙滩公园内(南侧)",
        "tel": "",
        "category": "基础设施:公共设施:公共厕所",
        "type": 0,
        "location": {
            "lat": 25.798856,
            "lng": 113.119562
        },
        "ad_info": {
            "adcode": 431003,
            "province": "湖南省",
            "city": "郴州市",
            "district": "苏仙区"
        }
    },
    {
        "id": "1421366173793925220",
        "title": "公共厕所",
        "address": "湖南省郴州市苏仙区北湖坳巷与解放路交叉口正东方向138米左右",
        "tel": "",
        "category": "基础设施:公共设施:公共厕所",
        "type": 0,
        "location": {
            "lat": 25.80459,
            "lng": 113.034741
        },
        "ad_info": {
            "adcode": 431003,
            "province": "湖南省",
            "city": "郴州市",
            "district": "苏仙区"
        }
    },
    {
        "id": "5614181955432066244",
        "title": "公共厕所",
        "address": "湖南省郴州市资兴市晋宁路与大全路交叉口西180米",
        "tel": "",
        "category": "基础设施:公共设施:公共厕所",
        "type": 0,
        "location": {
            "lat": 25.976106,
            "lng": 113.239178
        },
        "ad_info": {
            "adcode": 431081,
            "province": "湖南省",
            "city": "郴州市",
            "district": "资兴市"
        }
    },
    {
        "id": "7395165185668557182",
        "title": "公共厕所",
        "address": "湖南省郴州市嘉禾县珠泉镇人民北路西门",
        "tel": "",
        "category": "基础设施:公共设施:公共厕所",
        "type": 0,
        "location": {
            "lat": 25.588831,
            "lng": 112.37299
        },
        "ad_info": {
            "adcode": 431024,
            "province": "湖南省",
            "city": "郴州市",
            "district": "嘉禾县"
        }
    },
    {
        "id": "15871819349714948526",
        "title": "公共厕所",
        "address": "湖南省郴州市资兴市兴业巷与资兴大道交叉口西南方向53米左右",
        "tel": "",
        "category": "基础设施:公共设施:公共厕所",
        "type": 0,
        "location": {
            "lat": 25.979197,
            "lng": 113.237335
        },
        "ad_info": {
            "adcode": 431081,
            "province": "湖南省",
            "city": "郴州市",
            "district": "资兴市"
        }
    },
    {
        "id": "14415456050591802198",
        "title": "公共厕所",
        "address": "湖南省郴州市临武县S215与X083交叉口正南方向169米左右",
        "tel": "",
        "category": "基础设施:公共设施:公共厕所",
        "type": 0,
        "location": {
            "lat": 25.379485,
            "lng": 112.728436
        },
        "ad_info": {
            "adcode": 431025,
            "province": "湖南省",
            "city": "郴州市",
            "district": "临武县"
        }
    },
    {
        "id": "1574038091743604250",
        "title": "公共厕所",
        "address": "湖南省郴州市苏仙区栏杆塘路与龙骨井路交叉口东北方向57米左右",
        "tel": "",
        "category": "基础设施:公共设施:公共厕所",
        "type": 0,
        "location": {
            "lat": 25.792841,
            "lng": 113.040688
        },
        "ad_info": {
            "adcode": 431003,
            "province": "湖南省",
            "city": "郴州市",
            "district": "苏仙区"
        }
    },
    {
        "id": "4817567704260608340",
        "title": "公共厕所",
        "address": "湖南省郴州市汝城县邓氏宗祠东侧110米",
        "tel": "",
        "category": "基础设施:公共设施:公共厕所",
        "type": 0,
        "location": {
            "lat": 25.473516,
            "lng": 113.515539
        },
        "ad_info": {
            "adcode": 431026,
            "province": "湖南省",
            "city": "郴州市",
            "district": "汝城县"
        }
    },
    {
        "id": "11123226906917164668",
        "title": "公共厕所",
        "address": "湖南省郴州市苏仙区友谊路与白露塘路交叉口正东方向433米左右",
        "tel": "",
        "category": "基础设施:公共设施:公共厕所",
        "type": 0,
        "location": {
            "lat": 25.803298,
            "lng": 113.13852
        },
        "ad_info": {
            "adcode": 431003,
            "province": "湖南省",
            "city": "郴州市",
            "district": "苏仙区"
        }
    },
    {
        "id": "17147374238142996807",
        "title": "公共厕所",
        "address": "湖南省郴州市苏仙区东河路与坪田路交叉口东南方向219米左右",
        "tel": "",
        "category": "基础设施:公共设施:公共厕所",
        "type": 0,
        "location": {
            "lat": 25.822674,
            "lng": 113.143116
        },
        "ad_info": {
            "adcode": 431003,
            "province": "湖南省",
            "city": "郴州市",
            "district": "苏仙区"
        }
    },
    {
        "id": "13292257319494619124",
        "title": "公共厕所",
        "address": "湖南省郴州市苏仙区青年大道中国石油(西河加油站)",
        "tel": "",
        "category": "基础设施:公共设施:公共厕所",
        "type": 0,
        "location": {
            "lat": 25.778073,
            "lng": 113.043192
        },
        "ad_info": {
            "adcode": 431003,
            "province": "湖南省",
            "city": "郴州市",
            "district": "苏仙区"
        }
    },
    {
        "id": "9627032452409807643",
        "title": "公共厕所",
        "address": "湖南省郴州市资兴市G357与石盈桥交叉口东北方向138米左右",
        "tel": "",
        "category": "基础设施:公共设施:公共厕所",
        "type": 0,
        "location": {
            "lat": 25.991087,
            "lng": 113.467057
        },
        "ad_info": {
            "adcode": 431081,
            "province": "湖南省",
            "city": "郴州市",
            "district": "资兴市"
        }
    },
    {
        "id": "4549453296892377443",
        "title": "公共厕所",
        "address": "湖南省郴州市资兴市Y219与兴华路交叉口正西方向272米左右",
        "tel": "",
        "category": "基础设施:公共设施:公共厕所",
        "type": 0,
        "location": {
            "lat": 25.978454,
            "lng": 113.230888
        },
        "ad_info": {
            "adcode": 431081,
            "province": "湖南省",
            "city": "郴州市",
            "district": "资兴市"
        }
    },
    {
        "id": "13673710192137479718",
        "title": "公共厕所",
        "address": "湖南省郴州市资兴市焦电路与矿工北路交叉口正西方向362米左右",
        "tel": "",
        "category": "基础设施:公共设施:公共厕所",
        "type": 0,
        "location": {
            "lat": 26.026765,
            "lng": 113.272074
        },
        "ad_info": {
            "adcode": 431081,
            "province": "湖南省",
            "city": "郴州市",
            "district": "资兴市"
        }
    },
    {
        "id": "4317384875500623063",
        "title": "公共厕所",
        "address": "湖南省郴州市北湖区南岭大道与金桥巷交叉口西北方向32米左右",
        "tel": "",
        "category": "基础设施:公共设施:公共厕所",
        "type": 0,
        "location": {
            "lat": 25.818735,
            "lng": 113.017934
        },
        "ad_info": {
            "adcode": 431002,
            "province": "湖南省",
            "city": "郴州市",
            "district": "北湖区"
        }
    },
    {
        "id": "15999236623924336885",
        "title": "公共厕所",
        "address": "湖南省郴州市苏仙区东河路与新兴路交叉口正北方向223米左右",
        "tel": "",
        "category": "基础设施:公共设施:公共厕所",
        "type": 0,
        "location": {
            "lat": 25.801732,
            "lng": 113.153994
        },
        "ad_info": {
            "adcode": 431003,
            "province": "湖南省",
            "city": "郴州市",
            "district": "苏仙区"
        }
    },
    {
        "id": "8145170144872263126",
        "title": "公共厕所",
        "address": "湖南省郴州市苏仙区锁石路与郴县路交叉口东南120米",
        "tel": "",
        "category": "基础设施:公共设施:公共厕所",
        "type": 0,
        "location": {
            "lat": 25.775091,
            "lng": 113.06992
        },
        "ad_info": {
            "adcode": 431003,
            "province": "湖南省",
            "city": "郴州市",
            "district": "苏仙区"
        }
    },
    {
        "id": "2789971372117180461",
        "title": "公共厕所",
        "address": "湖南省郴州市嘉禾县体育路与振兴西路交叉口东南方向33米左右",
        "tel": "",
        "category": "基础设施:公共设施:公共厕所",
        "type": 0,
        "location": {
            "lat": 25.59135,
            "lng": 112.366142
        },
        "ad_info": {
            "adcode": 431024,
            "province": "湖南省",
            "city": "郴州市",
            "district": "嘉禾县"
        }
    },
    {
        "id": "11707149294659215305",
        "title": "公共厕所",
        "address": "湖南省郴州市苏仙区飞虹路34-1号",
        "tel": "",
        "category": "基础设施:公共设施:公共厕所",
        "type": 0,
        "location": {
            "lat": 25.804862,
            "lng": 113.037476
        },
        "ad_info": {
            "adcode": 431003,
            "province": "湖南省",
            "city": "郴州市",
            "district": "苏仙区"
        }
    },
    {
        "id": "1482260238243837356",
        "title": "公共厕所",
        "address": "湖南省郴州市苏仙区中山南街与和顺巷交叉口正东方向38米左右",
        "tel": "",
        "category": "基础设施:公共设施:公共厕所",
        "type": 0,
        "location": {
            "lat": 25.790298,
            "lng": 113.037361
        },
        "ad_info": {
            "adcode": 431003,
            "province": "湖南省",
            "city": "郴州市",
            "district": "苏仙区"
        }
    },
    {
        "id": "11518703266962765637",
        "title": "公共厕所",
        "address": "湖南省郴州市苏仙区莲山庄园东南侧260米",
        "tel": "",
        "category": "基础设施:公共设施:公共厕所",
        "type": 0,
        "location": {
            "lat": 25.950107,
            "lng": 112.984078
        },
        "ad_info": {
            "adcode": 431003,
            "province": "湖南省",
            "city": "郴州市",
            "district": "苏仙区"
        }
    },
    {
        "id": "12815980452460489504",
        "title": "公共厕所",
        "address": "湖南省郴州市苏仙区望仙路与翡翠路交叉口东北方向99米左右",
        "tel": "",
        "category": "基础设施:公共设施:公共厕所",
        "type": 0,
        "location": {
            "lat": 25.810544,
            "lng": 113.134631
        },
        "ad_info": {
            "adcode": 431003,
            "province": "湖南省",
            "city": "郴州市",
            "district": "苏仙区"
        }
    },
    {
        "id": "12770689833651361861",
        "title": "公共厕所",
        "address": "湖南省郴州市苏仙区中山北街与教育街交叉口东北方向18米左右",
        "tel": "",
        "category": "基础设施:公共设施:公共厕所",
        "type": 0,
        "location": {
            "lat": 25.793491,
            "lng": 113.03758
        },
        "ad_info": {
            "adcode": 431003,
            "province": "湖南省",
            "city": "郴州市",
            "district": "苏仙区"
        }
    },
    {
        "id": "9761062073703714815",
        "title": "公共厕所",
        "address": "湖南省郴州市桂阳县商业步行街与蔡伦中路交叉口正南方向83米左右",
        "tel": "",
        "category": "基础设施:公共设施:公共厕所",
        "type": 0,
        "location": {
            "lat": 25.736868,
            "lng": 112.732255
        },
        "ad_info": {
            "adcode": 431021,
            "province": "湖南省",
            "city": "郴州市",
            "district": "桂阳县"
        }
    },
    {
        "id": "15804701322669360311",
        "title": "公共厕所",
        "address": "湖南省郴州市苏仙区栖凤大道与滨河路交叉口西南方向1198米左右",
        "tel": "",
        "category": "基础设施:公共设施:公共厕所",
        "type": 0,
        "location": {
            "lat": 25.97439,
            "lng": 113.000524
        },
        "ad_info": {
            "adcode": 431003,
            "province": "湖南省",
            "city": "郴州市",
            "district": "苏仙区"
        }
    },
    {
        "id": "17505643398615408327",
        "title": "公共厕所",
        "address": "湖南省郴州市北湖区国庆北路与桂门岭路交叉口东北方向177米左右",
        "tel": "",
        "category": "基础设施:公共设施:公共厕所",
        "type": 0,
        "location": {
            "lat": 25.812858,
            "lng": 113.025546
        },
        "ad_info": {
            "adcode": 431002,
            "province": "湖南省",
            "city": "郴州市",
            "district": "北湖区"
        }
    },
    {
        "id": "15657789677199861910",
        "title": "公共厕所",
        "address": "湖南省郴州市桂阳县豆腐中路50号",
        "tel": "",
        "category": "基础设施:公共设施:公共厕所",
        "type": 0,
        "location": {
            "lat": 25.742219,
            "lng": 112.737493
        },
        "ad_info": {
            "adcode": 431021,
            "province": "湖南省",
            "city": "郴州市",
            "district": "桂阳县"
        }
    },
    {
        "id": "14296284800490178726",
        "title": "公共厕所",
        "address": "湖南省郴州市北湖区人民东路与杨家巷交叉口正北方向20米左右",
        "tel": "",
        "category": "基础设施:公共设施:公共厕所",
        "type": 0,
        "location": {
            "lat": 25.795329,
            "lng": 113.03995
        },
        "ad_info": {
            "adcode": 431002,
            "province": "湖南省",
            "city": "郴州市",
            "district": "北湖区"
        }
    },
    {
        "id": "572899846322217128",
        "title": "肯德基(五岭广场餐厅)-洗手间",
        "address": "湖南省郴州市北湖区五岭新天地1期",
        "tel": "",
        "category": "基础设施:公共设施:公共厕所",
        "type": 0,
        "location": {
            "lat": 25.772864,
            "lng": 113.014326
        },
        "ad_info": {
            "adcode": 431002,
            "province": "湖南省",
            "city": "郴州市",
            "district": "北湖区"
        }
    },
    {
        "id": "16244204344924558008",
        "title": "旅游公共厕所",
        "address": "湖南省郴州市北湖区南岭大道与新泉巷交叉口西北方向430米左右",
        "tel": "",
        "category": "基础设施:公共设施:公共厕所",
        "type": 0,
        "location": {
            "lat": 25.845426,
            "lng": 113.021991
        },
        "ad_info": {
            "adcode": 431002,
            "province": "湖南省",
            "city": "郴州市",
            "district": "北湖区"
        }
    },
    {
        "id": "1825939897056301556",
        "title": "公共厕所",
        "address": "湖南省郴州市苏仙区苏仙北路与苏仙南路交叉口东北方向168米左右",
        "tel": "",
        "category": "基础设施:公共设施:公共厕所",
        "type": 0,
        "location": {
            "lat": 25.807646,
            "lng": 113.045877
        },
        "ad_info": {
            "adcode": 431003,
            "province": "湖南省",
            "city": "郴州市",
            "district": "苏仙区"
        }
    },
    {
        "id": "3659421165351356618",
        "title": "公共厕所",
        "address": "湖南省郴州市永兴县大桥路与工农街交叉口东北方向69米左右",
        "tel": "",
        "category": "基础设施:公共设施:公共厕所",
        "type": 0,
        "location": {
            "lat": 26.137309,
            "lng": 113.114455
        },
        "ad_info": {
            "adcode": 431023,
            "province": "湖南省",
            "city": "郴州市",
            "district": "永兴县"
        }
    },
    {
        "id": "790495849710416009",
        "title": "收费厕所",
        "address": "湖南省郴州市资兴市南兴东路与资兴大道交叉口正东方向93米左右",
        "tel": "",
        "category": "基础设施:公共设施:公共厕所",
        "type": 0,
        "location": {
            "lat": 25.941496,
            "lng": 113.231104
        },
        "ad_info": {
            "adcode": 431081,
            "province": "湖南省",
            "city": "郴州市",
            "district": "资兴市"
        }
    },
    {
        "id": "1567500101546358440",
        "title": "宜章西服务区公共厕所",
        "address": "湖南省郴州市宜章县",
        "tel": "",
        "category": "基础设施:公共设施:公共厕所",
        "type": 0,
        "location": {
            "lat": 25.200047,
            "lng": 112.67475
        },
        "ad_info": {
            "adcode": 431022,
            "province": "湖南省",
            "city": "郴州市",
            "district": "宜章县"
        }
    },
    {
        "id": "3851773022032875024",
        "title": "宜章西服务区第二公共厕所",
        "address": "湖南省郴州市宜章县S61岳临高速西100米",
        "tel": "",
        "category": "基础设施:公共设施:公共厕所",
        "type": 0,
        "location": {
            "lat": 25.199006,
            "lng": 112.67337
        },
        "ad_info": {
            "adcode": 431022,
            "province": "湖南省",
            "city": "郴州市",
            "district": "宜章县"
        }
    },
    {
        "id": "7937901549658055272",
        "title": "公共厕所",
        "address": "湖南省郴州市苏仙区华宁瑞城(青年大道)",
        "tel": "",
        "category": "基础设施:公共设施:公共厕所",
        "type": 0,
        "location": {
            "lat": 25.770986,
            "lng": 113.037069
        },
        "ad_info": {
            "adcode": 431003,
            "province": "湖南省",
            "city": "郴州市",
            "district": "苏仙区"
        }
    },
    {
        "id": "12519994256740369727",
        "title": "二完小公共厕所",
        "address": "湖南省郴州市宜章县府前街3-14号",
        "tel": "",
        "category": "基础设施:公共设施:公共厕所",
        "type": 0,
        "location": {
            "lat": 25.399703,
            "lng": 112.950176
        },
        "ad_info": {
            "adcode": 431022,
            "province": "湖南省",
            "city": "郴州市",
            "district": "宜章县"
        }
    },
    {
        "id": "848011492272467036",
        "title": "欧阳海服务区公共厕所",
        "address": "湖南省郴州市桂阳县S61岳临高速东100米",
        "tel": "",
        "category": "基础设施:公共设施:公共厕所",
        "type": 0,
        "location": {
            "lat": 26.003415,
            "lng": 112.518032
        },
        "ad_info": {
            "adcode": 431021,
            "province": "湖南省",
            "city": "郴州市",
            "district": "桂阳县"
        }
    },
    {
        "id": "9583977848429138900",
        "title": "临武服务区第二公共厕所",
        "address": "湖南省郴州市临武县许广高速",
        "tel": "",
        "category": "基础设施:公共设施:公共厕所",
        "type": 0,
        "location": {
            "lat": 25.443125,
            "lng": 112.450971
        },
        "ad_info": {
            "adcode": 431025,
            "province": "湖南省",
            "city": "郴州市",
            "district": "临武县"
        }
    },
    {
        "id": "15043540977728699593",
        "title": "苏仙服务区公共厕所",
        "address": "湖南省郴州市苏仙区苏仙服务区B区(京港澳高速公路东)",
        "tel": "",
        "category": "基础设施:公共设施:公共厕所",
        "type": 0,
        "location": {
            "lat": 25.63659,
            "lng": 113.04357
        },
        "ad_info": {
            "adcode": 431003,
            "province": "湖南省",
            "city": "郴州市",
            "district": "苏仙区"
        }
    },
    {
        "id": "2751457405617746208",
        "title": "公共厕所",
        "address": "湖南省郴州市永兴县人民西路永兴广场(西侧)",
        "tel": "",
        "category": "基础设施:公共设施:公共厕所",
        "type": 0,
        "location": {
            "lat": 26.125844,
            "lng": 113.107278
        },
        "ad_info": {
            "adcode": 431023,
            "province": "湖南省",
            "city": "郴州市",
            "district": "永兴县"
        }
    },
    {
        "id": "6477441091128434230",
        "title": "无障碍公共厕所",
        "address": "湖南省郴州市汝城县环城西路152号",
        "tel": "",
        "category": "基础设施:公共设施:公共厕所",
        "type": 0,
        "location": {
            "lat": 25.55371,
            "lng": 113.68262
        },
        "ad_info": {
            "adcode": 431026,
            "province": "湖南省",
            "city": "郴州市",
            "district": "汝城县"
        }
    },
    {
        "id": "10972867985594283339",
        "title": "磨心塘公共厕所垃圾站",
        "address": "湖南省郴州市苏仙区振兴路与香雪路交叉口正东方向123米左右",
        "tel": "",
        "category": "基础设施:公共设施:公共厕所",
        "type": 0,
        "location": {
            "lat": 25.777151,
            "lng": 113.040173
        },
        "ad_info": {
            "adcode": 431003,
            "province": "湖南省",
            "city": "郴州市",
            "district": "苏仙区"
        }
    },
    {
        "id": "17244302873848413431",
        "title": "宜章服务区公共厕所",
        "address": "湖南省郴州市宜章县文明北路宜章服务区",
        "tel": "",
        "category": "基础设施:公共设施:公共厕所",
        "type": 0,
        "location": {
            "lat": 25.4419,
            "lng": 112.974113
        },
        "ad_info": {
            "adcode": 431022,
            "province": "湖南省",
            "city": "郴州市",
            "district": "宜章县"
        }
    },
    {
        "id": "8864977962473813235",
        "title": "欧阳海服务区公共厕所",
        "address": "湖南省郴州市桂阳县S61岳临高速西100米",
        "tel": "",
        "category": "基础设施:公共设施:公共厕所",
        "type": 0,
        "location": {
            "lat": 26.003413,
            "lng": 112.516651
        },
        "ad_info": {
            "adcode": 431021,
            "province": "湖南省",
            "city": "郴州市",
            "district": "桂阳县"
        }
    },
    {
        "id": "11585931293674699597",
        "title": "汝城服务区公共厕所",
        "address": "湖南省郴州市汝城县马桥镇上流厦蓉高速公路汝城服务区",
        "tel": "",
        "category": "基础设施:公共设施:公共厕所",
        "type": 0,
        "location": {
            "lat": 25.561726,
            "lng": 113.589268
        },
        "ad_info": {
            "adcode": 431026,
            "province": "湖南省",
            "city": "郴州市",
            "district": "汝城县"
        }
    },
    {
        "id": "658166702289299792",
        "title": "工农兵桥公共厕所",
        "address": "湖南省郴州市永兴县县正街1号",
        "tel": "",
        "category": "基础设施:公共设施:公共厕所",
        "type": 0,
        "location": {
            "lat": 26.123404,
            "lng": 113.115856
        },
        "ad_info": {
            "adcode": 431023,
            "province": "湖南省",
            "city": "郴州市",
            "district": "永兴县"
        }
    },
    {
        "id": "12076513580306506670",
        "title": "男卫生间",
        "address": "湖南省郴州市北湖区国庆北路10号步步高新天地F6",
        "tel": "",
        "category": "基础设施:公共设施:男洗手间",
        "type": 0,
        "location": {
            "lat": 25.797178,
            "lng": 113.03124
        },
        "ad_info": {
            "adcode": 431002,
            "province": "湖南省",
            "city": "郴州市",
            "district": "北湖区"
        }
    },
    {
        "id": "3815658708477369183",
        "title": "男卫生间",
        "address": "湖南省郴州市北湖区国庆北路10号步步高新天地B1",
        "tel": "",
        "category": "基础设施:公共设施:男洗手间",
        "type": 0,
        "location": {
            "lat": 25.796946,
            "lng": 113.032837
        },
        "ad_info": {
            "adcode": 431002,
            "province": "湖南省",
            "city": "郴州市",
            "district": "北湖区"
        }
    },
    {
        "id": "14130177388898459992",
        "title": "男卫生间",
        "address": "湖南省郴州市北湖区国庆北路10号步步高新天地B1",
        "tel": "",
        "category": "基础设施:公共设施:男洗手间",
        "type": 0,
        "location": {
            "lat": 25.797691,
            "lng": 113.032105
        },
        "ad_info": {
            "adcode": 431002,
            "province": "湖南省",
            "city": "郴州市",
            "district": "北湖区"
        }
    },
    {
        "id": "9535091919581616587",
        "title": "女卫生间",
        "address": "湖南省郴州市北湖区国庆北路10号步步高新天地F5",
        "tel": "",
        "category": "基础设施:公共设施:女洗手间",
        "type": 0,
        "location": {
            "lat": 25.79725,
            "lng": 113.032282
        },
        "ad_info": {
            "adcode": 431002,
            "province": "湖南省",
            "city": "郴州市",
            "district": "北湖区"
        }
    },
    {
        "id": "11281288972114205329",
        "title": "女卫生间",
        "address": "湖南省郴州市北湖区国庆北路10号步步高新天地F7",
        "tel": "",
        "category": "基础设施:公共设施:女洗手间",
        "type": 0,
        "location": {
            "lat": 25.797251,
            "lng": 113.032282
        },
        "ad_info": {
            "adcode": 431002,
            "province": "湖南省",
            "city": "郴州市",
            "district": "北湖区"
        }
    },
    {
        "id": "18052719161526191358",
        "title": "步步高广场(郴州店)-男洗手间",
        "address": "湖南省郴州市北湖区国庆北路10号步步高新天地F5",
        "tel": "",
        "category": "基础设施:公共设施:男洗手间",
        "type": 0,
        "location": {
            "lat": 25.797223,
            "lng": 113.03191
        },
        "ad_info": {
            "adcode": 431002,
            "province": "湖南省",
            "city": "郴州市",
            "district": "北湖区"
        }
    },
    {
        "id": "12557923028180067821",
        "title": "男卫生间",
        "address": "湖南省郴州市北湖区国庆北路10号步步高新天地F4",
        "tel": "",
        "category": "基础设施:公共设施:男洗手间",
        "type": 0,
        "location": {
            "lat": 25.797174,
            "lng": 113.031245
        },
        "ad_info": {
            "adcode": 431002,
            "province": "湖南省",
            "city": "郴州市",
            "district": "北湖区"
        }
    },
    {
        "id": "977568419668355395",
        "title": "女卫生间",
        "address": "湖南省郴州市北湖区国庆北路10号步步高新天地F6",
        "tel": "",
        "category": "基础设施:公共设施:女洗手间",
        "type": 0,
        "location": {
            "lat": 25.797253,
            "lng": 113.032283
        },
        "ad_info": {
            "adcode": 431002,
            "province": "湖南省",
            "city": "郴州市",
            "district": "北湖区"
        }
    },
    {
        "id": "2856165094983203312",
        "title": "女卫生间",
        "address": "湖南省郴州市北湖区国庆北路10号步步高新天地F8",
        "tel": "",
        "category": "基础设施:公共设施:女洗手间",
        "type": 0,
        "location": {
            "lat": 25.797253,
            "lng": 113.032281
        },
        "ad_info": {
            "adcode": 431002,
            "province": "湖南省",
            "city": "郴州市",
            "district": "北湖区"
        }
    },
    {
        "id": "1535523615868649448",
        "title": "男卫生间",
        "address": "湖南省郴州市北湖区国庆北路10号步步高新天地F8",
        "tel": "",
        "category": "基础设施:公共设施:男洗手间",
        "type": 0,
        "location": {
            "lat": 25.797173,
            "lng": 113.031244
        },
        "ad_info": {
            "adcode": 431002,
            "province": "湖南省",
            "city": "郴州市",
            "district": "北湖区"
        }
    },
    {
        "id": "12307130667178909579",
        "title": "男卫生间",
        "address": "湖南省郴州市北湖区国庆北路10号步步高新天地F6",
        "tel": "",
        "category": "基础设施:公共设施:男洗手间",
        "type": 0,
        "location": {
            "lat": 25.797224,
            "lng": 113.03191
        },
        "ad_info": {
            "adcode": 431002,
            "province": "湖南省",
            "city": "郴州市",
            "district": "北湖区"
        }
    },
    {
        "id": "16628566791942234600",
        "title": "男卫生间",
        "address": "湖南省郴州市北湖区国庆北路10号步步高新天地F5",
        "tel": "",
        "category": "基础设施:公共设施:男洗手间",
        "type": 0,
        "location": {
            "lat": 25.797179,
            "lng": 113.031236
        },
        "ad_info": {
            "adcode": 431002,
            "province": "湖南省",
            "city": "郴州市",
            "district": "北湖区"
        }
    },
    {
        "id": "4788257420747545190",
        "title": "公共厕所",
        "address": "湖南省郴州市北湖区健康路与财富巷交叉口正北方向222米左右",
        "tel": "",
        "category": "基础设施:公共设施:公共厕所",
        "type": 0,
        "location": {
            "lat": 25.802521,
            "lng": 113.03148
        },
        "ad_info": {
            "adcode": 431002,
            "province": "湖南省",
            "city": "郴州市",
            "district": "北湖区"
        }
    },
    {
        "id": "9203337695737456692",
        "title": "公共厕所",
        "address": "湖南省郴州市安仁县七一西路与日光路交叉口正西方向240米左右",
        "tel": "",
        "category": "基础设施:公共设施:公共厕所",
        "type": 0,
        "location": {
            "lat": 26.708996,
            "lng": 113.266102
        },
        "ad_info": {
            "adcode": 431028,
            "province": "湖南省",
            "city": "郴州市",
            "district": "安仁县"
        }
    },
    {
        "id": "14479136065787904297",
        "title": "汝城服务区公共厕所",
        "address": "湖南省郴州市汝城县园艺场路与枧马路交叉口西北方向1384米左右",
        "tel": "",
        "category": "基础设施:公共设施:公共厕所",
        "type": 0,
        "location": {
            "lat": 25.563269,
            "lng": 113.588419
        },
        "ad_info": {
            "adcode": 431026,
            "province": "湖南省",
            "city": "郴州市",
            "district": "汝城县"
        }
    },
    {
        "id": "1444839635921209839",
        "title": "桂阳服务区公共厕所",
        "address": "湖南省郴州市桂阳县S322与S351交叉口西南方向1635米左右",
        "tel": "",
        "category": "基础设施:公共设施:公共厕所",
        "type": 0,
        "location": {
            "lat": 25.644247,
            "lng": 112.64315
        },
        "ad_info": {
            "adcode": 431021,
            "province": "湖南省",
            "city": "郴州市",
            "district": "桂阳县"
        }
    },
    {
        "id": "18236336526943109825",
        "title": "女卫生间",
        "address": "湖南省郴州市北湖区国庆北路10号步步高新天地F4",
        "tel": "",
        "category": "基础设施:公共设施:女洗手间",
        "type": 0,
        "location": {
            "lat": 25.797224,
            "lng": 113.031944
        },
        "ad_info": {
            "adcode": 431002,
            "province": "湖南省",
            "city": "郴州市",
            "district": "北湖区"
        }
    },
    {
        "id": "4882379767072971090",
        "title": "公共厕所",
        "address": "湖南省郴州市北湖区南岭大道与好美居路交叉口西南方向273米左右",
        "tel": "",
        "category": "基础设施:公共设施:公共厕所",
        "type": 0,
        "location": {
            "lat": 25.796481,
            "lng": 113.017109
        },
        "ad_info": {
            "adcode": 431002,
            "province": "湖南省",
            "city": "郴州市",
            "district": "北湖区"
        }
    },
    {
        "id": "14346548321825679128",
        "title": "女卫生间",
        "address": "湖南省郴州市北湖区国庆北路10号步步高新天地F3",
        "tel": "",
        "category": "基础设施:公共设施:女洗手间",
        "type": 0,
        "location": {
            "lat": 25.797255,
            "lng": 113.032284
        },
        "ad_info": {
            "adcode": 431002,
            "province": "湖南省",
            "city": "郴州市",
            "district": "北湖区"
        }
    },
    {
        "id": "10849253951046117094",
        "title": "公共厕所",
        "address": "湖南省郴州市资兴市兴华路资兴市第三中学",
        "tel": "",
        "category": "基础设施:公共设施:公共厕所",
        "type": 0,
        "location": {
            "lat": 25.970642,
            "lng": 113.233563
        },
        "ad_info": {
            "adcode": 431081,
            "province": "湖南省",
            "city": "郴州市",
            "district": "资兴市"
        }
    },
    {
        "id": "14214333927608677235",
        "title": "女卫生间",
        "address": "湖南省郴州市北湖区国庆北路10号步步高新天地F4",
        "tel": "",
        "category": "基础设施:公共设施:女洗手间",
        "type": 0,
        "location": {
            "lat": 25.797178,
            "lng": 113.031282
        },
        "ad_info": {
            "adcode": 431002,
            "province": "湖南省",
            "city": "郴州市",
            "district": "北湖区"
        }
    },
    {
        "id": "6726490024498484924",
        "title": "苏仙南服务区第二公共厕所",
        "address": "湖南省郴州市苏仙区厦蓉高速附近",
        "tel": "",
        "category": "基础设施:公共设施:公共厕所",
        "type": 0,
        "location": {
            "lat": 25.571007,
            "lng": 113.083076
        },
        "ad_info": {
            "adcode": 431003,
            "province": "湖南省",
            "city": "郴州市",
            "district": "苏仙区"
        }
    },
    {
        "id": "2387638773783402000",
        "title": "公共厕所",
        "address": "湖南省郴州市资兴市共惠步行街与阳安路交叉口正东方向94米左右",
        "tel": "",
        "category": "基础设施:公共设施:公共厕所",
        "type": 0,
        "location": {
            "lat": 25.972524,
            "lng": 113.236576
        },
        "ad_info": {
            "adcode": 431081,
            "province": "湖南省",
            "city": "郴州市",
            "district": "资兴市"
        }
    },
    {
        "id": "11103173033487192479",
        "title": "公共厕所",
        "address": "湖南省郴州市资兴市凉树湾路与凤凰路交叉口东北方向204米左右",
        "tel": "",
        "category": "基础设施:公共设施:公共厕所",
        "type": 0,
        "location": {
            "lat": 25.949975,
            "lng": 113.26099
        },
        "ad_info": {
            "adcode": 431081,
            "province": "湖南省",
            "city": "郴州市",
            "district": "资兴市"
        }
    },
    {
        "id": "13636818722831947066",
        "title": "公共厕所",
        "address": "湖南省郴州市桂东县C070与东平路交叉口正南方向298米左右",
        "tel": "",
        "category": "基础设施:公共设施:公共厕所",
        "type": 0,
        "location": {
            "lat": 25.839926,
            "lng": 113.822266
        },
        "ad_info": {
            "adcode": 431027,
            "province": "湖南省",
            "city": "郴州市",
            "district": "桂东县"
        }
    },
    {
        "id": "13912698991329334998",
        "title": "公共厕所",
        "address": "湖南省郴州市北湖区国庆北路与建设里路交叉口正东方向57米左右",
        "tel": "",
        "category": "基础设施:公共设施:公共厕所",
        "type": 0,
        "location": {
            "lat": 25.804761,
            "lng": 113.028254
        },
        "ad_info": {
            "adcode": 431002,
            "province": "湖南省",
            "city": "郴州市",
            "district": "北湖区"
        }
    },
    {
        "id": "14021559554775447612",
        "title": "公共厕所",
        "address": "湖南省郴州市北湖区人民西路37-4-5号",
        "tel": "",
        "category": "基础设施:公共设施:公共厕所",
        "type": 0,
        "location": {
            "lat": 25.793434,
            "lng": 113.016622
        },
        "ad_info": {
            "adcode": 431002,
            "province": "湖南省",
            "city": "郴州市",
            "district": "北湖区"
        }
    },
    {
        "id": "18191727466774436702",
        "title": "公共厕所",
        "address": "湖南省郴州市临武县武水大道与隆武路交叉口西北方向57米左右",
        "tel": "",
        "category": "基础设施:公共设施:公共厕所",
        "type": 0,
        "location": {
            "lat": 25.267043,
            "lng": 112.581458
        },
        "ad_info": {
            "adcode": 431025,
            "province": "湖南省",
            "city": "郴州市",
            "district": "临武县"
        }
    },
    {
        "id": "3602624727625200189",
        "title": "公共厕所",
        "address": "湖南省郴州市资兴市建材路与资兴大道交叉口东北方向103米左右",
        "tel": "",
        "category": "基础设施:公共设施:公共厕所",
        "type": 0,
        "location": {
            "lat": 25.961074,
            "lng": 113.236005
        },
        "ad_info": {
            "adcode": 431081,
            "province": "湖南省",
            "city": "郴州市",
            "district": "资兴市"
        }
    },
    {
        "id": "1091470735493251825",
        "title": "公共厕所",
        "address": "湖南省郴州市资兴市唐鲤大道与阳安路交叉口东南方向50米左右",
        "tel": "",
        "category": "基础设施:公共设施:公共厕所",
        "type": 0,
        "location": {
            "lat": 25.971899,
            "lng": 113.222002
        },
        "ad_info": {
            "adcode": 431081,
            "province": "湖南省",
            "city": "郴州市",
            "district": "资兴市"
        }
    },
    {
        "id": "4217630880796171759",
        "title": "女卫生间",
        "address": "湖南省郴州市北湖区国庆北路10号步步高新天地B1",
        "tel": "",
        "category": "基础设施:公共设施:女洗手间",
        "type": 0,
        "location": {
            "lat": 25.797696,
            "lng": 113.032138
        },
        "ad_info": {
            "adcode": 431002,
            "province": "湖南省",
            "city": "郴州市",
            "district": "北湖区"
        }
    },
    {
        "id": "13395443859914983878",
        "title": "小塘服务区第二公共厕所",
        "address": "湖南省郴州市宜章县吉兴路与春华路交叉口西南方向839米左右",
        "tel": "",
        "category": "基础设施:公共设施:公共厕所",
        "type": 0,
        "location": {
            "lat": 25.384167,
            "lng": 112.969589
        },
        "ad_info": {
            "adcode": 431022,
            "province": "湖南省",
            "city": "郴州市",
            "district": "宜章县"
        }
    },
    {
        "id": "1795874535321618660",
        "title": "公共厕所",
        "address": "湖南省郴州市临武县S215与Y932交叉口正北方向99米左右",
        "tel": "",
        "category": "基础设施:公共设施:公共厕所",
        "type": 0,
        "location": {
            "lat": 25.390738,
            "lng": 112.726691
        },
        "ad_info": {
            "adcode": 431025,
            "province": "湖南省",
            "city": "郴州市",
            "district": "临武县"
        }
    },
    {
        "id": "16205130676842091828",
        "title": "公共厕所",
        "address": "湖南省郴州市北湖区小埠古村生态园西侧150米",
        "tel": "",
        "category": "基础设施:公共设施:公共厕所",
        "type": 0,
        "location": {
            "lat": 25.698065,
            "lng": 112.854888
        },
        "ad_info": {
            "adcode": 431002,
            "province": "湖南省",
            "city": "郴州市",
            "district": "北湖区"
        }
    },
    {
        "id": "2416093675624186764",
        "title": "卫生间",
        "address": "湖南省郴州市北湖区国庆北路10号步步高新天地F8",
        "tel": "",
        "category": "基础设施:公共设施:公共厕所",
        "type": 0,
        "location": {
            "lat": 25.797751,
            "lng": 113.031682
        },
        "ad_info": {
            "adcode": 431002,
            "province": "湖南省",
            "city": "郴州市",
            "district": "北湖区"
        }
    },
    {
        "id": "6937986304134786222",
        "title": "公共厕所",
        "address": "湖南省郴州市苏仙区张家巷与龙骨井路交叉口东北方向52米左右",
        "tel": "",
        "category": "基础设施:公共设施:公共厕所",
        "type": 0,
        "location": {
            "lat": 25.792172,
            "lng": 113.039909
        },
        "ad_info": {
            "adcode": 431003,
            "province": "湖南省",
            "city": "郴州市",
            "district": "苏仙区"
        }
    },
    {
        "id": "1435066861472332120",
        "title": "公共厕所",
        "address": "湖南省郴州市资兴市兴华路与晋宁路交叉口正南方向57米左右",
        "tel": "",
        "category": "基础设施:公共设施:公共厕所",
        "type": 0,
        "location": {
            "lat": 25.975441,
            "lng": 113.233809
        },
        "ad_info": {
            "adcode": 431081,
            "province": "湖南省",
            "city": "郴州市",
            "district": "资兴市"
        }
    },
    {
        "id": "1398841887131388066",
        "title": "女卫生间",
        "address": "湖南省郴州市北湖区国庆北路10号步步高新天地F5",
        "tel": "",
        "category": "基础设施:公共设施:女洗手间",
        "type": 0,
        "location": {
            "lat": 25.797224,
            "lng": 113.031946
        },
        "ad_info": {
            "adcode": 431002,
            "province": "湖南省",
            "city": "郴州市",
            "district": "北湖区"
        }
    },
    {
        "id": "12530285112426778620",
        "title": "桂阳服务区公共厕所",
        "address": "湖南省郴州市桂阳县方元镇厦蓉高速公路桂阳服务区",
        "tel": "",
        "category": "基础设施:公共设施:公共厕所",
        "type": 0,
        "location": {
            "lat": 25.645186,
            "lng": 112.642113
        },
        "ad_info": {
            "adcode": 431021,
            "province": "湖南省",
            "city": "郴州市",
            "district": "桂阳县"
        }
    },
    {
        "id": "5316802314866296277",
        "title": "公共厕所",
        "address": "湖南省郴州市苏仙区林邑路36号",
        "tel": "",
        "category": "基础设施:公共设施:公共厕所",
        "type": 0,
        "location": {
            "lat": 25.837381,
            "lng": 113.142105
        },
        "ad_info": {
            "adcode": 431003,
            "province": "湖南省",
            "city": "郴州市",
            "district": "苏仙区"
        }
    },
    {
        "id": "270877762088992341",
        "title": "公共厕所",
        "address": "湖南省郴州市资兴市郴州大道与里水路交叉口正南方向66米左右",
        "tel": "",
        "category": "基础设施:公共设施:公共厕所",
        "type": 0,
        "location": {
            "lat": 25.929218,
            "lng": 113.233567
        },
        "ad_info": {
            "adcode": 431081,
            "province": "湖南省",
            "city": "郴州市",
            "district": "资兴市"
        }
    },
    {
        "id": "15460610123207546482",
        "title": "公共厕所",
        "address": "湖南省郴州市临武县沿江南路与福溪路交叉口正西方向69米左右",
        "tel": "",
        "category": "基础设施:公共设施:公共厕所",
        "type": 0,
        "location": {
            "lat": 25.276947,
            "lng": 112.567747
        },
        "ad_info": {
            "adcode": 431025,
            "province": "湖南省",
            "city": "郴州市",
            "district": "临武县"
        }
    },
    {
        "id": "3874171772871958693",
        "title": "汝城服务区第二公共厕所",
        "address": "湖南省郴州市汝城县园艺场路与枧马路交叉口西北方向1337米左右",
        "tel": "",
        "category": "基础设施:公共设施:公共厕所",
        "type": 0,
        "location": {
            "lat": 25.562613,
            "lng": 113.588222
        },
        "ad_info": {
            "adcode": 431026,
            "province": "湖南省",
            "city": "郴州市",
            "district": "汝城县"
        }
    },
    {
        "id": "12285903063454434569",
        "title": "公共厕所",
        "address": "湖南省郴州市嘉禾县晋屏大道与桂嘉路交叉口东北方向363米左右",
        "tel": "",
        "category": "基础设施:公共设施:公共厕所",
        "type": 0,
        "location": {
            "lat": 25.617812,
            "lng": 112.361797
        },
        "ad_info": {
            "adcode": 431024,
            "province": "湖南省",
            "city": "郴州市",
            "district": "嘉禾县"
        }
    },
    {
        "id": "16623040991663426914",
        "title": "公共厕所",
        "address": "湖南省郴州市桂阳县新澄路与珍珠大道交叉口东南方向825米左右",
        "tel": "",
        "category": "基础设施:公共设施:公共厕所",
        "type": 0,
        "location": {
            "lat": 25.702635,
            "lng": 112.743705
        },
        "ad_info": {
            "adcode": 431021,
            "province": "湖南省",
            "city": "郴州市",
            "district": "桂阳县"
        }
    },
    {
        "id": "2403749841396521890",
        "title": "公共厕所",
        "address": "湖南省郴州市桂阳县敖泉镇光路小学东南侧180米",
        "tel": "",
        "category": "基础设施:公共设施:公共厕所",
        "type": 0,
        "location": {
            "lat": 25.875294,
            "lng": 112.614741
        },
        "ad_info": {
            "adcode": 431021,
            "province": "湖南省",
            "city": "郴州市",
            "district": "桂阳县"
        }
    },
    {
        "id": "2535780096306955617",
        "title": "公共厕所",
        "address": "湖南省郴州市苏仙区乌石矶街与河街交叉口正东方向82米左右",
        "tel": "",
        "category": "基础设施:公共设施:公共厕所",
        "type": 0,
        "location": {
            "lat": 25.790642,
            "lng": 113.041664
        },
        "ad_info": {
            "adcode": 431003,
            "province": "湖南省",
            "city": "郴州市",
            "district": "苏仙区"
        }
    },
    {
        "id": "6616088846752742721",
        "title": "奥米茄大酒店-洗手间",
        "address": "湖南省郴州市苏仙区郴江路309号(近爱莲湖)",
        "tel": "",
        "category": "基础设施:公共设施:公共厕所",
        "type": 0,
        "location": {
            "lat": 25.77553,
            "lng": 113.057421
        },
        "ad_info": {
            "adcode": 431003,
            "province": "湖南省",
            "city": "郴州市",
            "district": "苏仙区"
        }
    },
    {
        "id": "413155242373661634",
        "title": "女卫生间",
        "address": "湖南省郴州市北湖区国庆北路10号步步高新天地F3",
        "tel": "",
        "category": "基础设施:公共设施:女洗手间",
        "type": 0,
        "location": {
            "lat": 25.796963,
            "lng": 113.032919
        },
        "ad_info": {
            "adcode": 431002,
            "province": "湖南省",
            "city": "郴州市",
            "district": "北湖区"
        }
    },
    {
        "id": "3201752310742743052",
        "title": "步步高广场(郴州店)-男洗手间",
        "address": "湖南省郴州市北湖区国庆北路10号步步高新天地F1",
        "tel": "",
        "category": "基础设施:公共设施:男洗手间",
        "type": 0,
        "location": {
            "lat": 25.797715,
            "lng": 113.032096
        },
        "ad_info": {
            "adcode": 431002,
            "province": "湖南省",
            "city": "郴州市",
            "district": "北湖区"
        }
    },
    {
        "id": "2786599180695657918",
        "title": "公共厕所",
        "address": "湖南省郴州市汝城县思源路与滨河东路交叉口正南方向46米左右",
        "tel": "",
        "category": "基础设施:公共设施:公共厕所",
        "type": 0,
        "location": {
            "lat": 25.538788,
            "lng": 113.688573
        },
        "ad_info": {
            "adcode": 431026,
            "province": "湖南省",
            "city": "郴州市",
            "district": "汝城县"
        }
    },
    {
        "id": "4815480854248957258",
        "title": "公共厕所",
        "address": "湖南省郴州市汝城县东泉路与卢阳大道交叉口正东方向69米左右",
        "tel": "",
        "category": "基础设施:公共设施:公共厕所",
        "type": 0,
        "location": {
            "lat": 25.527274,
            "lng": 113.686869
        },
        "ad_info": {
            "adcode": 431026,
            "province": "湖南省",
            "city": "郴州市",
            "district": "汝城县"
        }
    },
    {
        "id": "14191619577654981295",
        "title": "资兴雄鑫豪廷酒店-洗手间",
        "address": "湖南省郴州市资兴市鲤电路资兴雄鑫豪廷酒店",
        "tel": "",
        "category": "基础设施:公共设施:公共厕所",
        "type": 0,
        "location": {
            "lat": 25.935432,
            "lng": 113.23308
        },
        "ad_info": {
            "adcode": 431081,
            "province": "湖南省",
            "city": "郴州市",
            "district": "资兴市"
        }
    },
    {
        "id": "7342669953229436412",
        "title": "公共厕所",
        "address": "湖南省郴州市苏仙区洞湾路与青年大道交叉口正北方向232米左右",
        "tel": "",
        "category": "基础设施:公共设施:公共厕所",
        "type": 0,
        "location": {
            "lat": 25.836079,
            "lng": 113.128681
        },
        "ad_info": {
            "adcode": 431003,
            "province": "湖南省",
            "city": "郴州市",
            "district": "苏仙区"
        }
    },
    {
        "id": "14495253750652450593",
        "title": "公共厕所",
        "address": "湖南省郴州市宜章县文明北路",
        "tel": "",
        "category": "基础设施:公共设施:公共厕所",
        "type": 0,
        "location": {
            "lat": 25.437289,
            "lng": 112.971712
        },
        "ad_info": {
            "adcode": 431022,
            "province": "湖南省",
            "city": "郴州市",
            "district": "宜章县"
        }
    },
    {
        "id": "1843280865284963629",
        "title": "公共厕所",
        "address": "湖南省郴州市北湖区南岭大道与国庆北路交叉口东北方向86米左右",
        "tel": "",
        "category": "基础设施:公共设施:公共厕所",
        "type": 0,
        "location": {
            "lat": 25.811154,
            "lng": 113.019085
        },
        "ad_info": {
            "adcode": 431002,
            "province": "湖南省",
            "city": "郴州市",
            "district": "北湖区"
        }
    },
    {
        "id": "6628951370892003044",
        "title": "公共厕所",
        "address": "湖南省郴州市资兴市Y219与兴华路交叉口正南方向85米左右",
        "tel": "",
        "category": "基础设施:公共设施:公共厕所",
        "type": 0,
        "location": {
            "lat": 25.977581,
            "lng": 113.233315
        },
        "ad_info": {
            "adcode": 431081,
            "province": "湖南省",
            "city": "郴州市",
            "district": "资兴市"
        }
    },
    {
        "id": "1555538284682145039",
        "title": "公共厕所",
        "address": "湖南省郴州市桂阳县S214与仁义路交叉口正南方向804米左右",
        "tel": "",
        "category": "基础设施:公共设施:公共厕所",
        "type": 0,
        "location": {
            "lat": 25.778493,
            "lng": 112.67156
        },
        "ad_info": {
            "adcode": 431021,
            "province": "湖南省",
            "city": "郴州市",
            "district": "桂阳县"
        }
    },
    {
        "id": "8566423937266992346",
        "title": "公共厕所",
        "address": "湖南省郴州市苏仙区白鹿洞巷与郴江路交叉口正东方向38米左右",
        "tel": "",
        "category": "基础设施:公共设施:公共厕所",
        "type": 0,
        "location": {
            "lat": 25.799406,
            "lng": 113.048102
        },
        "ad_info": {
            "adcode": 431003,
            "province": "湖南省",
            "city": "郴州市",
            "district": "苏仙区"
        }
    },
    {
        "id": "10328985514032366993",
        "title": "公共厕所",
        "address": "湖南省郴州市资兴市G357与坪石桥交叉口东南方向1031米左右",
        "tel": "",
        "category": "基础设施:公共设施:公共厕所",
        "type": 0,
        "location": {
            "lat": 25.975173,
            "lng": 113.443395
        },
        "ad_info": {
            "adcode": 431081,
            "province": "湖南省",
            "city": "郴州市",
            "district": "资兴市"
        }
    },
    {
        "id": "11004959901966589601",
        "title": "步步高广场(郴州店)-女洗手间",
        "address": "湖南省郴州市北湖区国庆北路10号步步高新天地F6",
        "tel": "",
        "category": "基础设施:公共设施:女洗手间",
        "type": 0,
        "location": {
            "lat": 25.797229,
            "lng": 113.031948
        },
        "ad_info": {
            "adcode": 431002,
            "province": "湖南省",
            "city": "郴州市",
            "district": "北湖区"
        }
    },
    {
        "id": "3928423694238950476",
        "title": "公共厕所",
        "address": "湖南省郴州市苏仙区曹家坪路与郴江路交叉口西南方向51米左右",
        "tel": "",
        "category": "基础设施:公共设施:公共厕所",
        "type": 0,
        "location": {
            "lat": 25.788449,
            "lng": 113.054579
        },
        "ad_info": {
            "adcode": 431003,
            "province": "湖南省",
            "city": "郴州市",
            "district": "苏仙区"
        }
    },
    {
        "id": "7651559317953517053",
        "title": "公共厕所",
        "address": "湖南省郴州市苏仙区沿江路与苏园路交叉口东南方向28米左右",
        "tel": "",
        "category": "基础设施:公共设施:公共厕所",
        "type": 0,
        "location": {
            "lat": 25.800366,
            "lng": 113.044406
        },
        "ad_info": {
            "adcode": 431003,
            "province": "湖南省",
            "city": "郴州市",
            "district": "苏仙区"
        }
    },
    {
        "id": "16190945354267751907",
        "title": "公共厕所",
        "address": "湖南省郴州市苏仙区四普庄路与石油路交叉口正北方向92米左右",
        "tel": "",
        "category": "基础设施:公共设施:公共厕所",
        "type": 0,
        "location": {
            "lat": 25.81515,
            "lng": 113.037246
        },
        "ad_info": {
            "adcode": 431003,
            "province": "湖南省",
            "city": "郴州市",
            "district": "苏仙区"
        }
    },
    {
        "id": "9979710157047644529",
        "title": "金都汇酒店洗手间",
        "address": "湖南省郴州市桂阳县园艺路55号",
        "tel": "",
        "category": "基础设施:公共设施:公共厕所",
        "type": 0,
        "location": {
            "lat": 25.751983,
            "lng": 112.738018
        },
        "ad_info": {
            "adcode": 431021,
            "province": "湖南省",
            "city": "郴州市",
            "district": "桂阳县"
        }
    },
    {
        "id": "11500690167518509701",
        "title": "苏仙南服务区公共厕所",
        "address": "湖南省郴州市苏仙区厦蓉高速苏仙南服务区",
        "tel": "",
        "category": "基础设施:公共设施:公共厕所",
        "type": 0,
        "location": {
            "lat": 25.571992,
            "lng": 113.081544
        },
        "ad_info": {
            "adcode": 431003,
            "province": "湖南省",
            "city": "郴州市",
            "district": "苏仙区"
        }
    },
    {
        "id": "8245957898886280194",
        "title": "公共厕所",
        "address": "湖南省郴州市桂东县健康路与维夏路交叉口西北方向102米左右",
        "tel": "",
        "category": "基础设施:公共设施:公共厕所",
        "type": 0,
        "location": {
            "lat": 26.073709,
            "lng": 113.942477
        },
        "ad_info": {
            "adcode": 431027,
            "province": "湖南省",
            "city": "郴州市",
            "district": "桂东县"
        }
    },
    {
        "id": "14318195196407400000",
        "title": "公共厕所",
        "address": "湖南省郴州市汝城县桂枝北路与濂溪路交叉口东南方向274米左右",
        "tel": "",
        "category": "基础设施:公共设施:公共厕所",
        "type": 0,
        "location": {
            "lat": 25.545001,
            "lng": 113.678676
        },
        "ad_info": {
            "adcode": 431026,
            "province": "湖南省",
            "city": "郴州市",
            "district": "汝城县"
        }
    },
    {
        "id": "14900278762539884018",
        "title": "男女洗手间",
        "address": "湖南省郴州市桂阳县芙蓉西路林苑大厦2层",
        "tel": "",
        "category": "基础设施:公共设施:公共厕所",
        "type": 0,
        "location": {
            "lat": 25.739641,
            "lng": 112.732336
        },
        "ad_info": {
            "adcode": 431021,
            "province": "湖南省",
            "city": "郴州市",
            "district": "桂阳县"
        }
    },
    {
        "id": "4807842170548394635",
        "title": "公共厕所",
        "address": "湖南省郴州市北湖区兴城路与增湖路交叉口西南方向59米左右",
        "tel": "",
        "category": "基础设施:公共设施:公共厕所",
        "type": 0,
        "location": {
            "lat": 25.72946,
            "lng": 112.971046
        },
        "ad_info": {
            "adcode": 431002,
            "province": "湖南省",
            "city": "郴州市",
            "district": "北湖区"
        }
    },
    {
        "id": "12532436973908593408",
        "title": "苏仙南服务区公共厕所",
        "address": "湖南省郴州市苏仙区G76厦蓉高速与苏仙南服务区交叉口东340米",
        "tel": "",
        "category": "基础设施:公共设施:公共厕所",
        "type": 0,
        "location": {
            "lat": 25.573232,
            "lng": 113.084005
        },
        "ad_info": {
            "adcode": 431003,
            "province": "湖南省",
            "city": "郴州市",
            "district": "苏仙区"
        }
    },
    {
        "id": "6567987481947143188",
        "title": "苏仙服务区公共厕所",
        "address": "湖南省郴州市苏仙区京港澳高速苏仙服务区",
        "tel": "",
        "category": "基础设施:公共设施:公共厕所",
        "type": 0,
        "location": {
            "lat": 25.636633,
            "lng": 113.041541
        },
        "ad_info": {
            "adcode": 431003,
            "province": "湖南省",
            "city": "郴州市",
            "district": "苏仙区"
        }
    },
    {
        "id": "11094781466971623066",
        "title": "公共厕所",
        "address": "湖南省郴州市苏仙区建设里路与解放路交叉口东北方向209米左右",
        "tel": "",
        "category": "基础设施:公共设施:公共厕所",
        "type": 0,
        "location": {
            "lat": 25.806773,
            "lng": 113.035091
        },
        "ad_info": {
            "adcode": 431003,
            "province": "湖南省",
            "city": "郴州市",
            "district": "苏仙区"
        }
    },
    {
        "id": "5824918110135984770",
        "title": "公共厕所",
        "address": "湖南省郴州市桂阳县体育路与桂阳县商业步行街交叉口西南方向91米左右",
        "tel": "",
        "category": "基础设施:公共设施:公共厕所",
        "type": 0,
        "location": {
            "lat": 25.737044,
            "lng": 112.736086
        },
        "ad_info": {
            "adcode": 431021,
            "province": "湖南省",
            "city": "郴州市",
            "district": "桂阳县"
        }
    },
    {
        "id": "11316432491438535179",
        "title": "公共厕所",
        "address": "湖南省郴州市嘉禾县四通石材(嘉禾大道南)东北侧",
        "tel": "",
        "category": "基础设施:公共设施:公共厕所",
        "type": 0,
        "location": {
            "lat": 25.570722,
            "lng": 112.367458
        },
        "ad_info": {
            "adcode": 431024,
            "province": "湖南省",
            "city": "郴州市",
            "district": "嘉禾县"
        }
    },
    {
        "id": "6844724635566976613",
        "title": "公共厕所",
        "address": "湖南省郴州市苏仙区S212与X057交叉口东北方向1841米左右",
        "tel": "",
        "category": "基础设施:公共设施:公共厕所",
        "type": 0,
        "location": {
            "lat": 25.873909,
            "lng": 112.972718
        },
        "ad_info": {
            "adcode": 431003,
            "province": "湖南省",
            "city": "郴州市",
            "district": "苏仙区"
        }
    },
    {
        "id": "580553795482243871",
        "title": "公共厕所",
        "address": "湖南省郴州市宜章县南京西路与环城西路交叉口东南方向41米左右",
        "tel": "",
        "category": "基础设施:公共设施:公共厕所",
        "type": 0,
        "location": {
            "lat": 25.391507,
            "lng": 112.944801
        },
        "ad_info": {
            "adcode": 431022,
            "province": "湖南省",
            "city": "郴州市",
            "district": "宜章县"
        }
    },
    {
        "id": "627084248376806920",
        "title": "公共厕所",
        "address": "湖南省郴州市嘉禾县生哥建材贸易有限公司西侧90米",
        "tel": "",
        "category": "基础设施:公共设施:公共厕所",
        "type": 0,
        "location": {
            "lat": 25.674863,
            "lng": 112.47497
        },
        "ad_info": {
            "adcode": 431024,
            "province": "湖南省",
            "city": "郴州市",
            "district": "嘉禾县"
        }
    },
    {
        "id": "695504415672772958",
        "title": "苏仙服务区第二公共厕所",
        "address": "湖南省郴州市苏仙区良田镇新市场",
        "tel": "",
        "category": "基础设施:公共设施:公共厕所",
        "type": 0,
        "location": {
            "lat": 25.635742,
            "lng": 113.041708
        },
        "ad_info": {
            "adcode": 431003,
            "province": "湖南省",
            "city": "郴州市",
            "district": "苏仙区"
        }
    },
    {
        "id": "4293500891234607089",
        "title": "步步高广场(郴州店)-女洗手间",
        "address": "湖南省郴州市北湖区国庆北路10号步步高新天地F6",
        "tel": "",
        "category": "基础设施:公共设施:女洗手间",
        "type": 0,
        "location": {
            "lat": 25.797179,
            "lng": 113.0313
        },
        "ad_info": {
            "adcode": 431002,
            "province": "湖南省",
            "city": "郴州市",
            "district": "北湖区"
        }
    },
    {
        "id": "3946825730000285797",
        "title": "公共厕所",
        "address": "湖南省郴州市桂阳县学南路与市场路交叉口正北方向449米左右",
        "tel": "",
        "category": "基础设施:公共设施:公共厕所",
        "type": 0,
        "location": {
            "lat": 25.668284,
            "lng": 112.694868
        },
        "ad_info": {
            "adcode": 431021,
            "province": "湖南省",
            "city": "郴州市",
            "district": "桂阳县"
        }
    },
    {
        "id": "15658835906792629240",
        "title": "公共厕所",
        "address": "湖南省郴州市苏仙区坪田路与青年大道交叉口西北方向72米左右",
        "tel": "",
        "category": "基础设施:公共设施:公共厕所",
        "type": 0,
        "location": {
            "lat": 25.824669,
            "lng": 113.128406
        },
        "ad_info": {
            "adcode": 431003,
            "province": "湖南省",
            "city": "郴州市",
            "district": "苏仙区"
        }
    },
    {
        "id": "4245412871469596604",
        "title": "公共厕所",
        "address": "湖南省郴州市苏仙区美达家园西侧330米",
        "tel": "",
        "category": "基础设施:公共设施:公共厕所",
        "type": 0,
        "location": {
            "lat": 25.779731,
            "lng": 113.086071
        },
        "ad_info": {
            "adcode": 431003,
            "province": "湖南省",
            "city": "郴州市",
            "district": "苏仙区"
        }
    },
    {
        "id": "1715509472513114654",
        "title": "汝城服务区第二公共厕所",
        "address": "湖南省郴州市汝城县园艺场路与枧马路交叉口西北方向1235米左右",
        "tel": "",
        "category": "基础设施:公共设施:公共厕所",
        "type": 0,
        "location": {
            "lat": 25.562686,
            "lng": 113.590151
        },
        "ad_info": {
            "adcode": 431026,
            "province": "湖南省",
            "city": "郴州市",
            "district": "汝城县"
        }
    },
    {
        "id": "4751548612445293905",
        "title": "黄沙服务区第二公共厕所",
        "address": "湖南省郴州市宜章县黄沙服务区与G0421许广高速交叉口北100米",
        "tel": "",
        "category": "基础设施:公共设施:公共厕所",
        "type": 0,
        "location": {
            "lat": 25.103954,
            "lng": 112.718196
        },
        "ad_info": {
            "adcode": 431022,
            "province": "湖南省",
            "city": "郴州市",
            "district": "宜章县"
        }
    },
    {
        "id": "1469121179640165598",
        "title": "公共厕所",
        "address": "湖南省郴州市北湖区南岭大道与工业大道交叉口东北方向305米左右",
        "tel": "",
        "category": "基础设施:公共设施:公共厕所",
        "type": 0,
        "location": {
            "lat": 25.693181,
            "lng": 112.984482
        },
        "ad_info": {
            "adcode": 431002,
            "province": "湖南省",
            "city": "郴州市",
            "district": "北湖区"
        }
    },
    {
        "id": "6347562226609970563",
        "title": "汝城南服务区公共厕所",
        "address": "湖南省郴州市汝城县X097与工业大道交叉口西北方向1688米左右",
        "tel": "",
        "category": "基础设施:公共设施:公共厕所",
        "type": 0,
        "location": {
            "lat": 25.49243,
            "lng": 113.657084
        },
        "ad_info": {
            "adcode": 431026,
            "province": "湖南省",
            "city": "郴州市",
            "district": "汝城县"
        }
    },
    {
        "id": "14649945644863071414",
        "title": "公共厕所",
        "address": "湖南省郴州市宜章县中夏北路与民主东路交叉口正东方向86米左右",
        "tel": "",
        "category": "基础设施:公共设施:公共厕所",
        "type": 0,
        "location": {
            "lat": 25.401648,
            "lng": 112.96259
        },
        "ad_info": {
            "adcode": 431022,
            "province": "湖南省",
            "city": "郴州市",
            "district": "宜章县"
        }
    },
    {
        "id": "5202654481120409507",
        "title": "公共厕所",
        "address": "湖南省郴州市汝城县思源路与滨河东路交叉口正西方向345米左右",
        "tel": "",
        "category": "基础设施:公共设施:公共厕所",
        "type": 0,
        "location": {
            "lat": 25.538715,
            "lng": 113.685329
        },
        "ad_info": {
            "adcode": 431026,
            "province": "湖南省",
            "city": "郴州市",
            "district": "汝城县"
        }
    },
    {
        "id": "13632292771858346152",
        "title": "女卫生间",
        "address": "湖南省郴州市北湖区国庆北路10号步步高新天地F5",
        "tel": "",
        "category": "基础设施:公共设施:女洗手间",
        "type": 0,
        "location": {
            "lat": 25.797176,
            "lng": 113.031285
        },
        "ad_info": {
            "adcode": 431002,
            "province": "湖南省",
            "city": "郴州市",
            "district": "北湖区"
        }
    },
    {
        "id": "14594295306373985320",
        "title": "女卫生间",
        "address": "湖南省郴州市北湖区国庆北路10号步步高新天地F7",
        "tel": "",
        "category": "基础设施:公共设施:女洗手间",
        "type": 0,
        "location": {
            "lat": 25.797174,
            "lng": 113.03129
        },
        "ad_info": {
            "adcode": 431002,
            "province": "湖南省",
            "city": "郴州市",
            "district": "北湖区"
        }
    },
    {
        "id": "4441912805178638553",
        "title": "公共厕所",
        "address": "湖南省郴州市嘉禾县行廊互通与许广高速交叉口西北方向426米左右",
        "tel": "",
        "category": "基础设施:公共设施:公共厕所",
        "type": 0,
        "location": {
            "lat": 25.632431,
            "lng": 112.491918
        },
        "ad_info": {
            "adcode": 431024,
            "province": "湖南省",
            "city": "郴州市",
            "district": "嘉禾县"
        }
    },
    {
        "id": "11094781466971623066",
        "title": "公共厕所",
        "address": "湖南省郴州市苏仙区建设里路与解放路交叉口东北方向209米左右",
        "tel": "",
        "category": "基础设施:公共设施:公共厕所",
        "type": 0,
        "location": {
            "lat": 25.806773,
            "lng": 113.035091
        },
        "ad_info": {
            "adcode": 431003,
            "province": "湖南省",
            "city": "郴州市",
            "district": "苏仙区"
        }
    },
    {
        "id": "5824918110135984770",
        "title": "公共厕所",
        "address": "湖南省郴州市桂阳县体育路与桂阳县商业步行街交叉口西南方向91米左右",
        "tel": "",
        "category": "基础设施:公共设施:公共厕所",
        "type": 0,
        "location": {
            "lat": 25.737044,
            "lng": 112.736086
        },
        "ad_info": {
            "adcode": 431021,
            "province": "湖南省",
            "city": "郴州市",
            "district": "桂阳县"
        }
    },
    {
        "id": "11316432491438535179",
        "title": "公共厕所",
        "address": "湖南省郴州市嘉禾县四通石材(嘉禾大道南)东北侧",
        "tel": "",
        "category": "基础设施:公共设施:公共厕所",
        "type": 0,
        "location": {
            "lat": 25.570722,
            "lng": 112.367458
        },
        "ad_info": {
            "adcode": 431024,
            "province": "湖南省",
            "city": "郴州市",
            "district": "嘉禾县"
        }
    },
    {
        "id": "6844724635566976613",
        "title": "公共厕所",
        "address": "湖南省郴州市苏仙区S212与X057交叉口东北方向1841米左右",
        "tel": "",
        "category": "基础设施:公共设施:公共厕所",
        "type": 0,
        "location": {
            "lat": 25.873909,
            "lng": 112.972718
        },
        "ad_info": {
            "adcode": 431003,
            "province": "湖南省",
            "city": "郴州市",
            "district": "苏仙区"
        }
    },
    {
        "id": "580553795482243871",
        "title": "公共厕所",
        "address": "湖南省郴州市宜章县南京西路与环城西路交叉口东南方向41米左右",
        "tel": "",
        "category": "基础设施:公共设施:公共厕所",
        "type": 0,
        "location": {
            "lat": 25.391507,
            "lng": 112.944801
        },
        "ad_info": {
            "adcode": 431022,
            "province": "湖南省",
            "city": "郴州市",
            "district": "宜章县"
        }
    },
    {
        "id": "627084248376806920",
        "title": "公共厕所",
        "address": "湖南省郴州市嘉禾县生哥建材贸易有限公司西侧90米",
        "tel": "",
        "category": "基础设施:公共设施:公共厕所",
        "type": 0,
        "location": {
            "lat": 25.674863,
            "lng": 112.47497
        },
        "ad_info": {
            "adcode": 431024,
            "province": "湖南省",
            "city": "郴州市",
            "district": "嘉禾县"
        }
    },
    {
        "id": "695504415672772958",
        "title": "苏仙服务区第二公共厕所",
        "address": "湖南省郴州市苏仙区良田镇新市场",
        "tel": "",
        "category": "基础设施:公共设施:公共厕所",
        "type": 0,
        "location": {
            "lat": 25.635742,
            "lng": 113.041708
        },
        "ad_info": {
            "adcode": 431003,
            "province": "湖南省",
            "city": "郴州市",
            "district": "苏仙区"
        }
    },
    {
        "id": "4293500891234607089",
        "title": "步步高广场(郴州店)-女洗手间",
        "address": "湖南省郴州市北湖区国庆北路10号步步高新天地F6",
        "tel": "",
        "category": "基础设施:公共设施:女洗手间",
        "type": 0,
        "location": {
            "lat": 25.797179,
            "lng": 113.0313
        },
        "ad_info": {
            "adcode": 431002,
            "province": "湖南省",
            "city": "郴州市",
            "district": "北湖区"
        }
    },
    {
        "id": "3946825730000285797",
        "title": "公共厕所",
        "address": "湖南省郴州市桂阳县学南路与市场路交叉口正北方向449米左右",
        "tel": "",
        "category": "基础设施:公共设施:公共厕所",
        "type": 0,
        "location": {
            "lat": 25.668284,
            "lng": 112.694868
        },
        "ad_info": {
            "adcode": 431021,
            "province": "湖南省",
            "city": "郴州市",
            "district": "桂阳县"
        }
    },
    {
        "id": "15658835906792629240",
        "title": "公共厕所",
        "address": "湖南省郴州市苏仙区坪田路与青年大道交叉口西北方向72米左右",
        "tel": "",
        "category": "基础设施:公共设施:公共厕所",
        "type": 0,
        "location": {
            "lat": 25.824669,
            "lng": 113.128406
        },
        "ad_info": {
            "adcode": 431003,
            "province": "湖南省",
            "city": "郴州市",
            "district": "苏仙区"
        }
    },
    {
        "id": "4245412871469596604",
        "title": "公共厕所",
        "address": "湖南省郴州市苏仙区美达家园西侧330米",
        "tel": "",
        "category": "基础设施:公共设施:公共厕所",
        "type": 0,
        "location": {
            "lat": 25.779731,
            "lng": 113.086071
        },
        "ad_info": {
            "adcode": 431003,
            "province": "湖南省",
            "city": "郴州市",
            "district": "苏仙区"
        }
    },
    {
        "id": "1715509472513114654",
        "title": "汝城服务区第二公共厕所",
        "address": "湖南省郴州市汝城县园艺场路与枧马路交叉口西北方向1235米左右",
        "tel": "",
        "category": "基础设施:公共设施:公共厕所",
        "type": 0,
        "location": {
            "lat": 25.562686,
            "lng": 113.590151
        },
        "ad_info": {
            "adcode": 431026,
            "province": "湖南省",
            "city": "郴州市",
            "district": "汝城县"
        }
    },
    {
        "id": "4751548612445293905",
        "title": "黄沙服务区第二公共厕所",
        "address": "湖南省郴州市宜章县黄沙服务区与G0421许广高速交叉口北100米",
        "tel": "",
        "category": "基础设施:公共设施:公共厕所",
        "type": 0,
        "location": {
            "lat": 25.103954,
            "lng": 112.718196
        },
        "ad_info": {
            "adcode": 431022,
            "province": "湖南省",
            "city": "郴州市",
            "district": "宜章县"
        }
    },
    {
        "id": "1469121179640165598",
        "title": "公共厕所",
        "address": "湖南省郴州市北湖区南岭大道与工业大道交叉口东北方向305米左右",
        "tel": "",
        "category": "基础设施:公共设施:公共厕所",
        "type": 0,
        "location": {
            "lat": 25.693181,
            "lng": 112.984482
        },
        "ad_info": {
            "adcode": 431002,
            "province": "湖南省",
            "city": "郴州市",
            "district": "北湖区"
        }
    },
    {
        "id": "6347562226609970563",
        "title": "汝城南服务区公共厕所",
        "address": "湖南省郴州市汝城县X097与工业大道交叉口西北方向1688米左右",
        "tel": "",
        "category": "基础设施:公共设施:公共厕所",
        "type": 0,
        "location": {
            "lat": 25.49243,
            "lng": 113.657084
        },
        "ad_info": {
            "adcode": 431026,
            "province": "湖南省",
            "city": "郴州市",
            "district": "汝城县"
        }
    },
    {
        "id": "14649945644863071414",
        "title": "公共厕所",
        "address": "湖南省郴州市宜章县中夏北路与民主东路交叉口正东方向86米左右",
        "tel": "",
        "category": "基础设施:公共设施:公共厕所",
        "type": 0,
        "location": {
            "lat": 25.401648,
            "lng": 112.96259
        },
        "ad_info": {
            "adcode": 431022,
            "province": "湖南省",
            "city": "郴州市",
            "district": "宜章县"
        }
    },
    {
        "id": "5202654481120409507",
        "title": "公共厕所",
        "address": "湖南省郴州市汝城县思源路与滨河东路交叉口正西方向345米左右",
        "tel": "",
        "category": "基础设施:公共设施:公共厕所",
        "type": 0,
        "location": {
            "lat": 25.538715,
            "lng": 113.685329
        },
        "ad_info": {
            "adcode": 431026,
            "province": "湖南省",
            "city": "郴州市",
            "district": "汝城县"
        }
    },
    {
        "id": "13632292771858346152",
        "title": "女卫生间",
        "address": "湖南省郴州市北湖区国庆北路10号步步高新天地F5",
        "tel": "",
        "category": "基础设施:公共设施:女洗手间",
        "type": 0,
        "location": {
            "lat": 25.797176,
            "lng": 113.031285
        },
        "ad_info": {
            "adcode": 431002,
            "province": "湖南省",
            "city": "郴州市",
            "district": "北湖区"
        }
    },
    {
        "id": "14594295306373985320",
        "title": "女卫生间",
        "address": "湖南省郴州市北湖区国庆北路10号步步高新天地F7",
        "tel": "",
        "category": "基础设施:公共设施:女洗手间",
        "type": 0,
        "location": {
            "lat": 25.797174,
            "lng": 113.03129
        },
        "ad_info": {
            "adcode": 431002,
            "province": "湖南省",
            "city": "郴州市",
            "district": "北湖区"
        }
    },
    {
        "id": "4441912805178638553",
        "title": "公共厕所",
        "address": "湖南省郴州市嘉禾县行廊互通与许广高速交叉口西北方向426米左右",
        "tel": "",
        "category": "基础设施:公共设施:公共厕所",
        "type": 0,
        "location": {
            "lat": 25.632431,
            "lng": 112.491918
        },
        "ad_info": {
            "adcode": 431024,
            "province": "湖南省",
            "city": "郴州市",
            "district": "嘉禾县"
        }
    },
    {
        "id": "11094781466971623066",
        "title": "公共厕所",
        "address": "湖南省郴州市苏仙区建设里路与解放路交叉口东北方向209米左右",
        "tel": "",
        "category": "基础设施:公共设施:公共厕所",
        "type": 0,
        "location": {
            "lat": 25.806773,
            "lng": 113.035091
        },
        "ad_info": {
            "adcode": 431003,
            "province": "湖南省",
            "city": "郴州市",
            "district": "苏仙区"
        }
    },
    {
        "id": "5824918110135984770",
        "title": "公共厕所",
        "address": "湖南省郴州市桂阳县体育路与桂阳县商业步行街交叉口西南方向91米左右",
        "tel": "",
        "category": "基础设施:公共设施:公共厕所",
        "type": 0,
        "location": {
            "lat": 25.737044,
            "lng": 112.736086
        },
        "ad_info": {
            "adcode": 431021,
            "province": "湖南省",
            "city": "郴州市",
            "district": "桂阳县"
        }
    },
    {
        "id": "11316432491438535179",
        "title": "公共厕所",
        "address": "湖南省郴州市嘉禾县四通石材(嘉禾大道南)东北侧",
        "tel": "",
        "category": "基础设施:公共设施:公共厕所",
        "type": 0,
        "location": {
            "lat": 25.570722,
            "lng": 112.367458
        },
        "ad_info": {
            "adcode": 431024,
            "province": "湖南省",
            "city": "郴州市",
            "district": "嘉禾县"
        }
    },
    {
        "id": "6844724635566976613",
        "title": "公共厕所",
        "address": "湖南省郴州市苏仙区S212与X057交叉口东北方向1841米左右",
        "tel": "",
        "category": "基础设施:公共设施:公共厕所",
        "type": 0,
        "location": {
            "lat": 25.873909,
            "lng": 112.972718
        },
        "ad_info": {
            "adcode": 431003,
            "province": "湖南省",
            "city": "郴州市",
            "district": "苏仙区"
        }
    },
    {
        "id": "580553795482243871",
        "title": "公共厕所",
        "address": "湖南省郴州市宜章县南京西路与环城西路交叉口东南方向41米左右",
        "tel": "",
        "category": "基础设施:公共设施:公共厕所",
        "type": 0,
        "location": {
            "lat": 25.391507,
            "lng": 112.944801
        },
        "ad_info": {
            "adcode": 431022,
            "province": "湖南省",
            "city": "郴州市",
            "district": "宜章县"
        }
    },
    {
        "id": "627084248376806920",
        "title": "公共厕所",
        "address": "湖南省郴州市嘉禾县生哥建材贸易有限公司西侧90米",
        "tel": "",
        "category": "基础设施:公共设施:公共厕所",
        "type": 0,
        "location": {
            "lat": 25.674863,
            "lng": 112.47497
        },
        "ad_info": {
            "adcode": 431024,
            "province": "湖南省",
            "city": "郴州市",
            "district": "嘉禾县"
        }
    },
    {
        "id": "695504415672772958",
        "title": "苏仙服务区第二公共厕所",
        "address": "湖南省郴州市苏仙区良田镇新市场",
        "tel": "",
        "category": "基础设施:公共设施:公共厕所",
        "type": 0,
        "location": {
            "lat": 25.635742,
            "lng": 113.041708
        },
        "ad_info": {
            "adcode": 431003,
            "province": "湖南省",
            "city": "郴州市",
            "district": "苏仙区"
        }
    },
    {
        "id": "4293500891234607089",
        "title": "步步高广场(郴州店)-女洗手间",
        "address": "湖南省郴州市北湖区国庆北路10号步步高新天地F6",
        "tel": "",
        "category": "基础设施:公共设施:女洗手间",
        "type": 0,
        "location": {
            "lat": 25.797179,
            "lng": 113.0313
        },
        "ad_info": {
            "adcode": 431002,
            "province": "湖南省",
            "city": "郴州市",
            "district": "北湖区"
        }
    },
    {
        "id": "3946825730000285797",
        "title": "公共厕所",
        "address": "湖南省郴州市桂阳县学南路与市场路交叉口正北方向449米左右",
        "tel": "",
        "category": "基础设施:公共设施:公共厕所",
        "type": 0,
        "location": {
            "lat": 25.668284,
            "lng": 112.694868
        },
        "ad_info": {
            "adcode": 431021,
            "province": "湖南省",
            "city": "郴州市",
            "district": "桂阳县"
        }
    },
    {
        "id": "15658835906792629240",
        "title": "公共厕所",
        "address": "湖南省郴州市苏仙区坪田路与青年大道交叉口西北方向72米左右",
        "tel": "",
        "category": "基础设施:公共设施:公共厕所",
        "type": 0,
        "location": {
            "lat": 25.824669,
            "lng": 113.128406
        },
        "ad_info": {
            "adcode": 431003,
            "province": "湖南省",
            "city": "郴州市",
            "district": "苏仙区"
        }
    },
    {
        "id": "4245412871469596604",
        "title": "公共厕所",
        "address": "湖南省郴州市苏仙区美达家园西侧330米",
        "tel": "",
        "category": "基础设施:公共设施:公共厕所",
        "type": 0,
        "location": {
            "lat": 25.779731,
            "lng": 113.086071
        },
        "ad_info": {
            "adcode": 431003,
            "province": "湖南省",
            "city": "郴州市",
            "district": "苏仙区"
        }
    },
    {
        "id": "1715509472513114654",
        "title": "汝城服务区第二公共厕所",
        "address": "湖南省郴州市汝城县园艺场路与枧马路交叉口西北方向1235米左右",
        "tel": "",
        "category": "基础设施:公共设施:公共厕所",
        "type": 0,
        "location": {
            "lat": 25.562686,
            "lng": 113.590151
        },
        "ad_info": {
            "adcode": 431026,
            "province": "湖南省",
            "city": "郴州市",
            "district": "汝城县"
        }
    },
    {
        "id": "4751548612445293905",
        "title": "黄沙服务区第二公共厕所",
        "address": "湖南省郴州市宜章县黄沙服务区与G0421许广高速交叉口北100米",
        "tel": "",
        "category": "基础设施:公共设施:公共厕所",
        "type": 0,
        "location": {
            "lat": 25.103954,
            "lng": 112.718196
        },
        "ad_info": {
            "adcode": 431022,
            "province": "湖南省",
            "city": "郴州市",
            "district": "宜章县"
        }
    },
    {
        "id": "1469121179640165598",
        "title": "公共厕所",
        "address": "湖南省郴州市北湖区南岭大道与工业大道交叉口东北方向305米左右",
        "tel": "",
        "category": "基础设施:公共设施:公共厕所",
        "type": 0,
        "location": {
            "lat": 25.693181,
            "lng": 112.984482
        },
        "ad_info": {
            "adcode": 431002,
            "province": "湖南省",
            "city": "郴州市",
            "district": "北湖区"
        }
    },
    {
        "id": "6347562226609970563",
        "title": "汝城南服务区公共厕所",
        "address": "湖南省郴州市汝城县X097与工业大道交叉口西北方向1688米左右",
        "tel": "",
        "category": "基础设施:公共设施:公共厕所",
        "type": 0,
        "location": {
            "lat": 25.49243,
            "lng": 113.657084
        },
        "ad_info": {
            "adcode": 431026,
            "province": "湖南省",
            "city": "郴州市",
            "district": "汝城县"
        }
    },
    {
        "id": "14649945644863071414",
        "title": "公共厕所",
        "address": "湖南省郴州市宜章县中夏北路与民主东路交叉口正东方向86米左右",
        "tel": "",
        "category": "基础设施:公共设施:公共厕所",
        "type": 0,
        "location": {
            "lat": 25.401648,
            "lng": 112.96259
        },
        "ad_info": {
            "adcode": 431022,
            "province": "湖南省",
            "city": "郴州市",
            "district": "宜章县"
        }
    },
    {
        "id": "5202654481120409507",
        "title": "公共厕所",
        "address": "湖南省郴州市汝城县思源路与滨河东路交叉口正西方向345米左右",
        "tel": "",
        "category": "基础设施:公共设施:公共厕所",
        "type": 0,
        "location": {
            "lat": 25.538715,
            "lng": 113.685329
        },
        "ad_info": {
            "adcode": 431026,
            "province": "湖南省",
            "city": "郴州市",
            "district": "汝城县"
        }
    },
    {
        "id": "13632292771858346152",
        "title": "女卫生间",
        "address": "湖南省郴州市北湖区国庆北路10号步步高新天地F5",
        "tel": "",
        "category": "基础设施:公共设施:女洗手间",
        "type": 0,
        "location": {
            "lat": 25.797176,
            "lng": 113.031285
        },
        "ad_info": {
            "adcode": 431002,
            "province": "湖南省",
            "city": "郴州市",
            "district": "北湖区"
        }
    },
    {
        "id": "14594295306373985320",
        "title": "女卫生间",
        "address": "湖南省郴州市北湖区国庆北路10号步步高新天地F7",
        "tel": "",
        "category": "基础设施:公共设施:女洗手间",
        "type": 0,
        "location": {
            "lat": 25.797174,
            "lng": 113.03129
        },
        "ad_info": {
            "adcode": 431002,
            "province": "湖南省",
            "city": "郴州市",
            "district": "北湖区"
        }
    },
    {
        "id": "4441912805178638553",
        "title": "公共厕所",
        "address": "湖南省郴州市嘉禾县行廊互通与许广高速交叉口西北方向426米左右",
        "tel": "",
        "category": "基础设施:公共设施:公共厕所",
        "type": 0,
        "location": {
            "lat": 25.632431,
            "lng": 112.491918
        },
        "ad_info": {
            "adcode": 431024,
            "province": "湖南省",
            "city": "郴州市",
            "district": "嘉禾县"
        }
    },
    {
        "id": "11094781466971623066",
        "title": "公共厕所",
        "address": "湖南省郴州市苏仙区建设里路与解放路交叉口东北方向209米左右",
        "tel": "",
        "category": "基础设施:公共设施:公共厕所",
        "type": 0,
        "location": {
            "lat": 25.806773,
            "lng": 113.035091
        },
        "ad_info": {
            "adcode": 431003,
            "province": "湖南省",
            "city": "郴州市",
            "district": "苏仙区"
        }
    },
    {
        "id": "5824918110135984770",
        "title": "公共厕所",
        "address": "湖南省郴州市桂阳县体育路与桂阳县商业步行街交叉口西南方向91米左右",
        "tel": "",
        "category": "基础设施:公共设施:公共厕所",
        "type": 0,
        "location": {
            "lat": 25.737044,
            "lng": 112.736086
        },
        "ad_info": {
            "adcode": 431021,
            "province": "湖南省",
            "city": "郴州市",
            "district": "桂阳县"
        }
    },
    {
        "id": "11316432491438535179",
        "title": "公共厕所",
        "address": "湖南省郴州市嘉禾县四通石材(嘉禾大道南)东北侧",
        "tel": "",
        "category": "基础设施:公共设施:公共厕所",
        "type": 0,
        "location": {
            "lat": 25.570722,
            "lng": 112.367458
        },
        "ad_info": {
            "adcode": 431024,
            "province": "湖南省",
            "city": "郴州市",
            "district": "嘉禾县"
        }
    },
    {
        "id": "6844724635566976613",
        "title": "公共厕所",
        "address": "湖南省郴州市苏仙区S212与X057交叉口东北方向1841米左右",
        "tel": "",
        "category": "基础设施:公共设施:公共厕所",
        "type": 0,
        "location": {
            "lat": 25.873909,
            "lng": 112.972718
        },
        "ad_info": {
            "adcode": 431003,
            "province": "湖南省",
            "city": "郴州市",
            "district": "苏仙区"
        }
    },
    {
        "id": "580553795482243871",
        "title": "公共厕所",
        "address": "湖南省郴州市宜章县南京西路与环城西路交叉口东南方向41米左右",
        "tel": "",
        "category": "基础设施:公共设施:公共厕所",
        "type": 0,
        "location": {
            "lat": 25.391507,
            "lng": 112.944801
        },
        "ad_info": {
            "adcode": 431022,
            "province": "湖南省",
            "city": "郴州市",
            "district": "宜章县"
        }
    },
    {
        "id": "627084248376806920",
        "title": "公共厕所",
        "address": "湖南省郴州市嘉禾县生哥建材贸易有限公司西侧90米",
        "tel": "",
        "category": "基础设施:公共设施:公共厕所",
        "type": 0,
        "location": {
            "lat": 25.674863,
            "lng": 112.47497
        },
        "ad_info": {
            "adcode": 431024,
            "province": "湖南省",
            "city": "郴州市",
            "district": "嘉禾县"
        }
    },
    {
        "id": "695504415672772958",
        "title": "苏仙服务区第二公共厕所",
        "address": "湖南省郴州市苏仙区良田镇新市场",
        "tel": "",
        "category": "基础设施:公共设施:公共厕所",
        "type": 0,
        "location": {
            "lat": 25.635742,
            "lng": 113.041708
        },
        "ad_info": {
            "adcode": 431003,
            "province": "湖南省",
            "city": "郴州市",
            "district": "苏仙区"
        }
    },
    {
        "id": "4293500891234607089",
        "title": "步步高广场(郴州店)-女洗手间",
        "address": "湖南省郴州市北湖区国庆北路10号步步高新天地F6",
        "tel": "",
        "category": "基础设施:公共设施:女洗手间",
        "type": 0,
        "location": {
            "lat": 25.797179,
            "lng": 113.0313
        },
        "ad_info": {
            "adcode": 431002,
            "province": "湖南省",
            "city": "郴州市",
            "district": "北湖区"
        }
    },
    {
        "id": "3946825730000285797",
        "title": "公共厕所",
        "address": "湖南省郴州市桂阳县学南路与市场路交叉口正北方向449米左右",
        "tel": "",
        "category": "基础设施:公共设施:公共厕所",
        "type": 0,
        "location": {
            "lat": 25.668284,
            "lng": 112.694868
        },
        "ad_info": {
            "adcode": 431021,
            "province": "湖南省",
            "city": "郴州市",
            "district": "桂阳县"
        }
    },
    {
        "id": "15658835906792629240",
        "title": "公共厕所",
        "address": "湖南省郴州市苏仙区坪田路与青年大道交叉口西北方向72米左右",
        "tel": "",
        "category": "基础设施:公共设施:公共厕所",
        "type": 0,
        "location": {
            "lat": 25.824669,
            "lng": 113.128406
        },
        "ad_info": {
            "adcode": 431003,
            "province": "湖南省",
            "city": "郴州市",
            "district": "苏仙区"
        }
    },
    {
        "id": "4245412871469596604",
        "title": "公共厕所",
        "address": "湖南省郴州市苏仙区美达家园西侧330米",
        "tel": "",
        "category": "基础设施:公共设施:公共厕所",
        "type": 0,
        "location": {
            "lat": 25.779731,
            "lng": 113.086071
        },
        "ad_info": {
            "adcode": 431003,
            "province": "湖南省",
            "city": "郴州市",
            "district": "苏仙区"
        }
    },
    {
        "id": "1715509472513114654",
        "title": "汝城服务区第二公共厕所",
        "address": "湖南省郴州市汝城县园艺场路与枧马路交叉口西北方向1235米左右",
        "tel": "",
        "category": "基础设施:公共设施:公共厕所",
        "type": 0,
        "location": {
            "lat": 25.562686,
            "lng": 113.590151
        },
        "ad_info": {
            "adcode": 431026,
            "province": "湖南省",
            "city": "郴州市",
            "district": "汝城县"
        }
    },
    {
        "id": "4751548612445293905",
        "title": "黄沙服务区第二公共厕所",
        "address": "湖南省郴州市宜章县黄沙服务区与G0421许广高速交叉口北100米",
        "tel": "",
        "category": "基础设施:公共设施:公共厕所",
        "type": 0,
        "location": {
            "lat": 25.103954,
            "lng": 112.718196
        },
        "ad_info": {
            "adcode": 431022,
            "province": "湖南省",
            "city": "郴州市",
            "district": "宜章县"
        }
    },
    {
        "id": "1469121179640165598",
        "title": "公共厕所",
        "address": "湖南省郴州市北湖区南岭大道与工业大道交叉口东北方向305米左右",
        "tel": "",
        "category": "基础设施:公共设施:公共厕所",
        "type": 0,
        "location": {
            "lat": 25.693181,
            "lng": 112.984482
        },
        "ad_info": {
            "adcode": 431002,
            "province": "湖南省",
            "city": "郴州市",
            "district": "北湖区"
        }
    },
    {
        "id": "6347562226609970563",
        "title": "汝城南服务区公共厕所",
        "address": "湖南省郴州市汝城县X097与工业大道交叉口西北方向1688米左右",
        "tel": "",
        "category": "基础设施:公共设施:公共厕所",
        "type": 0,
        "location": {
            "lat": 25.49243,
            "lng": 113.657084
        },
        "ad_info": {
            "adcode": 431026,
            "province": "湖南省",
            "city": "郴州市",
            "district": "汝城县"
        }
    },
    {
        "id": "14649945644863071414",
        "title": "公共厕所",
        "address": "湖南省郴州市宜章县中夏北路与民主东路交叉口正东方向86米左右",
        "tel": "",
        "category": "基础设施:公共设施:公共厕所",
        "type": 0,
        "location": {
            "lat": 25.401648,
            "lng": 112.96259
        },
        "ad_info": {
            "adcode": 431022,
            "province": "湖南省",
            "city": "郴州市",
            "district": "宜章县"
        }
    },
    {
        "id": "5202654481120409507",
        "title": "公共厕所",
        "address": "湖南省郴州市汝城县思源路与滨河东路交叉口正西方向345米左右",
        "tel": "",
        "category": "基础设施:公共设施:公共厕所",
        "type": 0,
        "location": {
            "lat": 25.538715,
            "lng": 113.685329
        },
        "ad_info": {
            "adcode": 431026,
            "province": "湖南省",
            "city": "郴州市",
            "district": "汝城县"
        }
    },
    {
        "id": "13632292771858346152",
        "title": "女卫生间",
        "address": "湖南省郴州市北湖区国庆北路10号步步高新天地F5",
        "tel": "",
        "category": "基础设施:公共设施:女洗手间",
        "type": 0,
        "location": {
            "lat": 25.797176,
            "lng": 113.031285
        },
        "ad_info": {
            "adcode": 431002,
            "province": "湖南省",
            "city": "郴州市",
            "district": "北湖区"
        }
    },
    {
        "id": "14594295306373985320",
        "title": "女卫生间",
        "address": "湖南省郴州市北湖区国庆北路10号步步高新天地F7",
        "tel": "",
        "category": "基础设施:公共设施:女洗手间",
        "type": 0,
        "location": {
            "lat": 25.797174,
            "lng": 113.03129
        },
        "ad_info": {
            "adcode": 431002,
            "province": "湖南省",
            "city": "郴州市",
            "district": "北湖区"
        }
    },
    {
        "id": "4441912805178638553",
        "title": "公共厕所",
        "address": "湖南省郴州市嘉禾县行廊互通与许广高速交叉口西北方向426米左右",
        "tel": "",
        "category": "基础设施:公共设施:公共厕所",
        "type": 0,
        "location": {
            "lat": 25.632431,
            "lng": 112.491918
        },
        "ad_info": {
            "adcode": 431024,
            "province": "湖南省",
            "city": "郴州市",
            "district": "嘉禾县"
        }
    },
    {
        "id": "11094781466971623066",
        "title": "公共厕所",
        "address": "湖南省郴州市苏仙区建设里路与解放路交叉口东北方向209米左右",
        "tel": "",
        "category": "基础设施:公共设施:公共厕所",
        "type": 0,
        "location": {
            "lat": 25.806773,
            "lng": 113.035091
        },
        "ad_info": {
            "adcode": 431003,
            "province": "湖南省",
            "city": "郴州市",
            "district": "苏仙区"
        }
    },
    {
        "id": "5824918110135984770",
        "title": "公共厕所",
        "address": "湖南省郴州市桂阳县体育路与桂阳县商业步行街交叉口西南方向91米左右",
        "tel": "",
        "category": "基础设施:公共设施:公共厕所",
        "type": 0,
        "location": {
            "lat": 25.737044,
            "lng": 112.736086
        },
        "ad_info": {
            "adcode": 431021,
            "province": "湖南省",
            "city": "郴州市",
            "district": "桂阳县"
        }
    },
    {
        "id": "11316432491438535179",
        "title": "公共厕所",
        "address": "湖南省郴州市嘉禾县四通石材(嘉禾大道南)东北侧",
        "tel": "",
        "category": "基础设施:公共设施:公共厕所",
        "type": 0,
        "location": {
            "lat": 25.570722,
            "lng": 112.367458
        },
        "ad_info": {
            "adcode": 431024,
            "province": "湖南省",
            "city": "郴州市",
            "district": "嘉禾县"
        }
    },
    {
        "id": "6844724635566976613",
        "title": "公共厕所",
        "address": "湖南省郴州市苏仙区S212与X057交叉口东北方向1841米左右",
        "tel": "",
        "category": "基础设施:公共设施:公共厕所",
        "type": 0,
        "location": {
            "lat": 25.873909,
            "lng": 112.972718
        },
        "ad_info": {
            "adcode": 431003,
            "province": "湖南省",
            "city": "郴州市",
            "district": "苏仙区"
        }
    },
    {
        "id": "580553795482243871",
        "title": "公共厕所",
        "address": "湖南省郴州市宜章县南京西路与环城西路交叉口东南方向41米左右",
        "tel": "",
        "category": "基础设施:公共设施:公共厕所",
        "type": 0,
        "location": {
            "lat": 25.391507,
            "lng": 112.944801
        },
        "ad_info": {
            "adcode": 431022,
            "province": "湖南省",
            "city": "郴州市",
            "district": "宜章县"
        }
    },
    {
        "id": "627084248376806920",
        "title": "公共厕所",
        "address": "湖南省郴州市嘉禾县生哥建材贸易有限公司西侧90米",
        "tel": "",
        "category": "基础设施:公共设施:公共厕所",
        "type": 0,
        "location": {
            "lat": 25.674863,
            "lng": 112.47497
        },
        "ad_info": {
            "adcode": 431024,
            "province": "湖南省",
            "city": "郴州市",
            "district": "嘉禾县"
        }
    },
    {
        "id": "695504415672772958",
        "title": "苏仙服务区第二公共厕所",
        "address": "湖南省郴州市苏仙区良田镇新市场",
        "tel": "",
        "category": "基础设施:公共设施:公共厕所",
        "type": 0,
        "location": {
            "lat": 25.635742,
            "lng": 113.041708
        },
        "ad_info": {
            "adcode": 431003,
            "province": "湖南省",
            "city": "郴州市",
            "district": "苏仙区"
        }
    },
    {
        "id": "4293500891234607089",
        "title": "步步高广场(郴州店)-女洗手间",
        "address": "湖南省郴州市北湖区国庆北路10号步步高新天地F6",
        "tel": "",
        "category": "基础设施:公共设施:女洗手间",
        "type": 0,
        "location": {
            "lat": 25.797179,
            "lng": 113.0313
        },
        "ad_info": {
            "adcode": 431002,
            "province": "湖南省",
            "city": "郴州市",
            "district": "北湖区"
        }
    },
    {
        "id": "3946825730000285797",
        "title": "公共厕所",
        "address": "湖南省郴州市桂阳县学南路与市场路交叉口正北方向449米左右",
        "tel": "",
        "category": "基础设施:公共设施:公共厕所",
        "type": 0,
        "location": {
            "lat": 25.668284,
            "lng": 112.694868
        },
        "ad_info": {
            "adcode": 431021,
            "province": "湖南省",
            "city": "郴州市",
            "district": "桂阳县"
        }
    },
    {
        "id": "15658835906792629240",
        "title": "公共厕所",
        "address": "湖南省郴州市苏仙区坪田路与青年大道交叉口西北方向72米左右",
        "tel": "",
        "category": "基础设施:公共设施:公共厕所",
        "type": 0,
        "location": {
            "lat": 25.824669,
            "lng": 113.128406
        },
        "ad_info": {
            "adcode": 431003,
            "province": "湖南省",
            "city": "郴州市",
            "district": "苏仙区"
        }
    },
    {
        "id": "4245412871469596604",
        "title": "公共厕所",
        "address": "湖南省郴州市苏仙区美达家园西侧330米",
        "tel": "",
        "category": "基础设施:公共设施:公共厕所",
        "type": 0,
        "location": {
            "lat": 25.779731,
            "lng": 113.086071
        },
        "ad_info": {
            "adcode": 431003,
            "province": "湖南省",
            "city": "郴州市",
            "district": "苏仙区"
        }
    },
    {
        "id": "1715509472513114654",
        "title": "汝城服务区第二公共厕所",
        "address": "湖南省郴州市汝城县园艺场路与枧马路交叉口西北方向1235米左右",
        "tel": "",
        "category": "基础设施:公共设施:公共厕所",
        "type": 0,
        "location": {
            "lat": 25.562686,
            "lng": 113.590151
        },
        "ad_info": {
            "adcode": 431026,
            "province": "湖南省",
            "city": "郴州市",
            "district": "汝城县"
        }
    },
    {
        "id": "4751548612445293905",
        "title": "黄沙服务区第二公共厕所",
        "address": "湖南省郴州市宜章县黄沙服务区与G0421许广高速交叉口北100米",
        "tel": "",
        "category": "基础设施:公共设施:公共厕所",
        "type": 0,
        "location": {
            "lat": 25.103954,
            "lng": 112.718196
        },
        "ad_info": {
            "adcode": 431022,
            "province": "湖南省",
            "city": "郴州市",
            "district": "宜章县"
        }
    },
    {
        "id": "1469121179640165598",
        "title": "公共厕所",
        "address": "湖南省郴州市北湖区南岭大道与工业大道交叉口东北方向305米左右",
        "tel": "",
        "category": "基础设施:公共设施:公共厕所",
        "type": 0,
        "location": {
            "lat": 25.693181,
            "lng": 112.984482
        },
        "ad_info": {
            "adcode": 431002,
            "province": "湖南省",
            "city": "郴州市",
            "district": "北湖区"
        }
    },
    {
        "id": "6347562226609970563",
        "title": "汝城南服务区公共厕所",
        "address": "湖南省郴州市汝城县X097与工业大道交叉口西北方向1688米左右",
        "tel": "",
        "category": "基础设施:公共设施:公共厕所",
        "type": 0,
        "location": {
            "lat": 25.49243,
            "lng": 113.657084
        },
        "ad_info": {
            "adcode": 431026,
            "province": "湖南省",
            "city": "郴州市",
            "district": "汝城县"
        }
    },
    {
        "id": "14649945644863071414",
        "title": "公共厕所",
        "address": "湖南省郴州市宜章县中夏北路与民主东路交叉口正东方向86米左右",
        "tel": "",
        "category": "基础设施:公共设施:公共厕所",
        "type": 0,
        "location": {
            "lat": 25.401648,
            "lng": 112.96259
        },
        "ad_info": {
            "adcode": 431022,
            "province": "湖南省",
            "city": "郴州市",
            "district": "宜章县"
        }
    },
    {
        "id": "5202654481120409507",
        "title": "公共厕所",
        "address": "湖南省郴州市汝城县思源路与滨河东路交叉口正西方向345米左右",
        "tel": "",
        "category": "基础设施:公共设施:公共厕所",
        "type": 0,
        "location": {
            "lat": 25.538715,
            "lng": 113.685329
        },
        "ad_info": {
            "adcode": 431026,
            "province": "湖南省",
            "city": "郴州市",
            "district": "汝城县"
        }
    },
    {
        "id": "13632292771858346152",
        "title": "女卫生间",
        "address": "湖南省郴州市北湖区国庆北路10号步步高新天地F5",
        "tel": "",
        "category": "基础设施:公共设施:女洗手间",
        "type": 0,
        "location": {
            "lat": 25.797176,
            "lng": 113.031285
        },
        "ad_info": {
            "adcode": 431002,
            "province": "湖南省",
            "city": "郴州市",
            "district": "北湖区"
        }
    },
    {
        "id": "14594295306373985320",
        "title": "女卫生间",
        "address": "湖南省郴州市北湖区国庆北路10号步步高新天地F7",
        "tel": "",
        "category": "基础设施:公共设施:女洗手间",
        "type": 0,
        "location": {
            "lat": 25.797174,
            "lng": 113.03129
        },
        "ad_info": {
            "adcode": 431002,
            "province": "湖南省",
            "city": "郴州市",
            "district": "北湖区"
        }
    },
    {
        "id": "4441912805178638553",
        "title": "公共厕所",
        "address": "湖南省郴州市嘉禾县行廊互通与许广高速交叉口西北方向426米左右",
        "tel": "",
        "category": "基础设施:公共设施:公共厕所",
        "type": 0,
        "location": {
            "lat": 25.632431,
            "lng": 112.491918
        },
        "ad_info": {
            "adcode": 431024,
            "province": "湖南省",
            "city": "郴州市",
            "district": "嘉禾县"
        }
    },
    {
        "id": "11094781466971623066",
        "title": "公共厕所",
        "address": "湖南省郴州市苏仙区建设里路与解放路交叉口东北方向209米左右",
        "tel": "",
        "category": "基础设施:公共设施:公共厕所",
        "type": 0,
        "location": {
            "lat": 25.806773,
            "lng": 113.035091
        },
        "ad_info": {
            "adcode": 431003,
            "province": "湖南省",
            "city": "郴州市",
            "district": "苏仙区"
        }
    },
    {
        "id": "5824918110135984770",
        "title": "公共厕所",
        "address": "湖南省郴州市桂阳县体育路与桂阳县商业步行街交叉口西南方向91米左右",
        "tel": "",
        "category": "基础设施:公共设施:公共厕所",
        "type": 0,
        "location": {
            "lat": 25.737044,
            "lng": 112.736086
        },
        "ad_info": {
            "adcode": 431021,
            "province": "湖南省",
            "city": "郴州市",
            "district": "桂阳县"
        }
    },
    {
        "id": "11316432491438535179",
        "title": "公共厕所",
        "address": "湖南省郴州市嘉禾县四通石材(嘉禾大道南)东北侧",
        "tel": "",
        "category": "基础设施:公共设施:公共厕所",
        "type": 0,
        "location": {
            "lat": 25.570722,
            "lng": 112.367458
        },
        "ad_info": {
            "adcode": 431024,
            "province": "湖南省",
            "city": "郴州市",
            "district": "嘉禾县"
        }
    },
    {
        "id": "6844724635566976613",
        "title": "公共厕所",
        "address": "湖南省郴州市苏仙区S212与X057交叉口东北方向1841米左右",
        "tel": "",
        "category": "基础设施:公共设施:公共厕所",
        "type": 0,
        "location": {
            "lat": 25.873909,
            "lng": 112.972718
        },
        "ad_info": {
            "adcode": 431003,
            "province": "湖南省",
            "city": "郴州市",
            "district": "苏仙区"
        }
    },
    {
        "id": "580553795482243871",
        "title": "公共厕所",
        "address": "湖南省郴州市宜章县南京西路与环城西路交叉口东南方向41米左右",
        "tel": "",
        "category": "基础设施:公共设施:公共厕所",
        "type": 0,
        "location": {
            "lat": 25.391507,
            "lng": 112.944801
        },
        "ad_info": {
            "adcode": 431022,
            "province": "湖南省",
            "city": "郴州市",
            "district": "宜章县"
        }
    },
    {
        "id": "627084248376806920",
        "title": "公共厕所",
        "address": "湖南省郴州市嘉禾县生哥建材贸易有限公司西侧90米",
        "tel": "",
        "category": "基础设施:公共设施:公共厕所",
        "type": 0,
        "location": {
            "lat": 25.674863,
            "lng": 112.47497
        },
        "ad_info": {
            "adcode": 431024,
            "province": "湖南省",
            "city": "郴州市",
            "district": "嘉禾县"
        }
    },
    {
        "id": "695504415672772958",
        "title": "苏仙服务区第二公共厕所",
        "address": "湖南省郴州市苏仙区良田镇新市场",
        "tel": "",
        "category": "基础设施:公共设施:公共厕所",
        "type": 0,
        "location": {
            "lat": 25.635742,
            "lng": 113.041708
        },
        "ad_info": {
            "adcode": 431003,
            "province": "湖南省",
            "city": "郴州市",
            "district": "苏仙区"
        }
    },
    {
        "id": "4293500891234607089",
        "title": "步步高广场(郴州店)-女洗手间",
        "address": "湖南省郴州市北湖区国庆北路10号步步高新天地F6",
        "tel": "",
        "category": "基础设施:公共设施:女洗手间",
        "type": 0,
        "location": {
            "lat": 25.797179,
            "lng": 113.0313
        },
        "ad_info": {
            "adcode": 431002,
            "province": "湖南省",
            "city": "郴州市",
            "district": "北湖区"
        }
    },
    {
        "id": "3946825730000285797",
        "title": "公共厕所",
        "address": "湖南省郴州市桂阳县学南路与市场路交叉口正北方向449米左右",
        "tel": "",
        "category": "基础设施:公共设施:公共厕所",
        "type": 0,
        "location": {
            "lat": 25.668284,
            "lng": 112.694868
        },
        "ad_info": {
            "adcode": 431021,
            "province": "湖南省",
            "city": "郴州市",
            "district": "桂阳县"
        }
    },
    {
        "id": "15658835906792629240",
        "title": "公共厕所",
        "address": "湖南省郴州市苏仙区坪田路与青年大道交叉口西北方向72米左右",
        "tel": "",
        "category": "基础设施:公共设施:公共厕所",
        "type": 0,
        "location": {
            "lat": 25.824669,
            "lng": 113.128406
        },
        "ad_info": {
            "adcode": 431003,
            "province": "湖南省",
            "city": "郴州市",
            "district": "苏仙区"
        }
    },
    {
        "id": "4245412871469596604",
        "title": "公共厕所",
        "address": "湖南省郴州市苏仙区美达家园西侧330米",
        "tel": "",
        "category": "基础设施:公共设施:公共厕所",
        "type": 0,
        "location": {
            "lat": 25.779731,
            "lng": 113.086071
        },
        "ad_info": {
            "adcode": 431003,
            "province": "湖南省",
            "city": "郴州市",
            "district": "苏仙区"
        }
    },
    {
        "id": "1715509472513114654",
        "title": "汝城服务区第二公共厕所",
        "address": "湖南省郴州市汝城县园艺场路与枧马路交叉口西北方向1235米左右",
        "tel": "",
        "category": "基础设施:公共设施:公共厕所",
        "type": 0,
        "location": {
            "lat": 25.562686,
            "lng": 113.590151
        },
        "ad_info": {
            "adcode": 431026,
            "province": "湖南省",
            "city": "郴州市",
            "district": "汝城县"
        }
    },
    {
        "id": "4751548612445293905",
        "title": "黄沙服务区第二公共厕所",
        "address": "湖南省郴州市宜章县黄沙服务区与G0421许广高速交叉口北100米",
        "tel": "",
        "category": "基础设施:公共设施:公共厕所",
        "type": 0,
        "location": {
            "lat": 25.103954,
            "lng": 112.718196
        },
        "ad_info": {
            "adcode": 431022,
            "province": "湖南省",
            "city": "郴州市",
            "district": "宜章县"
        }
    },
    {
        "id": "1469121179640165598",
        "title": "公共厕所",
        "address": "湖南省郴州市北湖区南岭大道与工业大道交叉口东北方向305米左右",
        "tel": "",
        "category": "基础设施:公共设施:公共厕所",
        "type": 0,
        "location": {
            "lat": 25.693181,
            "lng": 112.984482
        },
        "ad_info": {
            "adcode": 431002,
            "province": "湖南省",
            "city": "郴州市",
            "district": "北湖区"
        }
    },
    {
        "id": "6347562226609970563",
        "title": "汝城南服务区公共厕所",
        "address": "湖南省郴州市汝城县X097与工业大道交叉口西北方向1688米左右",
        "tel": "",
        "category": "基础设施:公共设施:公共厕所",
        "type": 0,
        "location": {
            "lat": 25.49243,
            "lng": 113.657084
        },
        "ad_info": {
            "adcode": 431026,
            "province": "湖南省",
            "city": "郴州市",
            "district": "汝城县"
        }
    },
    {
        "id": "14649945644863071414",
        "title": "公共厕所",
        "address": "湖南省郴州市宜章县中夏北路与民主东路交叉口正东方向86米左右",
        "tel": "",
        "category": "基础设施:公共设施:公共厕所",
        "type": 0,
        "location": {
            "lat": 25.401648,
            "lng": 112.96259
        },
        "ad_info": {
            "adcode": 431022,
            "province": "湖南省",
            "city": "郴州市",
            "district": "宜章县"
        }
    },
    {
        "id": "5202654481120409507",
        "title": "公共厕所",
        "address": "湖南省郴州市汝城县思源路与滨河东路交叉口正西方向345米左右",
        "tel": "",
        "category": "基础设施:公共设施:公共厕所",
        "type": 0,
        "location": {
            "lat": 25.538715,
            "lng": 113.685329
        },
        "ad_info": {
            "adcode": 431026,
            "province": "湖南省",
            "city": "郴州市",
            "district": "汝城县"
        }
    },
    {
        "id": "13632292771858346152",
        "title": "女卫生间",
        "address": "湖南省郴州市北湖区国庆北路10号步步高新天地F5",
        "tel": "",
        "category": "基础设施:公共设施:女洗手间",
        "type": 0,
        "location": {
            "lat": 25.797176,
            "lng": 113.031285
        },
        "ad_info": {
            "adcode": 431002,
            "province": "湖南省",
            "city": "郴州市",
            "district": "北湖区"
        }
    },
    {
        "id": "14594295306373985320",
        "title": "女卫生间",
        "address": "湖南省郴州市北湖区国庆北路10号步步高新天地F7",
        "tel": "",
        "category": "基础设施:公共设施:女洗手间",
        "type": 0,
        "location": {
            "lat": 25.797174,
            "lng": 113.03129
        },
        "ad_info": {
            "adcode": 431002,
            "province": "湖南省",
            "city": "郴州市",
            "district": "北湖区"
        }
    },
    {
        "id": "4441912805178638553",
        "title": "公共厕所",
        "address": "湖南省郴州市嘉禾县行廊互通与许广高速交叉口西北方向426米左右",
        "tel": "",
        "category": "基础设施:公共设施:公共厕所",
        "type": 0,
        "location": {
            "lat": 25.632431,
            "lng": 112.491918
        },
        "ad_info": {
            "adcode": 431024,
            "province": "湖南省",
            "city": "郴州市",
            "district": "嘉禾县"
        }
    },
    {
        "id": "11094781466971623066",
        "title": "公共厕所",
        "address": "湖南省郴州市苏仙区建设里路与解放路交叉口东北方向209米左右",
        "tel": "",
        "category": "基础设施:公共设施:公共厕所",
        "type": 0,
        "location": {
            "lat": 25.806773,
            "lng": 113.035091
        },
        "ad_info": {
            "adcode": 431003,
            "province": "湖南省",
            "city": "郴州市",
            "district": "苏仙区"
        }
    },
    {
        "id": "5824918110135984770",
        "title": "公共厕所",
        "address": "湖南省郴州市桂阳县体育路与桂阳县商业步行街交叉口西南方向91米左右",
        "tel": "",
        "category": "基础设施:公共设施:公共厕所",
        "type": 0,
        "location": {
            "lat": 25.737044,
            "lng": 112.736086
        },
        "ad_info": {
            "adcode": 431021,
            "province": "湖南省",
            "city": "郴州市",
            "district": "桂阳县"
        }
    },
    {
        "id": "11316432491438535179",
        "title": "公共厕所",
        "address": "湖南省郴州市嘉禾县四通石材(嘉禾大道南)东北侧",
        "tel": "",
        "category": "基础设施:公共设施:公共厕所",
        "type": 0,
        "location": {
            "lat": 25.570722,
            "lng": 112.367458
        },
        "ad_info": {
            "adcode": 431024,
            "province": "湖南省",
            "city": "郴州市",
            "district": "嘉禾县"
        }
    },
    {
        "id": "6844724635566976613",
        "title": "公共厕所",
        "address": "湖南省郴州市苏仙区S212与X057交叉口东北方向1841米左右",
        "tel": "",
        "category": "基础设施:公共设施:公共厕所",
        "type": 0,
        "location": {
            "lat": 25.873909,
            "lng": 112.972718
        },
        "ad_info": {
            "adcode": 431003,
            "province": "湖南省",
            "city": "郴州市",
            "district": "苏仙区"
        }
    },
    {
        "id": "580553795482243871",
        "title": "公共厕所",
        "address": "湖南省郴州市宜章县南京西路与环城西路交叉口东南方向41米左右",
        "tel": "",
        "category": "基础设施:公共设施:公共厕所",
        "type": 0,
        "location": {
            "lat": 25.391507,
            "lng": 112.944801
        },
        "ad_info": {
            "adcode": 431022,
            "province": "湖南省",
            "city": "郴州市",
            "district": "宜章县"
        }
    },
    {
        "id": "627084248376806920",
        "title": "公共厕所",
        "address": "湖南省郴州市嘉禾县生哥建材贸易有限公司西侧90米",
        "tel": "",
        "category": "基础设施:公共设施:公共厕所",
        "type": 0,
        "location": {
            "lat": 25.674863,
            "lng": 112.47497
        },
        "ad_info": {
            "adcode": 431024,
            "province": "湖南省",
            "city": "郴州市",
            "district": "嘉禾县"
        }
    },
    {
        "id": "695504415672772958",
        "title": "苏仙服务区第二公共厕所",
        "address": "湖南省郴州市苏仙区良田镇新市场",
        "tel": "",
        "category": "基础设施:公共设施:公共厕所",
        "type": 0,
        "location": {
            "lat": 25.635742,
            "lng": 113.041708
        },
        "ad_info": {
            "adcode": 431003,
            "province": "湖南省",
            "city": "郴州市",
            "district": "苏仙区"
        }
    },
    {
        "id": "4293500891234607089",
        "title": "步步高广场(郴州店)-女洗手间",
        "address": "湖南省郴州市北湖区国庆北路10号步步高新天地F6",
        "tel": "",
        "category": "基础设施:公共设施:女洗手间",
        "type": 0,
        "location": {
            "lat": 25.797179,
            "lng": 113.0313
        },
        "ad_info": {
            "adcode": 431002,
            "province": "湖南省",
            "city": "郴州市",
            "district": "北湖区"
        }
    },
    {
        "id": "3946825730000285797",
        "title": "公共厕所",
        "address": "湖南省郴州市桂阳县学南路与市场路交叉口正北方向449米左右",
        "tel": "",
        "category": "基础设施:公共设施:公共厕所",
        "type": 0,
        "location": {
            "lat": 25.668284,
            "lng": 112.694868
        },
        "ad_info": {
            "adcode": 431021,
            "province": "湖南省",
            "city": "郴州市",
            "district": "桂阳县"
        }
    },
    {
        "id": "15658835906792629240",
        "title": "公共厕所",
        "address": "湖南省郴州市苏仙区坪田路与青年大道交叉口西北方向72米左右",
        "tel": "",
        "category": "基础设施:公共设施:公共厕所",
        "type": 0,
        "location": {
            "lat": 25.824669,
            "lng": 113.128406
        },
        "ad_info": {
            "adcode": 431003,
            "province": "湖南省",
            "city": "郴州市",
            "district": "苏仙区"
        }
    },
    {
        "id": "4245412871469596604",
        "title": "公共厕所",
        "address": "湖南省郴州市苏仙区美达家园西侧330米",
        "tel": "",
        "category": "基础设施:公共设施:公共厕所",
        "type": 0,
        "location": {
            "lat": 25.779731,
            "lng": 113.086071
        },
        "ad_info": {
            "adcode": 431003,
            "province": "湖南省",
            "city": "郴州市",
            "district": "苏仙区"
        }
    },
    {
        "id": "1715509472513114654",
        "title": "汝城服务区第二公共厕所",
        "address": "湖南省郴州市汝城县园艺场路与枧马路交叉口西北方向1235米左右",
        "tel": "",
        "category": "基础设施:公共设施:公共厕所",
        "type": 0,
        "location": {
            "lat": 25.562686,
            "lng": 113.590151
        },
        "ad_info": {
            "adcode": 431026,
            "province": "湖南省",
            "city": "郴州市",
            "district": "汝城县"
        }
    },
    {
        "id": "4751548612445293905",
        "title": "黄沙服务区第二公共厕所",
        "address": "湖南省郴州市宜章县黄沙服务区与G0421许广高速交叉口北100米",
        "tel": "",
        "category": "基础设施:公共设施:公共厕所",
        "type": 0,
        "location": {
            "lat": 25.103954,
            "lng": 112.718196
        },
        "ad_info": {
            "adcode": 431022,
            "province": "湖南省",
            "city": "郴州市",
            "district": "宜章县"
        }
    },
    {
        "id": "1469121179640165598",
        "title": "公共厕所",
        "address": "湖南省郴州市北湖区南岭大道与工业大道交叉口东北方向305米左右",
        "tel": "",
        "category": "基础设施:公共设施:公共厕所",
        "type": 0,
        "location": {
            "lat": 25.693181,
            "lng": 112.984482
        },
        "ad_info": {
            "adcode": 431002,
            "province": "湖南省",
            "city": "郴州市",
            "district": "北湖区"
        }
    },
    {
        "id": "6347562226609970563",
        "title": "汝城南服务区公共厕所",
        "address": "湖南省郴州市汝城县X097与工业大道交叉口西北方向1688米左右",
        "tel": "",
        "category": "基础设施:公共设施:公共厕所",
        "type": 0,
        "location": {
            "lat": 25.49243,
            "lng": 113.657084
        },
        "ad_info": {
            "adcode": 431026,
            "province": "湖南省",
            "city": "郴州市",
            "district": "汝城县"
        }
    },
    {
        "id": "14649945644863071414",
        "title": "公共厕所",
        "address": "湖南省郴州市宜章县中夏北路与民主东路交叉口正东方向86米左右",
        "tel": "",
        "category": "基础设施:公共设施:公共厕所",
        "type": 0,
        "location": {
            "lat": 25.401648,
            "lng": 112.96259
        },
        "ad_info": {
            "adcode": 431022,
            "province": "湖南省",
            "city": "郴州市",
            "district": "宜章县"
        }
    },
    {
        "id": "5202654481120409507",
        "title": "公共厕所",
        "address": "湖南省郴州市汝城县思源路与滨河东路交叉口正西方向345米左右",
        "tel": "",
        "category": "基础设施:公共设施:公共厕所",
        "type": 0,
        "location": {
            "lat": 25.538715,
            "lng": 113.685329
        },
        "ad_info": {
            "adcode": 431026,
            "province": "湖南省",
            "city": "郴州市",
            "district": "汝城县"
        }
    },
    {
        "id": "13632292771858346152",
        "title": "女卫生间",
        "address": "湖南省郴州市北湖区国庆北路10号步步高新天地F5",
        "tel": "",
        "category": "基础设施:公共设施:女洗手间",
        "type": 0,
        "location": {
            "lat": 25.797176,
            "lng": 113.031285
        },
        "ad_info": {
            "adcode": 431002,
            "province": "湖南省",
            "city": "郴州市",
            "district": "北湖区"
        }
    },
    {
        "id": "14594295306373985320",
        "title": "女卫生间",
        "address": "湖南省郴州市北湖区国庆北路10号步步高新天地F7",
        "tel": "",
        "category": "基础设施:公共设施:女洗手间",
        "type": 0,
        "location": {
            "lat": 25.797174,
            "lng": 113.03129
        },
        "ad_info": {
            "adcode": 431002,
            "province": "湖南省",
            "city": "郴州市",
            "district": "北湖区"
        }
    },
    {
        "id": "4441912805178638553",
        "title": "公共厕所",
        "address": "湖南省郴州市嘉禾县行廊互通与许广高速交叉口西北方向426米左右",
        "tel": "",
        "category": "基础设施:公共设施:公共厕所",
        "type": 0,
        "location": {
            "lat": 25.632431,
            "lng": 112.491918
        },
        "ad_info": {
            "adcode": 431024,
            "province": "湖南省",
            "city": "郴州市",
            "district": "嘉禾县"
        }
    },
    {
        "id": "11094781466971623066",
        "title": "公共厕所",
        "address": "湖南省郴州市苏仙区建设里路与解放路交叉口东北方向209米左右",
        "tel": "",
        "category": "基础设施:公共设施:公共厕所",
        "type": 0,
        "location": {
            "lat": 25.806773,
            "lng": 113.035091
        },
        "ad_info": {
            "adcode": 431003,
            "province": "湖南省",
            "city": "郴州市",
            "district": "苏仙区"
        }
    },
    {
        "id": "5824918110135984770",
        "title": "公共厕所",
        "address": "湖南省郴州市桂阳县体育路与桂阳县商业步行街交叉口西南方向91米左右",
        "tel": "",
        "category": "基础设施:公共设施:公共厕所",
        "type": 0,
        "location": {
            "lat": 25.737044,
            "lng": 112.736086
        },
        "ad_info": {
            "adcode": 431021,
            "province": "湖南省",
            "city": "郴州市",
            "district": "桂阳县"
        }
    },
    {
        "id": "11316432491438535179",
        "title": "公共厕所",
        "address": "湖南省郴州市嘉禾县四通石材(嘉禾大道南)东北侧",
        "tel": "",
        "category": "基础设施:公共设施:公共厕所",
        "type": 0,
        "location": {
            "lat": 25.570722,
            "lng": 112.367458
        },
        "ad_info": {
            "adcode": 431024,
            "province": "湖南省",
            "city": "郴州市",
            "district": "嘉禾县"
        }
    },
    {
        "id": "6844724635566976613",
        "title": "公共厕所",
        "address": "湖南省郴州市苏仙区S212与X057交叉口东北方向1841米左右",
        "tel": "",
        "category": "基础设施:公共设施:公共厕所",
        "type": 0,
        "location": {
            "lat": 25.873909,
            "lng": 112.972718
        },
        "ad_info": {
            "adcode": 431003,
            "province": "湖南省",
            "city": "郴州市",
            "district": "苏仙区"
        }
    },
    {
        "id": "580553795482243871",
        "title": "公共厕所",
        "address": "湖南省郴州市宜章县南京西路与环城西路交叉口东南方向41米左右",
        "tel": "",
        "category": "基础设施:公共设施:公共厕所",
        "type": 0,
        "location": {
            "lat": 25.391507,
            "lng": 112.944801
        },
        "ad_info": {
            "adcode": 431022,
            "province": "湖南省",
            "city": "郴州市",
            "district": "宜章县"
        }
    },
    {
        "id": "627084248376806920",
        "title": "公共厕所",
        "address": "湖南省郴州市嘉禾县生哥建材贸易有限公司西侧90米",
        "tel": "",
        "category": "基础设施:公共设施:公共厕所",
        "type": 0,
        "location": {
            "lat": 25.674863,
            "lng": 112.47497
        },
        "ad_info": {
            "adcode": 431024,
            "province": "湖南省",
            "city": "郴州市",
            "district": "嘉禾县"
        }
    },
    {
        "id": "695504415672772958",
        "title": "苏仙服务区第二公共厕所",
        "address": "湖南省郴州市苏仙区良田镇新市场",
        "tel": "",
        "category": "基础设施:公共设施:公共厕所",
        "type": 0,
        "location": {
            "lat": 25.635742,
            "lng": 113.041708
        },
        "ad_info": {
            "adcode": 431003,
            "province": "湖南省",
            "city": "郴州市",
            "district": "苏仙区"
        }
    },
    {
        "id": "4293500891234607089",
        "title": "步步高广场(郴州店)-女洗手间",
        "address": "湖南省郴州市北湖区国庆北路10号步步高新天地F6",
        "tel": "",
        "category": "基础设施:公共设施:女洗手间",
        "type": 0,
        "location": {
            "lat": 25.797179,
            "lng": 113.0313
        },
        "ad_info": {
            "adcode": 431002,
            "province": "湖南省",
            "city": "郴州市",
            "district": "北湖区"
        }
    },
    {
        "id": "3946825730000285797",
        "title": "公共厕所",
        "address": "湖南省郴州市桂阳县学南路与市场路交叉口正北方向449米左右",
        "tel": "",
        "category": "基础设施:公共设施:公共厕所",
        "type": 0,
        "location": {
            "lat": 25.668284,
            "lng": 112.694868
        },
        "ad_info": {
            "adcode": 431021,
            "province": "湖南省",
            "city": "郴州市",
            "district": "桂阳县"
        }
    },
    {
        "id": "15658835906792629240",
        "title": "公共厕所",
        "address": "湖南省郴州市苏仙区坪田路与青年大道交叉口西北方向72米左右",
        "tel": "",
        "category": "基础设施:公共设施:公共厕所",
        "type": 0,
        "location": {
            "lat": 25.824669,
            "lng": 113.128406
        },
        "ad_info": {
            "adcode": 431003,
            "province": "湖南省",
            "city": "郴州市",
            "district": "苏仙区"
        }
    },
    {
        "id": "4245412871469596604",
        "title": "公共厕所",
        "address": "湖南省郴州市苏仙区美达家园西侧330米",
        "tel": "",
        "category": "基础设施:公共设施:公共厕所",
        "type": 0,
        "location": {
            "lat": 25.779731,
            "lng": 113.086071
        },
        "ad_info": {
            "adcode": 431003,
            "province": "湖南省",
            "city": "郴州市",
            "district": "苏仙区"
        }
    },
    {
        "id": "1715509472513114654",
        "title": "汝城服务区第二公共厕所",
        "address": "湖南省郴州市汝城县园艺场路与枧马路交叉口西北方向1235米左右",
        "tel": "",
        "category": "基础设施:公共设施:公共厕所",
        "type": 0,
        "location": {
            "lat": 25.562686,
            "lng": 113.590151
        },
        "ad_info": {
            "adcode": 431026,
            "province": "湖南省",
            "city": "郴州市",
            "district": "汝城县"
        }
    },
    {
        "id": "4751548612445293905",
        "title": "黄沙服务区第二公共厕所",
        "address": "湖南省郴州市宜章县黄沙服务区与G0421许广高速交叉口北100米",
        "tel": "",
        "category": "基础设施:公共设施:公共厕所",
        "type": 0,
        "location": {
            "lat": 25.103954,
            "lng": 112.718196
        },
        "ad_info": {
            "adcode": 431022,
            "province": "湖南省",
            "city": "郴州市",
            "district": "宜章县"
        }
    },
    {
        "id": "1469121179640165598",
        "title": "公共厕所",
        "address": "湖南省郴州市北湖区南岭大道与工业大道交叉口东北方向305米左右",
        "tel": "",
        "category": "基础设施:公共设施:公共厕所",
        "type": 0,
        "location": {
            "lat": 25.693181,
            "lng": 112.984482
        },
        "ad_info": {
            "adcode": 431002,
            "province": "湖南省",
            "city": "郴州市",
            "district": "北湖区"
        }
    },
    {
        "id": "6347562226609970563",
        "title": "汝城南服务区公共厕所",
        "address": "湖南省郴州市汝城县X097与工业大道交叉口西北方向1688米左右",
        "tel": "",
        "category": "基础设施:公共设施:公共厕所",
        "type": 0,
        "location": {
            "lat": 25.49243,
            "lng": 113.657084
        },
        "ad_info": {
            "adcode": 431026,
            "province": "湖南省",
            "city": "郴州市",
            "district": "汝城县"
        }
    },
    {
        "id": "14649945644863071414",
        "title": "公共厕所",
        "address": "湖南省郴州市宜章县中夏北路与民主东路交叉口正东方向86米左右",
        "tel": "",
        "category": "基础设施:公共设施:公共厕所",
        "type": 0,
        "location": {
            "lat": 25.401648,
            "lng": 112.96259
        },
        "ad_info": {
            "adcode": 431022,
            "province": "湖南省",
            "city": "郴州市",
            "district": "宜章县"
        }
    },
    {
        "id": "5202654481120409507",
        "title": "公共厕所",
        "address": "湖南省郴州市汝城县思源路与滨河东路交叉口正西方向345米左右",
        "tel": "",
        "category": "基础设施:公共设施:公共厕所",
        "type": 0,
        "location": {
            "lat": 25.538715,
            "lng": 113.685329
        },
        "ad_info": {
            "adcode": 431026,
            "province": "湖南省",
            "city": "郴州市",
            "district": "汝城县"
        }
    },
    {
        "id": "13632292771858346152",
        "title": "女卫生间",
        "address": "湖南省郴州市北湖区国庆北路10号步步高新天地F5",
        "tel": "",
        "category": "基础设施:公共设施:女洗手间",
        "type": 0,
        "location": {
            "lat": 25.797176,
            "lng": 113.031285
        },
        "ad_info": {
            "adcode": 431002,
            "province": "湖南省",
            "city": "郴州市",
            "district": "北湖区"
        }
    },
    {
        "id": "14594295306373985320",
        "title": "女卫生间",
        "address": "湖南省郴州市北湖区国庆北路10号步步高新天地F7",
        "tel": "",
        "category": "基础设施:公共设施:女洗手间",
        "type": 0,
        "location": {
            "lat": 25.797174,
            "lng": 113.03129
        },
        "ad_info": {
            "adcode": 431002,
            "province": "湖南省",
            "city": "郴州市",
            "district": "北湖区"
        }
    },
    {
        "id": "4441912805178638553",
        "title": "公共厕所",
        "address": "湖南省郴州市嘉禾县行廊互通与许广高速交叉口西北方向426米左右",
        "tel": "",
        "category": "基础设施:公共设施:公共厕所",
        "type": 0,
        "location": {
            "lat": 25.632431,
            "lng": 112.491918
        },
        "ad_info": {
            "adcode": 431024,
            "province": "湖南省",
            "city": "郴州市",
            "district": "嘉禾县"
        }
    },
    {
        "id": "11094781466971623066",
        "title": "公共厕所",
        "address": "湖南省郴州市苏仙区建设里路与解放路交叉口东北方向209米左右",
        "tel": "",
        "category": "基础设施:公共设施:公共厕所",
        "type": 0,
        "location": {
            "lat": 25.806773,
            "lng": 113.035091
        },
        "ad_info": {
            "adcode": 431003,
            "province": "湖南省",
            "city": "郴州市",
            "district": "苏仙区"
        }
    },
    {
        "id": "5824918110135984770",
        "title": "公共厕所",
        "address": "湖南省郴州市桂阳县体育路与桂阳县商业步行街交叉口西南方向91米左右",
        "tel": "",
        "category": "基础设施:公共设施:公共厕所",
        "type": 0,
        "location": {
            "lat": 25.737044,
            "lng": 112.736086
        },
        "ad_info": {
            "adcode": 431021,
            "province": "湖南省",
            "city": "郴州市",
            "district": "桂阳县"
        }
    },
    {
        "id": "11316432491438535179",
        "title": "公共厕所",
        "address": "湖南省郴州市嘉禾县四通石材(嘉禾大道南)东北侧",
        "tel": "",
        "category": "基础设施:公共设施:公共厕所",
        "type": 0,
        "location": {
            "lat": 25.570722,
            "lng": 112.367458
        },
        "ad_info": {
            "adcode": 431024,
            "province": "湖南省",
            "city": "郴州市",
            "district": "嘉禾县"
        }
    },
    {
        "id": "6844724635566976613",
        "title": "公共厕所",
        "address": "湖南省郴州市苏仙区S212与X057交叉口东北方向1841米左右",
        "tel": "",
        "category": "基础设施:公共设施:公共厕所",
        "type": 0,
        "location": {
            "lat": 25.873909,
            "lng": 112.972718
        },
        "ad_info": {
            "adcode": 431003,
            "province": "湖南省",
            "city": "郴州市",
            "district": "苏仙区"
        }
    },
    {
        "id": "580553795482243871",
        "title": "公共厕所",
        "address": "湖南省郴州市宜章县南京西路与环城西路交叉口东南方向41米左右",
        "tel": "",
        "category": "基础设施:公共设施:公共厕所",
        "type": 0,
        "location": {
            "lat": 25.391507,
            "lng": 112.944801
        },
        "ad_info": {
            "adcode": 431022,
            "province": "湖南省",
            "city": "郴州市",
            "district": "宜章县"
        }
    },
    {
        "id": "627084248376806920",
        "title": "公共厕所",
        "address": "湖南省郴州市嘉禾县生哥建材贸易有限公司西侧90米",
        "tel": "",
        "category": "基础设施:公共设施:公共厕所",
        "type": 0,
        "location": {
            "lat": 25.674863,
            "lng": 112.47497
        },
        "ad_info": {
            "adcode": 431024,
            "province": "湖南省",
            "city": "郴州市",
            "district": "嘉禾县"
        }
    },
    {
        "id": "695504415672772958",
        "title": "苏仙服务区第二公共厕所",
        "address": "湖南省郴州市苏仙区良田镇新市场",
        "tel": "",
        "category": "基础设施:公共设施:公共厕所",
        "type": 0,
        "location": {
            "lat": 25.635742,
            "lng": 113.041708
        },
        "ad_info": {
            "adcode": 431003,
            "province": "湖南省",
            "city": "郴州市",
            "district": "苏仙区"
        }
    },
    {
        "id": "4293500891234607089",
        "title": "步步高广场(郴州店)-女洗手间",
        "address": "湖南省郴州市北湖区国庆北路10号步步高新天地F6",
        "tel": "",
        "category": "基础设施:公共设施:女洗手间",
        "type": 0,
        "location": {
            "lat": 25.797179,
            "lng": 113.0313
        },
        "ad_info": {
            "adcode": 431002,
            "province": "湖南省",
            "city": "郴州市",
            "district": "北湖区"
        }
    },
    {
        "id": "3946825730000285797",
        "title": "公共厕所",
        "address": "湖南省郴州市桂阳县学南路与市场路交叉口正北方向449米左右",
        "tel": "",
        "category": "基础设施:公共设施:公共厕所",
        "type": 0,
        "location": {
            "lat": 25.668284,
            "lng": 112.694868
        },
        "ad_info": {
            "adcode": 431021,
            "province": "湖南省",
            "city": "郴州市",
            "district": "桂阳县"
        }
    },
    {
        "id": "15658835906792629240",
        "title": "公共厕所",
        "address": "湖南省郴州市苏仙区坪田路与青年大道交叉口西北方向72米左右",
        "tel": "",
        "category": "基础设施:公共设施:公共厕所",
        "type": 0,
        "location": {
            "lat": 25.824669,
            "lng": 113.128406
        },
        "ad_info": {
            "adcode": 431003,
            "province": "湖南省",
            "city": "郴州市",
            "district": "苏仙区"
        }
    },
    {
        "id": "4245412871469596604",
        "title": "公共厕所",
        "address": "湖南省郴州市苏仙区美达家园西侧330米",
        "tel": "",
        "category": "基础设施:公共设施:公共厕所",
        "type": 0,
        "location": {
            "lat": 25.779731,
            "lng": 113.086071
        },
        "ad_info": {
            "adcode": 431003,
            "province": "湖南省",
            "city": "郴州市",
            "district": "苏仙区"
        }
    },
    {
        "id": "1715509472513114654",
        "title": "汝城服务区第二公共厕所",
        "address": "湖南省郴州市汝城县园艺场路与枧马路交叉口西北方向1235米左右",
        "tel": "",
        "category": "基础设施:公共设施:公共厕所",
        "type": 0,
        "location": {
            "lat": 25.562686,
            "lng": 113.590151
        },
        "ad_info": {
            "adcode": 431026,
            "province": "湖南省",
            "city": "郴州市",
            "district": "汝城县"
        }
    },
    {
        "id": "4751548612445293905",
        "title": "黄沙服务区第二公共厕所",
        "address": "湖南省郴州市宜章县黄沙服务区与G0421许广高速交叉口北100米",
        "tel": "",
        "category": "基础设施:公共设施:公共厕所",
        "type": 0,
        "location": {
            "lat": 25.103954,
            "lng": 112.718196
        },
        "ad_info": {
            "adcode": 431022,
            "province": "湖南省",
            "city": "郴州市",
            "district": "宜章县"
        }
    },
    {
        "id": "1469121179640165598",
        "title": "公共厕所",
        "address": "湖南省郴州市北湖区南岭大道与工业大道交叉口东北方向305米左右",
        "tel": "",
        "category": "基础设施:公共设施:公共厕所",
        "type": 0,
        "location": {
            "lat": 25.693181,
            "lng": 112.984482
        },
        "ad_info": {
            "adcode": 431002,
            "province": "湖南省",
            "city": "郴州市",
            "district": "北湖区"
        }
    },
    {
        "id": "6347562226609970563",
        "title": "汝城南服务区公共厕所",
        "address": "湖南省郴州市汝城县X097与工业大道交叉口西北方向1688米左右",
        "tel": "",
        "category": "基础设施:公共设施:公共厕所",
        "type": 0,
        "location": {
            "lat": 25.49243,
            "lng": 113.657084
        },
        "ad_info": {
            "adcode": 431026,
            "province": "湖南省",
            "city": "郴州市",
            "district": "汝城县"
        }
    },
    {
        "id": "14649945644863071414",
        "title": "公共厕所",
        "address": "湖南省郴州市宜章县中夏北路与民主东路交叉口正东方向86米左右",
        "tel": "",
        "category": "基础设施:公共设施:公共厕所",
        "type": 0,
        "location": {
            "lat": 25.401648,
            "lng": 112.96259
        },
        "ad_info": {
            "adcode": 431022,
            "province": "湖南省",
            "city": "郴州市",
            "district": "宜章县"
        }
    },
    {
        "id": "5202654481120409507",
        "title": "公共厕所",
        "address": "湖南省郴州市汝城县思源路与滨河东路交叉口正西方向345米左右",
        "tel": "",
        "category": "基础设施:公共设施:公共厕所",
        "type": 0,
        "location": {
            "lat": 25.538715,
            "lng": 113.685329
        },
        "ad_info": {
            "adcode": 431026,
            "province": "湖南省",
            "city": "郴州市",
            "district": "汝城县"
        }
    },
    {
        "id": "13632292771858346152",
        "title": "女卫生间",
        "address": "湖南省郴州市北湖区国庆北路10号步步高新天地F5",
        "tel": "",
        "category": "基础设施:公共设施:女洗手间",
        "type": 0,
        "location": {
            "lat": 25.797176,
            "lng": 113.031285
        },
        "ad_info": {
            "adcode": 431002,
            "province": "湖南省",
            "city": "郴州市",
            "district": "北湖区"
        }
    },
    {
        "id": "14594295306373985320",
        "title": "女卫生间",
        "address": "湖南省郴州市北湖区国庆北路10号步步高新天地F7",
        "tel": "",
        "category": "基础设施:公共设施:女洗手间",
        "type": 0,
        "location": {
            "lat": 25.797174,
            "lng": 113.03129
        },
        "ad_info": {
            "adcode": 431002,
            "province": "湖南省",
            "city": "郴州市",
            "district": "北湖区"
        }
    },
    {
        "id": "4441912805178638553",
        "title": "公共厕所",
        "address": "湖南省郴州市嘉禾县行廊互通与许广高速交叉口西北方向426米左右",
        "tel": "",
        "category": "基础设施:公共设施:公共厕所",
        "type": 0,
        "location": {
            "lat": 25.632431,
            "lng": 112.491918
        },
        "ad_info": {
            "adcode": 431024,
            "province": "湖南省",
            "city": "郴州市",
            "district": "嘉禾县"
        }
    },
    {
        "id": "11094781466971623066",
        "title": "公共厕所",
        "address": "湖南省郴州市苏仙区建设里路与解放路交叉口东北方向209米左右",
        "tel": "",
        "category": "基础设施:公共设施:公共厕所",
        "type": 0,
        "location": {
            "lat": 25.806773,
            "lng": 113.035091
        },
        "ad_info": {
            "adcode": 431003,
            "province": "湖南省",
            "city": "郴州市",
            "district": "苏仙区"
        }
    },
    {
        "id": "5824918110135984770",
        "title": "公共厕所",
        "address": "湖南省郴州市桂阳县体育路与桂阳县商业步行街交叉口西南方向91米左右",
        "tel": "",
        "category": "基础设施:公共设施:公共厕所",
        "type": 0,
        "location": {
            "lat": 25.737044,
            "lng": 112.736086
        },
        "ad_info": {
            "adcode": 431021,
            "province": "湖南省",
            "city": "郴州市",
            "district": "桂阳县"
        }
    },
    {
        "id": "11316432491438535179",
        "title": "公共厕所",
        "address": "湖南省郴州市嘉禾县四通石材(嘉禾大道南)东北侧",
        "tel": "",
        "category": "基础设施:公共设施:公共厕所",
        "type": 0,
        "location": {
            "lat": 25.570722,
            "lng": 112.367458
        },
        "ad_info": {
            "adcode": 431024,
            "province": "湖南省",
            "city": "郴州市",
            "district": "嘉禾县"
        }
    },
    {
        "id": "6844724635566976613",
        "title": "公共厕所",
        "address": "湖南省郴州市苏仙区S212与X057交叉口东北方向1841米左右",
        "tel": "",
        "category": "基础设施:公共设施:公共厕所",
        "type": 0,
        "location": {
            "lat": 25.873909,
            "lng": 112.972718
        },
        "ad_info": {
            "adcode": 431003,
            "province": "湖南省",
            "city": "郴州市",
            "district": "苏仙区"
        }
    },
    {
        "id": "580553795482243871",
        "title": "公共厕所",
        "address": "湖南省郴州市宜章县南京西路与环城西路交叉口东南方向41米左右",
        "tel": "",
        "category": "基础设施:公共设施:公共厕所",
        "type": 0,
        "location": {
            "lat": 25.391507,
            "lng": 112.944801
        },
        "ad_info": {
            "adcode": 431022,
            "province": "湖南省",
            "city": "郴州市",
            "district": "宜章县"
        }
    },
    {
        "id": "627084248376806920",
        "title": "公共厕所",
        "address": "湖南省郴州市嘉禾县生哥建材贸易有限公司西侧90米",
        "tel": "",
        "category": "基础设施:公共设施:公共厕所",
        "type": 0,
        "location": {
            "lat": 25.674863,
            "lng": 112.47497
        },
        "ad_info": {
            "adcode": 431024,
            "province": "湖南省",
            "city": "郴州市",
            "district": "嘉禾县"
        }
    },
    {
        "id": "695504415672772958",
        "title": "苏仙服务区第二公共厕所",
        "address": "湖南省郴州市苏仙区良田镇新市场",
        "tel": "",
        "category": "基础设施:公共设施:公共厕所",
        "type": 0,
        "location": {
            "lat": 25.635742,
            "lng": 113.041708
        },
        "ad_info": {
            "adcode": 431003,
            "province": "湖南省",
            "city": "郴州市",
            "district": "苏仙区"
        }
    },
    {
        "id": "4293500891234607089",
        "title": "步步高广场(郴州店)-女洗手间",
        "address": "湖南省郴州市北湖区国庆北路10号步步高新天地F6",
        "tel": "",
        "category": "基础设施:公共设施:女洗手间",
        "type": 0,
        "location": {
            "lat": 25.797179,
            "lng": 113.0313
        },
        "ad_info": {
            "adcode": 431002,
            "province": "湖南省",
            "city": "郴州市",
            "district": "北湖区"
        }
    },
    {
        "id": "3946825730000285797",
        "title": "公共厕所",
        "address": "湖南省郴州市桂阳县学南路与市场路交叉口正北方向449米左右",
        "tel": "",
        "category": "基础设施:公共设施:公共厕所",
        "type": 0,
        "location": {
            "lat": 25.668284,
            "lng": 112.694868
        },
        "ad_info": {
            "adcode": 431021,
            "province": "湖南省",
            "city": "郴州市",
            "district": "桂阳县"
        }
    },
    {
        "id": "15658835906792629240",
        "title": "公共厕所",
        "address": "湖南省郴州市苏仙区坪田路与青年大道交叉口西北方向72米左右",
        "tel": "",
        "category": "基础设施:公共设施:公共厕所",
        "type": 0,
        "location": {
            "lat": 25.824669,
            "lng": 113.128406
        },
        "ad_info": {
            "adcode": 431003,
            "province": "湖南省",
            "city": "郴州市",
            "district": "苏仙区"
        }
    },
    {
        "id": "4245412871469596604",
        "title": "公共厕所",
        "address": "湖南省郴州市苏仙区美达家园西侧330米",
        "tel": "",
        "category": "基础设施:公共设施:公共厕所",
        "type": 0,
        "location": {
            "lat": 25.779731,
            "lng": 113.086071
        },
        "ad_info": {
            "adcode": 431003,
            "province": "湖南省",
            "city": "郴州市",
            "district": "苏仙区"
        }
    },
    {
        "id": "1715509472513114654",
        "title": "汝城服务区第二公共厕所",
        "address": "湖南省郴州市汝城县园艺场路与枧马路交叉口西北方向1235米左右",
        "tel": "",
        "category": "基础设施:公共设施:公共厕所",
        "type": 0,
        "location": {
            "lat": 25.562686,
            "lng": 113.590151
        },
        "ad_info": {
            "adcode": 431026,
            "province": "湖南省",
            "city": "郴州市",
            "district": "汝城县"
        }
    },
    {
        "id": "4751548612445293905",
        "title": "黄沙服务区第二公共厕所",
        "address": "湖南省郴州市宜章县黄沙服务区与G0421许广高速交叉口北100米",
        "tel": "",
        "category": "基础设施:公共设施:公共厕所",
        "type": 0,
        "location": {
            "lat": 25.103954,
            "lng": 112.718196
        },
        "ad_info": {
            "adcode": 431022,
            "province": "湖南省",
            "city": "郴州市",
            "district": "宜章县"
        }
    },
    {
        "id": "1469121179640165598",
        "title": "公共厕所",
        "address": "湖南省郴州市北湖区南岭大道与工业大道交叉口东北方向305米左右",
        "tel": "",
        "category": "基础设施:公共设施:公共厕所",
        "type": 0,
        "location": {
            "lat": 25.693181,
            "lng": 112.984482
        },
        "ad_info": {
            "adcode": 431002,
            "province": "湖南省",
            "city": "郴州市",
            "district": "北湖区"
        }
    },
    {
        "id": "6347562226609970563",
        "title": "汝城南服务区公共厕所",
        "address": "湖南省郴州市汝城县X097与工业大道交叉口西北方向1688米左右",
        "tel": "",
        "category": "基础设施:公共设施:公共厕所",
        "type": 0,
        "location": {
            "lat": 25.49243,
            "lng": 113.657084
        },
        "ad_info": {
            "adcode": 431026,
            "province": "湖南省",
            "city": "郴州市",
            "district": "汝城县"
        }
    },
    {
        "id": "14649945644863071414",
        "title": "公共厕所",
        "address": "湖南省郴州市宜章县中夏北路与民主东路交叉口正东方向86米左右",
        "tel": "",
        "category": "基础设施:公共设施:公共厕所",
        "type": 0,
        "location": {
            "lat": 25.401648,
            "lng": 112.96259
        },
        "ad_info": {
            "adcode": 431022,
            "province": "湖南省",
            "city": "郴州市",
            "district": "宜章县"
        }
    },
    {
        "id": "5202654481120409507",
        "title": "公共厕所",
        "address": "湖南省郴州市汝城县思源路与滨河东路交叉口正西方向345米左右",
        "tel": "",
        "category": "基础设施:公共设施:公共厕所",
        "type": 0,
        "location": {
            "lat": 25.538715,
            "lng": 113.685329
        },
        "ad_info": {
            "adcode": 431026,
            "province": "湖南省",
            "city": "郴州市",
            "district": "汝城县"
        }
    },
    {
        "id": "13632292771858346152",
        "title": "女卫生间",
        "address": "湖南省郴州市北湖区国庆北路10号步步高新天地F5",
        "tel": "",
        "category": "基础设施:公共设施:女洗手间",
        "type": 0,
        "location": {
            "lat": 25.797176,
            "lng": 113.031285
        },
        "ad_info": {
            "adcode": 431002,
            "province": "湖南省",
            "city": "郴州市",
            "district": "北湖区"
        }
    },
    {
        "id": "14594295306373985320",
        "title": "女卫生间",
        "address": "湖南省郴州市北湖区国庆北路10号步步高新天地F7",
        "tel": "",
        "category": "基础设施:公共设施:女洗手间",
        "type": 0,
        "location": {
            "lat": 25.797174,
            "lng": 113.03129
        },
        "ad_info": {
            "adcode": 431002,
            "province": "湖南省",
            "city": "郴州市",
            "district": "北湖区"
        }
    },
    {
        "id": "4441912805178638553",
        "title": "公共厕所",
        "address": "湖南省郴州市嘉禾县行廊互通与许广高速交叉口西北方向426米左右",
        "tel": "",
        "category": "基础设施:公共设施:公共厕所",
        "type": 0,
        "location": {
            "lat": 25.632431,
            "lng": 112.491918
        },
        "ad_info": {
            "adcode": 431024,
            "province": "湖南省",
            "city": "郴州市",
            "district": "嘉禾县"
        }
    },
    {
        "id": "11094781466971623066",
        "title": "公共厕所",
        "address": "湖南省郴州市苏仙区建设里路与解放路交叉口东北方向209米左右",
        "tel": "",
        "category": "基础设施:公共设施:公共厕所",
        "type": 0,
        "location": {
            "lat": 25.806773,
            "lng": 113.035091
        },
        "ad_info": {
            "adcode": 431003,
            "province": "湖南省",
            "city": "郴州市",
            "district": "苏仙区"
        }
    },
    {
        "id": "5824918110135984770",
        "title": "公共厕所",
        "address": "湖南省郴州市桂阳县体育路与桂阳县商业步行街交叉口西南方向91米左右",
        "tel": "",
        "category": "基础设施:公共设施:公共厕所",
        "type": 0,
        "location": {
            "lat": 25.737044,
            "lng": 112.736086
        },
        "ad_info": {
            "adcode": 431021,
            "province": "湖南省",
            "city": "郴州市",
            "district": "桂阳县"
        }
    },
    {
        "id": "11316432491438535179",
        "title": "公共厕所",
        "address": "湖南省郴州市嘉禾县四通石材(嘉禾大道南)东北侧",
        "tel": "",
        "category": "基础设施:公共设施:公共厕所",
        "type": 0,
        "location": {
            "lat": 25.570722,
            "lng": 112.367458
        },
        "ad_info": {
            "adcode": 431024,
            "province": "湖南省",
            "city": "郴州市",
            "district": "嘉禾县"
        }
    },
    {
        "id": "6844724635566976613",
        "title": "公共厕所",
        "address": "湖南省郴州市苏仙区S212与X057交叉口东北方向1841米左右",
        "tel": "",
        "category": "基础设施:公共设施:公共厕所",
        "type": 0,
        "location": {
            "lat": 25.873909,
            "lng": 112.972718
        },
        "ad_info": {
            "adcode": 431003,
            "province": "湖南省",
            "city": "郴州市",
            "district": "苏仙区"
        }
    },
    {
        "id": "580553795482243871",
        "title": "公共厕所",
        "address": "湖南省郴州市宜章县南京西路与环城西路交叉口东南方向41米左右",
        "tel": "",
        "category": "基础设施:公共设施:公共厕所",
        "type": 0,
        "location": {
            "lat": 25.391507,
            "lng": 112.944801
        },
        "ad_info": {
            "adcode": 431022,
            "province": "湖南省",
            "city": "郴州市",
            "district": "宜章县"
        }
    },
    {
        "id": "627084248376806920",
        "title": "公共厕所",
        "address": "湖南省郴州市嘉禾县生哥建材贸易有限公司西侧90米",
        "tel": "",
        "category": "基础设施:公共设施:公共厕所",
        "type": 0,
        "location": {
            "lat": 25.674863,
            "lng": 112.47497
        },
        "ad_info": {
            "adcode": 431024,
            "province": "湖南省",
            "city": "郴州市",
            "district": "嘉禾县"
        }
    },
    {
        "id": "695504415672772958",
        "title": "苏仙服务区第二公共厕所",
        "address": "湖南省郴州市苏仙区良田镇新市场",
        "tel": "",
        "category": "基础设施:公共设施:公共厕所",
        "type": 0,
        "location": {
            "lat": 25.635742,
            "lng": 113.041708
        },
        "ad_info": {
            "adcode": 431003,
            "province": "湖南省",
            "city": "郴州市",
            "district": "苏仙区"
        }
    },
    {
        "id": "4293500891234607089",
        "title": "步步高广场(郴州店)-女洗手间",
        "address": "湖南省郴州市北湖区国庆北路10号步步高新天地F6",
        "tel": "",
        "category": "基础设施:公共设施:女洗手间",
        "type": 0,
        "location": {
            "lat": 25.797179,
            "lng": 113.0313
        },
        "ad_info": {
            "adcode": 431002,
            "province": "湖南省",
            "city": "郴州市",
            "district": "北湖区"
        }
    },
    {
        "id": "3946825730000285797",
        "title": "公共厕所",
        "address": "湖南省郴州市桂阳县学南路与市场路交叉口正北方向449米左右",
        "tel": "",
        "category": "基础设施:公共设施:公共厕所",
        "type": 0,
        "location": {
            "lat": 25.668284,
            "lng": 112.694868
        },
        "ad_info": {
            "adcode": 431021,
            "province": "湖南省",
            "city": "郴州市",
            "district": "桂阳县"
        }
    },
    {
        "id": "15658835906792629240",
        "title": "公共厕所",
        "address": "湖南省郴州市苏仙区坪田路与青年大道交叉口西北方向72米左右",
        "tel": "",
        "category": "基础设施:公共设施:公共厕所",
        "type": 0,
        "location": {
            "lat": 25.824669,
            "lng": 113.128406
        },
        "ad_info": {
            "adcode": 431003,
            "province": "湖南省",
            "city": "郴州市",
            "district": "苏仙区"
        }
    },
    {
        "id": "4245412871469596604",
        "title": "公共厕所",
        "address": "湖南省郴州市苏仙区美达家园西侧330米",
        "tel": "",
        "category": "基础设施:公共设施:公共厕所",
        "type": 0,
        "location": {
            "lat": 25.779731,
            "lng": 113.086071
        },
        "ad_info": {
            "adcode": 431003,
            "province": "湖南省",
            "city": "郴州市",
            "district": "苏仙区"
        }
    },
    {
        "id": "1715509472513114654",
        "title": "汝城服务区第二公共厕所",
        "address": "湖南省郴州市汝城县园艺场路与枧马路交叉口西北方向1235米左右",
        "tel": "",
        "category": "基础设施:公共设施:公共厕所",
        "type": 0,
        "location": {
            "lat": 25.562686,
            "lng": 113.590151
        },
        "ad_info": {
            "adcode": 431026,
            "province": "湖南省",
            "city": "郴州市",
            "district": "汝城县"
        }
    },
    {
        "id": "4751548612445293905",
        "title": "黄沙服务区第二公共厕所",
        "address": "湖南省郴州市宜章县黄沙服务区与G0421许广高速交叉口北100米",
        "tel": "",
        "category": "基础设施:公共设施:公共厕所",
        "type": 0,
        "location": {
            "lat": 25.103954,
            "lng": 112.718196
        },
        "ad_info": {
            "adcode": 431022,
            "province": "湖南省",
            "city": "郴州市",
            "district": "宜章县"
        }
    },
    {
        "id": "1469121179640165598",
        "title": "公共厕所",
        "address": "湖南省郴州市北湖区南岭大道与工业大道交叉口东北方向305米左右",
        "tel": "",
        "category": "基础设施:公共设施:公共厕所",
        "type": 0,
        "location": {
            "lat": 25.693181,
            "lng": 112.984482
        },
        "ad_info": {
            "adcode": 431002,
            "province": "湖南省",
            "city": "郴州市",
            "district": "北湖区"
        }
    },
    {
        "id": "6347562226609970563",
        "title": "汝城南服务区公共厕所",
        "address": "湖南省郴州市汝城县X097与工业大道交叉口西北方向1688米左右",
        "tel": "",
        "category": "基础设施:公共设施:公共厕所",
        "type": 0,
        "location": {
            "lat": 25.49243,
            "lng": 113.657084
        },
        "ad_info": {
            "adcode": 431026,
            "province": "湖南省",
            "city": "郴州市",
            "district": "汝城县"
        }
    },
    {
        "id": "14649945644863071414",
        "title": "公共厕所",
        "address": "湖南省郴州市宜章县中夏北路与民主东路交叉口正东方向86米左右",
        "tel": "",
        "category": "基础设施:公共设施:公共厕所",
        "type": 0,
        "location": {
            "lat": 25.401648,
            "lng": 112.96259
        },
        "ad_info": {
            "adcode": 431022,
            "province": "湖南省",
            "city": "郴州市",
            "district": "宜章县"
        }
    },
    {
        "id": "5202654481120409507",
        "title": "公共厕所",
        "address": "湖南省郴州市汝城县思源路与滨河东路交叉口正西方向345米左右",
        "tel": "",
        "category": "基础设施:公共设施:公共厕所",
        "type": 0,
        "location": {
            "lat": 25.538715,
            "lng": 113.685329
        },
        "ad_info": {
            "adcode": 431026,
            "province": "湖南省",
            "city": "郴州市",
            "district": "汝城县"
        }
    },
    {
        "id": "13632292771858346152",
        "title": "女卫生间",
        "address": "湖南省郴州市北湖区国庆北路10号步步高新天地F5",
        "tel": "",
        "category": "基础设施:公共设施:女洗手间",
        "type": 0,
        "location": {
            "lat": 25.797176,
            "lng": 113.031285
        },
        "ad_info": {
            "adcode": 431002,
            "province": "湖南省",
            "city": "郴州市",
            "district": "北湖区"
        }
    },
    {
        "id": "14594295306373985320",
        "title": "女卫生间",
        "address": "湖南省郴州市北湖区国庆北路10号步步高新天地F7",
        "tel": "",
        "category": "基础设施:公共设施:女洗手间",
        "type": 0,
        "location": {
            "lat": 25.797174,
            "lng": 113.03129
        },
        "ad_info": {
            "adcode": 431002,
            "province": "湖南省",
            "city": "郴州市",
            "district": "北湖区"
        }
    },
    {
        "id": "4441912805178638553",
        "title": "公共厕所",
        "address": "湖南省郴州市嘉禾县行廊互通与许广高速交叉口西北方向426米左右",
        "tel": "",
        "category": "基础设施:公共设施:公共厕所",
        "type": 0,
        "location": {
            "lat": 25.632431,
            "lng": 112.491918
        },
        "ad_info": {
            "adcode": 431024,
            "province": "湖南省",
            "city": "郴州市",
            "district": "嘉禾县"
        }
    }
]