[
    {
        "id": "3784147064016277600",
        "title": "公共厕所",
        "address": "湖北省鄂州市鄂城区古城路与滨湖南路交叉口西南方向73米左右",
        "tel": "",
        "category": "基础设施:公共设施:公共厕所",
        "type": 0,
        "location": {
            "lat": 30.369653,
            "lng": 114.887996
        },
        "ad_info": {
            "adcode": 420704,
            "province": "湖北省",
            "city": "鄂州市",
            "district": "鄂城区"
        }
    },
    {
        "id": "6421990966082097818",
        "title": "公共厕所",
        "address": "湖北省鄂州市鄂城区吴都大道与鄂州大道交叉口正南方向113米左右",
        "tel": "",
        "category": "基础设施:公共设施:公共厕所",
        "type": 0,
        "location": {
            "lat": 30.359932,
            "lng": 114.8983
        },
        "ad_info": {
            "adcode": 420704,
            "province": "湖北省",
            "city": "鄂州市",
            "district": "鄂城区"
        }
    },
    {
        "id": "14124427913553804139",
        "title": "公共厕所",
        "address": "湖北省鄂州市鄂城区澜庭巷与郭家大湾路交叉口东南方向194米左右",
        "tel": "",
        "category": "基础设施:公共设施:公共厕所",
        "type": 0,
        "location": {
            "lat": 30.394374,
            "lng": 114.915918
        },
        "ad_info": {
            "adcode": 420704,
            "province": "湖北省",
            "city": "鄂州市",
            "district": "鄂城区"
        }
    },
    {
        "id": "10688544801580489816",
        "title": "公共厕所",
        "address": "湖北省鄂州市鄂城区民乐路万佳凯旋城",
        "tel": "",
        "category": "基础设施:公共设施:公共厕所",
        "type": 0,
        "location": {
            "lat": 30.377353,
            "lng": 114.882612
        },
        "ad_info": {
            "adcode": 420704,
            "province": "湖北省",
            "city": "鄂州市",
            "district": "鄂城区"
        }
    },
    {
        "id": "18238161052910924548",
        "title": "公共厕所",
        "address": "湖北省鄂州市梁子湖区博爱路与孟宗路交叉口东北方向49米左右",
        "tel": "",
        "category": "基础设施:公共设施:公共厕所",
        "type": 0,
        "location": {
            "lat": 30.328983,
            "lng": 114.607499
        },
        "ad_info": {
            "adcode": 420702,
            "province": "湖北省",
            "city": "鄂州市",
            "district": "梁子湖区"
        }
    },
    {
        "id": "5031561336458449103",
        "title": "公共厕所",
        "address": "湖北省鄂州市鄂城区武昌大道与金色港湾西巷交叉口北300米",
        "tel": "",
        "category": "基础设施:公共设施:公共厕所",
        "type": 0,
        "location": {
            "lat": 30.402457,
            "lng": 114.911153
        },
        "ad_info": {
            "adcode": 420704,
            "province": "湖北省",
            "city": "鄂州市",
            "district": "鄂城区"
        }
    },
    {
        "id": "5793761008547174083",
        "title": "公共厕所",
        "address": "湖北省鄂州市鄂城区吴都大道与江碧路交叉口西北方向207米左右",
        "tel": "",
        "category": "基础设施:公共设施:公共厕所",
        "type": 0,
        "location": {
            "lat": 30.362675,
            "lng": 114.867534
        },
        "ad_info": {
            "adcode": 420704,
            "province": "湖北省",
            "city": "鄂州市",
            "district": "鄂城区"
        }
    },
    {
        "id": "15012331642002087300",
        "title": "公共厕所",
        "address": "湖北省鄂州市梁子湖区建设街与沼山大道交叉口正南方向13米左右",
        "tel": "",
        "category": "基础设施:公共设施:公共厕所",
        "type": 0,
        "location": {
            "lat": 30.16817,
            "lng": 114.671004
        },
        "ad_info": {
            "adcode": 420702,
            "province": "湖北省",
            "city": "鄂州市",
            "district": "梁子湖区"
        }
    },
    {
        "id": "14504031092874869131",
        "title": "公共厕所",
        "address": "湖北省鄂州市鄂城区滨港东路与滨港路交叉口正南方向322米左右",
        "tel": "",
        "category": "基础设施:公共设施:公共厕所",
        "type": 0,
        "location": {
            "lat": 30.257663,
            "lng": 115.048162
        },
        "ad_info": {
            "adcode": 420704,
            "province": "湖北省",
            "city": "鄂州市",
            "district": "鄂城区"
        }
    },
    {
        "id": "2089014848231826272",
        "title": "公共厕所",
        "address": "湖北省鄂州市鄂城区文苑路与莲花路交叉口正北方向74米左右",
        "tel": "",
        "category": "基础设施:公共设施:公共厕所",
        "type": 0,
        "location": {
            "lat": 30.376483,
            "lng": 114.902145
        },
        "ad_info": {
            "adcode": 420704,
            "province": "湖北省",
            "city": "鄂州市",
            "district": "鄂城区"
        }
    },
    {
        "id": "16052702757335954024",
        "title": "公共厕所",
        "address": "湖北省鄂州市鄂城区滨湖南路89号西北方向70米",
        "tel": "",
        "category": "基础设施:公共设施:公共厕所",
        "type": 0,
        "location": {
            "lat": 30.371164,
            "lng": 114.902951
        },
        "ad_info": {
            "adcode": 420704,
            "province": "湖北省",
            "city": "鄂州市",
            "district": "鄂城区"
        }
    },
    {
        "id": "13357466573651125503",
        "title": "公共厕所",
        "address": "湖北省鄂州市鄂城区滨湖南路辅路与观澜巷交叉口正东方向200米左右",
        "tel": "",
        "category": "基础设施:公共设施:公共厕所",
        "type": 0,
        "location": {
            "lat": 30.370842,
            "lng": 114.873559
        },
        "ad_info": {
            "adcode": 420704,
            "province": "湖北省",
            "city": "鄂州市",
            "district": "鄂城区"
        }
    },
    {
        "id": "6576651604930396635",
        "title": "公共厕所",
        "address": "湖北省鄂州市鄂城区南塔街与报社巷交叉口东北方向62米左右",
        "tel": "",
        "category": "基础设施:公共设施:公共厕所",
        "type": 0,
        "location": {
            "lat": 30.396782,
            "lng": 114.888844
        },
        "ad_info": {
            "adcode": 420704,
            "province": "湖北省",
            "city": "鄂州市",
            "district": "鄂城区"
        }
    },
    {
        "id": "12180060589363169501",
        "title": "公共厕所",
        "address": "湖北省鄂州市鄂城区十字街与熊家巷交叉口西南方向53米左右",
        "tel": "",
        "category": "基础设施:公共设施:公共厕所",
        "type": 0,
        "location": {
            "lat": 30.404892,
            "lng": 114.887579
        },
        "ad_info": {
            "adcode": 420704,
            "province": "湖北省",
            "city": "鄂州市",
            "district": "鄂城区"
        }
    },
    {
        "id": "9367172187098951146",
        "title": "公共厕所",
        "address": "湖北省鄂州市梁子湖区万古湾钱塘路",
        "tel": "",
        "category": "基础设施:公共设施:公共厕所",
        "type": 0,
        "location": {
            "lat": 30.18801,
            "lng": 114.695125
        },
        "ad_info": {
            "adcode": 420702,
            "province": "湖北省",
            "city": "鄂州市",
            "district": "梁子湖区"
        }
    },
    {
        "id": "5045902523188447089",
        "title": "公共厕所",
        "address": "湖北省鄂州市鄂城区古肆东街与江家东巷交叉口东北方向174米左右",
        "tel": "",
        "category": "基础设施:公共设施:公共厕所",
        "type": 0,
        "location": {
            "lat": 30.402772,
            "lng": 114.897558
        },
        "ad_info": {
            "adcode": 420704,
            "province": "湖北省",
            "city": "鄂州市",
            "district": "鄂城区"
        }
    },
    {
        "id": "6501243098500520916",
        "title": "公共厕所",
        "address": "湖北省鄂州市鄂城区沪渝高速与鄂州机场接线交叉口正北方向1117米左右",
        "tel": "",
        "category": "基础设施:公共设施:公共厕所",
        "type": 0,
        "location": {
            "lat": 30.303621,
            "lng": 114.917246
        },
        "ad_info": {
            "adcode": 420704,
            "province": "湖北省",
            "city": "鄂州市",
            "district": "鄂城区"
        }
    },
    {
        "id": "8106586674623039187",
        "title": "公共厕所",
        "address": "湖北省鄂州市鄂城区洪山路与燕矶街交叉口正东方向54米左右",
        "tel": "",
        "category": "基础设施:公共设施:公共厕所",
        "type": 0,
        "location": {
            "lat": 30.395948,
            "lng": 115.015288
        },
        "ad_info": {
            "adcode": 420704,
            "province": "湖北省",
            "city": "鄂州市",
            "district": "鄂城区"
        }
    },
    {
        "id": "3840235785604031652",
        "title": "公共厕所",
        "address": "湖北省鄂州市鄂城区寒溪路与沿江大道交叉口正西方向573米左右",
        "tel": "",
        "category": "基础设施:公共设施:公共厕所",
        "type": 0,
        "location": {
            "lat": 30.413072,
            "lng": 114.871503
        },
        "ad_info": {
            "adcode": 420704,
            "province": "湖北省",
            "city": "鄂州市",
            "district": "鄂城区"
        }
    },
    {
        "id": "10072863513010496098",
        "title": "公共厕所",
        "address": "湖北省鄂州市鄂城区人信南路与花湖大道交叉口正东方向164米左右",
        "tel": "",
        "category": "基础设施:公共设施:公共厕所",
        "type": 0,
        "location": {
            "lat": 30.259718,
            "lng": 115.031302
        },
        "ad_info": {
            "adcode": 420704,
            "province": "湖北省",
            "city": "鄂州市",
            "district": "鄂城区"
        }
    },
    {
        "id": "7089353301816740180",
        "title": "公共厕所",
        "address": "湖北省鄂州市鄂城区G316与沿江大道交叉口东南方向520米左右",
        "tel": "",
        "category": "基础设施:公共设施:公共厕所",
        "type": 0,
        "location": {
            "lat": 30.419369,
            "lng": 114.84751
        },
        "ad_info": {
            "adcode": 420704,
            "province": "湖北省",
            "city": "鄂州市",
            "district": "鄂城区"
        }
    },
    {
        "id": "17065803782978179169",
        "title": "公共厕所",
        "address": "湖北省鄂州市鄂城区古城路92号",
        "tel": "",
        "category": "基础设施:公共设施:公共厕所",
        "type": 0,
        "location": {
            "lat": 30.373974,
            "lng": 114.888643
        },
        "ad_info": {
            "adcode": 420704,
            "province": "湖北省",
            "city": "鄂州市",
            "district": "鄂城区"
        }
    },
    {
        "id": "971686949293917625",
        "title": "公共厕所",
        "address": "湖北省鄂州市华容区Y071佛罗伦萨小镇",
        "tel": "",
        "category": "基础设施:公共设施:公共厕所",
        "type": 0,
        "location": {
            "lat": 30.486071,
            "lng": 114.661167
        },
        "ad_info": {
            "adcode": 420703,
            "province": "湖北省",
            "city": "鄂州市",
            "district": "华容区"
        }
    },
    {
        "id": "18237624114081483051",
        "title": "公共厕所",
        "address": "湖北省鄂州市鄂城区泽程路与鄂州大道交叉口东北方向385米左右",
        "tel": "",
        "category": "基础设施:公共设施:公共厕所",
        "type": 0,
        "location": {
            "lat": 30.327085,
            "lng": 114.889268
        },
        "ad_info": {
            "adcode": 420704,
            "province": "湖北省",
            "city": "鄂州市",
            "district": "鄂城区"
        }
    },
    {
        "id": "16180194499254221963",
        "title": "公共厕所",
        "address": "湖北省鄂州市鄂城区滨湖西路与花园南路交叉口东北方向78米左右",
        "tel": "",
        "category": "基础设施:公共设施:公共厕所",
        "type": 0,
        "location": {
            "lat": 30.376099,
            "lng": 114.876431
        },
        "ad_info": {
            "adcode": 420704,
            "province": "湖北省",
            "city": "鄂州市",
            "district": "鄂城区"
        }
    },
    {
        "id": "13288413573439298839",
        "title": "公共厕所",
        "address": "湖北省鄂州市鄂城区吴都大道与大桥路交叉口正西方向143米左右",
        "tel": "",
        "category": "基础设施:公共设施:公共厕所",
        "type": 0,
        "location": {
            "lat": 30.360799,
            "lng": 114.916399
        },
        "ad_info": {
            "adcode": 420704,
            "province": "湖北省",
            "city": "鄂州市",
            "district": "鄂城区"
        }
    },
    {
        "id": "7950370938616607247",
        "title": "公共厕所",
        "address": "湖北省鄂州市鄂城区江碧路与沪渝高速交叉口东南方向136米左右",
        "tel": "",
        "category": "基础设施:公共设施:公共厕所",
        "type": 0,
        "location": {
            "lat": 30.32151,
            "lng": 114.872795
        },
        "ad_info": {
            "adcode": 420704,
            "province": "湖北省",
            "city": "鄂州市",
            "district": "鄂城区"
        }
    },
    {
        "id": "2623607336070012841",
        "title": "公共厕所",
        "address": "湖北省鄂州市鄂城区十字街与寒溪路交叉口正西方向240米左右",
        "tel": "",
        "category": "基础设施:公共设施:公共厕所",
        "type": 0,
        "location": {
            "lat": 30.404668,
            "lng": 114.875188
        },
        "ad_info": {
            "adcode": 420704,
            "province": "湖北省",
            "city": "鄂州市",
            "district": "鄂城区"
        }
    },
    {
        "id": "88781700633965684",
        "title": "公共厕所",
        "address": "湖北省鄂州市鄂城区江碧路与泽翁路交叉口正北方向193米左右",
        "tel": "",
        "category": "基础设施:公共设施:公共厕所",
        "type": 0,
        "location": {
            "lat": 30.345711,
            "lng": 114.869723
        },
        "ad_info": {
            "adcode": 420704,
            "province": "湖北省",
            "city": "鄂州市",
            "district": "鄂城区"
        }
    },
    {
        "id": "8380313196698706436",
        "title": "公共厕所",
        "address": "湖北省鄂州市鄂城区南浦一巷与南浦路交叉口西北方向42米左右",
        "tel": "",
        "category": "基础设施:公共设施:公共厕所",
        "type": 0,
        "location": {
            "lat": 30.403281,
            "lng": 114.885457
        },
        "ad_info": {
            "adcode": 420704,
            "province": "湖北省",
            "city": "鄂州市",
            "district": "鄂城区"
        }
    },
    {
        "id": "16402518892633441435",
        "title": "公共厕所",
        "address": "湖北省鄂州市鄂城区沿湖路与滨湖北路辅路交叉口西南60米",
        "tel": "",
        "category": "基础设施:公共设施:公共厕所",
        "type": 0,
        "location": {
            "lat": 30.391809,
            "lng": 114.887861
        },
        "ad_info": {
            "adcode": 420704,
            "province": "湖北省",
            "city": "鄂州市",
            "district": "鄂城区"
        }
    },
    {
        "id": "12708382101760843547",
        "title": "公共厕所",
        "address": "湖北省鄂州市鄂城区鄂城区中小学生校外活动中心南侧120米",
        "tel": "",
        "category": "基础设施:公共设施:公共厕所",
        "type": 0,
        "location": {
            "lat": 30.339054,
            "lng": 114.89641
        },
        "ad_info": {
            "adcode": 420704,
            "province": "湖北省",
            "city": "鄂州市",
            "district": "鄂城区"
        }
    },
    {
        "id": "14272567521517114279",
        "title": "公共厕所",
        "address": "湖北省鄂州市华容区万家湾路与楚藩大道交叉口西北方向65米左右",
        "tel": "",
        "category": "基础设施:公共设施:公共厕所",
        "type": 0,
        "location": {
            "lat": 30.534294,
            "lng": 114.728462
        },
        "ad_info": {
            "adcode": 420703,
            "province": "湖北省",
            "city": "鄂州市",
            "district": "华容区"
        }
    },
    {
        "id": "15424878998426286313",
        "title": "公共厕所",
        "address": "湖北省鄂州市鄂城区永兴路1号",
        "tel": "",
        "category": "基础设施:公共设施:公共厕所",
        "type": 0,
        "location": {
            "lat": 30.411862,
            "lng": 114.825746
        },
        "ad_info": {
            "adcode": 420704,
            "province": "湖北省",
            "city": "鄂州市",
            "district": "鄂城区"
        }
    },
    {
        "id": "10185797450938370374",
        "title": "公共厕所",
        "address": "湖北省鄂州市鄂城区文星北路与文星大道交叉口正北方向56米左右",
        "tel": "",
        "category": "基础设施:公共设施:公共厕所",
        "type": 0,
        "location": {
            "lat": 30.398172,
            "lng": 114.892486
        },
        "ad_info": {
            "adcode": 420704,
            "province": "湖北省",
            "city": "鄂州市",
            "district": "鄂城区"
        }
    },
    {
        "id": "6811709089025824722",
        "title": "公共厕所",
        "address": "湖北省鄂州市鄂城区丁家湾与滨湖东路交叉口正北方向463米左右",
        "tel": "",
        "category": "基础设施:公共设施:公共厕所",
        "type": 0,
        "location": {
            "lat": 30.38574,
            "lng": 114.913335
        },
        "ad_info": {
            "adcode": 420704,
            "province": "湖北省",
            "city": "鄂州市",
            "district": "鄂城区"
        }
    },
    {
        "id": "9535603606742923494",
        "title": "公共厕所",
        "address": "湖北省鄂州市梁子湖区G316与东铁公路交叉口正东方向404米左右",
        "tel": "",
        "category": "基础设施:公共设施:公共厕所",
        "type": 0,
        "location": {
            "lat": 30.325419,
            "lng": 114.672857
        },
        "ad_info": {
            "adcode": 420702,
            "province": "湖北省",
            "city": "鄂州市",
            "district": "梁子湖区"
        }
    },
    {
        "id": "2922338917669076198",
        "title": "公共厕所",
        "address": "湖北省鄂州市梁子湖区楠竹小学北侧280米",
        "tel": "",
        "category": "基础设施:公共设施:公共厕所",
        "type": 0,
        "location": {
            "lat": 30.164896,
            "lng": 114.634086
        },
        "ad_info": {
            "adcode": 420702,
            "province": "湖北省",
            "city": "鄂州市",
            "district": "梁子湖区"
        }
    },
    {
        "id": "10277659505606519434",
        "title": "公共厕所",
        "address": "湖北省鄂州市鄂城区月河路与樊川大道交叉口东南方向74米左右",
        "tel": "",
        "category": "基础设施:公共设施:公共厕所",
        "type": 0,
        "location": {
            "lat": 30.408509,
            "lng": 114.833625
        },
        "ad_info": {
            "adcode": 420704,
            "province": "湖北省",
            "city": "鄂州市",
            "district": "鄂城区"
        }
    },
    {
        "id": "4450348940419816697",
        "title": "公共厕所",
        "address": "湖北省鄂州市梁子湖区134乡道附近",
        "tel": "",
        "category": "基础设施:公共设施:公共厕所",
        "type": 0,
        "location": {
            "lat": 30.101971,
            "lng": 114.594083
        },
        "ad_info": {
            "adcode": 420702,
            "province": "湖北省",
            "city": "鄂州市",
            "district": "梁子湖区"
        }
    },
    {
        "id": "8689091969185352520",
        "title": "公共厕所",
        "address": "湖北省鄂州市鄂城区滨湖东路与鄂东大道交叉口正南方向344米左右",
        "tel": "",
        "category": "基础设施:公共设施:公共厕所",
        "type": 0,
        "location": {
            "lat": 30.389317,
            "lng": 114.913717
        },
        "ad_info": {
            "adcode": 420704,
            "province": "湖北省",
            "city": "鄂州市",
            "district": "鄂城区"
        }
    },
    {
        "id": "13843051643550122332",
        "title": "公共厕所",
        "address": "湖北省鄂州市鄂城区建设路与滨港大道交叉口东南方向75米左右",
        "tel": "",
        "category": "基础设施:公共设施:公共厕所",
        "type": 0,
        "location": {
            "lat": 30.333341,
            "lng": 114.69101
        },
        "ad_info": {
            "adcode": 420704,
            "province": "湖北省",
            "city": "鄂州市",
            "district": "鄂城区"
        }
    },
    {
        "id": "9073648748634914268",
        "title": "公共厕所",
        "address": "湖北省鄂州市鄂城区建设街鄂钢医院",
        "tel": "",
        "category": "基础设施:公共设施:公共厕所",
        "type": 0,
        "location": {
            "lat": 30.407409,
            "lng": 114.879895
        },
        "ad_info": {
            "adcode": 420704,
            "province": "湖北省",
            "city": "鄂州市",
            "district": "鄂城区"
        }
    },
    {
        "id": "14218449013163702283",
        "title": "公共厕所",
        "address": "湖北省鄂州市鄂城区武昌大道与邬家巷交叉口正西方向74米左右",
        "tel": "",
        "category": "基础设施:公共设施:公共厕所",
        "type": 0,
        "location": {
            "lat": 30.404041,
            "lng": 114.881872
        },
        "ad_info": {
            "adcode": 420704,
            "province": "湖北省",
            "city": "鄂州市",
            "district": "鄂城区"
        }
    },
    {
        "id": "16864889987069105337",
        "title": "公共厕所",
        "address": "湖北省鄂州市鄂城区寿昌大道与滨湖西路交叉口东南方向301米左右",
        "tel": "",
        "category": "基础设施:公共设施:公共厕所",
        "type": 0,
        "location": {
            "lat": 30.364282,
            "lng": 114.878344
        },
        "ad_info": {
            "adcode": 420704,
            "province": "湖北省",
            "city": "鄂州市",
            "district": "鄂城区"
        }
    },
    {
        "id": "10155403594803729123",
        "title": "公共厕所",
        "address": "湖北省鄂州市鄂城区滨港路与花湖大道交叉口正北方向96米左右",
        "tel": "",
        "category": "基础设施:公共设施:公共厕所",
        "type": 0,
        "location": {
            "lat": 30.263569,
            "lng": 115.028715
        },
        "ad_info": {
            "adcode": 420704,
            "province": "湖北省",
            "city": "鄂州市",
            "district": "鄂城区"
        }
    },
    {
        "id": "7400326243277392445",
        "title": "公共厕所",
        "address": "湖北省鄂州市鄂城区中国石化鄂州直属杜山加油站东侧250米",
        "tel": "",
        "category": "基础设施:公共设施:公共厕所",
        "type": 0,
        "location": {
            "lat": 30.392698,
            "lng": 114.814405
        },
        "ad_info": {
            "adcode": 420704,
            "province": "湖北省",
            "city": "鄂州市",
            "district": "鄂城区"
        }
    },
    {
        "id": "14835808606346452622",
        "title": "公共厕所",
        "address": "湖北省鄂州市鄂城区滨湖西路与镜园巷交叉口东南方向173米左右",
        "tel": "",
        "category": "基础设施:公共设施:公共厕所",
        "type": 0,
        "location": {
            "lat": 30.390334,
            "lng": 114.885097
        },
        "ad_info": {
            "adcode": 420704,
            "province": "湖北省",
            "city": "鄂州市",
            "district": "鄂城区"
        }
    },
    {
        "id": "4481364592409374349",
        "title": "公共厕所",
        "address": "湖北省鄂州市鄂城区滨湖南路辅路与观澜巷交叉口东南方向261米左右",
        "tel": "",
        "category": "基础设施:公共设施:公共厕所",
        "type": 0,
        "location": {
            "lat": 30.369008,
            "lng": 114.873407
        },
        "ad_info": {
            "adcode": 420704,
            "province": "湖北省",
            "city": "鄂州市",
            "district": "鄂城区"
        }
    },
    {
        "id": "11797665592994418848",
        "title": "公共厕所",
        "address": "湖北省鄂州市梁子湖区区府路与太和大道交叉口东北方向48米左右",
        "tel": "",
        "category": "基础设施:公共设施:公共厕所",
        "type": 0,
        "location": {
            "lat": 30.086078,
            "lng": 114.678988
        },
        "ad_info": {
            "adcode": 420702,
            "province": "湖北省",
            "city": "鄂州市",
            "district": "梁子湖区"
        }
    },
    {
        "id": "5824529471015079501",
        "title": "公共厕所",
        "address": "湖北省鄂州市鄂城区滨港东路与滨港西路交叉口东北方向302米左右",
        "tel": "",
        "category": "基础设施:公共设施:公共厕所",
        "type": 0,
        "location": {
            "lat": 30.265086,
            "lng": 115.042384
        },
        "ad_info": {
            "adcode": 420704,
            "province": "湖北省",
            "city": "鄂州市",
            "district": "鄂城区"
        }
    },
    {
        "id": "11324335116472763800",
        "title": "公共厕所",
        "address": "湖北省鄂州市鄂城区古楼街11-2号",
        "tel": "",
        "category": "基础设施:公共设施:公共厕所",
        "type": 0,
        "location": {
            "lat": 30.405829,
            "lng": 114.884125
        },
        "ad_info": {
            "adcode": 420704,
            "province": "湖北省",
            "city": "鄂州市",
            "district": "鄂城区"
        }
    },
    {
        "id": "11896638769663925818",
        "title": "公共厕所",
        "address": "湖北省鄂州市鄂城区江碧路鄂州站",
        "tel": "",
        "category": "基础设施:公共设施:公共厕所",
        "type": 0,
        "location": {
            "lat": 30.360217,
            "lng": 114.86728
        },
        "ad_info": {
            "adcode": 420704,
            "province": "湖北省",
            "city": "鄂州市",
            "district": "鄂城区"
        }
    },
    {
        "id": "3424343728886944473",
        "title": "公共厕所",
        "address": "湖北省鄂州市鄂城区武昌大道与邬家巷交叉口东南方向39米左右",
        "tel": "",
        "category": "基础设施:公共设施:公共厕所",
        "type": 0,
        "location": {
            "lat": 30.403728,
            "lng": 114.882997
        },
        "ad_info": {
            "adcode": 420704,
            "province": "湖北省",
            "city": "鄂州市",
            "district": "鄂城区"
        }
    },
    {
        "id": "9122656667013086752",
        "title": "公共厕所",
        "address": "湖北省鄂州市鄂城区燕矶大街与燕矶大道交叉口西南方向219米左右",
        "tel": "",
        "category": "基础设施:公共设施:公共厕所",
        "type": 0,
        "location": {
            "lat": 30.388071,
            "lng": 115.005929
        },
        "ad_info": {
            "adcode": 420704,
            "province": "湖北省",
            "city": "鄂州市",
            "district": "鄂城区"
        }
    },
    {
        "id": "56459317507263365",
        "title": "公共厕所",
        "address": "湖北省鄂州市鄂城区月畔湾路与滨湖南路交叉口东北方向63米左右",
        "tel": "",
        "category": "基础设施:公共设施:公共厕所",
        "type": 0,
        "location": {
            "lat": 30.370665,
            "lng": 114.877884
        },
        "ad_info": {
            "adcode": 420704,
            "province": "湖北省",
            "city": "鄂州市",
            "district": "鄂城区"
        }
    },
    {
        "id": "4607610507818023794",
        "title": "公共厕所",
        "address": "湖北省鄂州市鄂城区月畔湾路与滨湖南路交叉口东北方向17米左右",
        "tel": "",
        "category": "基础设施:公共设施:公共厕所",
        "type": 0,
        "location": {
            "lat": 30.370487,
            "lng": 114.877426
        },
        "ad_info": {
            "adcode": 420704,
            "province": "湖北省",
            "city": "鄂州市",
            "district": "鄂城区"
        }
    },
    {
        "id": "5594924225212656766",
        "title": "公共厕所",
        "address": "湖北省鄂州市鄂城区梁华路北与梁华路南交叉口西北方向963米左右",
        "tel": "",
        "category": "基础设施:公共设施:公共厕所",
        "type": 0,
        "location": {
            "lat": 30.387898,
            "lng": 114.851674
        },
        "ad_info": {
            "adcode": 420704,
            "province": "湖北省",
            "city": "鄂州市",
            "district": "鄂城区"
        }
    },
    {
        "id": "580489363076682079",
        "title": "公共厕所",
        "address": "湖北省鄂州市鄂城区五里墩中巷与花园北路交叉口西南方向163米左右",
        "tel": "",
        "category": "基础设施:公共设施:公共厕所",
        "type": 0,
        "location": {
            "lat": 30.381727,
            "lng": 114.871093
        },
        "ad_info": {
            "adcode": 420704,
            "province": "湖北省",
            "city": "鄂州市",
            "district": "鄂城区"
        }
    },
    {
        "id": "13608060329658216256",
        "title": "公共厕所",
        "address": "湖北省鄂州市鄂城区五里墩北巷与官柳南路交叉口正南方向108米左右",
        "tel": "",
        "category": "基础设施:公共设施:公共厕所",
        "type": 0,
        "location": {
            "lat": 30.384967,
            "lng": 114.874565
        },
        "ad_info": {
            "adcode": 420704,
            "province": "湖北省",
            "city": "鄂州市",
            "district": "鄂城区"
        }
    },
    {
        "id": "9387846152929157029",
        "title": "公共厕所",
        "address": "湖北省鄂州市鄂城区江家东巷12-1号",
        "tel": "",
        "category": "基础设施:公共设施:公共厕所",
        "type": 0,
        "location": {
            "lat": 30.401908,
            "lng": 114.896193
        },
        "ad_info": {
            "adcode": 420704,
            "province": "湖北省",
            "city": "鄂州市",
            "district": "鄂城区"
        }
    },
    {
        "id": "9350196300486159452",
        "title": "公共厕所",
        "address": "湖北省鄂州市鄂城区邬家巷8号",
        "tel": "",
        "category": "基础设施:公共设施:公共厕所",
        "type": 0,
        "location": {
            "lat": 30.405974,
            "lng": 114.882424
        },
        "ad_info": {
            "adcode": 420704,
            "province": "湖北省",
            "city": "鄂州市",
            "district": "鄂城区"
        }
    },
    {
        "id": "13624653491636392338",
        "title": "公共厕所",
        "address": "湖北省鄂州市鄂城区江碧路中国石化广山加油站",
        "tel": "",
        "category": "基础设施:公共设施:公共厕所",
        "type": 0,
        "location": {
            "lat": 30.253412,
            "lng": 114.870749
        },
        "ad_info": {
            "adcode": 420704,
            "province": "湖北省",
            "city": "鄂州市",
            "district": "鄂城区"
        }
    },
    {
        "id": "8436499153090145424",
        "title": "公共厕所",
        "address": "湖北省鄂州市鄂城区官柳南路与滨湖西路交叉口正东方向177米左右",
        "tel": "",
        "category": "基础设施:公共设施:公共厕所",
        "type": 0,
        "location": {
            "lat": 30.385816,
            "lng": 114.877854
        },
        "ad_info": {
            "adcode": 420704,
            "province": "湖北省",
            "city": "鄂州市",
            "district": "鄂城区"
        }
    },
    {
        "id": "8510839713707354214",
        "title": "公共厕所",
        "address": "湖北省鄂州市鄂城区五里墩北巷与官柳南路交叉口西南方向161米左右",
        "tel": "",
        "category": "基础设施:公共设施:公共厕所",
        "type": 0,
        "location": {
            "lat": 30.384708,
            "lng": 114.873916
        },
        "ad_info": {
            "adcode": 420704,
            "province": "湖北省",
            "city": "鄂州市",
            "district": "鄂城区"
        }
    },
    {
        "id": "10068638695136575900",
        "title": "公共厕所",
        "address": "湖北省鄂州市鄂城区寿昌大道与滨湖西路交叉口西南方向317米左右",
        "tel": "",
        "category": "基础设施:公共设施:公共厕所",
        "type": 0,
        "location": {
            "lat": 30.364323,
            "lng": 114.872688
        },
        "ad_info": {
            "adcode": 420704,
            "province": "湖北省",
            "city": "鄂州市",
            "district": "鄂城区"
        }
    },
    {
        "id": "12801896674174254788",
        "title": "公共厕所",
        "address": "湖北省鄂州市鄂城区普罗旺斯小镇东北侧470米",
        "tel": "",
        "category": "基础设施:公共设施:公共厕所",
        "type": 0,
        "location": {
            "lat": 30.327011,
            "lng": 114.987023
        },
        "ad_info": {
            "adcode": 420704,
            "province": "湖北省",
            "city": "鄂州市",
            "district": "鄂城区"
        }
    },
    {
        "id": "12896275137046191871",
        "title": "公共厕所",
        "address": "湖北省鄂州市鄂城区寿昌大道与滨湖西路交叉口东南方向239米左右",
        "tel": "",
        "category": "基础设施:公共设施:公共厕所",
        "type": 0,
        "location": {
            "lat": 30.363798,
            "lng": 114.876935
        },
        "ad_info": {
            "adcode": 420704,
            "province": "湖北省",
            "city": "鄂州市",
            "district": "鄂城区"
        }
    },
    {
        "id": "6254828131450383389",
        "title": "公共厕所",
        "address": "湖北省鄂州市鄂城区桥西路与武昌大道交叉口西北方向117米左右",
        "tel": "",
        "category": "基础设施:公共设施:公共厕所",
        "type": 0,
        "location": {
            "lat": 30.398061,
            "lng": 114.921824
        },
        "ad_info": {
            "adcode": 420704,
            "province": "湖北省",
            "city": "鄂州市",
            "district": "鄂城区"
        }
    },
    {
        "id": "12786676694007140573",
        "title": "公共厕所",
        "address": "湖北省鄂州市鄂城区X002与新港路交叉口正西方向1091米左右",
        "tel": "",
        "category": "基础设施:公共设施:公共厕所",
        "type": 0,
        "location": {
            "lat": 30.33291,
            "lng": 114.846
        },
        "ad_info": {
            "adcode": 420704,
            "province": "湖北省",
            "city": "鄂州市",
            "district": "鄂城区"
        }
    },
    {
        "id": "15402645228893291902",
        "title": "公共厕所",
        "address": "湖北省鄂州市鄂城区X002与新港路交叉口正西方向1545米左右",
        "tel": "",
        "category": "基础设施:公共设施:公共厕所",
        "type": 0,
        "location": {
            "lat": 30.334915,
            "lng": 114.841482
        },
        "ad_info": {
            "adcode": 420704,
            "province": "湖北省",
            "city": "鄂州市",
            "district": "鄂城区"
        }
    },
    {
        "id": "3654999305708608236",
        "title": "公共厕所",
        "address": "湖北省鄂州市鄂城区丁家湾与滨湖东路交叉口东南方向39米左右",
        "tel": "",
        "category": "基础设施:公共设施:公共厕所",
        "type": 0,
        "location": {
            "lat": 30.381521,
            "lng": 114.914826
        },
        "ad_info": {
            "adcode": 420704,
            "province": "湖北省",
            "city": "鄂州市",
            "district": "鄂城区"
        }
    },
    {
        "id": "16953360536003748663",
        "title": "公共厕所",
        "address": "湖北省鄂州市鄂城区梁华路北与梁华路南交叉口西北方向869米左右",
        "tel": "",
        "category": "基础设施:公共设施:公共厕所",
        "type": 0,
        "location": {
            "lat": 30.38612,
            "lng": 114.85143
        },
        "ad_info": {
            "adcode": 420704,
            "province": "湖北省",
            "city": "鄂州市",
            "district": "鄂城区"
        }
    },
    {
        "id": "7824382220867270817",
        "title": "公共厕所",
        "address": "湖北省鄂州市鄂城区古肆南街与江家东巷交叉口东南方向53米左右",
        "tel": "",
        "category": "基础设施:公共设施:公共厕所",
        "type": 0,
        "location": {
            "lat": 30.401607,
            "lng": 114.896455
        },
        "ad_info": {
            "adcode": 420704,
            "province": "湖北省",
            "city": "鄂州市",
            "district": "鄂城区"
        }
    },
    {
        "id": "18107930415459458152",
        "title": "公共厕所",
        "address": "湖北省鄂州市鄂城区滨湖西路与黄金山路交叉口正东方向151米左右",
        "tel": "",
        "category": "基础设施:公共设施:公共厕所",
        "type": 0,
        "location": {
            "lat": 30.35949,
            "lng": 114.877182
        },
        "ad_info": {
            "adcode": 420704,
            "province": "湖北省",
            "city": "鄂州市",
            "district": "鄂城区"
        }
    },
    {
        "id": "4732643278329564543",
        "title": "公共厕所",
        "address": "湖北省鄂州市鄂城区五里墩南巷与肖家巷交叉口正南方向114米左右",
        "tel": "",
        "category": "基础设施:公共设施:公共厕所",
        "type": 0,
        "location": {
            "lat": 30.377336,
            "lng": 114.872894
        },
        "ad_info": {
            "adcode": 420704,
            "province": "湖北省",
            "city": "鄂州市",
            "district": "鄂城区"
        }
    },
    {
        "id": "17477610117254214484",
        "title": "公共厕所",
        "address": "湖北省鄂州市鄂城区大桥路与鄂燕老路交叉口东南方向373米左右",
        "tel": "",
        "category": "基础设施:公共设施:公共厕所",
        "type": 0,
        "location": {
            "lat": 30.384948,
            "lng": 114.92284
        },
        "ad_info": {
            "adcode": 420704,
            "province": "湖北省",
            "city": "鄂州市",
            "district": "鄂城区"
        }
    },
    {
        "id": "12407050545063407701",
        "title": "公共厕所",
        "address": "湖北省鄂州市鄂城区樊川大道94号",
        "tel": "",
        "category": "基础设施:公共设施:公共厕所",
        "type": 0,
        "location": {
            "lat": 30.409499,
            "lng": 114.839251
        },
        "ad_info": {
            "adcode": 420704,
            "province": "湖北省",
            "city": "鄂州市",
            "district": "鄂城区"
        }
    },
    {
        "id": "11051869070299145167",
        "title": "公共厕所",
        "address": "湖北省鄂州市华容区电商大道与葛店互通交叉口西北方向331米左右",
        "tel": "",
        "category": "基础设施:公共设施:公共厕所",
        "type": 0,
        "location": {
            "lat": 30.52074,
            "lng": 114.666387
        },
        "ad_info": {
            "adcode": 420703,
            "province": "湖北省",
            "city": "鄂州市",
            "district": "华容区"
        }
    },
    {
        "id": "2422014200817024450",
        "title": "公共厕所",
        "address": "湖北省鄂州市鄂城区大广高速与沪渝高速交叉口西南方向487米左右",
        "tel": "",
        "category": "基础设施:公共设施:公共厕所",
        "type": 0,
        "location": {
            "lat": 30.24657,
            "lng": 115.018177
        },
        "ad_info": {
            "adcode": 420704,
            "province": "湖北省",
            "city": "鄂州市",
            "district": "鄂城区"
        }
    },
    {
        "id": "11372963621728135298",
        "title": "公共厕所",
        "address": "湖北省鄂州市鄂城区公园路10号",
        "tel": "",
        "category": "基础设施:公共设施:公共厕所",
        "type": 0,
        "location": {
            "lat": 30.404065,
            "lng": 114.875264
        },
        "ad_info": {
            "adcode": 420704,
            "province": "湖北省",
            "city": "鄂州市",
            "district": "鄂城区"
        }
    },
    {
        "id": "11286055052370178246",
        "title": "公共厕所",
        "address": "湖北省鄂州市鄂城区武昌大道与落驾坪巷交叉口正西方向89米左右",
        "tel": "",
        "category": "基础设施:公共设施:公共厕所",
        "type": 0,
        "location": {
            "lat": 30.400914,
            "lng": 114.86522
        },
        "ad_info": {
            "adcode": 420704,
            "province": "湖北省",
            "city": "鄂州市",
            "district": "鄂城区"
        }
    },
    {
        "id": "13081495731133812899",
        "title": "公共厕所",
        "address": "湖北省鄂州市鄂城区滨湖西路与肖家巷交叉口西北方向142米左右",
        "tel": "",
        "category": "基础设施:公共设施:公共厕所",
        "type": 0,
        "location": {
            "lat": 30.379192,
            "lng": 114.875268
        },
        "ad_info": {
            "adcode": 420704,
            "province": "湖北省",
            "city": "鄂州市",
            "district": "鄂城区"
        }
    },
    {
        "id": "15097744974496991785",
        "title": "公共厕所",
        "address": "湖北省鄂州市鄂城区广山路与葛山大道交叉口正东方向504米左右",
        "tel": "",
        "category": "基础设施:公共设施:公共厕所",
        "type": 0,
        "location": {
            "lat": 30.349298,
            "lng": 114.882508
        },
        "ad_info": {
            "adcode": 420704,
            "province": "湖北省",
            "city": "鄂州市",
            "district": "鄂城区"
        }
    },
    {
        "id": "8363801079217429005",
        "title": "公共厕所",
        "address": "湖北省鄂州市鄂城区江碧路与马鞍山路交叉口西北方向631米左右",
        "tel": "",
        "category": "基础设施:公共设施:公共厕所",
        "type": 0,
        "location": {
            "lat": 30.356165,
            "lng": 114.863746
        },
        "ad_info": {
            "adcode": 420704,
            "province": "湖北省",
            "city": "鄂州市",
            "district": "鄂城区"
        }
    },
    {
        "id": "2439665880621162030",
        "title": "公共厕所",
        "address": "湖北省鄂州市鄂城区碧石集贸市场西北侧60米",
        "tel": "",
        "category": "基础设施:公共设施:公共厕所",
        "type": 0,
        "location": {
            "lat": 30.29179,
            "lng": 114.868514
        },
        "ad_info": {
            "adcode": 420704,
            "province": "湖北省",
            "city": "鄂州市",
            "district": "鄂城区"
        }
    },
    {
        "id": "16478140982261530868",
        "title": "公共厕所",
        "address": "湖北省鄂州市鄂城区南浦路112号",
        "tel": "",
        "category": "基础设施:公共设施:公共厕所",
        "type": 0,
        "location": {
            "lat": 30.393611,
            "lng": 114.885173
        },
        "ad_info": {
            "adcode": 420704,
            "province": "湖北省",
            "city": "鄂州市",
            "district": "鄂城区"
        }
    },
    {
        "id": "16586807786876726150",
        "title": "公共厕所",
        "address": "湖北省鄂州市华容区",
        "tel": "",
        "category": "基础设施:公共设施:公共厕所",
        "type": 0,
        "location": {
            "lat": 30.514074,
            "lng": 114.824453
        },
        "ad_info": {
            "adcode": 420703,
            "province": "湖北省",
            "city": "鄂州市",
            "district": "华容区"
        }
    },
    {
        "id": "3573686928861028601",
        "title": "公共厕所",
        "address": "湖北省鄂州市华容区脉岭东街与脉岭北街交叉口东北方向156米左右",
        "tel": "",
        "category": "基础设施:公共设施:公共厕所",
        "type": 0,
        "location": {
            "lat": 30.443679,
            "lng": 114.61687
        },
        "ad_info": {
            "adcode": 420703,
            "province": "湖北省",
            "city": "鄂州市",
            "district": "华容区"
        }
    },
    {
        "id": "1764386855641644927",
        "title": "公共厕所",
        "address": "湖北省鄂州市华容区武鄂高速与葛店互通交叉口正东方向506米左右",
        "tel": "",
        "category": "基础设施:公共设施:公共厕所",
        "type": 0,
        "location": {
            "lat": 30.513201,
            "lng": 114.67749
        },
        "ad_info": {
            "adcode": 420703,
            "province": "湖北省",
            "city": "鄂州市",
            "district": "华容区"
        }
    },
    {
        "id": "8110795316533121744",
        "title": "无障碍公共厕所",
        "address": "湖北省鄂州市梁子湖区文乐路与竹林街交叉口正南方向106米左右",
        "tel": "",
        "category": "基础设施:公共设施:公共厕所",
        "type": 0,
        "location": {
            "lat": 30.092651,
            "lng": 114.681527
        },
        "ad_info": {
            "adcode": 420702,
            "province": "湖北省",
            "city": "鄂州市",
            "district": "梁子湖区"
        }
    },
    {
        "id": "12536368875859245662",
        "title": "公共厕所",
        "address": "湖北省鄂州市鄂城区杨湾路9号",
        "tel": "",
        "category": "基础设施:公共设施:公共厕所",
        "type": 0,
        "location": {
            "lat": 30.395601,
            "lng": 114.889767
        },
        "ad_info": {
            "adcode": 420704,
            "province": "湖北省",
            "city": "鄂州市",
            "district": "鄂城区"
        }
    },
    {
        "id": "4012354642076149154",
        "title": "公共厕所",
        "address": "湖北省鄂州市鄂城区环卫局渣土运输管理处",
        "tel": "",
        "category": "基础设施:公共设施:公共厕所",
        "type": 0,
        "location": {
            "lat": 30.372561,
            "lng": 114.896882
        },
        "ad_info": {
            "adcode": 420704,
            "province": "湖北省",
            "city": "鄂州市",
            "district": "鄂城区"
        }
    },
    {
        "id": "662633403426955947",
        "title": "公共厕所",
        "address": "湖北省鄂州市华容区葛洪大道359号",
        "tel": "",
        "category": "基础设施:公共设施:公共厕所",
        "type": 0,
        "location": {
            "lat": 30.535013,
            "lng": 114.646345
        },
        "ad_info": {
            "adcode": 420703,
            "province": "湖北省",
            "city": "鄂州市",
            "district": "华容区"
        }
    },
    {
        "id": "15536335878524068203",
        "title": "百纺无障碍公共厕所",
        "address": "湖北省鄂州市鄂城区明塘路与武昌大道交叉口东南方向154米左右",
        "tel": "",
        "category": "基础设施:公共设施:公共厕所",
        "type": 0,
        "location": {
            "lat": 30.402412,
            "lng": 114.881654
        },
        "ad_info": {
            "adcode": 420704,
            "province": "湖北省",
            "city": "鄂州市",
            "district": "鄂城区"
        }
    },
    {
        "id": "17197227331284650821",
        "title": "公共厕所",
        "address": "湖北省鄂州市华容区电商大道与药谷三路交叉口正东方向268米左右",
        "tel": "",
        "category": "基础设施:公共设施:公共厕所",
        "type": 0,
        "location": {
            "lat": 30.516546,
            "lng": 114.669833
        },
        "ad_info": {
            "adcode": 420703,
            "province": "湖北省",
            "city": "鄂州市",
            "district": "华容区"
        }
    },
    {
        "id": "17371102988875845688",
        "title": "公共厕所",
        "address": "湖北省鄂州市鄂城区十字街与龙家巷交叉口西北方向74米左右",
        "tel": "",
        "category": "基础设施:公共设施:公共厕所",
        "type": 0,
        "location": {
            "lat": 30.405084,
            "lng": 114.891313
        },
        "ad_info": {
            "adcode": 420704,
            "province": "湖北省",
            "city": "鄂州市",
            "district": "鄂城区"
        }
    },
    {
        "id": "17235525849743604288",
        "title": "公共厕所",
        "address": "湖北省鄂州市华容区富华路与楚藩大道交叉口正南方向151米左右",
        "tel": "",
        "category": "基础设施:公共设施:公共厕所",
        "type": 0,
        "location": {
            "lat": 30.53326,
            "lng": 114.744003
        },
        "ad_info": {
            "adcode": 420703,
            "province": "湖北省",
            "city": "鄂州市",
            "district": "华容区"
        }
    },
    {
        "id": "14458758600009337674",
        "title": "公共厕所(佛罗伦萨小镇武汉名品奥特莱斯)",
        "address": "湖北省鄂州市华容区葛店开发区高新大道葛店南站正对面佛罗伦萨小镇(武汉名品奥特莱斯)2F",
        "tel": "",
        "category": "基础设施:公共设施:公共厕所",
        "type": 0,
        "location": {
            "lat": 30.487591,
            "lng": 114.65842
        },
        "ad_info": {
            "adcode": 420703,
            "province": "湖北省",
            "city": "鄂州市",
            "district": "华容区"
        }
    },
    {
        "id": "3711229685615334903",
        "title": "公共厕所",
        "address": "湖北省鄂州市鄂城区凤凰路44号",
        "tel": "",
        "category": "基础设施:公共设施:公共厕所",
        "type": 0,
        "location": {
            "lat": 30.396261,
            "lng": 114.898655
        },
        "ad_info": {
            "adcode": 420704,
            "province": "湖北省",
            "city": "鄂州市",
            "district": "鄂城区"
        }
    },
    {
        "id": "11928102031730433706",
        "title": "公共厕所",
        "address": "湖北省鄂州市华容区华容正街与龙华路交叉口正北方向45米左右",
        "tel": "",
        "category": "基础设施:公共设施:公共厕所",
        "type": 0,
        "location": {
            "lat": 30.538199,
            "lng": 114.734115
        },
        "ad_info": {
            "adcode": 420703,
            "province": "湖北省",
            "city": "鄂州市",
            "district": "华容区"
        }
    },
    {
        "id": "7725049096784882071",
        "title": "公共厕所",
        "address": "湖北省鄂州市华容区聚贤路4号",
        "tel": "",
        "category": "基础设施:公共设施:公共厕所",
        "type": 0,
        "location": {
            "lat": 30.537816,
            "lng": 114.674004
        },
        "ad_info": {
            "adcode": 420703,
            "province": "湖北省",
            "city": "鄂州市",
            "district": "华容区"
        }
    },
    {
        "id": "2377610169103715304",
        "title": "公共厕所(佛罗伦萨小镇武汉名品奥特莱斯)",
        "address": "湖北省鄂州市华容区葛店开发区高新大道葛店南站正对面佛罗伦萨小镇(武汉名品奥特莱斯)1F",
        "tel": "",
        "category": "基础设施:公共设施:公共厕所",
        "type": 0,
        "location": {
            "lat": 30.488075,
            "lng": 114.658955
        },
        "ad_info": {
            "adcode": 420703,
            "province": "湖北省",
            "city": "鄂州市",
            "district": "华容区"
        }
    },
    {
        "id": "17385330187137540968",
        "title": "太和停车区公共厕所",
        "address": "湖北省鄂州市梁子湖区太和停车区与S31鄂咸高速交叉口西南300米",
        "tel": "",
        "category": "基础设施:公共设施:公共厕所",
        "type": 0,
        "location": {
            "lat": 30.031583,
            "lng": 114.661278
        },
        "ad_info": {
            "adcode": 420702,
            "province": "湖北省",
            "city": "鄂州市",
            "district": "梁子湖区"
        }
    },
    {
        "id": "1086607395950458598",
        "title": "碧石镇龙会村尹家老屋公共厕所",
        "address": "湖北省鄂州市鄂城区碧黄路与陈泉公路交叉口西北方向1173米左右",
        "tel": "13995847895",
        "category": "基础设施:公共设施:公共厕所",
        "type": 0,
        "location": {
            "lat": 30.28121,
            "lng": 114.917986
        },
        "ad_info": {
            "adcode": 420704,
            "province": "湖北省",
            "city": "鄂州市",
            "district": "鄂城区"
        }
    },
    {
        "id": "14270886323548378820",
        "title": "鄂州服务区公共厕所",
        "address": "湖北省鄂州市华容区云端西路与玉屏路交叉口西南方向297米左右",
        "tel": "",
        "category": "基础设施:公共设施:公共厕所",
        "type": 0,
        "location": {
            "lat": 30.450034,
            "lng": 114.593789
        },
        "ad_info": {
            "adcode": 420703,
            "province": "湖北省",
            "city": "鄂州市",
            "district": "华容区"
        }
    },
    {
        "id": "2075243812928411652",
        "title": "公共厕所",
        "address": "湖北省鄂州市华容区华康三路与华烁路交叉口东北方向22米左右",
        "tel": "",
        "category": "基础设施:公共设施:公共厕所",
        "type": 0,
        "location": {
            "lat": 30.541547,
            "lng": 114.674254
        },
        "ad_info": {
            "adcode": 420703,
            "province": "湖北省",
            "city": "鄂州市",
            "district": "华容区"
        }
    },
    {
        "id": "10193382176531442163",
        "title": "鄂城区碧石渡镇尹家老屋新公共厕所",
        "address": "湖北省鄂州市鄂城区碧黄路与陈泉公路交叉口西北方向1203米左右",
        "tel": "16549513703",
        "category": "基础设施:公共设施:公共厕所",
        "type": 0,
        "location": {
            "lat": 30.281365,
            "lng": 114.917734
        },
        "ad_info": {
            "adcode": 420704,
            "province": "湖北省",
            "city": "鄂州市",
            "district": "鄂城区"
        }
    },
    {
        "id": "4353147192657034152",
        "title": "西山省级风景名胜区公共厕所",
        "address": "湖北省鄂州市鄂城区公园路与武昌大道交叉口西北方向140米左右",
        "tel": "",
        "category": "基础设施:公共设施:公共厕所",
        "type": 0,
        "location": {
            "lat": 30.403311,
            "lng": 114.875385
        },
        "ad_info": {
            "adcode": 420704,
            "province": "湖北省",
            "city": "鄂州市",
            "district": "鄂城区"
        }
    },
    {
        "id": "7517255039954061145",
        "title": "公共厕所HUB-EZ-0017",
        "address": "湖北省鄂州市鄂城区汀祖四峰山生态示范园蔬果基地旁边",
        "tel": "",
        "category": "基础设施:公共设施:公共厕所",
        "type": 0,
        "location": {
            "lat": 30.23793,
            "lng": 114.919283
        },
        "ad_info": {
            "adcode": 420704,
            "province": "湖北省",
            "city": "鄂州市",
            "district": "鄂城区"
        }
    },
    {
        "id": "8038827803515108547",
        "title": "葛店开发区广场公共厕所",
        "address": "湖北省鄂州市华容区广场东路与葛洪大道交叉口西南方向112米左右",
        "tel": "",
        "category": "基础设施:公共设施:公共厕所",
        "type": 0,
        "location": {
            "lat": 30.541262,
            "lng": 114.68336
        },
        "ad_info": {
            "adcode": 420703,
            "province": "湖北省",
            "city": "鄂州市",
            "district": "华容区"
        }
    },
    {
        "id": "12812293111392483672",
        "title": "黄龙服务区第二公共厕所",
        "address": "湖北省鄂州市鄂城区S7武鄂高速附近",
        "tel": "",
        "category": "基础设施:公共设施:公共厕所",
        "type": 0,
        "location": {
            "lat": 30.333529,
            "lng": 114.967865
        },
        "ad_info": {
            "adcode": 420704,
            "province": "湖北省",
            "city": "鄂州市",
            "district": "鄂城区"
        }
    },
    {
        "id": "17276272938032092595",
        "title": "华容服务区第二公共厕所",
        "address": "湖北省鄂州市华容区中国石化鄂州三江服务区北加油站西南侧",
        "tel": "",
        "category": "基础设施:公共设施:公共厕所",
        "type": 0,
        "location": {
            "lat": 30.529279,
            "lng": 114.77795
        },
        "ad_info": {
            "adcode": 420703,
            "province": "湖北省",
            "city": "鄂州市",
            "district": "华容区"
        }
    },
    {
        "id": "1707079677968384913",
        "title": "华容服务区公共厕所",
        "address": "湖北省鄂州市华容区段浦线与段蒲线交叉口正南方向867米左右",
        "tel": "",
        "category": "基础设施:公共设施:公共厕所",
        "type": 0,
        "location": {
            "lat": 30.528027,
            "lng": 114.779441
        },
        "ad_info": {
            "adcode": 420703,
            "province": "湖北省",
            "city": "鄂州市",
            "district": "华容区"
        }
    },
    {
        "id": "4360789944209049893",
        "title": "葛店停车区公共厕所",
        "address": "湖北省鄂州市华容区田岭路与药谷二路交叉口正西方向529米左右",
        "tel": "",
        "category": "基础设施:公共设施:公共厕所",
        "type": 0,
        "location": {
            "lat": 30.515784,
            "lng": 114.640821
        },
        "ad_info": {
            "adcode": 420703,
            "province": "湖北省",
            "city": "鄂州市",
            "district": "华容区"
        }
    },
    {
        "id": "7313732417794890094",
        "title": "鄂州服务区公共厕所",
        "address": "湖北省鄂州市华容区云端西路与玉屏路交叉口西南方向406米左右",
        "tel": "",
        "category": "基础设施:公共设施:公共厕所",
        "type": 0,
        "location": {
            "lat": 30.449273,
            "lng": 114.593059
        },
        "ad_info": {
            "adcode": 420703,
            "province": "湖北省",
            "city": "鄂州市",
            "district": "华容区"
        }
    },
    {
        "id": "11049451498374832959",
        "title": "残障-洗手间",
        "address": "湖北省鄂州市鄂城区南浦路1号吴王天地广场F3",
        "tel": "",
        "category": "基础设施:公共设施:无障碍洗手间",
        "type": 0,
        "location": {
            "lat": 30.408275,
            "lng": 114.885969
        },
        "ad_info": {
            "adcode": 420704,
            "province": "湖北省",
            "city": "鄂州市",
            "district": "鄂城区"
        }
    },
    {
        "id": "7294013948820607790",
        "title": "男洗手间",
        "address": "湖北省鄂州市鄂城区南浦路1号吴王天地广场F2",
        "tel": "",
        "category": "基础设施:公共设施:男洗手间",
        "type": 0,
        "location": {
            "lat": 30.408271,
            "lng": 114.885932
        },
        "ad_info": {
            "adcode": 420704,
            "province": "湖北省",
            "city": "鄂州市",
            "district": "鄂城区"
        }
    },
    {
        "id": "12656479507679934823",
        "title": "男洗手间",
        "address": "湖北省鄂州市鄂城区南浦路1号吴王天地广场F3",
        "tel": "",
        "category": "基础设施:公共设施:男洗手间",
        "type": 0,
        "location": {
            "lat": 30.408272,
            "lng": 114.885931
        },
        "ad_info": {
            "adcode": 420704,
            "province": "湖北省",
            "city": "鄂州市",
            "district": "鄂城区"
        }
    },
    {
        "id": "10793722091076034311",
        "title": "男卫生间",
        "address": "湖北省鄂州市鄂城区南浦路特1号银泰百货(国贸店)F2",
        "tel": "",
        "category": "基础设施:公共设施:男洗手间",
        "type": 0,
        "location": {
            "lat": 30.397318,
            "lng": 114.884708
        },
        "ad_info": {
            "adcode": 420704,
            "province": "湖北省",
            "city": "鄂州市",
            "district": "鄂城区"
        }
    },
    {
        "id": "14741280315339455929",
        "title": "女洗手间",
        "address": "湖北省鄂州市鄂城区南浦路1号吴王天地广场F3",
        "tel": "",
        "category": "基础设施:公共设施:女洗手间",
        "type": 0,
        "location": {
            "lat": 30.408241,
            "lng": 114.885961
        },
        "ad_info": {
            "adcode": 420704,
            "province": "湖北省",
            "city": "鄂州市",
            "district": "鄂城区"
        }
    },
    {
        "id": "18187388717882432659",
        "title": "公共厕所",
        "address": "湖北省鄂州市华容区葛店镇横街与葛洪大道交叉口正东方向58米左右",
        "tel": "",
        "category": "基础设施:公共设施:公共厕所",
        "type": 0,
        "location": {
            "lat": 30.532062,
            "lng": 114.634284
        },
        "ad_info": {
            "adcode": 420703,
            "province": "湖北省",
            "city": "鄂州市",
            "district": "华容区"
        }
    },
    {
        "id": "1988590710709922642",
        "title": "公共厕所",
        "address": "湖北省鄂州市华容区华容正街与龙华路交叉口西北方向399米左右",
        "tel": "",
        "category": "基础设施:公共设施:公共厕所",
        "type": 0,
        "location": {
            "lat": 30.540164,
            "lng": 114.730933
        },
        "ad_info": {
            "adcode": 420703,
            "province": "湖北省",
            "city": "鄂州市",
            "district": "华容区"
        }
    },
    {
        "id": "16072706225865283884",
        "title": "公共厕所",
        "address": "湖北省鄂州市鄂城区昌林路与梁华路南交叉口正东方向315米左右",
        "tel": "",
        "category": "基础设施:公共设施:公共厕所",
        "type": 0,
        "location": {
            "lat": 30.378841,
            "lng": 114.869237
        },
        "ad_info": {
            "adcode": 420704,
            "province": "湖北省",
            "city": "鄂州市",
            "district": "鄂城区"
        }
    },
    {
        "id": "18434795293570190115",
        "title": "公共厕所",
        "address": "湖北省鄂州市鄂城区澜湾路洋澜小学",
        "tel": "",
        "category": "基础设施:公共设施:公共厕所",
        "type": 0,
        "location": {
            "lat": 30.367403,
            "lng": 114.888019
        },
        "ad_info": {
            "adcode": 420704,
            "province": "湖北省",
            "city": "鄂州市",
            "district": "鄂城区"
        }
    },
    {
        "id": "2065416083733631345",
        "title": "公共厕所",
        "address": "湖北省鄂州市鄂城区樊口街道杜山小学南侧250米",
        "tel": "",
        "category": "基础设施:公共设施:公共厕所",
        "type": 0,
        "location": {
            "lat": 30.392602,
            "lng": 114.815759
        },
        "ad_info": {
            "adcode": 420704,
            "province": "湖北省",
            "city": "鄂州市",
            "district": "鄂城区"
        }
    },
    {
        "id": "4611413775863319486",
        "title": "公共厕所",
        "address": "湖北省鄂州市鄂城区楼下步行街与江碧路交叉口正西方向183米左右",
        "tel": "",
        "category": "基础设施:公共设施:公共厕所",
        "type": 0,
        "location": {
            "lat": 30.335846,
            "lng": 114.867787
        },
        "ad_info": {
            "adcode": 420704,
            "province": "湖北省",
            "city": "鄂州市",
            "district": "鄂城区"
        }
    },
    {
        "id": "1967761753162793281",
        "title": "公共厕所",
        "address": "湖北省鄂州市华容区仁慧路与广场西路交叉口正东方向63米左右",
        "tel": "",
        "category": "基础设施:公共设施:公共厕所",
        "type": 0,
        "location": {
            "lat": 30.538972,
            "lng": 114.682868
        },
        "ad_info": {
            "adcode": 420703,
            "province": "湖北省",
            "city": "鄂州市",
            "district": "华容区"
        }
    },
    {
        "id": "12197407467600339197",
        "title": "公共厕所",
        "address": "湖北省鄂州市华容区湖北珮金包装材料有限公司西北侧80米",
        "tel": "",
        "category": "基础设施:公共设施:公共厕所",
        "type": 0,
        "location": {
            "lat": 30.51153,
            "lng": 114.670243
        },
        "ad_info": {
            "adcode": 420703,
            "province": "湖北省",
            "city": "鄂州市",
            "district": "华容区"
        }
    },
    {
        "id": "2503113111073253951",
        "title": "公共厕所",
        "address": "湖北省鄂州市鄂城区华中国际石材博览城西侧290米",
        "tel": "",
        "category": "基础设施:公共设施:公共厕所",
        "type": 0,
        "location": {
            "lat": 30.316654,
            "lng": 114.89888
        },
        "ad_info": {
            "adcode": 420704,
            "province": "湖北省",
            "city": "鄂州市",
            "district": "鄂城区"
        }
    },
    {
        "id": "18205051502635762753",
        "title": "无障碍公共厕所",
        "address": "湖北省鄂州市华容区建设大道与高新五路交叉口正东方向178米左右",
        "tel": "",
        "category": "基础设施:公共设施:公共厕所",
        "type": 0,
        "location": {
            "lat": 30.507331,
            "lng": 114.663474
        },
        "ad_info": {
            "adcode": 420703,
            "province": "湖北省",
            "city": "鄂州市",
            "district": "华容区"
        }
    },
    {
        "id": "1520290741433662014",
        "title": "公共厕所",
        "address": "湖北省鄂州市鄂城区碧黄线与肖汀线交叉口西北方向336米左右",
        "tel": "",
        "category": "基础设施:公共设施:公共厕所",
        "type": 0,
        "location": {
            "lat": 30.227378,
            "lng": 114.983354
        },
        "ad_info": {
            "adcode": 420704,
            "province": "湖北省",
            "city": "鄂州市",
            "district": "鄂城区"
        }
    },
    {
        "id": "16192773032105845477",
        "title": "残障-洗手间",
        "address": "湖北省鄂州市鄂城区南浦路1号吴王天地广场F2",
        "tel": "",
        "category": "基础设施:公共设施:无障碍洗手间",
        "type": 0,
        "location": {
            "lat": 30.408274,
            "lng": 114.885969
        },
        "ad_info": {
            "adcode": 420704,
            "province": "湖北省",
            "city": "鄂州市",
            "district": "鄂城区"
        }
    },
    {
        "id": "10346387171733440328",
        "title": "公共厕所",
        "address": "湖北省鄂州市鄂城区X002与东长岭大桥交叉口东南方向767米左右",
        "tel": "",
        "category": "基础设施:公共设施:公共厕所",
        "type": 0,
        "location": {
            "lat": 30.34235,
            "lng": 114.82514
        },
        "ad_info": {
            "adcode": 420704,
            "province": "湖北省",
            "city": "鄂州市",
            "district": "鄂城区"
        }
    },
    {
        "id": "3620516110460792779",
        "title": "公共厕所",
        "address": "湖北省鄂州市鄂城区鄂州老年大学东北侧110米",
        "tel": "",
        "category": "基础设施:公共设施:公共厕所",
        "type": 0,
        "location": {
            "lat": 30.366704,
            "lng": 114.918877
        },
        "ad_info": {
            "adcode": 420704,
            "province": "湖北省",
            "city": "鄂州市",
            "district": "鄂城区"
        }
    },
    {
        "id": "1739676100835230852",
        "title": "女洗手间",
        "address": "湖北省鄂州市鄂城区南浦路1号吴王天地广场F2",
        "tel": "",
        "category": "基础设施:公共设施:女洗手间",
        "type": 0,
        "location": {
            "lat": 30.408244,
            "lng": 114.885961
        },
        "ad_info": {
            "adcode": 420704,
            "province": "湖北省",
            "city": "鄂州市",
            "district": "鄂城区"
        }
    },
    {
        "id": "8429959833560334690",
        "title": "男卫生间",
        "address": "湖北省鄂州市鄂城区南浦路特1号银泰百货(国贸店)F3",
        "tel": "",
        "category": "基础设施:公共设施:男洗手间",
        "type": 0,
        "location": {
            "lat": 30.397332,
            "lng": 114.884706
        },
        "ad_info": {
            "adcode": 420704,
            "province": "湖北省",
            "city": "鄂州市",
            "district": "鄂城区"
        }
    },
    {
        "id": "4867692838191817916",
        "title": "西山省级风景名胜区-公共厕所",
        "address": "湖北省鄂州市鄂城区公园路与武昌大道交叉口正北方向80米左右",
        "tel": "",
        "category": "基础设施:公共设施:公共厕所",
        "type": 0,
        "location": {
            "lat": 30.403001,
            "lng": 114.876006
        },
        "ad_info": {
            "adcode": 420704,
            "province": "湖北省",
            "city": "鄂州市",
            "district": "鄂城区"
        }
    },
    {
        "id": "1718400894116499220",
        "title": "公共厕所",
        "address": "湖北省鄂州市鄂城区汀坳小学西侧150米",
        "tel": "",
        "category": "基础设施:公共设施:公共厕所",
        "type": 0,
        "location": {
            "lat": 30.252771,
            "lng": 114.959298
        },
        "ad_info": {
            "adcode": 420704,
            "province": "湖北省",
            "city": "鄂州市",
            "district": "鄂城区"
        }
    },
    {
        "id": "514826861826016396",
        "title": "公共厕所",
        "address": "湖北省鄂州市鄂城区沿江大道8号",
        "tel": "",
        "category": "基础设施:公共设施:公共厕所",
        "type": 0,
        "location": {
            "lat": 30.413467,
            "lng": 114.853285
        },
        "ad_info": {
            "adcode": 420704,
            "province": "湖北省",
            "city": "鄂州市",
            "district": "鄂城区"
        }
    },
    {
        "id": "1492357292752475974",
        "title": "女卫生间",
        "address": "湖北省鄂州市鄂城区南浦路特1号银泰百货(国贸店)F3",
        "tel": "",
        "category": "基础设施:公共设施:女洗手间",
        "type": 0,
        "location": {
            "lat": 30.397347,
            "lng": 114.884706
        },
        "ad_info": {
            "adcode": 420704,
            "province": "湖北省",
            "city": "鄂州市",
            "district": "鄂城区"
        }
    },
    {
        "id": "2360527299988169766",
        "title": "公共厕所",
        "address": "湖北省鄂州市鄂城区银山小学东南侧140米",
        "tel": "",
        "category": "基础设施:公共设施:公共厕所",
        "type": 0,
        "location": {
            "lat": 30.335478,
            "lng": 114.895012
        },
        "ad_info": {
            "adcode": 420704,
            "province": "湖北省",
            "city": "鄂州市",
            "district": "鄂城区"
        }
    },
    {
        "id": "7714691813441052870",
        "title": "公共厕所",
        "address": "湖北省鄂州市华容区建设大道与智慧街交叉口正北方向71米左右",
        "tel": "",
        "category": "基础设施:公共设施:公共厕所",
        "type": 0,
        "location": {
            "lat": 30.498368,
            "lng": 114.661133
        },
        "ad_info": {
            "adcode": 420703,
            "province": "湖北省",
            "city": "鄂州市",
            "district": "华容区"
        }
    },
    {
        "id": "14130582543648559239",
        "title": "公共厕所",
        "address": "湖北省鄂州市鄂城区广山路与滨湖西路交叉口正北方向103米左右",
        "tel": "",
        "category": "基础设施:公共设施:公共厕所",
        "type": 0,
        "location": {
            "lat": 30.354432,
            "lng": 114.875183
        },
        "ad_info": {
            "adcode": 420704,
            "province": "湖北省",
            "city": "鄂州市",
            "district": "鄂城区"
        }
    },
    {
        "id": "10853584415439136379",
        "title": "公共厕所",
        "address": "湖北省鄂州市鄂城区凤凰路与滨湖北路交叉口正南方向111米左右",
        "tel": "",
        "category": "基础设施:公共设施:公共厕所",
        "type": 0,
        "location": {
            "lat": 30.391448,
            "lng": 114.897597
        },
        "ad_info": {
            "adcode": 420704,
            "province": "湖北省",
            "city": "鄂州市",
            "district": "鄂城区"
        }
    },
    {
        "id": "6538027206290915003",
        "title": "公共厕所",
        "address": "湖北省鄂州市鄂城区滨湖东路与银海路交叉口正北方向92米左右",
        "tel": "",
        "category": "基础设施:公共设施:公共厕所",
        "type": 0,
        "location": {
            "lat": 30.377768,
            "lng": 114.914564
        },
        "ad_info": {
            "adcode": 420704,
            "province": "湖北省",
            "city": "鄂州市",
            "district": "鄂城区"
        }
    },
    {
        "id": "12558066936770007182",
        "title": "公共厕所",
        "address": "湖北省鄂州市华容区三号路与兴华路交叉口正南方向356米左右",
        "tel": "",
        "category": "基础设施:公共设施:公共厕所",
        "type": 0,
        "location": {
            "lat": 30.518189,
            "lng": 114.743312
        },
        "ad_info": {
            "adcode": 420703,
            "province": "湖北省",
            "city": "鄂州市",
            "district": "华容区"
        }
    },
    {
        "id": "13303590579592887935",
        "title": "公共厕所",
        "address": "湖北省鄂州市鄂城区武昌大道509号",
        "tel": "",
        "category": "基础设施:公共设施:公共厕所",
        "type": 0,
        "location": {
            "lat": 30.398,
            "lng": 114.921513
        },
        "ad_info": {
            "adcode": 420704,
            "province": "湖北省",
            "city": "鄂州市",
            "district": "鄂城区"
        }
    },
    {
        "id": "12942347820025556960",
        "title": "太和停车区公共厕所",
        "address": "湖北省鄂州市梁子湖区S31鄂咸高速与太和停车区交叉口西220米",
        "tel": "",
        "category": "基础设施:公共设施:公共厕所",
        "type": 0,
        "location": {
            "lat": 30.033131,
            "lng": 114.660336
        },
        "ad_info": {
            "adcode": 420702,
            "province": "湖北省",
            "city": "鄂州市",
            "district": "梁子湖区"
        }
    },
    {
        "id": "1396465775247148608",
        "title": "公共厕所",
        "address": "湖北省鄂州市华容区仁慧路与兆麟大道交叉口正南方向41米左右",
        "tel": "",
        "category": "基础设施:公共设施:公共厕所",
        "type": 0,
        "location": {
            "lat": 30.534016,
            "lng": 114.682485
        },
        "ad_info": {
            "adcode": 420703,
            "province": "湖北省",
            "city": "鄂州市",
            "district": "华容区"
        }
    },
    {
        "id": "8171156358604397753",
        "title": "公共厕所",
        "address": "湖北省鄂州市华容区蒲团互通与G50沪渝高速交叉口西320米",
        "tel": "",
        "category": "基础设施:公共设施:公共厕所",
        "type": 0,
        "location": {
            "lat": 30.40445,
            "lng": 114.729965
        },
        "ad_info": {
            "adcode": 420703,
            "province": "湖北省",
            "city": "鄂州市",
            "district": "华容区"
        }
    },
    {
        "id": "8751036555473273248",
        "title": "黄龙服务区公共厕所",
        "address": "湖北省鄂州市鄂城区武鄂高速黄龙服务区",
        "tel": "",
        "category": "基础设施:公共设施:公共厕所",
        "type": 0,
        "location": {
            "lat": 30.333437,
            "lng": 114.966467
        },
        "ad_info": {
            "adcode": 420704,
            "province": "湖北省",
            "city": "鄂州市",
            "district": "鄂城区"
        }
    },
    {
        "id": "11136354577973874965",
        "title": "公共厕所",
        "address": "湖北省鄂州市梁子湖区福成路21号",
        "tel": "",
        "category": "基础设施:公共设施:公共厕所",
        "type": 0,
        "location": {
            "lat": 30.095642,
            "lng": 114.684997
        },
        "ad_info": {
            "adcode": 420702,
            "province": "湖北省",
            "city": "鄂州市",
            "district": "梁子湖区"
        }
    },
    {
        "id": "7710871118344782966",
        "title": "公共厕所",
        "address": "湖北省鄂州市梁子湖区东湖大道与珍珠大道交叉口正北方向1117米左右",
        "tel": "",
        "category": "基础设施:公共设施:公共厕所",
        "type": 0,
        "location": {
            "lat": 30.268404,
            "lng": 114.661485
        },
        "ad_info": {
            "adcode": 420702,
            "province": "湖北省",
            "city": "鄂州市",
            "district": "梁子湖区"
        }
    },
    {
        "id": "14013819249891203138",
        "title": "公共厕所",
        "address": "湖北省鄂州市梁子湖区圆梦少儿美术西北侧160米",
        "tel": "",
        "category": "基础设施:公共设施:公共厕所",
        "type": 0,
        "location": {
            "lat": 30.172378,
            "lng": 114.666236
        },
        "ad_info": {
            "adcode": 420702,
            "province": "湖北省",
            "city": "鄂州市",
            "district": "梁子湖区"
        }
    },
    {
        "id": "2041074419647963898",
        "title": "公共厕所",
        "address": "湖北省鄂州市鄂城区Y005与建设路交叉口西南方向1349米左右",
        "tel": "",
        "category": "基础设施:公共设施:公共厕所",
        "type": 0,
        "location": {
            "lat": 30.370367,
            "lng": 114.794652
        },
        "ad_info": {
            "adcode": 420704,
            "province": "湖北省",
            "city": "鄂州市",
            "district": "鄂城区"
        }
    },
    {
        "id": "5652427567215114902",
        "title": "公共厕所",
        "address": "湖北省鄂州市鄂城区寒溪路与沿江大道交叉口正西方向261米左右",
        "tel": "",
        "category": "基础设施:公共设施:公共厕所",
        "type": 0,
        "location": {
            "lat": 30.41183,
            "lng": 114.874439
        },
        "ad_info": {
            "adcode": 420704,
            "province": "湖北省",
            "city": "鄂州市",
            "district": "鄂城区"
        }
    },
    {
        "id": "13216486707374779732",
        "title": "公共厕所",
        "address": "湖北省鄂州市鄂城区双港大道与建设路交叉口正东方向890米左右",
        "tel": "",
        "category": "基础设施:公共设施:公共厕所",
        "type": 0,
        "location": {
            "lat": 30.334351,
            "lng": 114.699559
        },
        "ad_info": {
            "adcode": 420704,
            "province": "湖北省",
            "city": "鄂州市",
            "district": "鄂城区"
        }
    },
    {
        "id": "14180430349619896144",
        "title": "华容服务区公共厕所",
        "address": "湖北省鄂州市华容区段浦线与段蒲线交叉口正南方向635米左右",
        "tel": "",
        "category": "基础设施:公共设施:公共厕所",
        "type": 0,
        "location": {
            "lat": 30.530131,
            "lng": 114.779049
        },
        "ad_info": {
            "adcode": 420703,
            "province": "湖北省",
            "city": "鄂州市",
            "district": "华容区"
        }
    },
    {
        "id": "2562235201311057512",
        "title": "公共厕所",
        "address": "湖北省鄂州市鄂城区大广高速与沪渝高速交叉口正西方向908米左右",
        "tel": "",
        "category": "基础设施:公共设施:公共厕所",
        "type": 0,
        "location": {
            "lat": 30.247804,
            "lng": 115.013341
        },
        "ad_info": {
            "adcode": 420704,
            "province": "湖北省",
            "city": "鄂州市",
            "district": "鄂城区"
        }
    },
    {
        "id": "6618049765612511338",
        "title": "公共厕所",
        "address": "湖北省鄂州市鄂城区江碧路与马鞍山路交叉口正北方向166米左右",
        "tel": "",
        "category": "基础设施:公共设施:公共厕所",
        "type": 0,
        "location": {
            "lat": 30.354907,
            "lng": 114.869894
        },
        "ad_info": {
            "adcode": 420704,
            "province": "湖北省",
            "city": "鄂州市",
            "district": "鄂城区"
        }
    },
    {
        "id": "9907916501186510675",
        "title": "公共厕所",
        "address": "湖北省鄂州市鄂城区凤鸣路与鄂东大道交叉口正东方向274米左右",
        "tel": "",
        "category": "基础设施:公共设施:公共厕所",
        "type": 0,
        "location": {
            "lat": 30.387477,
            "lng": 114.966409
        },
        "ad_info": {
            "adcode": 420704,
            "province": "湖北省",
            "city": "鄂州市",
            "district": "鄂城区"
        }
    },
    {
        "id": "5185748451634076382",
        "title": "卫生间",
        "address": "湖北省鄂州市鄂城区南浦路特1号银泰百货(国贸店)F4",
        "tel": "",
        "category": "基础设施:公共设施:公共厕所",
        "type": 0,
        "location": {
            "lat": 30.397336,
            "lng": 114.884716
        },
        "ad_info": {
            "adcode": 420704,
            "province": "湖北省",
            "city": "鄂州市",
            "district": "鄂城区"
        }
    },
    {
        "id": "5164003123048941616",
        "title": "公共厕所",
        "address": "湖北省鄂州市鄂城区江碧路与葛山大道交叉口正东方向173米左右",
        "tel": "",
        "category": "基础设施:公共设施:公共厕所",
        "type": 0,
        "location": {
            "lat": 30.349861,
            "lng": 114.871209
        },
        "ad_info": {
            "adcode": 420704,
            "province": "湖北省",
            "city": "鄂州市",
            "district": "鄂城区"
        }
    },
    {
        "id": "13020854964852323146",
        "title": "黄龙服务区第二公共厕所",
        "address": "湖北省鄂州市鄂城区沙杨路与燕沙路交叉口正南方向1870米左右",
        "tel": "",
        "category": "基础设施:公共设施:公共厕所",
        "type": 0,
        "location": {
            "lat": 30.335571,
            "lng": 114.966986
        },
        "ad_info": {
            "adcode": 420704,
            "province": "湖北省",
            "city": "鄂州市",
            "district": "鄂城区"
        }
    },
    {
        "id": "10091683406787428367",
        "title": "公共厕所",
        "address": "湖北省鄂州市华容区光华大道与葛洪大道交叉口正东方向370米左右",
        "tel": "",
        "category": "基础设施:公共设施:公共厕所",
        "type": 0,
        "location": {
            "lat": 30.54041,
            "lng": 114.695805
        },
        "ad_info": {
            "adcode": 420703,
            "province": "湖北省",
            "city": "鄂州市",
            "district": "华容区"
        }
    },
    {
        "id": "588213846120969313",
        "title": "公共厕所",
        "address": "湖北省鄂州市鄂城区大桥路与鄂燕老路交叉口西北方向87米左右",
        "tel": "",
        "category": "基础设施:公共设施:公共厕所",
        "type": 0,
        "location": {
            "lat": 30.388566,
            "lng": 114.920483
        },
        "ad_info": {
            "adcode": 420704,
            "province": "湖北省",
            "city": "鄂州市",
            "district": "鄂城区"
        }
    },
    {
        "id": "8106859867507278217",
        "title": "公共厕所",
        "address": "湖北省鄂州市梁子湖区",
        "tel": "",
        "category": "基础设施:公共设施:公共厕所",
        "type": 0,
        "location": {
            "lat": 30.069648,
            "lng": 114.596968
        },
        "ad_info": {
            "adcode": 420702,
            "province": "湖北省",
            "city": "鄂州市",
            "district": "梁子湖区"
        }
    },
    {
        "id": "18245392701958863150",
        "title": "公共厕所",
        "address": "湖北省鄂州市华容区吴楚大道辅路与沐武南路交叉口西北方向107米左右",
        "tel": "",
        "category": "基础设施:公共设施:公共厕所",
        "type": 0,
        "location": {
            "lat": 30.485357,
            "lng": 114.700789
        },
        "ad_info": {
            "adcode": 420703,
            "province": "湖北省",
            "city": "鄂州市",
            "district": "华容区"
        }
    },
    {
        "id": "5819838339514951999",
        "title": "公共厕所",
        "address": "湖北省鄂州市梁子湖区东湖大道与珍珠大道交叉口正南方向91米左右",
        "tel": "",
        "category": "基础设施:公共设施:公共厕所",
        "type": 0,
        "location": {
            "lat": 30.258238,
            "lng": 114.656943
        },
        "ad_info": {
            "adcode": 420702,
            "province": "湖北省",
            "city": "鄂州市",
            "district": "梁子湖区"
        }
    },
    {
        "id": "8318776803192650356",
        "title": "公共厕所",
        "address": "湖北省鄂州市鄂城区江海路与江碧路交叉口正北方向432米左右",
        "tel": "",
        "category": "基础设施:公共设施:公共厕所",
        "type": 0,
        "location": {
            "lat": 30.318296,
            "lng": 114.866018
        },
        "ad_info": {
            "adcode": 420704,
            "province": "湖北省",
            "city": "鄂州市",
            "district": "鄂城区"
        }
    },
    {
        "id": "4528296476394968583",
        "title": "公共厕所",
        "address": "湖北省鄂州市鄂城区江碧路与花园南路交叉口正北方向103米左右",
        "tel": "",
        "category": "基础设施:公共设施:公共厕所",
        "type": 0,
        "location": {
            "lat": 30.376738,
            "lng": 114.8693
        },
        "ad_info": {
            "adcode": 420704,
            "province": "湖北省",
            "city": "鄂州市",
            "district": "鄂城区"
        }
    },
    {
        "id": "13368138275147385884",
        "title": "公共厕所",
        "address": "湖北省鄂州市鄂城区儒学巷与明塘路交叉口正北方向14米左右",
        "tel": "",
        "category": "基础设施:公共设施:公共厕所",
        "type": 0,
        "location": {
            "lat": 30.400848,
            "lng": 114.884736
        },
        "ad_info": {
            "adcode": 420704,
            "province": "湖北省",
            "city": "鄂州市",
            "district": "鄂城区"
        }
    },
    {
        "id": "3809541275727423260",
        "title": "公共厕所",
        "address": "湖北省鄂州市华容区交通路47号",
        "tel": "",
        "category": "基础设施:公共设施:公共厕所",
        "type": 0,
        "location": {
            "lat": 30.533438,
            "lng": 114.737472
        },
        "ad_info": {
            "adcode": 420703,
            "province": "湖北省",
            "city": "鄂州市",
            "district": "华容区"
        }
    },
    {
        "id": "15801947635259792132",
        "title": "公共厕所",
        "address": "湖北省鄂州市鄂城区古城路20-1号",
        "tel": "",
        "category": "基础设施:公共设施:公共厕所",
        "type": 0,
        "location": {
            "lat": 30.401281,
            "lng": 114.893069
        },
        "ad_info": {
            "adcode": 420704,
            "province": "湖北省",
            "city": "鄂州市",
            "district": "鄂城区"
        }
    },
    {
        "id": "16767052917393847696",
        "title": "公共厕所",
        "address": "湖北省鄂州市鄂城区武昌鱼路与沿江大道交叉口正东方向621米左右",
        "tel": "",
        "category": "基础设施:公共设施:公共厕所",
        "type": 0,
        "location": {
            "lat": 30.412788,
            "lng": 114.864916
        },
        "ad_info": {
            "adcode": 420704,
            "province": "湖北省",
            "city": "鄂州市",
            "district": "鄂城区"
        }
    },
    {
        "id": "4793889219937996738",
        "title": "公共厕所",
        "address": "湖北省鄂州市鄂城区古楼街与武昌大道交叉口正南方向159米左右",
        "tel": "",
        "category": "基础设施:公共设施:公共厕所",
        "type": 0,
        "location": {
            "lat": 30.402423,
            "lng": 114.884309
        },
        "ad_info": {
            "adcode": 420704,
            "province": "湖北省",
            "city": "鄂州市",
            "district": "鄂城区"
        }
    },
    {
        "id": "6863536202102631561",
        "title": "公共厕所",
        "address": "湖北省鄂州市华容区吉刘街与樊蒲大道交叉口正东方向319米左右",
        "tel": "",
        "category": "基础设施:公共设施:公共厕所",
        "type": 0,
        "location": {
            "lat": 30.405772,
            "lng": 114.739691
        },
        "ad_info": {
            "adcode": 420703,
            "province": "湖北省",
            "city": "鄂州市",
            "district": "华容区"
        }
    },
    {
        "id": "13838826002627301655",
        "title": "黄龙服务区公共厕所",
        "address": "湖北省鄂州市鄂城区沙杨路与燕沙路交叉口正南方向1830米左右",
        "tel": "",
        "category": "基础设施:公共设施:公共厕所",
        "type": 0,
        "location": {
            "lat": 30.335572,
            "lng": 114.968516
        },
        "ad_info": {
            "adcode": 420704,
            "province": "湖北省",
            "city": "鄂州市",
            "district": "鄂城区"
        }
    },
    {
        "id": "12750946906822922788",
        "title": "女卫生间",
        "address": "湖北省鄂州市鄂城区南浦路特1号银泰百货(国贸店)F2",
        "tel": "",
        "category": "基础设施:公共设施:女洗手间",
        "type": 0,
        "location": {
            "lat": 30.39734,
            "lng": 114.884711
        },
        "ad_info": {
            "adcode": 420704,
            "province": "湖北省",
            "city": "鄂州市",
            "district": "鄂城区"
        }
    },
    {
        "id": "3496232139810118122",
        "title": "无障碍公共厕所",
        "address": "湖北省鄂州市梁子湖区博爱路与文化三路交叉口东北方向24米左右",
        "tel": "",
        "category": "基础设施:公共设施:公共厕所",
        "type": 0,
        "location": {
            "lat": 30.325874,
            "lng": 114.607317
        },
        "ad_info": {
            "adcode": 420702,
            "province": "湖北省",
            "city": "鄂州市",
            "district": "梁子湖区"
        }
    },
    {
        "id": "16472736361659682965",
        "title": "公共厕所",
        "address": "湖北省鄂州市鄂城区滨湖西路官柳游园(东北角)",
        "tel": "",
        "category": "基础设施:公共设施:公共厕所",
        "type": 0,
        "location": {
            "lat": 30.386181,
            "lng": 114.877755
        },
        "ad_info": {
            "adcode": 420704,
            "province": "湖北省",
            "city": "鄂州市",
            "district": "鄂城区"
        }
    },
    {
        "id": "1745834972557037203",
        "title": "公共厕所",
        "address": "湖北省鄂州市华容区华容镇熊咀村卫生室东南侧",
        "tel": "",
        "category": "基础设施:公共设施:公共厕所",
        "type": 0,
        "location": {
            "lat": 30.552994,
            "lng": 114.729135
        },
        "ad_info": {
            "adcode": 420703,
            "province": "湖北省",
            "city": "鄂州市",
            "district": "华容区"
        }
    },
    {
        "id": "10307137199717119869",
        "title": "公共厕所",
        "address": "湖北省鄂州市鄂城区江碧路与泽翁路交叉口正北方向146米左右",
        "tel": "",
        "category": "基础设施:公共设施:公共厕所",
        "type": 0,
        "location": {
            "lat": 30.345329,
            "lng": 114.868864
        },
        "ad_info": {
            "adcode": 420704,
            "province": "湖北省",
            "city": "鄂州市",
            "district": "鄂城区"
        }
    },
    {
        "id": "2219530936017250908",
        "title": "公共厕所",
        "address": "湖北省鄂州市华容区电商大道与药谷三路交叉口正东方向305米左右",
        "tel": "",
        "category": "基础设施:公共设施:公共厕所",
        "type": 0,
        "location": {
            "lat": 30.516527,
            "lng": 114.67021
        },
        "ad_info": {
            "adcode": 420703,
            "province": "湖北省",
            "city": "鄂州市",
            "district": "华容区"
        }
    },
    {
        "id": "9414900813138847379",
        "title": "公共厕所",
        "address": "湖北省鄂州市鄂城区庙鹅岭二巷与隆泰路交叉口正北方向125米左右",
        "tel": "",
        "category": "基础设施:公共设施:公共厕所",
        "type": 0,
        "location": {
            "lat": 30.395135,
            "lng": 114.881547
        },
        "ad_info": {
            "adcode": 420704,
            "province": "湖北省",
            "city": "鄂州市",
            "district": "鄂城区"
        }
    },
    {
        "id": "17104145371726061745",
        "title": "公共厕所",
        "address": "湖北省鄂州市华容区蒲团中心小学东北侧110米",
        "tel": "",
        "category": "基础设施:公共设施:公共厕所",
        "type": 0,
        "location": {
            "lat": 30.427607,
            "lng": 114.773016
        },
        "ad_info": {
            "adcode": 420703,
            "province": "湖北省",
            "city": "鄂州市",
            "district": "华容区"
        }
    },
    {
        "id": "16582555668888438059",
        "title": "公共厕所",
        "address": "湖北省鄂州市鄂城区十字街与龙家巷交叉口西北200米",
        "tel": "",
        "category": "基础设施:公共设施:公共厕所",
        "type": 0,
        "location": {
            "lat": 30.406067,
            "lng": 114.890729
        },
        "ad_info": {
            "adcode": 420704,
            "province": "湖北省",
            "city": "鄂州市",
            "district": "鄂城区"
        }
    }
]