[
    {
        "id": "12643475676885773805",
        "title": "公共厕所",
        "address": "甘肃省酒泉市肃州区东大街与卫生街交叉口正北方向65米左右",
        "tel": "",
        "category": "基础设施:公共设施:公共厕所",
        "type": 0,
        "location": {
            "lat": 39.744937,
            "lng": 98.512742
        },
        "ad_info": {
            "adcode": 620902,
            "province": "甘肃省",
            "city": "酒泉市",
            "district": "肃州区"
        }
    },
    {
        "id": "17735616416650381710",
        "title": "公共厕所",
        "address": "甘肃省酒泉市肃州区酒金东路9号",
        "tel": "",
        "category": "基础设施:公共设施:公共厕所",
        "type": 0,
        "location": {
            "lat": 39.751953,
            "lng": 98.514781
        },
        "ad_info": {
            "adcode": 620902,
            "province": "甘肃省",
            "city": "酒泉市",
            "district": "肃州区"
        }
    },
    {
        "id": "6346621747831485411",
        "title": "公共厕所",
        "address": "甘肃省酒泉市肃州区金塔路光明御苑",
        "tel": "",
        "category": "基础设施:公共设施:公共厕所",
        "type": 0,
        "location": {
            "lat": 39.74267,
            "lng": 98.48524
        },
        "ad_info": {
            "adcode": 620902,
            "province": "甘肃省",
            "city": "酒泉市",
            "district": "肃州区"
        }
    },
    {
        "id": "5232275315684340499",
        "title": "公共厕所",
        "address": "甘肃省酒泉市肃州区仓门街与大明步行街交叉口正南方向86米左右",
        "tel": "",
        "category": "基础设施:公共设施:公共厕所",
        "type": 0,
        "location": {
            "lat": 39.745724,
            "lng": 98.508513
        },
        "ad_info": {
            "adcode": 620902,
            "province": "甘肃省",
            "city": "酒泉市",
            "district": "肃州区"
        }
    },
    {
        "id": "11345947139112554924",
        "title": "公共厕所",
        "address": "甘肃省酒泉市肃州区敦煌路18号",
        "tel": "",
        "category": "基础设施:公共设施:公共厕所",
        "type": 0,
        "location": {
            "lat": 39.72882,
            "lng": 98.495217
        },
        "ad_info": {
            "adcode": 620902,
            "province": "甘肃省",
            "city": "酒泉市",
            "district": "肃州区"
        }
    },
    {
        "id": "15799597796951532736",
        "title": "公共厕所",
        "address": "甘肃省酒泉市肃州区南苑路与解放路交叉口正南方向66米左右",
        "tel": "",
        "category": "基础设施:公共设施:公共厕所",
        "type": 0,
        "location": {
            "lat": 39.733559,
            "lng": 98.509549
        },
        "ad_info": {
            "adcode": 620902,
            "province": "甘肃省",
            "city": "酒泉市",
            "district": "肃州区"
        }
    },
    {
        "id": "11734492735931408534",
        "title": "公共厕所",
        "address": "甘肃省酒泉市肃州区仓门街与南市街交叉口正南方向84米左右",
        "tel": "",
        "category": "基础设施:公共设施:公共厕所",
        "type": 0,
        "location": {
            "lat": 39.743958,
            "lng": 98.508143
        },
        "ad_info": {
            "adcode": 620902,
            "province": "甘肃省",
            "city": "酒泉市",
            "district": "肃州区"
        }
    },
    {
        "id": "2567911740791296453",
        "title": "公共厕所",
        "address": "甘肃省酒泉市肃州区清泉路与玉门西路交叉口东北方向68米左右",
        "tel": "",
        "category": "基础设施:公共设施:公共厕所",
        "type": 0,
        "location": {
            "lat": 39.734924,
            "lng": 98.473764
        },
        "ad_info": {
            "adcode": 620902,
            "province": "甘肃省",
            "city": "酒泉市",
            "district": "肃州区"
        }
    },
    {
        "id": "16624642536441390432",
        "title": "公共厕所",
        "address": "甘肃省酒泉市肃州区安居路与酒银路交叉口东北方向68米左右",
        "tel": "",
        "category": "基础设施:公共设施:公共厕所",
        "type": 0,
        "location": {
            "lat": 39.757302,
            "lng": 98.516056
        },
        "ad_info": {
            "adcode": 620902,
            "province": "甘肃省",
            "city": "酒泉市",
            "district": "肃州区"
        }
    },
    {
        "id": "9158509229949941274",
        "title": "公共厕所",
        "address": "甘肃省酒泉市肃州区南城巷与盘旋中路交叉口正东方向144米左右",
        "tel": "",
        "category": "基础设施:公共设施:公共厕所",
        "type": 0,
        "location": {
            "lat": 39.736652,
            "lng": 98.507698
        },
        "ad_info": {
            "adcode": 620902,
            "province": "甘肃省",
            "city": "酒泉市",
            "district": "肃州区"
        }
    },
    {
        "id": "9540179658460515358",
        "title": "公共厕所",
        "address": "甘肃省酒泉市肃州区盘旋西路酒泉市中医院",
        "tel": "",
        "category": "基础设施:公共设施:公共厕所",
        "type": 0,
        "location": {
            "lat": 39.73746,
            "lng": 98.494952
        },
        "ad_info": {
            "adcode": 620902,
            "province": "甘肃省",
            "city": "酒泉市",
            "district": "肃州区"
        }
    },
    {
        "id": "1097893147354997342",
        "title": "公共卫生间",
        "address": "甘肃省酒泉市肃州区共和街44号",
        "tel": "",
        "category": "基础设施:公共设施:公共厕所",
        "type": 0,
        "location": {
            "lat": 39.746187,
            "lng": 98.514897
        },
        "ad_info": {
            "adcode": 620902,
            "province": "甘肃省",
            "city": "酒泉市",
            "district": "肃州区"
        }
    },
    {
        "id": "12027404741996371788",
        "title": "公共厕所",
        "address": "甘肃省酒泉市肃州区民意街22号",
        "tel": "",
        "category": "基础设施:公共设施:公共厕所",
        "type": 0,
        "location": {
            "lat": 39.741915,
            "lng": 98.512104
        },
        "ad_info": {
            "adcode": 620902,
            "province": "甘肃省",
            "city": "酒泉市",
            "district": "肃州区"
        }
    },
    {
        "id": "3284145698023238147",
        "title": "公共厕所",
        "address": "甘肃省酒泉市肃州区霞飞路映雪园",
        "tel": "",
        "category": "基础设施:公共设施:公共厕所",
        "type": 0,
        "location": {
            "lat": 39.744121,
            "lng": 98.490634
        },
        "ad_info": {
            "adcode": 620902,
            "province": "甘肃省",
            "city": "酒泉市",
            "district": "肃州区"
        }
    },
    {
        "id": "2557890529719819425",
        "title": "公共厕所",
        "address": "甘肃省酒泉市肃州区巨龙御园-东区",
        "tel": "",
        "category": "基础设施:公共设施:公共厕所",
        "type": 0,
        "location": {
            "lat": 39.74806,
            "lng": 98.528826
        },
        "ad_info": {
            "adcode": 620902,
            "province": "甘肃省",
            "city": "酒泉市",
            "district": "肃州区"
        }
    },
    {
        "id": "15420074696653171824",
        "title": "公共厕所",
        "address": "甘肃省酒泉市肃州区宝泉东路与广场东路交叉口正北方向141米左右",
        "tel": "",
        "category": "基础设施:公共设施:公共厕所",
        "type": 0,
        "location": {
            "lat": 39.731151,
            "lng": 98.495864
        },
        "ad_info": {
            "adcode": 620902,
            "province": "甘肃省",
            "city": "酒泉市",
            "district": "肃州区"
        }
    },
    {
        "id": "9564321677083004260",
        "title": "公共厕所",
        "address": "甘肃省酒泉市肃州区解放路与铁人东路交叉口东南方向208米左右",
        "tel": "",
        "category": "基础设施:公共设施:公共厕所",
        "type": 0,
        "location": {
            "lat": 39.719721,
            "lng": 98.509627
        },
        "ad_info": {
            "adcode": 620902,
            "province": "甘肃省",
            "city": "酒泉市",
            "district": "肃州区"
        }
    },
    {
        "id": "2607259768846439217",
        "title": "公共厕所",
        "address": "甘肃省酒泉市肃州区红旗家园4-120",
        "tel": "",
        "category": "基础设施:公共设施:公共厕所",
        "type": 0,
        "location": {
            "lat": 39.727851,
            "lng": 98.479557
        },
        "ad_info": {
            "adcode": 620902,
            "province": "甘肃省",
            "city": "酒泉市",
            "district": "肃州区"
        }
    },
    {
        "id": "14273623770330699681",
        "title": "公共厕所",
        "address": "甘肃省酒泉市肃州区专署街与沙井巷交叉口东南方向25米左右",
        "tel": "",
        "category": "基础设施:公共设施:公共厕所",
        "type": 0,
        "location": {
            "lat": 39.742919,
            "lng": 98.50945
        },
        "ad_info": {
            "adcode": 620902,
            "province": "甘肃省",
            "city": "酒泉市",
            "district": "肃州区"
        }
    },
    {
        "id": "16284625969705151890",
        "title": "公共厕所",
        "address": "甘肃省酒泉市肃州区敦煌东路与春光路交叉口正东方向48米左右",
        "tel": "",
        "category": "基础设施:公共设施:公共厕所",
        "type": 0,
        "location": {
            "lat": 39.725956,
            "lng": 98.519937
        },
        "ad_info": {
            "adcode": 620902,
            "province": "甘肃省",
            "city": "酒泉市",
            "district": "肃州区"
        }
    },
    {
        "id": "5388573992756069125",
        "title": "公共厕所",
        "address": "甘肃省酒泉市肃州区清泉路天怡雅苑",
        "tel": "",
        "category": "基础设施:公共设施:公共厕所",
        "type": 0,
        "location": {
            "lat": 39.741882,
            "lng": 98.473762
        },
        "ad_info": {
            "adcode": 620902,
            "province": "甘肃省",
            "city": "酒泉市",
            "district": "肃州区"
        }
    },
    {
        "id": "15027372933637457050",
        "title": "公共厕所",
        "address": "甘肃省酒泉市肃州区文体路紫瑞苑",
        "tel": "",
        "category": "基础设施:公共设施:公共厕所",
        "type": 0,
        "location": {
            "lat": 39.738935,
            "lng": 98.484337
        },
        "ad_info": {
            "adcode": 620902,
            "province": "甘肃省",
            "city": "酒泉市",
            "district": "肃州区"
        }
    },
    {
        "id": "16455497591238883965",
        "title": "公共厕所",
        "address": "甘肃省酒泉市肃州区圆梦路与春光路交叉口正南方向168米左右",
        "tel": "",
        "category": "基础设施:公共设施:公共厕所",
        "type": 0,
        "location": {
            "lat": 39.712543,
            "lng": 98.515096
        },
        "ad_info": {
            "adcode": 620902,
            "province": "甘肃省",
            "city": "酒泉市",
            "district": "肃州区"
        }
    },
    {
        "id": "1889043085323750057",
        "title": "公共厕所",
        "address": "甘肃省酒泉市金塔县宝塔街与建新路交叉口东北方向102米左右",
        "tel": "",
        "category": "基础设施:公共设施:公共厕所",
        "type": 0,
        "location": {
            "lat": 39.977235,
            "lng": 98.895519
        },
        "ad_info": {
            "adcode": 620921,
            "province": "甘肃省",
            "city": "酒泉市",
            "district": "金塔县"
        }
    },
    {
        "id": "9674107444584366279",
        "title": "公共厕所",
        "address": "甘肃省酒泉市肃州区宝泉东路与肃州路交叉口西南方向31米左右",
        "tel": "",
        "category": "基础设施:公共设施:公共厕所",
        "type": 0,
        "location": {
            "lat": 39.729755,
            "lng": 98.500223
        },
        "ad_info": {
            "adcode": 620902,
            "province": "甘肃省",
            "city": "酒泉市",
            "district": "肃州区"
        }
    },
    {
        "id": "6113180697364282648",
        "title": "公共厕所",
        "address": "甘肃省酒泉市肃州区尚武街与肃园街交叉口正南方向84米左右",
        "tel": "",
        "category": "基础设施:公共设施:公共厕所",
        "type": 0,
        "location": {
            "lat": 39.742021,
            "lng": 98.513941
        },
        "ad_info": {
            "adcode": 620902,
            "province": "甘肃省",
            "city": "酒泉市",
            "district": "肃州区"
        }
    },
    {
        "id": "8843250256096367942",
        "title": "公共厕所",
        "address": "甘肃省酒泉市肃州区酒金西路鑫发家园",
        "tel": "",
        "category": "基础设施:公共设施:公共厕所",
        "type": 0,
        "location": {
            "lat": 39.753928,
            "lng": 98.507706
        },
        "ad_info": {
            "adcode": 620902,
            "province": "甘肃省",
            "city": "酒泉市",
            "district": "肃州区"
        }
    },
    {
        "id": "10368389124980600229",
        "title": "公共厕所",
        "address": "甘肃省酒泉市肃州区小西街4号",
        "tel": "",
        "category": "基础设施:公共设施:公共厕所",
        "type": 0,
        "location": {
            "lat": 39.74248,
            "lng": 98.506072
        },
        "ad_info": {
            "adcode": 620902,
            "province": "甘肃省",
            "city": "酒泉市",
            "district": "肃州区"
        }
    },
    {
        "id": "3660133573467775249",
        "title": "公共卫生间",
        "address": "甘肃省酒泉市肃州区会丰路疏勒家苑",
        "tel": "",
        "category": "基础设施:公共设施:公共厕所",
        "type": 0,
        "location": {
            "lat": 39.752122,
            "lng": 98.488972
        },
        "ad_info": {
            "adcode": 620902,
            "province": "甘肃省",
            "city": "酒泉市",
            "district": "肃州区"
        }
    },
    {
        "id": "8238279697086501163",
        "title": "公共厕所",
        "address": "甘肃省酒泉市肃州区解放路与铁人东路交叉口东北方向88米左右",
        "tel": "",
        "category": "基础设施:公共设施:公共厕所",
        "type": 0,
        "location": {
            "lat": 39.722019,
            "lng": 98.508805
        },
        "ad_info": {
            "adcode": 620902,
            "province": "甘肃省",
            "city": "酒泉市",
            "district": "肃州区"
        }
    },
    {
        "id": "18160291064631779705",
        "title": "公共厕所",
        "address": "甘肃省酒泉市肃州区北市街与民主街交叉口西北方向35米左右",
        "tel": "",
        "category": "基础设施:公共设施:公共厕所",
        "type": 0,
        "location": {
            "lat": 39.748006,
            "lng": 98.516223
        },
        "ad_info": {
            "adcode": 620902,
            "province": "甘肃省",
            "city": "酒泉市",
            "district": "肃州区"
        }
    },
    {
        "id": "17321142070541864732",
        "title": "公共卫生间",
        "address": "甘肃省酒泉市肃州区文体路金屋雅苑",
        "tel": "",
        "category": "基础设施:公共设施:公共厕所",
        "type": 0,
        "location": {
            "lat": 39.736086,
            "lng": 98.484323
        },
        "ad_info": {
            "adcode": 620902,
            "province": "甘肃省",
            "city": "酒泉市",
            "district": "肃州区"
        }
    },
    {
        "id": "3729589161844907530",
        "title": "公共厕所",
        "address": "甘肃省酒泉市肃州区肃园街与青年街交叉口西北方向17米左右",
        "tel": "",
        "category": "基础设施:公共设施:公共厕所",
        "type": 0,
        "location": {
            "lat": 39.742712,
            "lng": 98.51585
        },
        "ad_info": {
            "adcode": 620902,
            "province": "甘肃省",
            "city": "酒泉市",
            "district": "肃州区"
        }
    },
    {
        "id": "13997155132240876314",
        "title": "公共厕所",
        "address": "甘肃省酒泉市肃州区阳关路新苑学校",
        "tel": "",
        "category": "基础设施:公共设施:公共厕所",
        "type": 0,
        "location": {
            "lat": 39.740863,
            "lng": 98.493316
        },
        "ad_info": {
            "adcode": 620902,
            "province": "甘肃省",
            "city": "酒泉市",
            "district": "肃州区"
        }
    },
    {
        "id": "4368882939964208007",
        "title": "公共厕所",
        "address": "甘肃省酒泉市肃州区南环东路酒泉一中",
        "tel": "",
        "category": "基础设施:公共设施:公共厕所",
        "type": 0,
        "location": {
            "lat": 39.736648,
            "lng": 98.517106
        },
        "ad_info": {
            "adcode": 620902,
            "province": "甘肃省",
            "city": "酒泉市",
            "district": "肃州区"
        }
    },
    {
        "id": "9170945352670391265",
        "title": "公共厕所",
        "address": "甘肃省酒泉市肃州区文体路神州明珠小区",
        "tel": "",
        "category": "基础设施:公共设施:公共厕所",
        "type": 0,
        "location": {
            "lat": 39.734811,
            "lng": 98.483697
        },
        "ad_info": {
            "adcode": 620902,
            "province": "甘肃省",
            "city": "酒泉市",
            "district": "肃州区"
        }
    },
    {
        "id": "15836088279371790591",
        "title": "公共厕所",
        "address": "甘肃省酒泉市肃州区盘旋东路44号",
        "tel": "",
        "category": "基础设施:公共设施:公共厕所",
        "type": 0,
        "location": {
            "lat": 39.735473,
            "lng": 98.516201
        },
        "ad_info": {
            "adcode": 620902,
            "province": "甘肃省",
            "city": "酒泉市",
            "district": "肃州区"
        }
    },
    {
        "id": "6654609820470342779",
        "title": "公共厕所",
        "address": "甘肃省酒泉市肃州区富强路与有恒巷交叉口西南方向40米左右",
        "tel": "",
        "category": "基础设施:公共设施:公共厕所",
        "type": 0,
        "location": {
            "lat": 39.742686,
            "lng": 98.523655
        },
        "ad_info": {
            "adcode": 620902,
            "province": "甘肃省",
            "city": "酒泉市",
            "district": "肃州区"
        }
    },
    {
        "id": "11579210997139021737",
        "title": "公共厕所",
        "address": "甘肃省酒泉市肃州区火文公路与解放路交叉口正南方向227米左右",
        "tel": "",
        "category": "基础设施:公共设施:公共厕所",
        "type": 0,
        "location": {
            "lat": 39.645492,
            "lng": 98.452513
        },
        "ad_info": {
            "adcode": 620902,
            "province": "甘肃省",
            "city": "酒泉市",
            "district": "肃州区"
        }
    },
    {
        "id": "880398152838897602",
        "title": "公共厕所",
        "address": "甘肃省酒泉市肃州区北新街与北环东路交叉口正西方向102米左右",
        "tel": "",
        "category": "基础设施:公共设施:公共厕所",
        "type": 0,
        "location": {
            "lat": 39.750227,
            "lng": 98.511501
        },
        "ad_info": {
            "adcode": 620902,
            "province": "甘肃省",
            "city": "酒泉市",
            "district": "肃州区"
        }
    },
    {
        "id": "2184271727375212828",
        "title": "公共厕所",
        "address": "甘肃省酒泉市敦煌市墨缘街与西域西路交叉口正北方向55米左右",
        "tel": "",
        "category": "基础设施:公共设施:公共厕所",
        "type": 0,
        "location": {
            "lat": 40.138615,
            "lng": 94.667065
        },
        "ad_info": {
            "adcode": 620982,
            "province": "甘肃省",
            "city": "酒泉市",
            "district": "敦煌市"
        }
    },
    {
        "id": "15036955141855939606",
        "title": "公共厕所",
        "address": "甘肃省酒泉市肃州区滨河南路与酒金西路交叉口正东方向61米左右",
        "tel": "",
        "category": "基础设施:公共设施:公共厕所",
        "type": 0,
        "location": {
            "lat": 39.754262,
            "lng": 98.500589
        },
        "ad_info": {
            "adcode": 620902,
            "province": "甘肃省",
            "city": "酒泉市",
            "district": "肃州区"
        }
    },
    {
        "id": "7031545756527421535",
        "title": "公共厕所",
        "address": "甘肃省酒泉市肃州区北市街与邮电街交叉口正西方向62米左右",
        "tel": "",
        "category": "基础设施:公共设施:公共厕所",
        "type": 0,
        "location": {
            "lat": 39.74791,
            "lng": 98.51417
        },
        "ad_info": {
            "adcode": 620902,
            "province": "甘肃省",
            "city": "酒泉市",
            "district": "肃州区"
        }
    },
    {
        "id": "15177905080859367681",
        "title": "公共厕所",
        "address": "甘肃省酒泉市肃州区仓后街与小西街交叉口西南方向62米左右",
        "tel": "",
        "category": "基础设施:公共设施:公共厕所",
        "type": 0,
        "location": {
            "lat": 39.744577,
            "lng": 98.505959
        },
        "ad_info": {
            "adcode": 620902,
            "province": "甘肃省",
            "city": "酒泉市",
            "district": "肃州区"
        }
    },
    {
        "id": "10127475299340420002",
        "title": "公共厕所",
        "address": "甘肃省酒泉市敦煌市鸣山路祥云广场(西侧)",
        "tel": "",
        "category": "基础设施:公共设施:公共厕所",
        "type": 0,
        "location": {
            "lat": 40.131481,
            "lng": 94.663116
        },
        "ad_info": {
            "adcode": 620982,
            "province": "甘肃省",
            "city": "酒泉市",
            "district": "敦煌市"
        }
    },
    {
        "id": "2402839143308632953",
        "title": "公共厕所",
        "address": "甘肃省酒泉市金塔县",
        "tel": "",
        "category": "基础设施:公共设施:公共厕所",
        "type": 0,
        "location": {
            "lat": 39.98368,
            "lng": 98.9029
        },
        "ad_info": {
            "adcode": 620921,
            "province": "甘肃省",
            "city": "酒泉市",
            "district": "金塔县"
        }
    },
    {
        "id": "11645372529985043794",
        "title": "公共卫生间",
        "address": "甘肃省酒泉市肃州区东环南路明珠花园-二区",
        "tel": "",
        "category": "基础设施:公共设施:公共厕所",
        "type": 0,
        "location": {
            "lat": 39.741922,
            "lng": 98.519448
        },
        "ad_info": {
            "adcode": 620902,
            "province": "甘肃省",
            "city": "酒泉市",
            "district": "肃州区"
        }
    },
    {
        "id": "12808901438486487250",
        "title": "公共厕所",
        "address": "甘肃省酒泉市肃州区北大街与广电巷交叉口正西方向12米左右",
        "tel": "",
        "category": "基础设施:公共设施:公共厕所",
        "type": 0,
        "location": {
            "lat": 39.751675,
            "lng": 98.511196
        },
        "ad_info": {
            "adcode": 620902,
            "province": "甘肃省",
            "city": "酒泉市",
            "district": "肃州区"
        }
    },
    {
        "id": "9775320110841336160",
        "title": "公共厕所",
        "address": "甘肃省酒泉市肃州区解放路66号德源公司糖厂家属院内",
        "tel": "",
        "category": "基础设施:公共设施:公共厕所",
        "type": 0,
        "location": {
            "lat": 39.696908,
            "lng": 98.493738
        },
        "ad_info": {
            "adcode": 620902,
            "province": "甘肃省",
            "city": "酒泉市",
            "district": "肃州区"
        }
    },
    {
        "id": "3173859482589899265",
        "title": "公共厕所",
        "address": "甘肃省酒泉市肃州区西关路与霞飞路交叉口正北方向201米左右",
        "tel": "",
        "category": "基础设施:公共设施:公共厕所",
        "type": 0,
        "location": {
            "lat": 39.747769,
            "lng": 98.490544
        },
        "ad_info": {
            "adcode": 620902,
            "province": "甘肃省",
            "city": "酒泉市",
            "district": "肃州区"
        }
    },
    {
        "id": "7838127150505722464",
        "title": "公共厕所",
        "address": "甘肃省酒泉市肃州区兴民路与金泉北路交叉口正西方向179米左右",
        "tel": "",
        "category": "基础设施:公共设施:公共厕所",
        "type": 0,
        "location": {
            "lat": 39.740526,
            "lng": 98.526556
        },
        "ad_info": {
            "adcode": 620902,
            "province": "甘肃省",
            "city": "酒泉市",
            "district": "肃州区"
        }
    },
    {
        "id": "11724111625370447066",
        "title": "公共厕所",
        "address": "甘肃省酒泉市肃州区肃州路美和苑",
        "tel": "",
        "category": "基础设施:公共设施:公共厕所",
        "type": 0,
        "location": {
            "lat": 39.715918,
            "lng": 98.500068
        },
        "ad_info": {
            "adcode": 620902,
            "province": "甘肃省",
            "city": "酒泉市",
            "district": "肃州区"
        }
    },
    {
        "id": "15791685371409013684",
        "title": "公共厕所",
        "address": "甘肃省酒泉市敦煌市文昌南路与百味街交叉口正西方向105米左右",
        "tel": "",
        "category": "基础设施:公共设施:公共厕所",
        "type": 0,
        "location": {
            "lat": 40.140299,
            "lng": 94.66854
        },
        "ad_info": {
            "adcode": 620982,
            "province": "甘肃省",
            "city": "酒泉市",
            "district": "敦煌市"
        }
    },
    {
        "id": "13843684406515053429",
        "title": "公共厕所",
        "address": "甘肃省酒泉市肃州区金泉路福华馨园B区",
        "tel": "",
        "category": "基础设施:公共设施:公共厕所",
        "type": 0,
        "location": {
            "lat": 39.73456,
            "lng": 98.52761
        },
        "ad_info": {
            "adcode": 620902,
            "province": "甘肃省",
            "city": "酒泉市",
            "district": "肃州区"
        }
    },
    {
        "id": "10246279467643235659",
        "title": "公共厕所",
        "address": "甘肃省酒泉市肃州区祁连路与金泉南路交叉口西北方向216米左右",
        "tel": "",
        "category": "基础设施:公共设施:公共厕所",
        "type": 0,
        "location": {
            "lat": 39.729891,
            "lng": 98.525251
        },
        "ad_info": {
            "adcode": 620902,
            "province": "甘肃省",
            "city": "酒泉市",
            "district": "肃州区"
        }
    },
    {
        "id": "3304496348506170981",
        "title": "公共厕所",
        "address": "甘肃省酒泉市敦煌市沙州南路2号",
        "tel": "",
        "category": "基础设施:公共设施:公共厕所",
        "type": 0,
        "location": {
            "lat": 40.140266,
            "lng": 94.663978
        },
        "ad_info": {
            "adcode": 620982,
            "province": "甘肃省",
            "city": "酒泉市",
            "district": "敦煌市"
        }
    },
    {
        "id": "4321378151652588611",
        "title": "公共厕所",
        "address": "甘肃省酒泉市玉门市南环东路与石油路交叉口正北方向74米左右",
        "tel": "",
        "category": "基础设施:公共设施:公共厕所",
        "type": 0,
        "location": {
            "lat": 40.280057,
            "lng": 97.050109
        },
        "ad_info": {
            "adcode": 620981,
            "province": "甘肃省",
            "city": "酒泉市",
            "district": "玉门市"
        }
    },
    {
        "id": "4341730859782798126",
        "title": "公共厕所",
        "address": "甘肃省酒泉市金塔县新华街与解放路交叉口西北方向71米左右",
        "tel": "",
        "category": "基础设施:公共设施:公共厕所",
        "type": 0,
        "location": {
            "lat": 39.985993,
            "lng": 98.904139
        },
        "ad_info": {
            "adcode": 620921,
            "province": "甘肃省",
            "city": "酒泉市",
            "district": "金塔县"
        }
    },
    {
        "id": "11515041777742532340",
        "title": "公共厕所",
        "address": "甘肃省酒泉市肃州区南城巷与温州路交叉口正东方向83米左右",
        "tel": "",
        "category": "基础设施:公共设施:公共厕所",
        "type": 0,
        "location": {
            "lat": 39.738232,
            "lng": 98.507931
        },
        "ad_info": {
            "adcode": 620902,
            "province": "甘肃省",
            "city": "酒泉市",
            "district": "肃州区"
        }
    },
    {
        "id": "6519861272572518719",
        "title": "公共厕所",
        "address": "甘肃省酒泉市金塔县育才街与航天大道交叉口西南方向1315米左右",
        "tel": "",
        "category": "基础设施:公共设施:公共厕所",
        "type": 0,
        "location": {
            "lat": 39.942409,
            "lng": 98.876123
        },
        "ad_info": {
            "adcode": 620921,
            "province": "甘肃省",
            "city": "酒泉市",
            "district": "金塔县"
        }
    },
    {
        "id": "11041468227755396792",
        "title": "公共厕所",
        "address": "甘肃省酒泉市敦煌市市场巷与文庙巷交叉口正南方向56米左右",
        "tel": "",
        "category": "基础设施:公共设施:公共厕所",
        "type": 0,
        "location": {
            "lat": 40.138763,
            "lng": 94.66074
        },
        "ad_info": {
            "adcode": 620982,
            "province": "甘肃省",
            "city": "酒泉市",
            "district": "敦煌市"
        }
    },
    {
        "id": "5744949550335091784",
        "title": "公共卫生间",
        "address": "甘肃省酒泉市肃州区建设路与营门路交叉口东北方向43米左右",
        "tel": "",
        "category": "基础设施:公共设施:公共厕所",
        "type": 0,
        "location": {
            "lat": 39.739769,
            "lng": 98.53197
        },
        "ad_info": {
            "adcode": 620902,
            "province": "甘肃省",
            "city": "酒泉市",
            "district": "肃州区"
        }
    },
    {
        "id": "13055471301097334631",
        "title": "公共厕所",
        "address": "甘肃省酒泉市金塔县中山街与建新路交叉口正南方向131米左右",
        "tel": "",
        "category": "基础设施:公共设施:公共厕所",
        "type": 0,
        "location": {
            "lat": 39.978794,
            "lng": 98.895859
        },
        "ad_info": {
            "adcode": 620921,
            "province": "甘肃省",
            "city": "酒泉市",
            "district": "金塔县"
        }
    },
    {
        "id": "15572605927349793079",
        "title": "卫生间",
        "address": "甘肃省酒泉市肃州区沙井巷与西文化街交叉口西北方向34米左右",
        "tel": "",
        "category": "基础设施:公共设施:公共厕所",
        "type": 0,
        "location": {
            "lat": 39.741616,
            "lng": 98.508793
        },
        "ad_info": {
            "adcode": 620902,
            "province": "甘肃省",
            "city": "酒泉市",
            "district": "肃州区"
        }
    },
    {
        "id": "2298726757022243228",
        "title": "公共厕所",
        "address": "甘肃省酒泉市敦煌市商业街与小北街交叉口西北方向90米左右",
        "tel": "",
        "category": "基础设施:公共设施:公共厕所",
        "type": 0,
        "location": {
            "lat": 40.142417,
            "lng": 94.66616
        },
        "ad_info": {
            "adcode": 620982,
            "province": "甘肃省",
            "city": "酒泉市",
            "district": "敦煌市"
        }
    },
    {
        "id": "5221177186221858777",
        "title": "公共厕所",
        "address": "甘肃省酒泉市玉门市平安巷与祁连路西巷交叉口正南方向80米左右",
        "tel": "",
        "category": "基础设施:公共设施:公共厕所",
        "type": 0,
        "location": {
            "lat": 40.287096,
            "lng": 97.035705
        },
        "ad_info": {
            "adcode": 620981,
            "province": "甘肃省",
            "city": "酒泉市",
            "district": "玉门市"
        }
    },
    {
        "id": "3987433540340239558",
        "title": "公共厕所",
        "address": "甘肃省酒泉市肃州区东环南路与建设路交叉口正西方向186米左右",
        "tel": "",
        "category": "基础设施:公共设施:公共厕所",
        "type": 0,
        "location": {
            "lat": 39.738979,
            "lng": 98.516804
        },
        "ad_info": {
            "adcode": 620902,
            "province": "甘肃省",
            "city": "酒泉市",
            "district": "肃州区"
        }
    },
    {
        "id": "11592812653903090756",
        "title": "无障碍公共厕所",
        "address": "甘肃省酒泉市肃州区东大街143号",
        "tel": "",
        "category": "基础设施:公共设施:公共厕所",
        "type": 0,
        "location": {
            "lat": 39.743726,
            "lng": 98.518214
        },
        "ad_info": {
            "adcode": 620902,
            "province": "甘肃省",
            "city": "酒泉市",
            "district": "肃州区"
        }
    },
    {
        "id": "5224461586712466938",
        "title": "公共厕所",
        "address": "甘肃省酒泉市敦煌市文博东路与文博西路交叉口正北方向238米左右",
        "tel": "",
        "category": "基础设施:公共设施:公共厕所",
        "type": 0,
        "location": {
            "lat": 40.113613,
            "lng": 94.668426
        },
        "ad_info": {
            "adcode": 620982,
            "province": "甘肃省",
            "city": "酒泉市",
            "district": "敦煌市"
        }
    },
    {
        "id": "3520821562920670348",
        "title": "公共厕所",
        "address": "甘肃省酒泉市肃州区东文化街银星园",
        "tel": "",
        "category": "基础设施:公共设施:公共厕所",
        "type": 0,
        "location": {
            "lat": 39.740528,
            "lng": 98.51818
        },
        "ad_info": {
            "adcode": 620902,
            "province": "甘肃省",
            "city": "酒泉市",
            "district": "肃州区"
        }
    },
    {
        "id": "2130507672603847034",
        "title": "公共厕所",
        "address": "甘肃省酒泉市阿克塞哈萨克族自治县G215与博罗转井大桥交叉口东南方向737米左右",
        "tel": "",
        "category": "基础设施:公共设施:公共厕所",
        "type": 0,
        "location": {
            "lat": 39.422032,
            "lng": 94.28057
        },
        "ad_info": {
            "adcode": 620924,
            "province": "甘肃省",
            "city": "酒泉市",
            "district": "阿克塞哈萨克族自治县"
        }
    },
    {
        "id": "2966167914027158094",
        "title": "公共厕所",
        "address": "甘肃省酒泉市敦煌市武氏田园乐客栈北侧170米",
        "tel": "",
        "category": "基础设施:公共设施:公共厕所",
        "type": 0,
        "location": {
            "lat": 40.118248,
            "lng": 94.693746
        },
        "ad_info": {
            "adcode": 620982,
            "province": "甘肃省",
            "city": "酒泉市",
            "district": "敦煌市"
        }
    },
    {
        "id": "10140535873255668417",
        "title": "公共厕所",
        "address": "甘肃省酒泉市玉门市祁连路东巷与通安路交叉口西北方向24米左右",
        "tel": "",
        "category": "基础设施:公共设施:公共厕所",
        "type": 0,
        "location": {
            "lat": 40.283717,
            "lng": 97.035354
        },
        "ad_info": {
            "adcode": 620981,
            "province": "甘肃省",
            "city": "酒泉市",
            "district": "玉门市"
        }
    },
    {
        "id": "13726123163989305327",
        "title": "公共厕所",
        "address": "甘肃省酒泉市敦煌市红格线中国石油白七路",
        "tel": "",
        "category": "基础设施:公共设施:公共厕所",
        "type": 0,
        "location": {
            "lat": 40.118257,
            "lng": 94.610327
        },
        "ad_info": {
            "adcode": 620982,
            "province": "甘肃省",
            "city": "酒泉市",
            "district": "敦煌市"
        }
    },
    {
        "id": "13436872395720432867",
        "title": "公共厕所",
        "address": "甘肃省酒泉市金塔县宝塔街127号",
        "tel": "",
        "category": "基础设施:公共设施:公共厕所",
        "type": 0,
        "location": {
            "lat": 39.975432,
            "lng": 98.898245
        },
        "ad_info": {
            "adcode": 620921,
            "province": "甘肃省",
            "city": "酒泉市",
            "district": "金塔县"
        }
    },
    {
        "id": "17472924419274369603",
        "title": "公共厕所",
        "address": "甘肃省酒泉市金塔县祁连街与航天大道交叉口正东方向285米左右",
        "tel": "",
        "category": "基础设施:公共设施:公共厕所",
        "type": 0,
        "location": {
            "lat": 39.967868,
            "lng": 98.892044
        },
        "ad_info": {
            "adcode": 620921,
            "province": "甘肃省",
            "city": "酒泉市",
            "district": "金塔县"
        }
    },
    {
        "id": "10213771456862223394",
        "title": "公共厕所",
        "address": "甘肃省酒泉市金塔县中山街与环城东路交叉口西南方向48米左右",
        "tel": "",
        "category": "基础设施:公共设施:公共厕所",
        "type": 0,
        "location": {
            "lat": 39.977592,
            "lng": 98.903617
        },
        "ad_info": {
            "adcode": 620921,
            "province": "甘肃省",
            "city": "酒泉市",
            "district": "金塔县"
        }
    },
    {
        "id": "3321787522635647230",
        "title": "公共厕所",
        "address": "甘肃省酒泉市敦煌市G215与党河东路交叉口正南方向70米左右",
        "tel": "",
        "category": "基础设施:公共设施:公共厕所",
        "type": 0,
        "location": {
            "lat": 40.15292,
            "lng": 94.668387
        },
        "ad_info": {
            "adcode": 620982,
            "province": "甘肃省",
            "city": "酒泉市",
            "district": "敦煌市"
        }
    },
    {
        "id": "4837299846193089392",
        "title": "公共厕所",
        "address": "甘肃省酒泉市肃北蒙古族自治县S302拍赛马场",
        "tel": "",
        "category": "基础设施:公共设施:公共厕所",
        "type": 0,
        "location": {
            "lat": 39.53919,
            "lng": 94.852978
        },
        "ad_info": {
            "adcode": 620923,
            "province": "甘肃省",
            "city": "酒泉市",
            "district": "肃北蒙古族自治县"
        }
    },
    {
        "id": "979829837604891430",
        "title": "公共厕所",
        "address": "甘肃省酒泉市肃北蒙古族自治县S239与西街交叉口西南方向50米左右",
        "tel": "",
        "category": "基础设施:公共设施:公共厕所",
        "type": 0,
        "location": {
            "lat": 39.512756,
            "lng": 94.876304
        },
        "ad_info": {
            "adcode": 620923,
            "province": "甘肃省",
            "city": "酒泉市",
            "district": "肃北蒙古族自治县"
        }
    },
    {
        "id": "14227179011758591418",
        "title": "公共厕所",
        "address": "甘肃省酒泉市敦煌市育才巷与鸣山北路交叉口西北方向89米左右",
        "tel": "",
        "category": "基础设施:公共设施:公共厕所",
        "type": 0,
        "location": {
            "lat": 40.140727,
            "lng": 94.661109
        },
        "ad_info": {
            "adcode": 620982,
            "province": "甘肃省",
            "city": "酒泉市",
            "district": "敦煌市"
        }
    },
    {
        "id": "7616724697155560927",
        "title": "公共厕所",
        "address": "甘肃省酒泉市瓜州县文化街与福利巷交叉口西北方向153米左右",
        "tel": "",
        "category": "基础设施:公共设施:公共厕所",
        "type": 0,
        "location": {
            "lat": 40.519721,
            "lng": 95.784198
        },
        "ad_info": {
            "adcode": 620922,
            "province": "甘肃省",
            "city": "酒泉市",
            "district": "瓜州县"
        }
    },
    {
        "id": "4660156885174022859",
        "title": "公共厕所",
        "address": "甘肃省酒泉市瓜州县G215与瓜州大道交叉口正北方向1298米左右",
        "tel": "",
        "category": "基础设施:公共设施:公共厕所",
        "type": 0,
        "location": {
            "lat": 40.566997,
            "lng": 95.772747
        },
        "ad_info": {
            "adcode": 620922,
            "province": "甘肃省",
            "city": "酒泉市",
            "district": "瓜州县"
        }
    },
    {
        "id": "16388895421388946085",
        "title": "公共厕所",
        "address": "甘肃省酒泉市敦煌市党河东路与效谷西路交叉口西南方向126米左右",
        "tel": "",
        "category": "基础设施:公共设施:公共厕所",
        "type": 0,
        "location": {
            "lat": 40.147134,
            "lng": 94.65857
        },
        "ad_info": {
            "adcode": 620982,
            "province": "甘肃省",
            "city": "酒泉市",
            "district": "敦煌市"
        }
    },
    {
        "id": "2864439116767765295",
        "title": "公共厕所",
        "address": "甘肃省酒泉市敦煌市215国道与效谷西路交叉口西南140米",
        "tel": "",
        "category": "基础设施:公共设施:公共厕所",
        "type": 0,
        "location": {
            "lat": 40.145778,
            "lng": 94.661033
        },
        "ad_info": {
            "adcode": 620982,
            "province": "甘肃省",
            "city": "酒泉市",
            "district": "敦煌市"
        }
    },
    {
        "id": "15357610666965224866",
        "title": "公共厕所",
        "address": "甘肃省酒泉市敦煌市阳关东路迎宾花园-北区",
        "tel": "",
        "category": "基础设施:公共设施:公共厕所",
        "type": 0,
        "location": {
            "lat": 40.142638,
            "lng": 94.679607
        },
        "ad_info": {
            "adcode": 620982,
            "province": "甘肃省",
            "city": "酒泉市",
            "district": "敦煌市"
        }
    },
    {
        "id": "3683401490908451188",
        "title": "公共厕所",
        "address": "甘肃省酒泉市金塔县航天家园西侧80米",
        "tel": "",
        "category": "基础设施:公共设施:公共厕所",
        "type": 0,
        "location": {
            "lat": 40.42342,
            "lng": 99.699239
        },
        "ad_info": {
            "adcode": 620921,
            "province": "甘肃省",
            "city": "酒泉市",
            "district": "金塔县"
        }
    },
    {
        "id": "16358490836701239150",
        "title": "公共厕所",
        "address": "甘肃省酒泉市金塔县祁连街与航天大道交叉口正东方向42米左右",
        "tel": "",
        "category": "基础设施:公共设施:公共厕所",
        "type": 0,
        "location": {
            "lat": 39.968643,
            "lng": 98.889366
        },
        "ad_info": {
            "adcode": 620921,
            "province": "甘肃省",
            "city": "酒泉市",
            "district": "金塔县"
        }
    },
    {
        "id": "15252163627681098679",
        "title": "公共厕所",
        "address": "甘肃省酒泉市肃北蒙古族自治县教育路一号",
        "tel": "",
        "category": "基础设施:公共设施:公共厕所",
        "type": 0,
        "location": {
            "lat": 39.511202,
            "lng": 94.879156
        },
        "ad_info": {
            "adcode": 620923,
            "province": "甘肃省",
            "city": "酒泉市",
            "district": "肃北蒙古族自治县"
        }
    },
    {
        "id": "5700491285104201341",
        "title": "公共厕所",
        "address": "甘肃省酒泉市敦煌市效谷西路与祁连路交叉口东北方向139米左右",
        "tel": "",
        "category": "基础设施:公共设施:公共厕所",
        "type": 0,
        "location": {
            "lat": 40.147702,
            "lng": 94.662929
        },
        "ad_info": {
            "adcode": 620982,
            "province": "甘肃省",
            "city": "酒泉市",
            "district": "敦煌市"
        }
    },
    {
        "id": "10256310487056528627",
        "title": "公共厕所",
        "address": "甘肃省酒泉市敦煌市大庆北路与广场路交叉口西南方向101米左右",
        "tel": "",
        "category": "基础设施:公共设施:公共厕所",
        "type": 0,
        "location": {
            "lat": 40.117111,
            "lng": 94.597079
        },
        "ad_info": {
            "adcode": 620982,
            "province": "甘肃省",
            "city": "酒泉市",
            "district": "敦煌市"
        }
    },
    {
        "id": "5395541371010378348",
        "title": "公共厕所",
        "address": "甘肃省酒泉市玉门市昌盛大道与自由路交叉口正西方向100米左右",
        "tel": "",
        "category": "基础设施:公共设施:公共厕所",
        "type": 0,
        "location": {
            "lat": 40.273208,
            "lng": 97.044274
        },
        "ad_info": {
            "adcode": 620981,
            "province": "甘肃省",
            "city": "酒泉市",
            "district": "玉门市"
        }
    },
    {
        "id": "179406760581432029",
        "title": "公共厕所",
        "address": "甘肃省酒泉市瓜州县元通步行街与公园街交叉口正西方向85米左右",
        "tel": "",
        "category": "基础设施:公共设施:公共厕所",
        "type": 0,
        "location": {
            "lat": 40.509416,
            "lng": 95.789894
        },
        "ad_info": {
            "adcode": 620922,
            "province": "甘肃省",
            "city": "酒泉市",
            "district": "瓜州县"
        }
    },
    {
        "id": "10880897963480169117",
        "title": "公共厕所",
        "address": "甘肃省酒泉市瓜州县公园街与广德路交叉口西南方向58米左右",
        "tel": "",
        "category": "基础设施:公共设施:公共厕所",
        "type": 0,
        "location": {
            "lat": 40.509584,
            "lng": 95.772565
        },
        "ad_info": {
            "adcode": 620922,
            "province": "甘肃省",
            "city": "酒泉市",
            "district": "瓜州县"
        }
    },
    {
        "id": "16983651050612140271",
        "title": "公共厕所",
        "address": "甘肃省酒泉市敦煌市小北街与效谷西路交叉口正南方向168米左右",
        "tel": "",
        "category": "基础设施:公共设施:公共厕所",
        "type": 0,
        "location": {
            "lat": 40.145039,
            "lng": 94.666945
        },
        "ad_info": {
            "adcode": 620982,
            "province": "甘肃省",
            "city": "酒泉市",
            "district": "敦煌市"
        }
    },
    {
        "id": "4454899548904071688",
        "title": "公共厕所",
        "address": "甘肃省酒泉市瓜州县公园街与瓜州大道交叉口正南方向199米左右",
        "tel": "",
        "category": "基础设施:公共设施:公共厕所",
        "type": 0,
        "location": {
            "lat": 40.50795,
            "lng": 95.778473
        },
        "ad_info": {
            "adcode": 620922,
            "province": "甘肃省",
            "city": "酒泉市",
            "district": "瓜州县"
        }
    },
    {
        "id": "9451447873792042700",
        "title": "公共厕所",
        "address": "甘肃省酒泉市玉门市风光大道",
        "tel": "",
        "category": "基础设施:公共设施:公共厕所",
        "type": 0,
        "location": {
            "lat": 40.276634,
            "lng": 97.050994
        },
        "ad_info": {
            "adcode": 620981,
            "province": "甘肃省",
            "city": "酒泉市",
            "district": "玉门市"
        }
    },
    {
        "id": "4574284369365115168",
        "title": "公共厕所",
        "address": "甘肃省酒泉市玉门市清泉东路与清泉西路交叉口东南方向23米左右",
        "tel": "",
        "category": "基础设施:公共设施:公共厕所",
        "type": 0,
        "location": {
            "lat": 40.289003,
            "lng": 97.036614
        },
        "ad_info": {
            "adcode": 620981,
            "province": "甘肃省",
            "city": "酒泉市",
            "district": "玉门市"
        }
    },
    {
        "id": "2753783004449890538",
        "title": "公共厕所",
        "address": "甘肃省酒泉市肃州区飞天路世纪明珠家园-B区",
        "tel": "",
        "category": "基础设施:公共设施:公共厕所",
        "type": 0,
        "location": {
            "lat": 39.724532,
            "lng": 98.504662
        },
        "ad_info": {
            "adcode": 620902,
            "province": "甘肃省",
            "city": "酒泉市",
            "district": "肃州区"
        }
    },
    {
        "id": "13828650847311241408",
        "title": "公共厕所",
        "address": "甘肃省酒泉市瓜州县福利巷11-18",
        "tel": "",
        "category": "基础设施:公共设施:公共厕所",
        "type": 0,
        "location": {
            "lat": 40.512653,
            "lng": 95.78493
        },
        "ad_info": {
            "adcode": 620922,
            "province": "甘肃省",
            "city": "酒泉市",
            "district": "瓜州县"
        }
    },
    {
        "id": "9198175208449266471",
        "title": "公共厕所",
        "address": "甘肃省酒泉市肃州区北环西路与西环北路交叉处向南50米路东",
        "tel": "0937-2634831",
        "category": "基础设施:公共设施:公共厕所",
        "type": 0,
        "location": {
            "lat": 39.750055,
            "lng": 98.50348
        },
        "ad_info": {
            "adcode": 620902,
            "province": "甘肃省",
            "city": "酒泉市",
            "district": "肃州区"
        }
    },
    {
        "id": "3716536729258141359",
        "title": "公共厕所",
        "address": "甘肃省酒泉市瓜州县渊泉街与福利巷交叉口正南方向65米左右",
        "tel": "",
        "category": "基础设施:公共设施:公共厕所",
        "type": 0,
        "location": {
            "lat": 40.51535,
            "lng": 95.785249
        },
        "ad_info": {
            "adcode": 620922,
            "province": "甘肃省",
            "city": "酒泉市",
            "district": "瓜州县"
        }
    },
    {
        "id": "17089996048204442155",
        "title": "花园路馨馨家园公共厕所",
        "address": "甘肃省酒泉市肃州区花园路馨馨花苑",
        "tel": "",
        "category": "基础设施:公共设施:公共厕所",
        "type": 0,
        "location": {
            "lat": 39.742912,
            "lng": 98.496089
        },
        "ad_info": {
            "adcode": 620902,
            "province": "甘肃省",
            "city": "酒泉市",
            "district": "肃州区"
        }
    },
    {
        "id": "17733777159602815651",
        "title": "公共厕所",
        "address": "甘肃省酒泉市玉门市屯垦路与清泉东路交叉口正南方向193米左右",
        "tel": "",
        "category": "基础设施:公共设施:公共厕所",
        "type": 0,
        "location": {
            "lat": 40.287074,
            "lng": 97.039429
        },
        "ad_info": {
            "adcode": 620981,
            "province": "甘肃省",
            "city": "酒泉市",
            "district": "玉门市"
        }
    },
    {
        "id": "11963573962984382657",
        "title": "公共厕所",
        "address": "甘肃省酒泉市玉门市亚欧商乐大厦(玉关南路东)",
        "tel": "",
        "category": "基础设施:公共设施:公共厕所",
        "type": 0,
        "location": {
            "lat": 40.286766,
            "lng": 97.0326
        },
        "ad_info": {
            "adcode": 620981,
            "province": "甘肃省",
            "city": "酒泉市",
            "district": "玉门市"
        }
    },
    {
        "id": "15096793455248720078",
        "title": "公共厕所",
        "address": "甘肃省酒泉市玉门市S302与东一路交叉口东南方向426米左右",
        "tel": "",
        "category": "基础设施:公共设施:公共厕所",
        "type": 0,
        "location": {
            "lat": 39.826473,
            "lng": 97.578833
        },
        "ad_info": {
            "adcode": 620981,
            "province": "甘肃省",
            "city": "酒泉市",
            "district": "玉门市"
        }
    },
    {
        "id": "17600348088150962041",
        "title": "公共厕所",
        "address": "甘肃省酒泉市玉门市S238与玉昌线交叉口东北方向87米左右",
        "tel": "",
        "category": "基础设施:公共设施:公共厕所",
        "type": 0,
        "location": {
            "lat": 39.857805,
            "lng": 96.781356
        },
        "ad_info": {
            "adcode": 620981,
            "province": "甘肃省",
            "city": "酒泉市",
            "district": "玉门市"
        }
    },
    {
        "id": "4874885103487985259",
        "title": "酒泉服务区公共厕所",
        "address": "甘肃省酒泉市肃州区复兴大道与问天路交叉口正南方向1894米左右",
        "tel": "",
        "category": "基础设施:公共设施:公共厕所",
        "type": 0,
        "location": {
            "lat": 39.715484,
            "lng": 98.447938
        },
        "ad_info": {
            "adcode": 620902,
            "province": "甘肃省",
            "city": "酒泉市",
            "district": "肃州区"
        }
    },
    {
        "id": "18350225903898288906",
        "title": "免费公共厕所",
        "address": "甘肃省酒泉市肃州区人民街与共和街交叉口东南方向47米左右",
        "tel": "",
        "category": "基础设施:公共设施:公共厕所",
        "type": 0,
        "location": {
            "lat": 39.745374,
            "lng": 98.517486
        },
        "ad_info": {
            "adcode": 620902,
            "province": "甘肃省",
            "city": "酒泉市",
            "district": "肃州区"
        }
    },
    {
        "id": "3670756368836481391",
        "title": "阿克塞服务区公共厕所",
        "address": "甘肃省酒泉市阿克塞哈萨克族自治县中国石油阿克塞服务区加油站东南侧140米",
        "tel": "",
        "category": "基础设施:公共设施:公共厕所",
        "type": 0,
        "location": {
            "lat": 39.534462,
            "lng": 94.415427
        },
        "ad_info": {
            "adcode": 620924,
            "province": "甘肃省",
            "city": "酒泉市",
            "district": "阿克塞哈萨克族自治县"
        }
    },
    {
        "id": "2245304986177523344",
        "title": "酒泉饭店洗手间",
        "address": "甘肃省酒泉市肃州区酒泉饭店1层",
        "tel": "",
        "category": "基础设施:公共设施:公共厕所",
        "type": 0,
        "location": {
            "lat": 39.740667,
            "lng": 98.509295
        },
        "ad_info": {
            "adcode": 620902,
            "province": "甘肃省",
            "city": "酒泉市",
            "district": "肃州区"
        }
    },
    {
        "id": "6623068218249267485",
        "title": "酒泉服务区公共厕所",
        "address": "甘肃省酒泉市肃州区复兴大道与问天路交叉口正南方向1718米左右",
        "tel": "",
        "category": "基础设施:公共设施:公共厕所",
        "type": 0,
        "location": {
            "lat": 39.717064,
            "lng": 98.448311
        },
        "ad_info": {
            "adcode": 620902,
            "province": "甘肃省",
            "city": "酒泉市",
            "district": "肃州区"
        }
    },
    {
        "id": "6405631456313983676",
        "title": "服务区公共厕所",
        "address": "甘肃省酒泉市瓜州县G3011柳格高速附近",
        "tel": "",
        "category": "基础设施:公共设施:公共厕所",
        "type": 0,
        "location": {
            "lat": 40.362542,
            "lng": 95.577632
        },
        "ad_info": {
            "adcode": 620922,
            "province": "甘肃省",
            "city": "酒泉市",
            "district": "瓜州县"
        }
    },
    {
        "id": "7689345796256124029",
        "title": "玉门服务区公共厕所",
        "address": "甘肃省酒泉市玉门市G30连霍高速与玉门市服务区交叉口北480米",
        "tel": "",
        "category": "基础设施:公共设施:公共厕所",
        "type": 0,
        "location": {
            "lat": 40.301372,
            "lng": 97.080164
        },
        "ad_info": {
            "adcode": 620981,
            "province": "甘肃省",
            "city": "酒泉市",
            "district": "玉门市"
        }
    },
    {
        "id": "16631697500712509019",
        "title": "柳园服务区公共厕所",
        "address": "甘肃省酒泉市瓜州县G215与连霍高速交叉口东南方向1812米左右",
        "tel": "",
        "category": "基础设施:公共设施:公共厕所",
        "type": 0,
        "location": {
            "lat": 41.044248,
            "lng": 95.461734
        },
        "ad_info": {
            "adcode": 620922,
            "province": "甘肃省",
            "city": "酒泉市",
            "district": "瓜州县"
        }
    },
    {
        "id": "6026835411024766184",
        "title": "玉门服务区公共厕所",
        "address": "甘肃省酒泉市玉门市G30连霍高速与玉门市服务区交叉口北380米",
        "tel": "",
        "category": "基础设施:公共设施:公共厕所",
        "type": 0,
        "location": {
            "lat": 40.300548,
            "lng": 97.082438
        },
        "ad_info": {
            "adcode": 620981,
            "province": "甘肃省",
            "city": "酒泉市",
            "district": "玉门市"
        }
    },
    {
        "id": "1047441865725515442",
        "title": "柳园服务区公共厕所",
        "address": "甘肃省酒泉市瓜州县G215与连霍高速交叉口正南方向1546米左右",
        "tel": "",
        "category": "基础设施:公共设施:公共厕所",
        "type": 0,
        "location": {
            "lat": 41.045458,
            "lng": 95.457295
        },
        "ad_info": {
            "adcode": 620922,
            "province": "甘肃省",
            "city": "酒泉市",
            "district": "瓜州县"
        }
    },
    {
        "id": "4361038347246377581",
        "title": "布隆吉服务区公共厕所",
        "address": "甘肃省酒泉市瓜州县连霍高速公路",
        "tel": "",
        "category": "基础设施:公共设施:公共厕所",
        "type": 0,
        "location": {
            "lat": 40.57696,
            "lng": 96.449374
        },
        "ad_info": {
            "adcode": 620922,
            "province": "甘肃省",
            "city": "酒泉市",
            "district": "瓜州县"
        }
    },
    {
        "id": "12299274121945398476",
        "title": "瓜州服务区第一公共厕所",
        "address": "甘肃省酒泉市瓜州县中国石化瓜州服务区加油站东北侧180米",
        "tel": "",
        "category": "基础设施:公共设施:公共厕所",
        "type": 0,
        "location": {
            "lat": 40.369435,
            "lng": 95.605961
        },
        "ad_info": {
            "adcode": 620922,
            "province": "甘肃省",
            "city": "酒泉市",
            "district": "瓜州县"
        }
    },
    {
        "id": "4861948253973312677",
        "title": "公共厕所",
        "address": "甘肃省酒泉市肃州区春光路与祁连路交叉口正南方向147米左右",
        "tel": "",
        "category": "基础设施:公共设施:公共厕所",
        "type": 0,
        "location": {
            "lat": 39.730669,
            "lng": 98.522403
        },
        "ad_info": {
            "adcode": 620902,
            "province": "甘肃省",
            "city": "酒泉市",
            "district": "肃州区"
        }
    },
    {
        "id": "11837635007355671241",
        "title": "公共厕所",
        "address": "甘肃省酒泉市肃州区瓜州路与金塔路交叉口西南方向59米左右",
        "tel": "",
        "category": "基础设施:公共设施:公共厕所",
        "type": 0,
        "location": {
            "lat": 39.742191,
            "lng": 98.476424
        },
        "ad_info": {
            "adcode": 620902,
            "province": "甘肃省",
            "city": "酒泉市",
            "district": "肃州区"
        }
    },
    {
        "id": "15893147281923918747",
        "title": "公共厕所",
        "address": "甘肃省酒泉市肃州区宝泉西路与莫高路交叉口西北方向44米左右",
        "tel": "",
        "category": "基础设施:公共设施:公共厕所",
        "type": 0,
        "location": {
            "lat": 39.730239,
            "lng": 98.489748
        },
        "ad_info": {
            "adcode": 620902,
            "province": "甘肃省",
            "city": "酒泉市",
            "district": "肃州区"
        }
    },
    {
        "id": "11681249288902890702",
        "title": "晋城路农校家属院公共厕所",
        "address": "甘肃省酒泉市肃州区晋城路96-3-1号",
        "tel": "",
        "category": "基础设施:公共设施:公共厕所",
        "type": 0,
        "location": {
            "lat": 39.734396,
            "lng": 98.504759
        },
        "ad_info": {
            "adcode": 620902,
            "province": "甘肃省",
            "city": "酒泉市",
            "district": "肃州区"
        }
    },
    {
        "id": "3141554499322770905",
        "title": "公共厕所",
        "address": "甘肃省酒泉市肃州区平等巷16号",
        "tel": "",
        "category": "基础设施:公共设施:公共厕所",
        "type": 0,
        "location": {
            "lat": 39.741214,
            "lng": 98.510798
        },
        "ad_info": {
            "adcode": 620902,
            "province": "甘肃省",
            "city": "酒泉市",
            "district": "肃州区"
        }
    },
    {
        "id": "7535002765081614318",
        "title": "公共厕所",
        "address": "甘肃省酒泉市肃州区建设路与营门路交叉口正南方向71米左右",
        "tel": "",
        "category": "基础设施:公共设施:公共厕所",
        "type": 0,
        "location": {
            "lat": 39.738834,
            "lng": 98.531674
        },
        "ad_info": {
            "adcode": 620902,
            "province": "甘肃省",
            "city": "酒泉市",
            "district": "肃州区"
        }
    },
    {
        "id": "3327496113771856127",
        "title": "公共厕所",
        "address": "甘肃省酒泉市敦煌市渊泉路天润家园",
        "tel": "",
        "category": "基础设施:公共设施:公共厕所",
        "type": 0,
        "location": {
            "lat": 40.147624,
            "lng": 94.650058
        },
        "ad_info": {
            "adcode": 620982,
            "province": "甘肃省",
            "city": "酒泉市",
            "district": "敦煌市"
        }
    },
    {
        "id": "10153520822814487615",
        "title": "公共厕所",
        "address": "甘肃省酒泉市肃州区敦煌路与飞天路交叉口正北方向132米左右",
        "tel": "",
        "category": "基础设施:公共设施:公共厕所",
        "type": 0,
        "location": {
            "lat": 39.728685,
            "lng": 98.486874
        },
        "ad_info": {
            "adcode": 620902,
            "province": "甘肃省",
            "city": "酒泉市",
            "district": "肃州区"
        }
    },
    {
        "id": "12702005773445388901",
        "title": "公共厕所",
        "address": "甘肃省酒泉市瓜州县张芝路与渊泉街交叉口正北方向106米左右",
        "tel": "",
        "category": "基础设施:公共设施:公共厕所",
        "type": 0,
        "location": {
            "lat": 40.516798,
            "lng": 95.774245
        },
        "ad_info": {
            "adcode": 620922,
            "province": "甘肃省",
            "city": "酒泉市",
            "district": "瓜州县"
        }
    },
    {
        "id": "5225653493969314083",
        "title": "公共厕所",
        "address": "甘肃省酒泉市肃州区富康路与惠民路交叉口东北方向30米左右",
        "tel": "",
        "category": "基础设施:公共设施:公共厕所",
        "type": 0,
        "location": {
            "lat": 39.732373,
            "lng": 98.505083
        },
        "ad_info": {
            "adcode": 620902,
            "province": "甘肃省",
            "city": "酒泉市",
            "district": "肃州区"
        }
    },
    {
        "id": "9942217249978278610",
        "title": "公共厕所",
        "address": "甘肃省酒泉市肃州区高铁东路与解放路辅路交叉口东南60米",
        "tel": "",
        "category": "基础设施:公共设施:公共厕所",
        "type": 0,
        "location": {
            "lat": 39.71268,
            "lng": 98.508186
        },
        "ad_info": {
            "adcode": 620902,
            "province": "甘肃省",
            "city": "酒泉市",
            "district": "肃州区"
        }
    },
    {
        "id": "17028365418120952640",
        "title": "公共厕所",
        "address": "甘肃省酒泉市肃州区铁人路与解放路辅路交叉口西80米",
        "tel": "",
        "category": "基础设施:公共设施:公共厕所",
        "type": 0,
        "location": {
            "lat": 39.721082,
            "lng": 98.507234
        },
        "ad_info": {
            "adcode": 620902,
            "province": "甘肃省",
            "city": "酒泉市",
            "district": "肃州区"
        }
    },
    {
        "id": "8430411956296525487",
        "title": "公共厕所",
        "address": "甘肃省酒泉市肃州区安居路辰润园",
        "tel": "",
        "category": "基础设施:公共设施:公共厕所",
        "type": 0,
        "location": {
            "lat": 39.755769,
            "lng": 98.516822
        },
        "ad_info": {
            "adcode": 620902,
            "province": "甘肃省",
            "city": "酒泉市",
            "district": "肃州区"
        }
    },
    {
        "id": "6209729432456463786",
        "title": "公共厕所",
        "address": "甘肃省酒泉市敦煌市旺通驾校西侧160米",
        "tel": "",
        "category": "基础设施:公共设施:公共厕所",
        "type": 0,
        "location": {
            "lat": 40.076934,
            "lng": 94.54321
        },
        "ad_info": {
            "adcode": 620982,
            "province": "甘肃省",
            "city": "酒泉市",
            "district": "敦煌市"
        }
    },
    {
        "id": "11847237537923847781",
        "title": "公共厕所",
        "address": "甘肃省酒泉市肃州区宝泉西路酒泉春光丽都",
        "tel": "",
        "category": "基础设施:公共设施:公共厕所",
        "type": 0,
        "location": {
            "lat": 39.729671,
            "lng": 98.473466
        },
        "ad_info": {
            "adcode": 620902,
            "province": "甘肃省",
            "city": "酒泉市",
            "district": "肃州区"
        }
    },
    {
        "id": "4449242587673535347",
        "title": "公共厕所",
        "address": "甘肃省酒泉市肃州区总寨桥与连霍高速交叉口东北方向880米左右",
        "tel": "",
        "category": "基础设施:公共设施:公共厕所",
        "type": 0,
        "location": {
            "lat": 39.619882,
            "lng": 98.690627
        },
        "ad_info": {
            "adcode": 620902,
            "province": "甘肃省",
            "city": "酒泉市",
            "district": "肃州区"
        }
    },
    {
        "id": "5305724913213431193",
        "title": "公共厕所",
        "address": "甘肃省酒泉市肃州区酒金公路南50米",
        "tel": "",
        "category": "基础设施:公共设施:公共厕所",
        "type": 0,
        "location": {
            "lat": 39.751219,
            "lng": 98.536217
        },
        "ad_info": {
            "adcode": 620902,
            "province": "甘肃省",
            "city": "酒泉市",
            "district": "肃州区"
        }
    },
    {
        "id": "1614540195043415072",
        "title": "公共厕所",
        "address": "甘肃省酒泉市肃州区世纪大道与铁人路交叉口东北方向170米左右",
        "tel": "",
        "category": "基础设施:公共设施:公共厕所",
        "type": 0,
        "location": {
            "lat": 39.722263,
            "lng": 98.494341
        },
        "ad_info": {
            "adcode": 620902,
            "province": "甘肃省",
            "city": "酒泉市",
            "district": "肃州区"
        }
    },
    {
        "id": "4293410958762798939",
        "title": "敦煌服务区公共厕所",
        "address": "甘肃省酒泉市敦煌市中国石化敦煌服务区加油站东侧70米",
        "tel": "",
        "category": "基础设施:公共设施:公共厕所",
        "type": 0,
        "location": {
            "lat": 40.185853,
            "lng": 94.84109
        },
        "ad_info": {
            "adcode": 620982,
            "province": "甘肃省",
            "city": "酒泉市",
            "district": "敦煌市"
        }
    },
    {
        "id": "13986297813687421665",
        "title": "公共厕所",
        "address": "甘肃省酒泉市肃州区瓜州路弘胜佳苑",
        "tel": "",
        "category": "基础设施:公共设施:公共厕所",
        "type": 0,
        "location": {
            "lat": 39.725541,
            "lng": 98.476415
        },
        "ad_info": {
            "adcode": 620902,
            "province": "甘肃省",
            "city": "酒泉市",
            "district": "肃州区"
        }
    },
    {
        "id": "11806583031761102730",
        "title": "公共厕所",
        "address": "甘肃省酒泉市肃州区北环西路68号",
        "tel": "",
        "category": "基础设施:公共设施:公共厕所",
        "type": 0,
        "location": {
            "lat": 39.749731,
            "lng": 98.50975
        },
        "ad_info": {
            "adcode": 620902,
            "province": "甘肃省",
            "city": "酒泉市",
            "district": "肃州区"
        }
    },
    {
        "id": "17893255030583611308",
        "title": "公共厕所",
        "address": "甘肃省酒泉市阿克塞哈萨克族自治县G215与博罗转井大桥交叉口正北方向706米左右",
        "tel": "",
        "category": "基础设施:公共设施:公共厕所",
        "type": 0,
        "location": {
            "lat": 39.431453,
            "lng": 94.27088
        },
        "ad_info": {
            "adcode": 620924,
            "province": "甘肃省",
            "city": "酒泉市",
            "district": "阿克塞哈萨克族自治县"
        }
    },
    {
        "id": "4515148759353353734",
        "title": "公共厕所",
        "address": "甘肃省酒泉市肃州区冠军路与南滨河西路交叉口正北方向790米左右",
        "tel": "",
        "category": "基础设施:公共设施:公共厕所",
        "type": 0,
        "location": {
            "lat": 39.756082,
            "lng": 98.462857
        },
        "ad_info": {
            "adcode": 620902,
            "province": "甘肃省",
            "city": "酒泉市",
            "district": "肃州区"
        }
    },
    {
        "id": "14804817516286029855",
        "title": "公共厕所",
        "address": "甘肃省酒泉市敦煌市柴达木北路与红山路交叉口东北方向43米左右",
        "tel": "",
        "category": "基础设施:公共设施:公共厕所",
        "type": 0,
        "location": {
            "lat": 40.124759,
            "lng": 94.579505
        },
        "ad_info": {
            "adcode": 620982,
            "province": "甘肃省",
            "city": "酒泉市",
            "district": "敦煌市"
        }
    },
    {
        "id": "15961864180038178928",
        "title": "公共厕所",
        "address": "甘肃省酒泉市金塔县中山街与建新路交叉口正北方向121米左右",
        "tel": "",
        "category": "基础设施:公共设施:公共厕所",
        "type": 0,
        "location": {
            "lat": 39.981022,
            "lng": 98.896459
        },
        "ad_info": {
            "adcode": 620921,
            "province": "甘肃省",
            "city": "酒泉市",
            "district": "金塔县"
        }
    },
    {
        "id": "12028641351967645696",
        "title": "公共厕所",
        "address": "甘肃省酒泉市肃州区Y398与酒航路交叉口西南方向759米左右",
        "tel": "",
        "category": "基础设施:公共设施:公共厕所",
        "type": 0,
        "location": {
            "lat": 39.795011,
            "lng": 98.557122
        },
        "ad_info": {
            "adcode": 620902,
            "province": "甘肃省",
            "city": "酒泉市",
            "district": "肃州区"
        }
    },
    {
        "id": "15804233783963968173",
        "title": "公共厕所",
        "address": "甘肃省酒泉市肃北蒙古族自治县S302与S303交叉口西北方向48米左右",
        "tel": "",
        "category": "基础设施:公共设施:公共厕所",
        "type": 0,
        "location": {
            "lat": 39.521286,
            "lng": 94.870049
        },
        "ad_info": {
            "adcode": 620923,
            "province": "甘肃省",
            "city": "酒泉市",
            "district": "肃北蒙古族自治县"
        }
    },
    {
        "id": "12949589489567242005",
        "title": "公共厕所",
        "address": "甘肃省酒泉市敦煌市S314与文博东路交叉口正北方向178米左右",
        "tel": "",
        "category": "基础设施:公共设施:公共厕所",
        "type": 0,
        "location": {
            "lat": 40.142724,
            "lng": 94.717491
        },
        "ad_info": {
            "adcode": 620982,
            "province": "甘肃省",
            "city": "酒泉市",
            "district": "敦煌市"
        }
    },
    {
        "id": "14348325837048794642",
        "title": "公共厕所",
        "address": "甘肃省酒泉市肃州区文体路与肃北路交叉口西北方向151米左右",
        "tel": "",
        "category": "基础设施:公共设施:公共厕所",
        "type": 0,
        "location": {
            "lat": 39.746639,
            "lng": 98.482429
        },
        "ad_info": {
            "adcode": 620902,
            "province": "甘肃省",
            "city": "酒泉市",
            "district": "肃州区"
        }
    },
    {
        "id": "15357122934137724447",
        "title": "公共厕所",
        "address": "甘肃省酒泉市肃州区春光四路与飞天东路交叉口正西方向111米左右",
        "tel": "",
        "category": "基础设施:公共设施:公共厕所",
        "type": 0,
        "location": {
            "lat": 39.721309,
            "lng": 98.519786
        },
        "ad_info": {
            "adcode": 620902,
            "province": "甘肃省",
            "city": "酒泉市",
            "district": "肃州区"
        }
    },
    {
        "id": "15484779678884811212",
        "title": "公共厕所",
        "address": "甘肃省酒泉市敦煌市高台巷沙州豪庭",
        "tel": "",
        "category": "基础设施:公共设施:公共厕所",
        "type": 0,
        "location": {
            "lat": 40.136943,
            "lng": 94.664508
        },
        "ad_info": {
            "adcode": 620982,
            "province": "甘肃省",
            "city": "酒泉市",
            "district": "敦煌市"
        }
    },
    {
        "id": "11792514467016885622",
        "title": "公共厕所",
        "address": "甘肃省酒泉市肃州区东环北路与酒金东路交叉口西南方向46米左右",
        "tel": "",
        "category": "基础设施:公共设施:公共厕所",
        "type": 0,
        "location": {
            "lat": 39.750671,
            "lng": 98.520286
        },
        "ad_info": {
            "adcode": 620902,
            "province": "甘肃省",
            "city": "酒泉市",
            "district": "肃州区"
        }
    },
    {
        "id": "4846967954073682917",
        "title": "公共厕所",
        "address": "甘肃省酒泉市肃州区光电大道与清泉路交叉口东北方向88米左右",
        "tel": "",
        "category": "基础设施:公共设施:公共厕所",
        "type": 0,
        "location": {
            "lat": 39.725147,
            "lng": 98.473661
        },
        "ad_info": {
            "adcode": 620902,
            "province": "甘肃省",
            "city": "酒泉市",
            "district": "肃州区"
        }
    },
    {
        "id": "11855406511031668971",
        "title": "公共厕所",
        "address": "甘肃省酒泉市肃州区北市街与卫生街交叉口西南方向52米左右",
        "tel": "",
        "category": "基础设施:公共设施:公共厕所",
        "type": 0,
        "location": {
            "lat": 39.747649,
            "lng": 98.512725
        },
        "ad_info": {
            "adcode": 620902,
            "province": "甘肃省",
            "city": "酒泉市",
            "district": "肃州区"
        }
    },
    {
        "id": "6487688298275426091",
        "title": "无障碍公共厕所",
        "address": "甘肃省酒泉市敦煌市乐园巷与北台巷交叉口西北方向125米左右",
        "tel": "",
        "category": "基础设施:公共设施:公共厕所",
        "type": 0,
        "location": {
            "lat": 40.14543,
            "lng": 94.662456
        },
        "ad_info": {
            "adcode": 620982,
            "province": "甘肃省",
            "city": "酒泉市",
            "district": "敦煌市"
        }
    },
    {
        "id": "13218893107109888658",
        "title": "公共厕所",
        "address": "甘肃省酒泉市阿克塞哈萨克族自治县团结东路与团结路交叉口正北方向29米左右",
        "tel": "",
        "category": "基础设施:公共设施:公共厕所",
        "type": 0,
        "location": {
            "lat": 39.632912,
            "lng": 94.347208
        },
        "ad_info": {
            "adcode": 620924,
            "province": "甘肃省",
            "city": "酒泉市",
            "district": "阿克塞哈萨克族自治县"
        }
    },
    {
        "id": "11501469579547591327",
        "title": "公共厕所",
        "address": "甘肃省酒泉市敦煌市G215与金山路交叉口正西方向33米左右",
        "tel": "",
        "category": "基础设施:公共设施:公共厕所",
        "type": 0,
        "location": {
            "lat": 40.117234,
            "lng": 94.604944
        },
        "ad_info": {
            "adcode": 620982,
            "province": "甘肃省",
            "city": "酒泉市",
            "district": "敦煌市"
        }
    },
    {
        "id": "13130383131559794984",
        "title": "公共厕所",
        "address": "甘肃省酒泉市肃州区酒航路",
        "tel": "",
        "category": "基础设施:公共设施:公共厕所",
        "type": 0,
        "location": {
            "lat": 39.841928,
            "lng": 98.580844
        },
        "ad_info": {
            "adcode": 620902,
            "province": "甘肃省",
            "city": "酒泉市",
            "district": "肃州区"
        }
    },
    {
        "id": "6981826101906187841",
        "title": "公共厕所",
        "address": "甘肃省酒泉市肃州区富强路与龙腾路交叉口西南方向14米左右",
        "tel": "",
        "category": "基础设施:公共设施:公共厕所",
        "type": 0,
        "location": {
            "lat": 39.736514,
            "lng": 98.523591
        },
        "ad_info": {
            "adcode": 620902,
            "province": "甘肃省",
            "city": "酒泉市",
            "district": "肃州区"
        }
    },
    {
        "id": "4832502126150526552",
        "title": "金泉南路公共厕所",
        "address": "甘肃省酒泉市肃州区兴民路与金泉北路交叉口西南方向100米左右",
        "tel": "",
        "category": "基础设施:公共设施:公共厕所",
        "type": 0,
        "location": {
            "lat": 39.740245,
            "lng": 98.52804
        },
        "ad_info": {
            "adcode": 620902,
            "province": "甘肃省",
            "city": "酒泉市",
            "district": "肃州区"
        }
    },
    {
        "id": "18241279179916286420",
        "title": "公共厕所",
        "address": "甘肃省酒泉市玉门市昌盛路与清泉东路交叉口东南方向25米左右",
        "tel": "",
        "category": "基础设施:公共设施:公共厕所",
        "type": 0,
        "location": {
            "lat": 40.287367,
            "lng": 97.048905
        },
        "ad_info": {
            "adcode": 620981,
            "province": "甘肃省",
            "city": "酒泉市",
            "district": "玉门市"
        }
    },
    {
        "id": "13905613415131693887",
        "title": "公共厕所",
        "address": "甘肃省酒泉市肃州区东环北路与体育路交叉口正东方向23米左右",
        "tel": "",
        "category": "基础设施:公共设施:公共厕所",
        "type": 0,
        "location": {
            "lat": 39.74822,
            "lng": 98.520714
        },
        "ad_info": {
            "adcode": 620902,
            "province": "甘肃省",
            "city": "酒泉市",
            "district": "肃州区"
        }
    },
    {
        "id": "13800921528283495463",
        "title": "公共厕所(GS-JQ-0342)",
        "address": "甘肃省酒泉市玉门市S238与玉昌线交叉口正西方向270米左右",
        "tel": "",
        "category": "基础设施:公共设施:公共厕所",
        "type": 0,
        "location": {
            "lat": 39.857908,
            "lng": 96.777781
        },
        "ad_info": {
            "adcode": 620981,
            "province": "甘肃省",
            "city": "酒泉市",
            "district": "玉门市"
        }
    },
    {
        "id": "2963485057896852938",
        "title": "公共厕所",
        "address": "甘肃省酒泉市肃州区文旅局",
        "tel": "",
        "category": "基础设施:公共设施:公共厕所",
        "type": 0,
        "location": {
            "lat": 39.712519,
            "lng": 98.496338
        },
        "ad_info": {
            "adcode": 620902,
            "province": "甘肃省",
            "city": "酒泉市",
            "district": "肃州区"
        }
    },
    {
        "id": "7202884615084072784",
        "title": "公共厕所",
        "address": "甘肃省酒泉市肃州区人民医院",
        "tel": "",
        "category": "基础设施:公共设施:公共厕所",
        "type": 0,
        "location": {
            "lat": 39.744457,
            "lng": 98.502887
        },
        "ad_info": {
            "adcode": 620902,
            "province": "甘肃省",
            "city": "酒泉市",
            "district": "肃州区"
        }
    },
    {
        "id": "17433733489012976370",
        "title": "公共厕所",
        "address": "甘肃省酒泉市肃州区圆梦路与春光一路交叉口正北方向94米左右",
        "tel": "",
        "category": "基础设施:公共设施:公共厕所",
        "type": 0,
        "location": {
            "lat": 39.716175,
            "lng": 98.511783
        },
        "ad_info": {
            "adcode": 620902,
            "province": "甘肃省",
            "city": "酒泉市",
            "district": "肃州区"
        }
    },
    {
        "id": "9619411755408710965",
        "title": "公共厕所",
        "address": "甘肃省酒泉市肃州区南滨河西路与复兴大道交叉口东北方向286米左右",
        "tel": "",
        "category": "基础设施:公共设施:公共厕所",
        "type": 0,
        "location": {
            "lat": 39.73875,
            "lng": 98.436688
        },
        "ad_info": {
            "adcode": 620902,
            "province": "甘肃省",
            "city": "酒泉市",
            "district": "肃州区"
        }
    },
    {
        "id": "6057617813462671444",
        "title": "公共厕所",
        "address": "甘肃省酒泉市玉门市融鑫招待所对面儿",
        "tel": "",
        "category": "基础设施:公共设施:公共厕所",
        "type": 0,
        "location": {
            "lat": 40.283554,
            "lng": 97.028828
        },
        "ad_info": {
            "adcode": 620981,
            "province": "甘肃省",
            "city": "酒泉市",
            "district": "玉门市"
        }
    },
    {
        "id": "10958558501011035698",
        "title": "公共厕所",
        "address": "甘肃省酒泉市玉门市玉门市火车站",
        "tel": "",
        "category": "基础设施:公共设施:公共厕所",
        "type": 0,
        "location": {
            "lat": 40.27624,
            "lng": 97.040526
        },
        "ad_info": {
            "adcode": 620981,
            "province": "甘肃省",
            "city": "酒泉市",
            "district": "玉门市"
        }
    },
    {
        "id": "4819955025661150673",
        "title": "公共厕所",
        "address": "甘肃省酒泉市肃州区正大路与铁人路交叉口正南方向236米左右",
        "tel": "",
        "category": "基础设施:公共设施:公共厕所",
        "type": 0,
        "location": {
            "lat": 39.718801,
            "lng": 98.479627
        },
        "ad_info": {
            "adcode": 620902,
            "province": "甘肃省",
            "city": "酒泉市",
            "district": "肃州区"
        }
    },
    {
        "id": "9097591253993134502",
        "title": "公共厕所",
        "address": "甘肃省酒泉市肃州区南大街与盘旋东路交叉口正东方向210米左右",
        "tel": "",
        "category": "基础设施:公共设施:公共厕所",
        "type": 0,
        "location": {
            "lat": 39.736369,
            "lng": 98.51194
        },
        "ad_info": {
            "adcode": 620902,
            "province": "甘肃省",
            "city": "酒泉市",
            "district": "肃州区"
        }
    },
    {
        "id": "8111005656385864537",
        "title": "石槽子停车区公共厕所",
        "address": "甘肃省酒泉市敦煌市石槽子停车区西北侧",
        "tel": "",
        "category": "基础设施:公共设施:公共厕所",
        "type": 0,
        "location": {
            "lat": 40.402975,
            "lng": 94.873209
        },
        "ad_info": {
            "adcode": 620982,
            "province": "甘肃省",
            "city": "酒泉市",
            "district": "敦煌市"
        }
    },
    {
        "id": "2774180557283863959",
        "title": "清泉停车区公共厕所",
        "address": "甘肃省酒泉市玉门市清泉停车区北50米",
        "tel": "",
        "category": "基础设施:公共设施:公共厕所",
        "type": 0,
        "location": {
            "lat": 39.9497,
            "lng": 97.679464
        },
        "ad_info": {
            "adcode": 620981,
            "province": "甘肃省",
            "city": "酒泉市",
            "district": "玉门市"
        }
    },
    {
        "id": "10543176054578595141",
        "title": "公共卫生间",
        "address": "甘肃省酒泉市肃州区清泉路15号",
        "tel": "",
        "category": "基础设施:公共设施:公共厕所",
        "type": 0,
        "location": {
            "lat": 39.744078,
            "lng": 98.474395
        },
        "ad_info": {
            "adcode": 620902,
            "province": "甘肃省",
            "city": "酒泉市",
            "district": "肃州区"
        }
    },
    {
        "id": "13701008973499990357",
        "title": "公共厕所",
        "address": "甘肃省酒泉市金塔县解放路89号",
        "tel": "",
        "category": "基础设施:公共设施:公共厕所",
        "type": 0,
        "location": {
            "lat": 39.975378,
            "lng": 98.898525
        },
        "ad_info": {
            "adcode": 620921,
            "province": "甘肃省",
            "city": "酒泉市",
            "district": "金塔县"
        }
    },
    {
        "id": "14064129985834711213",
        "title": "公共厕所",
        "address": "甘肃省酒泉市肃州区体育路与北后三巷交叉口正南方向187米左右",
        "tel": "",
        "category": "基础设施:公共设施:公共厕所",
        "type": 0,
        "location": {
            "lat": 39.745576,
            "lng": 98.525731
        },
        "ad_info": {
            "adcode": 620902,
            "province": "甘肃省",
            "city": "酒泉市",
            "district": "肃州区"
        }
    },
    {
        "id": "2399343708354713938",
        "title": "公共厕所",
        "address": "甘肃省酒泉市肃州区南滨河西路与风电大道交叉口西南方向242米左右",
        "tel": "",
        "category": "基础设施:公共设施:公共厕所",
        "type": 0,
        "location": {
            "lat": 39.744763,
            "lng": 98.444939
        },
        "ad_info": {
            "adcode": 620902,
            "province": "甘肃省",
            "city": "酒泉市",
            "district": "肃州区"
        }
    },
    {
        "id": "5909748077153112073",
        "title": "公共厕所",
        "address": "甘肃省酒泉市肃州区光电大道与正大路交叉口西南方向47米左右",
        "tel": "",
        "category": "基础设施:公共设施:公共厕所",
        "type": 0,
        "location": {
            "lat": 39.72395,
            "lng": 98.479803
        },
        "ad_info": {
            "adcode": 620902,
            "province": "甘肃省",
            "city": "酒泉市",
            "district": "肃州区"
        }
    },
    {
        "id": "11676426603380029038",
        "title": "公共厕所",
        "address": "甘肃省酒泉市肃州区飞天苑西门向北500米",
        "tel": "",
        "category": "基础设施:公共设施:公共厕所",
        "type": 0,
        "location": {
            "lat": 39.727426,
            "lng": 98.534031
        },
        "ad_info": {
            "adcode": 620902,
            "province": "甘肃省",
            "city": "酒泉市",
            "district": "肃州区"
        }
    },
    {
        "id": "11459978455258996462",
        "title": "公共厕所",
        "address": "甘肃省酒泉市瓜州县渊泉街与瓜州大道交叉口正北方向80米左右",
        "tel": "",
        "category": "基础设施:公共设施:公共厕所",
        "type": 0,
        "location": {
            "lat": 40.516599,
            "lng": 95.778254
        },
        "ad_info": {
            "adcode": 620922,
            "province": "甘肃省",
            "city": "酒泉市",
            "district": "瓜州县"
        }
    },
    {
        "id": "13152178070543246840",
        "title": "苦水停车区公共厕所",
        "address": "甘肃省酒泉市瓜州县S31柳敦高速与苦水停车区交叉口南360米",
        "tel": "",
        "category": "基础设施:公共设施:公共厕所",
        "type": 0,
        "location": {
            "lat": 40.790388,
            "lng": 95.200597
        },
        "ad_info": {
            "adcode": 620922,
            "province": "甘肃省",
            "city": "酒泉市",
            "district": "瓜州县"
        }
    },
    {
        "id": "1233295368715710472",
        "title": "公共厕所",
        "address": "甘肃省酒泉市金塔县解放路352号",
        "tel": "",
        "category": "基础设施:公共设施:公共厕所",
        "type": 0,
        "location": {
            "lat": 39.983919,
            "lng": 98.903007
        },
        "ad_info": {
            "adcode": 620921,
            "province": "甘肃省",
            "city": "酒泉市",
            "district": "金塔县"
        }
    },
    {
        "id": "13568273289541274456",
        "title": "当金山南停车区公共厕所",
        "address": "甘肃省酒泉市阿克塞哈萨克族自治县G3011柳格高速与当金山南停车区交叉口西440米",
        "tel": "",
        "category": "基础设施:公共设施:公共厕所",
        "type": 0,
        "location": {
            "lat": 39.239907,
            "lng": 94.259355
        },
        "ad_info": {
            "adcode": 620924,
            "province": "甘肃省",
            "city": "酒泉市",
            "district": "阿克塞哈萨克族自治县"
        }
    },
    {
        "id": "6483838262850598564",
        "title": "新桥服务区第二公共厕所",
        "address": "甘肃省酒泉市敦煌市",
        "tel": "",
        "category": "基础设施:公共设施:公共厕所",
        "type": 0,
        "location": {
            "lat": 39.971472,
            "lng": 95.244224
        },
        "ad_info": {
            "adcode": 620982,
            "province": "甘肃省",
            "city": "酒泉市",
            "district": "敦煌市"
        }
    },
    {
        "id": "5185303825745177165",
        "title": "悬泉置服务区公共厕所",
        "address": "甘肃省酒泉市敦煌市G3011柳格高速与甜水井停车区交叉口西280米",
        "tel": "",
        "category": "基础设施:公共设施:公共厕所",
        "type": 0,
        "location": {
            "lat": 40.258032,
            "lng": 95.27985
        },
        "ad_info": {
            "adcode": 620982,
            "province": "甘肃省",
            "city": "酒泉市",
            "district": "敦煌市"
        }
    },
    {
        "id": "9274054541889152372",
        "title": "移动卫生间",
        "address": "甘肃省酒泉市肃州区G213与牌路交叉口东南方向837米左右",
        "tel": "",
        "category": "基础设施:公共设施:公共厕所",
        "type": 0,
        "location": {
            "lat": 39.696639,
            "lng": 98.591187
        },
        "ad_info": {
            "adcode": 620902,
            "province": "甘肃省",
            "city": "酒泉市",
            "district": "肃州区"
        }
    },
    {
        "id": "15590925736393403624",
        "title": "公共厕所",
        "address": "甘肃省酒泉市瓜州县广德路与渊泉街交叉口正西方向208米左右",
        "tel": "",
        "category": "基础设施:公共设施:公共厕所",
        "type": 0,
        "location": {
            "lat": 40.515942,
            "lng": 95.770753
        },
        "ad_info": {
            "adcode": 620922,
            "province": "甘肃省",
            "city": "酒泉市",
            "district": "瓜州县"
        }
    },
    {
        "id": "12615148009136880321",
        "title": "公共厕所",
        "address": "甘肃省酒泉市玉门市永吉路与迎宾大道交叉口西南方向222米左右",
        "tel": "",
        "category": "基础设施:公共设施:公共厕所",
        "type": 0,
        "location": {
            "lat": 40.292321,
            "lng": 97.057105
        },
        "ad_info": {
            "adcode": 620981,
            "province": "甘肃省",
            "city": "酒泉市",
            "district": "玉门市"
        }
    },
    {
        "id": "5584107073336952518",
        "title": "公共厕所",
        "address": "甘肃省酒泉市金塔县工农街与西城路交叉口东北方向114米左右",
        "tel": "",
        "category": "基础设施:公共设施:公共厕所",
        "type": 0,
        "location": {
            "lat": 39.989241,
            "lng": 98.90373
        },
        "ad_info": {
            "adcode": 620921,
            "province": "甘肃省",
            "city": "酒泉市",
            "district": "金塔县"
        }
    },
    {
        "id": "11372850523522374812",
        "title": "阳关服务区公共厕所",
        "address": "甘肃省酒泉市敦煌市阳关服务区与G3011柳格高速交叉口东480米",
        "tel": "",
        "category": "基础设施:公共设施:公共厕所",
        "type": 0,
        "location": {
            "lat": 39.980069,
            "lng": 94.300218
        },
        "ad_info": {
            "adcode": 620982,
            "province": "甘肃省",
            "city": "酒泉市",
            "district": "敦煌市"
        }
    },
    {
        "id": "17059690922151133754",
        "title": "公共厕所",
        "address": "甘肃省酒泉市瓜州县G215与G312交叉口正南方向326米左右",
        "tel": "",
        "category": "基础设施:公共设施:公共厕所",
        "type": 0,
        "location": {
            "lat": 40.579824,
            "lng": 96.735915
        },
        "ad_info": {
            "adcode": 620922,
            "province": "甘肃省",
            "city": "酒泉市",
            "district": "瓜州县"
        }
    },
    {
        "id": "12250264336905103080",
        "title": "公共厕所",
        "address": "甘肃省酒泉市阿克塞哈萨克族自治县团结路与小康路交叉口正北方向115米左右",
        "tel": "",
        "category": "基础设施:公共设施:公共厕所",
        "type": 0,
        "location": {
            "lat": 39.633663,
            "lng": 94.346925
        },
        "ad_info": {
            "adcode": 620924,
            "province": "甘肃省",
            "city": "酒泉市",
            "district": "阿克塞哈萨克族自治县"
        }
    },
    {
        "id": "12195646325175981388",
        "title": "公共厕所",
        "address": "甘肃省酒泉市肃州区文体路居雅苑",
        "tel": "",
        "category": "基础设施:公共设施:公共厕所",
        "type": 0,
        "location": {
            "lat": 39.742156,
            "lng": 98.483891
        },
        "ad_info": {
            "adcode": 620902,
            "province": "甘肃省",
            "city": "酒泉市",
            "district": "肃州区"
        }
    },
    {
        "id": "11394353713337689042",
        "title": "赤金停车区第一公共厕所",
        "address": "甘肃省酒泉市玉门市赤金停车区与G30连霍高速交叉口南200米",
        "tel": "",
        "category": "基础设施:公共设施:公共厕所",
        "type": 0,
        "location": {
            "lat": 40.036133,
            "lng": 97.425275
        },
        "ad_info": {
            "adcode": 620981,
            "province": "甘肃省",
            "city": "酒泉市",
            "district": "玉门市"
        }
    },
    {
        "id": "7580051804795111699",
        "title": "公共厕所",
        "address": "甘肃省酒泉市玉门市永吉路与石油路交叉口正南方向208米左右",
        "tel": "",
        "category": "基础设施:公共设施:公共厕所",
        "type": 0,
        "location": {
            "lat": 40.292878,
            "lng": 97.053852
        },
        "ad_info": {
            "adcode": 620981,
            "province": "甘肃省",
            "city": "酒泉市",
            "district": "玉门市"
        }
    },
    {
        "id": "10842286655215591610",
        "title": "瓜州停车区公共厕所",
        "address": "甘肃省酒泉市瓜州县瓜州停车区西50米",
        "tel": "",
        "category": "基础设施:公共设施:公共厕所",
        "type": 0,
        "location": {
            "lat": 40.499156,
            "lng": 95.899728
        },
        "ad_info": {
            "adcode": 620922,
            "province": "甘肃省",
            "city": "酒泉市",
            "district": "瓜州县"
        }
    },
    {
        "id": "511016752647675890",
        "title": "公共厕所",
        "address": "甘肃省酒泉市瓜州县元通步行街与公园街交叉口正东方向144米左右",
        "tel": "",
        "category": "基础设施:公共设施:公共厕所",
        "type": 0,
        "location": {
            "lat": 40.509572,
            "lng": 95.792598
        },
        "ad_info": {
            "adcode": 620922,
            "province": "甘肃省",
            "city": "酒泉市",
            "district": "瓜州县"
        }
    },
    {
        "id": "16018811811313964533",
        "title": "公共厕所",
        "address": "甘肃省酒泉市肃州区世纪大道与园林路交叉口正北方向125米左右",
        "tel": "",
        "category": "基础设施:公共设施:公共厕所",
        "type": 0,
        "location": {
            "lat": 39.750467,
            "lng": 98.493544
        },
        "ad_info": {
            "adcode": 620902,
            "province": "甘肃省",
            "city": "酒泉市",
            "district": "肃州区"
        }
    },
    {
        "id": "9746477856321852080",
        "title": "公共厕所GSJQ-0072",
        "address": "甘肃省酒泉市金塔县建新路与新华街交叉口东南方向163米左右",
        "tel": "",
        "category": "基础设施:公共设施:公共厕所",
        "type": 0,
        "location": {
            "lat": 39.986962,
            "lng": 98.898197
        },
        "ad_info": {
            "adcode": 620921,
            "province": "甘肃省",
            "city": "酒泉市",
            "district": "金塔县"
        }
    },
    {
        "id": "16141998336475867504",
        "title": "公共卫生间",
        "address": "甘肃省酒泉市肃州区西大街与西环北路交叉口正西方向106米左右",
        "tel": "",
        "category": "基础设施:公共设施:公共厕所",
        "type": 0,
        "location": {
            "lat": 39.744916,
            "lng": 98.501481
        },
        "ad_info": {
            "adcode": 620902,
            "province": "甘肃省",
            "city": "酒泉市",
            "district": "肃州区"
        }
    },
    {
        "id": "16246432776511316686",
        "title": "赤金停车区第二公共厕所",
        "address": "甘肃省酒泉市玉门市赤金停车区南50米",
        "tel": "",
        "category": "基础设施:公共设施:公共厕所",
        "type": 0,
        "location": {
            "lat": 40.035407,
            "lng": 97.4266
        },
        "ad_info": {
            "adcode": 620981,
            "province": "甘肃省",
            "city": "酒泉市",
            "district": "玉门市"
        }
    },
    {
        "id": "1233295368715710472",
        "title": "公共厕所",
        "address": "甘肃省酒泉市金塔县解放路352号",
        "tel": "",
        "category": "基础设施:公共设施:公共厕所",
        "type": 0,
        "location": {
            "lat": 39.983919,
            "lng": 98.903007
        },
        "ad_info": {
            "adcode": 620921,
            "province": "甘肃省",
            "city": "酒泉市",
            "district": "金塔县"
        }
    },
    {
        "id": "13568273289541274456",
        "title": "当金山南停车区公共厕所",
        "address": "甘肃省酒泉市阿克塞哈萨克族自治县G3011柳格高速与当金山南停车区交叉口西440米",
        "tel": "",
        "category": "基础设施:公共设施:公共厕所",
        "type": 0,
        "location": {
            "lat": 39.239907,
            "lng": 94.259355
        },
        "ad_info": {
            "adcode": 620924,
            "province": "甘肃省",
            "city": "酒泉市",
            "district": "阿克塞哈萨克族自治县"
        }
    },
    {
        "id": "6483838262850598564",
        "title": "新桥服务区第二公共厕所",
        "address": "甘肃省酒泉市敦煌市",
        "tel": "",
        "category": "基础设施:公共设施:公共厕所",
        "type": 0,
        "location": {
            "lat": 39.971472,
            "lng": 95.244224
        },
        "ad_info": {
            "adcode": 620982,
            "province": "甘肃省",
            "city": "酒泉市",
            "district": "敦煌市"
        }
    },
    {
        "id": "5185303825745177165",
        "title": "悬泉置服务区公共厕所",
        "address": "甘肃省酒泉市敦煌市G3011柳格高速与甜水井停车区交叉口西280米",
        "tel": "",
        "category": "基础设施:公共设施:公共厕所",
        "type": 0,
        "location": {
            "lat": 40.258032,
            "lng": 95.27985
        },
        "ad_info": {
            "adcode": 620982,
            "province": "甘肃省",
            "city": "酒泉市",
            "district": "敦煌市"
        }
    },
    {
        "id": "9274054541889152372",
        "title": "移动卫生间",
        "address": "甘肃省酒泉市肃州区G213与牌路交叉口东南方向837米左右",
        "tel": "",
        "category": "基础设施:公共设施:公共厕所",
        "type": 0,
        "location": {
            "lat": 39.696639,
            "lng": 98.591187
        },
        "ad_info": {
            "adcode": 620902,
            "province": "甘肃省",
            "city": "酒泉市",
            "district": "肃州区"
        }
    },
    {
        "id": "15590925736393403624",
        "title": "公共厕所",
        "address": "甘肃省酒泉市瓜州县广德路与渊泉街交叉口正西方向208米左右",
        "tel": "",
        "category": "基础设施:公共设施:公共厕所",
        "type": 0,
        "location": {
            "lat": 40.515942,
            "lng": 95.770753
        },
        "ad_info": {
            "adcode": 620922,
            "province": "甘肃省",
            "city": "酒泉市",
            "district": "瓜州县"
        }
    },
    {
        "id": "12615148009136880321",
        "title": "公共厕所",
        "address": "甘肃省酒泉市玉门市永吉路与迎宾大道交叉口西南方向222米左右",
        "tel": "",
        "category": "基础设施:公共设施:公共厕所",
        "type": 0,
        "location": {
            "lat": 40.292321,
            "lng": 97.057105
        },
        "ad_info": {
            "adcode": 620981,
            "province": "甘肃省",
            "city": "酒泉市",
            "district": "玉门市"
        }
    },
    {
        "id": "5584107073336952518",
        "title": "公共厕所",
        "address": "甘肃省酒泉市金塔县工农街与西城路交叉口东北方向114米左右",
        "tel": "",
        "category": "基础设施:公共设施:公共厕所",
        "type": 0,
        "location": {
            "lat": 39.989241,
            "lng": 98.90373
        },
        "ad_info": {
            "adcode": 620921,
            "province": "甘肃省",
            "city": "酒泉市",
            "district": "金塔县"
        }
    },
    {
        "id": "11372850523522374812",
        "title": "阳关服务区公共厕所",
        "address": "甘肃省酒泉市敦煌市阳关服务区与G3011柳格高速交叉口东480米",
        "tel": "",
        "category": "基础设施:公共设施:公共厕所",
        "type": 0,
        "location": {
            "lat": 39.980069,
            "lng": 94.300218
        },
        "ad_info": {
            "adcode": 620982,
            "province": "甘肃省",
            "city": "酒泉市",
            "district": "敦煌市"
        }
    },
    {
        "id": "17059690922151133754",
        "title": "公共厕所",
        "address": "甘肃省酒泉市瓜州县G215与G312交叉口正南方向326米左右",
        "tel": "",
        "category": "基础设施:公共设施:公共厕所",
        "type": 0,
        "location": {
            "lat": 40.579824,
            "lng": 96.735915
        },
        "ad_info": {
            "adcode": 620922,
            "province": "甘肃省",
            "city": "酒泉市",
            "district": "瓜州县"
        }
    },
    {
        "id": "12250264336905103080",
        "title": "公共厕所",
        "address": "甘肃省酒泉市阿克塞哈萨克族自治县团结路与小康路交叉口正北方向115米左右",
        "tel": "",
        "category": "基础设施:公共设施:公共厕所",
        "type": 0,
        "location": {
            "lat": 39.633663,
            "lng": 94.346925
        },
        "ad_info": {
            "adcode": 620924,
            "province": "甘肃省",
            "city": "酒泉市",
            "district": "阿克塞哈萨克族自治县"
        }
    },
    {
        "id": "12195646325175981388",
        "title": "公共厕所",
        "address": "甘肃省酒泉市肃州区文体路居雅苑",
        "tel": "",
        "category": "基础设施:公共设施:公共厕所",
        "type": 0,
        "location": {
            "lat": 39.742156,
            "lng": 98.483891
        },
        "ad_info": {
            "adcode": 620902,
            "province": "甘肃省",
            "city": "酒泉市",
            "district": "肃州区"
        }
    },
    {
        "id": "11394353713337689042",
        "title": "赤金停车区第一公共厕所",
        "address": "甘肃省酒泉市玉门市赤金停车区与G30连霍高速交叉口南200米",
        "tel": "",
        "category": "基础设施:公共设施:公共厕所",
        "type": 0,
        "location": {
            "lat": 40.036133,
            "lng": 97.425275
        },
        "ad_info": {
            "adcode": 620981,
            "province": "甘肃省",
            "city": "酒泉市",
            "district": "玉门市"
        }
    },
    {
        "id": "7580051804795111699",
        "title": "公共厕所",
        "address": "甘肃省酒泉市玉门市永吉路与石油路交叉口正南方向208米左右",
        "tel": "",
        "category": "基础设施:公共设施:公共厕所",
        "type": 0,
        "location": {
            "lat": 40.292878,
            "lng": 97.053852
        },
        "ad_info": {
            "adcode": 620981,
            "province": "甘肃省",
            "city": "酒泉市",
            "district": "玉门市"
        }
    },
    {
        "id": "10842286655215591610",
        "title": "瓜州停车区公共厕所",
        "address": "甘肃省酒泉市瓜州县瓜州停车区西50米",
        "tel": "",
        "category": "基础设施:公共设施:公共厕所",
        "type": 0,
        "location": {
            "lat": 40.499156,
            "lng": 95.899728
        },
        "ad_info": {
            "adcode": 620922,
            "province": "甘肃省",
            "city": "酒泉市",
            "district": "瓜州县"
        }
    },
    {
        "id": "511016752647675890",
        "title": "公共厕所",
        "address": "甘肃省酒泉市瓜州县元通步行街与公园街交叉口正东方向144米左右",
        "tel": "",
        "category": "基础设施:公共设施:公共厕所",
        "type": 0,
        "location": {
            "lat": 40.509572,
            "lng": 95.792598
        },
        "ad_info": {
            "adcode": 620922,
            "province": "甘肃省",
            "city": "酒泉市",
            "district": "瓜州县"
        }
    },
    {
        "id": "16018811811313964533",
        "title": "公共厕所",
        "address": "甘肃省酒泉市肃州区世纪大道与园林路交叉口正北方向125米左右",
        "tel": "",
        "category": "基础设施:公共设施:公共厕所",
        "type": 0,
        "location": {
            "lat": 39.750467,
            "lng": 98.493544
        },
        "ad_info": {
            "adcode": 620902,
            "province": "甘肃省",
            "city": "酒泉市",
            "district": "肃州区"
        }
    },
    {
        "id": "9746477856321852080",
        "title": "公共厕所GSJQ-0072",
        "address": "甘肃省酒泉市金塔县建新路与新华街交叉口东南方向163米左右",
        "tel": "",
        "category": "基础设施:公共设施:公共厕所",
        "type": 0,
        "location": {
            "lat": 39.986962,
            "lng": 98.898197
        },
        "ad_info": {
            "adcode": 620921,
            "province": "甘肃省",
            "city": "酒泉市",
            "district": "金塔县"
        }
    },
    {
        "id": "16141998336475867504",
        "title": "公共卫生间",
        "address": "甘肃省酒泉市肃州区西大街与西环北路交叉口正西方向106米左右",
        "tel": "",
        "category": "基础设施:公共设施:公共厕所",
        "type": 0,
        "location": {
            "lat": 39.744916,
            "lng": 98.501481
        },
        "ad_info": {
            "adcode": 620902,
            "province": "甘肃省",
            "city": "酒泉市",
            "district": "肃州区"
        }
    },
    {
        "id": "16246432776511316686",
        "title": "赤金停车区第二公共厕所",
        "address": "甘肃省酒泉市玉门市赤金停车区南50米",
        "tel": "",
        "category": "基础设施:公共设施:公共厕所",
        "type": 0,
        "location": {
            "lat": 40.035407,
            "lng": 97.4266
        },
        "ad_info": {
            "adcode": 620981,
            "province": "甘肃省",
            "city": "酒泉市",
            "district": "玉门市"
        }
    },
    {
        "id": "1233295368715710472",
        "title": "公共厕所",
        "address": "甘肃省酒泉市金塔县解放路352号",
        "tel": "",
        "category": "基础设施:公共设施:公共厕所",
        "type": 0,
        "location": {
            "lat": 39.983919,
            "lng": 98.903007
        },
        "ad_info": {
            "adcode": 620921,
            "province": "甘肃省",
            "city": "酒泉市",
            "district": "金塔县"
        }
    },
    {
        "id": "13568273289541274456",
        "title": "当金山南停车区公共厕所",
        "address": "甘肃省酒泉市阿克塞哈萨克族自治县G3011柳格高速与当金山南停车区交叉口西440米",
        "tel": "",
        "category": "基础设施:公共设施:公共厕所",
        "type": 0,
        "location": {
            "lat": 39.239907,
            "lng": 94.259355
        },
        "ad_info": {
            "adcode": 620924,
            "province": "甘肃省",
            "city": "酒泉市",
            "district": "阿克塞哈萨克族自治县"
        }
    },
    {
        "id": "6483838262850598564",
        "title": "新桥服务区第二公共厕所",
        "address": "甘肃省酒泉市敦煌市",
        "tel": "",
        "category": "基础设施:公共设施:公共厕所",
        "type": 0,
        "location": {
            "lat": 39.971472,
            "lng": 95.244224
        },
        "ad_info": {
            "adcode": 620982,
            "province": "甘肃省",
            "city": "酒泉市",
            "district": "敦煌市"
        }
    },
    {
        "id": "5185303825745177165",
        "title": "悬泉置服务区公共厕所",
        "address": "甘肃省酒泉市敦煌市G3011柳格高速与甜水井停车区交叉口西280米",
        "tel": "",
        "category": "基础设施:公共设施:公共厕所",
        "type": 0,
        "location": {
            "lat": 40.258032,
            "lng": 95.27985
        },
        "ad_info": {
            "adcode": 620982,
            "province": "甘肃省",
            "city": "酒泉市",
            "district": "敦煌市"
        }
    },
    {
        "id": "9274054541889152372",
        "title": "移动卫生间",
        "address": "甘肃省酒泉市肃州区G213与牌路交叉口东南方向837米左右",
        "tel": "",
        "category": "基础设施:公共设施:公共厕所",
        "type": 0,
        "location": {
            "lat": 39.696639,
            "lng": 98.591187
        },
        "ad_info": {
            "adcode": 620902,
            "province": "甘肃省",
            "city": "酒泉市",
            "district": "肃州区"
        }
    },
    {
        "id": "15590925736393403624",
        "title": "公共厕所",
        "address": "甘肃省酒泉市瓜州县广德路与渊泉街交叉口正西方向208米左右",
        "tel": "",
        "category": "基础设施:公共设施:公共厕所",
        "type": 0,
        "location": {
            "lat": 40.515942,
            "lng": 95.770753
        },
        "ad_info": {
            "adcode": 620922,
            "province": "甘肃省",
            "city": "酒泉市",
            "district": "瓜州县"
        }
    },
    {
        "id": "12615148009136880321",
        "title": "公共厕所",
        "address": "甘肃省酒泉市玉门市永吉路与迎宾大道交叉口西南方向222米左右",
        "tel": "",
        "category": "基础设施:公共设施:公共厕所",
        "type": 0,
        "location": {
            "lat": 40.292321,
            "lng": 97.057105
        },
        "ad_info": {
            "adcode": 620981,
            "province": "甘肃省",
            "city": "酒泉市",
            "district": "玉门市"
        }
    },
    {
        "id": "5584107073336952518",
        "title": "公共厕所",
        "address": "甘肃省酒泉市金塔县工农街与西城路交叉口东北方向114米左右",
        "tel": "",
        "category": "基础设施:公共设施:公共厕所",
        "type": 0,
        "location": {
            "lat": 39.989241,
            "lng": 98.90373
        },
        "ad_info": {
            "adcode": 620921,
            "province": "甘肃省",
            "city": "酒泉市",
            "district": "金塔县"
        }
    },
    {
        "id": "11372850523522374812",
        "title": "阳关服务区公共厕所",
        "address": "甘肃省酒泉市敦煌市阳关服务区与G3011柳格高速交叉口东480米",
        "tel": "",
        "category": "基础设施:公共设施:公共厕所",
        "type": 0,
        "location": {
            "lat": 39.980069,
            "lng": 94.300218
        },
        "ad_info": {
            "adcode": 620982,
            "province": "甘肃省",
            "city": "酒泉市",
            "district": "敦煌市"
        }
    },
    {
        "id": "17059690922151133754",
        "title": "公共厕所",
        "address": "甘肃省酒泉市瓜州县G215与G312交叉口正南方向326米左右",
        "tel": "",
        "category": "基础设施:公共设施:公共厕所",
        "type": 0,
        "location": {
            "lat": 40.579824,
            "lng": 96.735915
        },
        "ad_info": {
            "adcode": 620922,
            "province": "甘肃省",
            "city": "酒泉市",
            "district": "瓜州县"
        }
    },
    {
        "id": "12250264336905103080",
        "title": "公共厕所",
        "address": "甘肃省酒泉市阿克塞哈萨克族自治县团结路与小康路交叉口正北方向115米左右",
        "tel": "",
        "category": "基础设施:公共设施:公共厕所",
        "type": 0,
        "location": {
            "lat": 39.633663,
            "lng": 94.346925
        },
        "ad_info": {
            "adcode": 620924,
            "province": "甘肃省",
            "city": "酒泉市",
            "district": "阿克塞哈萨克族自治县"
        }
    },
    {
        "id": "12195646325175981388",
        "title": "公共厕所",
        "address": "甘肃省酒泉市肃州区文体路居雅苑",
        "tel": "",
        "category": "基础设施:公共设施:公共厕所",
        "type": 0,
        "location": {
            "lat": 39.742156,
            "lng": 98.483891
        },
        "ad_info": {
            "adcode": 620902,
            "province": "甘肃省",
            "city": "酒泉市",
            "district": "肃州区"
        }
    },
    {
        "id": "11394353713337689042",
        "title": "赤金停车区第一公共厕所",
        "address": "甘肃省酒泉市玉门市赤金停车区与G30连霍高速交叉口南200米",
        "tel": "",
        "category": "基础设施:公共设施:公共厕所",
        "type": 0,
        "location": {
            "lat": 40.036133,
            "lng": 97.425275
        },
        "ad_info": {
            "adcode": 620981,
            "province": "甘肃省",
            "city": "酒泉市",
            "district": "玉门市"
        }
    },
    {
        "id": "7580051804795111699",
        "title": "公共厕所",
        "address": "甘肃省酒泉市玉门市永吉路与石油路交叉口正南方向208米左右",
        "tel": "",
        "category": "基础设施:公共设施:公共厕所",
        "type": 0,
        "location": {
            "lat": 40.292878,
            "lng": 97.053852
        },
        "ad_info": {
            "adcode": 620981,
            "province": "甘肃省",
            "city": "酒泉市",
            "district": "玉门市"
        }
    },
    {
        "id": "10842286655215591610",
        "title": "瓜州停车区公共厕所",
        "address": "甘肃省酒泉市瓜州县瓜州停车区西50米",
        "tel": "",
        "category": "基础设施:公共设施:公共厕所",
        "type": 0,
        "location": {
            "lat": 40.499156,
            "lng": 95.899728
        },
        "ad_info": {
            "adcode": 620922,
            "province": "甘肃省",
            "city": "酒泉市",
            "district": "瓜州县"
        }
    },
    {
        "id": "511016752647675890",
        "title": "公共厕所",
        "address": "甘肃省酒泉市瓜州县元通步行街与公园街交叉口正东方向144米左右",
        "tel": "",
        "category": "基础设施:公共设施:公共厕所",
        "type": 0,
        "location": {
            "lat": 40.509572,
            "lng": 95.792598
        },
        "ad_info": {
            "adcode": 620922,
            "province": "甘肃省",
            "city": "酒泉市",
            "district": "瓜州县"
        }
    },
    {
        "id": "16018811811313964533",
        "title": "公共厕所",
        "address": "甘肃省酒泉市肃州区世纪大道与园林路交叉口正北方向125米左右",
        "tel": "",
        "category": "基础设施:公共设施:公共厕所",
        "type": 0,
        "location": {
            "lat": 39.750467,
            "lng": 98.493544
        },
        "ad_info": {
            "adcode": 620902,
            "province": "甘肃省",
            "city": "酒泉市",
            "district": "肃州区"
        }
    },
    {
        "id": "9746477856321852080",
        "title": "公共厕所GSJQ-0072",
        "address": "甘肃省酒泉市金塔县建新路与新华街交叉口东南方向163米左右",
        "tel": "",
        "category": "基础设施:公共设施:公共厕所",
        "type": 0,
        "location": {
            "lat": 39.986962,
            "lng": 98.898197
        },
        "ad_info": {
            "adcode": 620921,
            "province": "甘肃省",
            "city": "酒泉市",
            "district": "金塔县"
        }
    },
    {
        "id": "16141998336475867504",
        "title": "公共卫生间",
        "address": "甘肃省酒泉市肃州区西大街与西环北路交叉口正西方向106米左右",
        "tel": "",
        "category": "基础设施:公共设施:公共厕所",
        "type": 0,
        "location": {
            "lat": 39.744916,
            "lng": 98.501481
        },
        "ad_info": {
            "adcode": 620902,
            "province": "甘肃省",
            "city": "酒泉市",
            "district": "肃州区"
        }
    },
    {
        "id": "16246432776511316686",
        "title": "赤金停车区第二公共厕所",
        "address": "甘肃省酒泉市玉门市赤金停车区南50米",
        "tel": "",
        "category": "基础设施:公共设施:公共厕所",
        "type": 0,
        "location": {
            "lat": 40.035407,
            "lng": 97.4266
        },
        "ad_info": {
            "adcode": 620981,
            "province": "甘肃省",
            "city": "酒泉市",
            "district": "玉门市"
        }
    },
    {
        "id": "1233295368715710472",
        "title": "公共厕所",
        "address": "甘肃省酒泉市金塔县解放路352号",
        "tel": "",
        "category": "基础设施:公共设施:公共厕所",
        "type": 0,
        "location": {
            "lat": 39.983919,
            "lng": 98.903007
        },
        "ad_info": {
            "adcode": 620921,
            "province": "甘肃省",
            "city": "酒泉市",
            "district": "金塔县"
        }
    },
    {
        "id": "13568273289541274456",
        "title": "当金山南停车区公共厕所",
        "address": "甘肃省酒泉市阿克塞哈萨克族自治县G3011柳格高速与当金山南停车区交叉口西440米",
        "tel": "",
        "category": "基础设施:公共设施:公共厕所",
        "type": 0,
        "location": {
            "lat": 39.239907,
            "lng": 94.259355
        },
        "ad_info": {
            "adcode": 620924,
            "province": "甘肃省",
            "city": "酒泉市",
            "district": "阿克塞哈萨克族自治县"
        }
    },
    {
        "id": "6483838262850598564",
        "title": "新桥服务区第二公共厕所",
        "address": "甘肃省酒泉市敦煌市",
        "tel": "",
        "category": "基础设施:公共设施:公共厕所",
        "type": 0,
        "location": {
            "lat": 39.971472,
            "lng": 95.244224
        },
        "ad_info": {
            "adcode": 620982,
            "province": "甘肃省",
            "city": "酒泉市",
            "district": "敦煌市"
        }
    },
    {
        "id": "5185303825745177165",
        "title": "悬泉置服务区公共厕所",
        "address": "甘肃省酒泉市敦煌市G3011柳格高速与甜水井停车区交叉口西280米",
        "tel": "",
        "category": "基础设施:公共设施:公共厕所",
        "type": 0,
        "location": {
            "lat": 40.258032,
            "lng": 95.27985
        },
        "ad_info": {
            "adcode": 620982,
            "province": "甘肃省",
            "city": "酒泉市",
            "district": "敦煌市"
        }
    },
    {
        "id": "9274054541889152372",
        "title": "移动卫生间",
        "address": "甘肃省酒泉市肃州区G213与牌路交叉口东南方向837米左右",
        "tel": "",
        "category": "基础设施:公共设施:公共厕所",
        "type": 0,
        "location": {
            "lat": 39.696639,
            "lng": 98.591187
        },
        "ad_info": {
            "adcode": 620902,
            "province": "甘肃省",
            "city": "酒泉市",
            "district": "肃州区"
        }
    },
    {
        "id": "15590925736393403624",
        "title": "公共厕所",
        "address": "甘肃省酒泉市瓜州县广德路与渊泉街交叉口正西方向208米左右",
        "tel": "",
        "category": "基础设施:公共设施:公共厕所",
        "type": 0,
        "location": {
            "lat": 40.515942,
            "lng": 95.770753
        },
        "ad_info": {
            "adcode": 620922,
            "province": "甘肃省",
            "city": "酒泉市",
            "district": "瓜州县"
        }
    },
    {
        "id": "12615148009136880321",
        "title": "公共厕所",
        "address": "甘肃省酒泉市玉门市永吉路与迎宾大道交叉口西南方向222米左右",
        "tel": "",
        "category": "基础设施:公共设施:公共厕所",
        "type": 0,
        "location": {
            "lat": 40.292321,
            "lng": 97.057105
        },
        "ad_info": {
            "adcode": 620981,
            "province": "甘肃省",
            "city": "酒泉市",
            "district": "玉门市"
        }
    },
    {
        "id": "5584107073336952518",
        "title": "公共厕所",
        "address": "甘肃省酒泉市金塔县工农街与西城路交叉口东北方向114米左右",
        "tel": "",
        "category": "基础设施:公共设施:公共厕所",
        "type": 0,
        "location": {
            "lat": 39.989241,
            "lng": 98.90373
        },
        "ad_info": {
            "adcode": 620921,
            "province": "甘肃省",
            "city": "酒泉市",
            "district": "金塔县"
        }
    },
    {
        "id": "11372850523522374812",
        "title": "阳关服务区公共厕所",
        "address": "甘肃省酒泉市敦煌市阳关服务区与G3011柳格高速交叉口东480米",
        "tel": "",
        "category": "基础设施:公共设施:公共厕所",
        "type": 0,
        "location": {
            "lat": 39.980069,
            "lng": 94.300218
        },
        "ad_info": {
            "adcode": 620982,
            "province": "甘肃省",
            "city": "酒泉市",
            "district": "敦煌市"
        }
    },
    {
        "id": "17059690922151133754",
        "title": "公共厕所",
        "address": "甘肃省酒泉市瓜州县G215与G312交叉口正南方向326米左右",
        "tel": "",
        "category": "基础设施:公共设施:公共厕所",
        "type": 0,
        "location": {
            "lat": 40.579824,
            "lng": 96.735915
        },
        "ad_info": {
            "adcode": 620922,
            "province": "甘肃省",
            "city": "酒泉市",
            "district": "瓜州县"
        }
    },
    {
        "id": "12250264336905103080",
        "title": "公共厕所",
        "address": "甘肃省酒泉市阿克塞哈萨克族自治县团结路与小康路交叉口正北方向115米左右",
        "tel": "",
        "category": "基础设施:公共设施:公共厕所",
        "type": 0,
        "location": {
            "lat": 39.633663,
            "lng": 94.346925
        },
        "ad_info": {
            "adcode": 620924,
            "province": "甘肃省",
            "city": "酒泉市",
            "district": "阿克塞哈萨克族自治县"
        }
    },
    {
        "id": "12195646325175981388",
        "title": "公共厕所",
        "address": "甘肃省酒泉市肃州区文体路居雅苑",
        "tel": "",
        "category": "基础设施:公共设施:公共厕所",
        "type": 0,
        "location": {
            "lat": 39.742156,
            "lng": 98.483891
        },
        "ad_info": {
            "adcode": 620902,
            "province": "甘肃省",
            "city": "酒泉市",
            "district": "肃州区"
        }
    },
    {
        "id": "11394353713337689042",
        "title": "赤金停车区第一公共厕所",
        "address": "甘肃省酒泉市玉门市赤金停车区与G30连霍高速交叉口南200米",
        "tel": "",
        "category": "基础设施:公共设施:公共厕所",
        "type": 0,
        "location": {
            "lat": 40.036133,
            "lng": 97.425275
        },
        "ad_info": {
            "adcode": 620981,
            "province": "甘肃省",
            "city": "酒泉市",
            "district": "玉门市"
        }
    },
    {
        "id": "7580051804795111699",
        "title": "公共厕所",
        "address": "甘肃省酒泉市玉门市永吉路与石油路交叉口正南方向208米左右",
        "tel": "",
        "category": "基础设施:公共设施:公共厕所",
        "type": 0,
        "location": {
            "lat": 40.292878,
            "lng": 97.053852
        },
        "ad_info": {
            "adcode": 620981,
            "province": "甘肃省",
            "city": "酒泉市",
            "district": "玉门市"
        }
    },
    {
        "id": "10842286655215591610",
        "title": "瓜州停车区公共厕所",
        "address": "甘肃省酒泉市瓜州县瓜州停车区西50米",
        "tel": "",
        "category": "基础设施:公共设施:公共厕所",
        "type": 0,
        "location": {
            "lat": 40.499156,
            "lng": 95.899728
        },
        "ad_info": {
            "adcode": 620922,
            "province": "甘肃省",
            "city": "酒泉市",
            "district": "瓜州县"
        }
    },
    {
        "id": "511016752647675890",
        "title": "公共厕所",
        "address": "甘肃省酒泉市瓜州县元通步行街与公园街交叉口正东方向144米左右",
        "tel": "",
        "category": "基础设施:公共设施:公共厕所",
        "type": 0,
        "location": {
            "lat": 40.509572,
            "lng": 95.792598
        },
        "ad_info": {
            "adcode": 620922,
            "province": "甘肃省",
            "city": "酒泉市",
            "district": "瓜州县"
        }
    },
    {
        "id": "16018811811313964533",
        "title": "公共厕所",
        "address": "甘肃省酒泉市肃州区世纪大道与园林路交叉口正北方向125米左右",
        "tel": "",
        "category": "基础设施:公共设施:公共厕所",
        "type": 0,
        "location": {
            "lat": 39.750467,
            "lng": 98.493544
        },
        "ad_info": {
            "adcode": 620902,
            "province": "甘肃省",
            "city": "酒泉市",
            "district": "肃州区"
        }
    },
    {
        "id": "9746477856321852080",
        "title": "公共厕所GSJQ-0072",
        "address": "甘肃省酒泉市金塔县建新路与新华街交叉口东南方向163米左右",
        "tel": "",
        "category": "基础设施:公共设施:公共厕所",
        "type": 0,
        "location": {
            "lat": 39.986962,
            "lng": 98.898197
        },
        "ad_info": {
            "adcode": 620921,
            "province": "甘肃省",
            "city": "酒泉市",
            "district": "金塔县"
        }
    },
    {
        "id": "16141998336475867504",
        "title": "公共卫生间",
        "address": "甘肃省酒泉市肃州区西大街与西环北路交叉口正西方向106米左右",
        "tel": "",
        "category": "基础设施:公共设施:公共厕所",
        "type": 0,
        "location": {
            "lat": 39.744916,
            "lng": 98.501481
        },
        "ad_info": {
            "adcode": 620902,
            "province": "甘肃省",
            "city": "酒泉市",
            "district": "肃州区"
        }
    },
    {
        "id": "16246432776511316686",
        "title": "赤金停车区第二公共厕所",
        "address": "甘肃省酒泉市玉门市赤金停车区南50米",
        "tel": "",
        "category": "基础设施:公共设施:公共厕所",
        "type": 0,
        "location": {
            "lat": 40.035407,
            "lng": 97.4266
        },
        "ad_info": {
            "adcode": 620981,
            "province": "甘肃省",
            "city": "酒泉市",
            "district": "玉门市"
        }
    },
    {
        "id": "1233295368715710472",
        "title": "公共厕所",
        "address": "甘肃省酒泉市金塔县解放路352号",
        "tel": "",
        "category": "基础设施:公共设施:公共厕所",
        "type": 0,
        "location": {
            "lat": 39.983919,
            "lng": 98.903007
        },
        "ad_info": {
            "adcode": 620921,
            "province": "甘肃省",
            "city": "酒泉市",
            "district": "金塔县"
        }
    },
    {
        "id": "13568273289541274456",
        "title": "当金山南停车区公共厕所",
        "address": "甘肃省酒泉市阿克塞哈萨克族自治县G3011柳格高速与当金山南停车区交叉口西440米",
        "tel": "",
        "category": "基础设施:公共设施:公共厕所",
        "type": 0,
        "location": {
            "lat": 39.239907,
            "lng": 94.259355
        },
        "ad_info": {
            "adcode": 620924,
            "province": "甘肃省",
            "city": "酒泉市",
            "district": "阿克塞哈萨克族自治县"
        }
    },
    {
        "id": "6483838262850598564",
        "title": "新桥服务区第二公共厕所",
        "address": "甘肃省酒泉市敦煌市",
        "tel": "",
        "category": "基础设施:公共设施:公共厕所",
        "type": 0,
        "location": {
            "lat": 39.971472,
            "lng": 95.244224
        },
        "ad_info": {
            "adcode": 620982,
            "province": "甘肃省",
            "city": "酒泉市",
            "district": "敦煌市"
        }
    },
    {
        "id": "5185303825745177165",
        "title": "悬泉置服务区公共厕所",
        "address": "甘肃省酒泉市敦煌市G3011柳格高速与甜水井停车区交叉口西280米",
        "tel": "",
        "category": "基础设施:公共设施:公共厕所",
        "type": 0,
        "location": {
            "lat": 40.258032,
            "lng": 95.27985
        },
        "ad_info": {
            "adcode": 620982,
            "province": "甘肃省",
            "city": "酒泉市",
            "district": "敦煌市"
        }
    },
    {
        "id": "9274054541889152372",
        "title": "移动卫生间",
        "address": "甘肃省酒泉市肃州区G213与牌路交叉口东南方向837米左右",
        "tel": "",
        "category": "基础设施:公共设施:公共厕所",
        "type": 0,
        "location": {
            "lat": 39.696639,
            "lng": 98.591187
        },
        "ad_info": {
            "adcode": 620902,
            "province": "甘肃省",
            "city": "酒泉市",
            "district": "肃州区"
        }
    },
    {
        "id": "15590925736393403624",
        "title": "公共厕所",
        "address": "甘肃省酒泉市瓜州县广德路与渊泉街交叉口正西方向208米左右",
        "tel": "",
        "category": "基础设施:公共设施:公共厕所",
        "type": 0,
        "location": {
            "lat": 40.515942,
            "lng": 95.770753
        },
        "ad_info": {
            "adcode": 620922,
            "province": "甘肃省",
            "city": "酒泉市",
            "district": "瓜州县"
        }
    },
    {
        "id": "12615148009136880321",
        "title": "公共厕所",
        "address": "甘肃省酒泉市玉门市永吉路与迎宾大道交叉口西南方向222米左右",
        "tel": "",
        "category": "基础设施:公共设施:公共厕所",
        "type": 0,
        "location": {
            "lat": 40.292321,
            "lng": 97.057105
        },
        "ad_info": {
            "adcode": 620981,
            "province": "甘肃省",
            "city": "酒泉市",
            "district": "玉门市"
        }
    },
    {
        "id": "5584107073336952518",
        "title": "公共厕所",
        "address": "甘肃省酒泉市金塔县工农街与西城路交叉口东北方向114米左右",
        "tel": "",
        "category": "基础设施:公共设施:公共厕所",
        "type": 0,
        "location": {
            "lat": 39.989241,
            "lng": 98.90373
        },
        "ad_info": {
            "adcode": 620921,
            "province": "甘肃省",
            "city": "酒泉市",
            "district": "金塔县"
        }
    },
    {
        "id": "11372850523522374812",
        "title": "阳关服务区公共厕所",
        "address": "甘肃省酒泉市敦煌市阳关服务区与G3011柳格高速交叉口东480米",
        "tel": "",
        "category": "基础设施:公共设施:公共厕所",
        "type": 0,
        "location": {
            "lat": 39.980069,
            "lng": 94.300218
        },
        "ad_info": {
            "adcode": 620982,
            "province": "甘肃省",
            "city": "酒泉市",
            "district": "敦煌市"
        }
    },
    {
        "id": "17059690922151133754",
        "title": "公共厕所",
        "address": "甘肃省酒泉市瓜州县G215与G312交叉口正南方向326米左右",
        "tel": "",
        "category": "基础设施:公共设施:公共厕所",
        "type": 0,
        "location": {
            "lat": 40.579824,
            "lng": 96.735915
        },
        "ad_info": {
            "adcode": 620922,
            "province": "甘肃省",
            "city": "酒泉市",
            "district": "瓜州县"
        }
    },
    {
        "id": "12250264336905103080",
        "title": "公共厕所",
        "address": "甘肃省酒泉市阿克塞哈萨克族自治县团结路与小康路交叉口正北方向115米左右",
        "tel": "",
        "category": "基础设施:公共设施:公共厕所",
        "type": 0,
        "location": {
            "lat": 39.633663,
            "lng": 94.346925
        },
        "ad_info": {
            "adcode": 620924,
            "province": "甘肃省",
            "city": "酒泉市",
            "district": "阿克塞哈萨克族自治县"
        }
    },
    {
        "id": "12195646325175981388",
        "title": "公共厕所",
        "address": "甘肃省酒泉市肃州区文体路居雅苑",
        "tel": "",
        "category": "基础设施:公共设施:公共厕所",
        "type": 0,
        "location": {
            "lat": 39.742156,
            "lng": 98.483891
        },
        "ad_info": {
            "adcode": 620902,
            "province": "甘肃省",
            "city": "酒泉市",
            "district": "肃州区"
        }
    },
    {
        "id": "11394353713337689042",
        "title": "赤金停车区第一公共厕所",
        "address": "甘肃省酒泉市玉门市赤金停车区与G30连霍高速交叉口南200米",
        "tel": "",
        "category": "基础设施:公共设施:公共厕所",
        "type": 0,
        "location": {
            "lat": 40.036133,
            "lng": 97.425275
        },
        "ad_info": {
            "adcode": 620981,
            "province": "甘肃省",
            "city": "酒泉市",
            "district": "玉门市"
        }
    },
    {
        "id": "7580051804795111699",
        "title": "公共厕所",
        "address": "甘肃省酒泉市玉门市永吉路与石油路交叉口正南方向208米左右",
        "tel": "",
        "category": "基础设施:公共设施:公共厕所",
        "type": 0,
        "location": {
            "lat": 40.292878,
            "lng": 97.053852
        },
        "ad_info": {
            "adcode": 620981,
            "province": "甘肃省",
            "city": "酒泉市",
            "district": "玉门市"
        }
    },
    {
        "id": "10842286655215591610",
        "title": "瓜州停车区公共厕所",
        "address": "甘肃省酒泉市瓜州县瓜州停车区西50米",
        "tel": "",
        "category": "基础设施:公共设施:公共厕所",
        "type": 0,
        "location": {
            "lat": 40.499156,
            "lng": 95.899728
        },
        "ad_info": {
            "adcode": 620922,
            "province": "甘肃省",
            "city": "酒泉市",
            "district": "瓜州县"
        }
    },
    {
        "id": "511016752647675890",
        "title": "公共厕所",
        "address": "甘肃省酒泉市瓜州县元通步行街与公园街交叉口正东方向144米左右",
        "tel": "",
        "category": "基础设施:公共设施:公共厕所",
        "type": 0,
        "location": {
            "lat": 40.509572,
            "lng": 95.792598
        },
        "ad_info": {
            "adcode": 620922,
            "province": "甘肃省",
            "city": "酒泉市",
            "district": "瓜州县"
        }
    },
    {
        "id": "16018811811313964533",
        "title": "公共厕所",
        "address": "甘肃省酒泉市肃州区世纪大道与园林路交叉口正北方向125米左右",
        "tel": "",
        "category": "基础设施:公共设施:公共厕所",
        "type": 0,
        "location": {
            "lat": 39.750467,
            "lng": 98.493544
        },
        "ad_info": {
            "adcode": 620902,
            "province": "甘肃省",
            "city": "酒泉市",
            "district": "肃州区"
        }
    },
    {
        "id": "9746477856321852080",
        "title": "公共厕所GSJQ-0072",
        "address": "甘肃省酒泉市金塔县建新路与新华街交叉口东南方向163米左右",
        "tel": "",
        "category": "基础设施:公共设施:公共厕所",
        "type": 0,
        "location": {
            "lat": 39.986962,
            "lng": 98.898197
        },
        "ad_info": {
            "adcode": 620921,
            "province": "甘肃省",
            "city": "酒泉市",
            "district": "金塔县"
        }
    },
    {
        "id": "16141998336475867504",
        "title": "公共卫生间",
        "address": "甘肃省酒泉市肃州区西大街与西环北路交叉口正西方向106米左右",
        "tel": "",
        "category": "基础设施:公共设施:公共厕所",
        "type": 0,
        "location": {
            "lat": 39.744916,
            "lng": 98.501481
        },
        "ad_info": {
            "adcode": 620902,
            "province": "甘肃省",
            "city": "酒泉市",
            "district": "肃州区"
        }
    },
    {
        "id": "16246432776511316686",
        "title": "赤金停车区第二公共厕所",
        "address": "甘肃省酒泉市玉门市赤金停车区南50米",
        "tel": "",
        "category": "基础设施:公共设施:公共厕所",
        "type": 0,
        "location": {
            "lat": 40.035407,
            "lng": 97.4266
        },
        "ad_info": {
            "adcode": 620981,
            "province": "甘肃省",
            "city": "酒泉市",
            "district": "玉门市"
        }
    },
    {
        "id": "1233295368715710472",
        "title": "公共厕所",
        "address": "甘肃省酒泉市金塔县解放路352号",
        "tel": "",
        "category": "基础设施:公共设施:公共厕所",
        "type": 0,
        "location": {
            "lat": 39.983919,
            "lng": 98.903007
        },
        "ad_info": {
            "adcode": 620921,
            "province": "甘肃省",
            "city": "酒泉市",
            "district": "金塔县"
        }
    },
    {
        "id": "13568273289541274456",
        "title": "当金山南停车区公共厕所",
        "address": "甘肃省酒泉市阿克塞哈萨克族自治县G3011柳格高速与当金山南停车区交叉口西440米",
        "tel": "",
        "category": "基础设施:公共设施:公共厕所",
        "type": 0,
        "location": {
            "lat": 39.239907,
            "lng": 94.259355
        },
        "ad_info": {
            "adcode": 620924,
            "province": "甘肃省",
            "city": "酒泉市",
            "district": "阿克塞哈萨克族自治县"
        }
    },
    {
        "id": "6483838262850598564",
        "title": "新桥服务区第二公共厕所",
        "address": "甘肃省酒泉市敦煌市",
        "tel": "",
        "category": "基础设施:公共设施:公共厕所",
        "type": 0,
        "location": {
            "lat": 39.971472,
            "lng": 95.244224
        },
        "ad_info": {
            "adcode": 620982,
            "province": "甘肃省",
            "city": "酒泉市",
            "district": "敦煌市"
        }
    },
    {
        "id": "5185303825745177165",
        "title": "悬泉置服务区公共厕所",
        "address": "甘肃省酒泉市敦煌市G3011柳格高速与甜水井停车区交叉口西280米",
        "tel": "",
        "category": "基础设施:公共设施:公共厕所",
        "type": 0,
        "location": {
            "lat": 40.258032,
            "lng": 95.27985
        },
        "ad_info": {
            "adcode": 620982,
            "province": "甘肃省",
            "city": "酒泉市",
            "district": "敦煌市"
        }
    },
    {
        "id": "9274054541889152372",
        "title": "移动卫生间",
        "address": "甘肃省酒泉市肃州区G213与牌路交叉口东南方向837米左右",
        "tel": "",
        "category": "基础设施:公共设施:公共厕所",
        "type": 0,
        "location": {
            "lat": 39.696639,
            "lng": 98.591187
        },
        "ad_info": {
            "adcode": 620902,
            "province": "甘肃省",
            "city": "酒泉市",
            "district": "肃州区"
        }
    },
    {
        "id": "15590925736393403624",
        "title": "公共厕所",
        "address": "甘肃省酒泉市瓜州县广德路与渊泉街交叉口正西方向208米左右",
        "tel": "",
        "category": "基础设施:公共设施:公共厕所",
        "type": 0,
        "location": {
            "lat": 40.515942,
            "lng": 95.770753
        },
        "ad_info": {
            "adcode": 620922,
            "province": "甘肃省",
            "city": "酒泉市",
            "district": "瓜州县"
        }
    },
    {
        "id": "12615148009136880321",
        "title": "公共厕所",
        "address": "甘肃省酒泉市玉门市永吉路与迎宾大道交叉口西南方向222米左右",
        "tel": "",
        "category": "基础设施:公共设施:公共厕所",
        "type": 0,
        "location": {
            "lat": 40.292321,
            "lng": 97.057105
        },
        "ad_info": {
            "adcode": 620981,
            "province": "甘肃省",
            "city": "酒泉市",
            "district": "玉门市"
        }
    },
    {
        "id": "5584107073336952518",
        "title": "公共厕所",
        "address": "甘肃省酒泉市金塔县工农街与西城路交叉口东北方向114米左右",
        "tel": "",
        "category": "基础设施:公共设施:公共厕所",
        "type": 0,
        "location": {
            "lat": 39.989241,
            "lng": 98.90373
        },
        "ad_info": {
            "adcode": 620921,
            "province": "甘肃省",
            "city": "酒泉市",
            "district": "金塔县"
        }
    },
    {
        "id": "11372850523522374812",
        "title": "阳关服务区公共厕所",
        "address": "甘肃省酒泉市敦煌市阳关服务区与G3011柳格高速交叉口东480米",
        "tel": "",
        "category": "基础设施:公共设施:公共厕所",
        "type": 0,
        "location": {
            "lat": 39.980069,
            "lng": 94.300218
        },
        "ad_info": {
            "adcode": 620982,
            "province": "甘肃省",
            "city": "酒泉市",
            "district": "敦煌市"
        }
    },
    {
        "id": "17059690922151133754",
        "title": "公共厕所",
        "address": "甘肃省酒泉市瓜州县G215与G312交叉口正南方向326米左右",
        "tel": "",
        "category": "基础设施:公共设施:公共厕所",
        "type": 0,
        "location": {
            "lat": 40.579824,
            "lng": 96.735915
        },
        "ad_info": {
            "adcode": 620922,
            "province": "甘肃省",
            "city": "酒泉市",
            "district": "瓜州县"
        }
    },
    {
        "id": "12250264336905103080",
        "title": "公共厕所",
        "address": "甘肃省酒泉市阿克塞哈萨克族自治县团结路与小康路交叉口正北方向115米左右",
        "tel": "",
        "category": "基础设施:公共设施:公共厕所",
        "type": 0,
        "location": {
            "lat": 39.633663,
            "lng": 94.346925
        },
        "ad_info": {
            "adcode": 620924,
            "province": "甘肃省",
            "city": "酒泉市",
            "district": "阿克塞哈萨克族自治县"
        }
    },
    {
        "id": "12195646325175981388",
        "title": "公共厕所",
        "address": "甘肃省酒泉市肃州区文体路居雅苑",
        "tel": "",
        "category": "基础设施:公共设施:公共厕所",
        "type": 0,
        "location": {
            "lat": 39.742156,
            "lng": 98.483891
        },
        "ad_info": {
            "adcode": 620902,
            "province": "甘肃省",
            "city": "酒泉市",
            "district": "肃州区"
        }
    },
    {
        "id": "11394353713337689042",
        "title": "赤金停车区第一公共厕所",
        "address": "甘肃省酒泉市玉门市赤金停车区与G30连霍高速交叉口南200米",
        "tel": "",
        "category": "基础设施:公共设施:公共厕所",
        "type": 0,
        "location": {
            "lat": 40.036133,
            "lng": 97.425275
        },
        "ad_info": {
            "adcode": 620981,
            "province": "甘肃省",
            "city": "酒泉市",
            "district": "玉门市"
        }
    },
    {
        "id": "7580051804795111699",
        "title": "公共厕所",
        "address": "甘肃省酒泉市玉门市永吉路与石油路交叉口正南方向208米左右",
        "tel": "",
        "category": "基础设施:公共设施:公共厕所",
        "type": 0,
        "location": {
            "lat": 40.292878,
            "lng": 97.053852
        },
        "ad_info": {
            "adcode": 620981,
            "province": "甘肃省",
            "city": "酒泉市",
            "district": "玉门市"
        }
    },
    {
        "id": "10842286655215591610",
        "title": "瓜州停车区公共厕所",
        "address": "甘肃省酒泉市瓜州县瓜州停车区西50米",
        "tel": "",
        "category": "基础设施:公共设施:公共厕所",
        "type": 0,
        "location": {
            "lat": 40.499156,
            "lng": 95.899728
        },
        "ad_info": {
            "adcode": 620922,
            "province": "甘肃省",
            "city": "酒泉市",
            "district": "瓜州县"
        }
    },
    {
        "id": "511016752647675890",
        "title": "公共厕所",
        "address": "甘肃省酒泉市瓜州县元通步行街与公园街交叉口正东方向144米左右",
        "tel": "",
        "category": "基础设施:公共设施:公共厕所",
        "type": 0,
        "location": {
            "lat": 40.509572,
            "lng": 95.792598
        },
        "ad_info": {
            "adcode": 620922,
            "province": "甘肃省",
            "city": "酒泉市",
            "district": "瓜州县"
        }
    },
    {
        "id": "16018811811313964533",
        "title": "公共厕所",
        "address": "甘肃省酒泉市肃州区世纪大道与园林路交叉口正北方向125米左右",
        "tel": "",
        "category": "基础设施:公共设施:公共厕所",
        "type": 0,
        "location": {
            "lat": 39.750467,
            "lng": 98.493544
        },
        "ad_info": {
            "adcode": 620902,
            "province": "甘肃省",
            "city": "酒泉市",
            "district": "肃州区"
        }
    },
    {
        "id": "9746477856321852080",
        "title": "公共厕所GSJQ-0072",
        "address": "甘肃省酒泉市金塔县建新路与新华街交叉口东南方向163米左右",
        "tel": "",
        "category": "基础设施:公共设施:公共厕所",
        "type": 0,
        "location": {
            "lat": 39.986962,
            "lng": 98.898197
        },
        "ad_info": {
            "adcode": 620921,
            "province": "甘肃省",
            "city": "酒泉市",
            "district": "金塔县"
        }
    },
    {
        "id": "16141998336475867504",
        "title": "公共卫生间",
        "address": "甘肃省酒泉市肃州区西大街与西环北路交叉口正西方向106米左右",
        "tel": "",
        "category": "基础设施:公共设施:公共厕所",
        "type": 0,
        "location": {
            "lat": 39.744916,
            "lng": 98.501481
        },
        "ad_info": {
            "adcode": 620902,
            "province": "甘肃省",
            "city": "酒泉市",
            "district": "肃州区"
        }
    },
    {
        "id": "16246432776511316686",
        "title": "赤金停车区第二公共厕所",
        "address": "甘肃省酒泉市玉门市赤金停车区南50米",
        "tel": "",
        "category": "基础设施:公共设施:公共厕所",
        "type": 0,
        "location": {
            "lat": 40.035407,
            "lng": 97.4266
        },
        "ad_info": {
            "adcode": 620981,
            "province": "甘肃省",
            "city": "酒泉市",
            "district": "玉门市"
        }
    },
    {
        "id": "1233295368715710472",
        "title": "公共厕所",
        "address": "甘肃省酒泉市金塔县解放路352号",
        "tel": "",
        "category": "基础设施:公共设施:公共厕所",
        "type": 0,
        "location": {
            "lat": 39.983919,
            "lng": 98.903007
        },
        "ad_info": {
            "adcode": 620921,
            "province": "甘肃省",
            "city": "酒泉市",
            "district": "金塔县"
        }
    },
    {
        "id": "13568273289541274456",
        "title": "当金山南停车区公共厕所",
        "address": "甘肃省酒泉市阿克塞哈萨克族自治县G3011柳格高速与当金山南停车区交叉口西440米",
        "tel": "",
        "category": "基础设施:公共设施:公共厕所",
        "type": 0,
        "location": {
            "lat": 39.239907,
            "lng": 94.259355
        },
        "ad_info": {
            "adcode": 620924,
            "province": "甘肃省",
            "city": "酒泉市",
            "district": "阿克塞哈萨克族自治县"
        }
    },
    {
        "id": "6483838262850598564",
        "title": "新桥服务区第二公共厕所",
        "address": "甘肃省酒泉市敦煌市",
        "tel": "",
        "category": "基础设施:公共设施:公共厕所",
        "type": 0,
        "location": {
            "lat": 39.971472,
            "lng": 95.244224
        },
        "ad_info": {
            "adcode": 620982,
            "province": "甘肃省",
            "city": "酒泉市",
            "district": "敦煌市"
        }
    },
    {
        "id": "5185303825745177165",
        "title": "悬泉置服务区公共厕所",
        "address": "甘肃省酒泉市敦煌市G3011柳格高速与甜水井停车区交叉口西280米",
        "tel": "",
        "category": "基础设施:公共设施:公共厕所",
        "type": 0,
        "location": {
            "lat": 40.258032,
            "lng": 95.27985
        },
        "ad_info": {
            "adcode": 620982,
            "province": "甘肃省",
            "city": "酒泉市",
            "district": "敦煌市"
        }
    },
    {
        "id": "9274054541889152372",
        "title": "移动卫生间",
        "address": "甘肃省酒泉市肃州区G213与牌路交叉口东南方向837米左右",
        "tel": "",
        "category": "基础设施:公共设施:公共厕所",
        "type": 0,
        "location": {
            "lat": 39.696639,
            "lng": 98.591187
        },
        "ad_info": {
            "adcode": 620902,
            "province": "甘肃省",
            "city": "酒泉市",
            "district": "肃州区"
        }
    },
    {
        "id": "15590925736393403624",
        "title": "公共厕所",
        "address": "甘肃省酒泉市瓜州县广德路与渊泉街交叉口正西方向208米左右",
        "tel": "",
        "category": "基础设施:公共设施:公共厕所",
        "type": 0,
        "location": {
            "lat": 40.515942,
            "lng": 95.770753
        },
        "ad_info": {
            "adcode": 620922,
            "province": "甘肃省",
            "city": "酒泉市",
            "district": "瓜州县"
        }
    },
    {
        "id": "12615148009136880321",
        "title": "公共厕所",
        "address": "甘肃省酒泉市玉门市永吉路与迎宾大道交叉口西南方向222米左右",
        "tel": "",
        "category": "基础设施:公共设施:公共厕所",
        "type": 0,
        "location": {
            "lat": 40.292321,
            "lng": 97.057105
        },
        "ad_info": {
            "adcode": 620981,
            "province": "甘肃省",
            "city": "酒泉市",
            "district": "玉门市"
        }
    },
    {
        "id": "5584107073336952518",
        "title": "公共厕所",
        "address": "甘肃省酒泉市金塔县工农街与西城路交叉口东北方向114米左右",
        "tel": "",
        "category": "基础设施:公共设施:公共厕所",
        "type": 0,
        "location": {
            "lat": 39.989241,
            "lng": 98.90373
        },
        "ad_info": {
            "adcode": 620921,
            "province": "甘肃省",
            "city": "酒泉市",
            "district": "金塔县"
        }
    },
    {
        "id": "11372850523522374812",
        "title": "阳关服务区公共厕所",
        "address": "甘肃省酒泉市敦煌市阳关服务区与G3011柳格高速交叉口东480米",
        "tel": "",
        "category": "基础设施:公共设施:公共厕所",
        "type": 0,
        "location": {
            "lat": 39.980069,
            "lng": 94.300218
        },
        "ad_info": {
            "adcode": 620982,
            "province": "甘肃省",
            "city": "酒泉市",
            "district": "敦煌市"
        }
    },
    {
        "id": "17059690922151133754",
        "title": "公共厕所",
        "address": "甘肃省酒泉市瓜州县G215与G312交叉口正南方向326米左右",
        "tel": "",
        "category": "基础设施:公共设施:公共厕所",
        "type": 0,
        "location": {
            "lat": 40.579824,
            "lng": 96.735915
        },
        "ad_info": {
            "adcode": 620922,
            "province": "甘肃省",
            "city": "酒泉市",
            "district": "瓜州县"
        }
    },
    {
        "id": "12250264336905103080",
        "title": "公共厕所",
        "address": "甘肃省酒泉市阿克塞哈萨克族自治县团结路与小康路交叉口正北方向115米左右",
        "tel": "",
        "category": "基础设施:公共设施:公共厕所",
        "type": 0,
        "location": {
            "lat": 39.633663,
            "lng": 94.346925
        },
        "ad_info": {
            "adcode": 620924,
            "province": "甘肃省",
            "city": "酒泉市",
            "district": "阿克塞哈萨克族自治县"
        }
    },
    {
        "id": "12195646325175981388",
        "title": "公共厕所",
        "address": "甘肃省酒泉市肃州区文体路居雅苑",
        "tel": "",
        "category": "基础设施:公共设施:公共厕所",
        "type": 0,
        "location": {
            "lat": 39.742156,
            "lng": 98.483891
        },
        "ad_info": {
            "adcode": 620902,
            "province": "甘肃省",
            "city": "酒泉市",
            "district": "肃州区"
        }
    },
    {
        "id": "11394353713337689042",
        "title": "赤金停车区第一公共厕所",
        "address": "甘肃省酒泉市玉门市赤金停车区与G30连霍高速交叉口南200米",
        "tel": "",
        "category": "基础设施:公共设施:公共厕所",
        "type": 0,
        "location": {
            "lat": 40.036133,
            "lng": 97.425275
        },
        "ad_info": {
            "adcode": 620981,
            "province": "甘肃省",
            "city": "酒泉市",
            "district": "玉门市"
        }
    },
    {
        "id": "7580051804795111699",
        "title": "公共厕所",
        "address": "甘肃省酒泉市玉门市永吉路与石油路交叉口正南方向208米左右",
        "tel": "",
        "category": "基础设施:公共设施:公共厕所",
        "type": 0,
        "location": {
            "lat": 40.292878,
            "lng": 97.053852
        },
        "ad_info": {
            "adcode": 620981,
            "province": "甘肃省",
            "city": "酒泉市",
            "district": "玉门市"
        }
    },
    {
        "id": "10842286655215591610",
        "title": "瓜州停车区公共厕所",
        "address": "甘肃省酒泉市瓜州县瓜州停车区西50米",
        "tel": "",
        "category": "基础设施:公共设施:公共厕所",
        "type": 0,
        "location": {
            "lat": 40.499156,
            "lng": 95.899728
        },
        "ad_info": {
            "adcode": 620922,
            "province": "甘肃省",
            "city": "酒泉市",
            "district": "瓜州县"
        }
    },
    {
        "id": "511016752647675890",
        "title": "公共厕所",
        "address": "甘肃省酒泉市瓜州县元通步行街与公园街交叉口正东方向144米左右",
        "tel": "",
        "category": "基础设施:公共设施:公共厕所",
        "type": 0,
        "location": {
            "lat": 40.509572,
            "lng": 95.792598
        },
        "ad_info": {
            "adcode": 620922,
            "province": "甘肃省",
            "city": "酒泉市",
            "district": "瓜州县"
        }
    },
    {
        "id": "16018811811313964533",
        "title": "公共厕所",
        "address": "甘肃省酒泉市肃州区世纪大道与园林路交叉口正北方向125米左右",
        "tel": "",
        "category": "基础设施:公共设施:公共厕所",
        "type": 0,
        "location": {
            "lat": 39.750467,
            "lng": 98.493544
        },
        "ad_info": {
            "adcode": 620902,
            "province": "甘肃省",
            "city": "酒泉市",
            "district": "肃州区"
        }
    },
    {
        "id": "9746477856321852080",
        "title": "公共厕所GSJQ-0072",
        "address": "甘肃省酒泉市金塔县建新路与新华街交叉口东南方向163米左右",
        "tel": "",
        "category": "基础设施:公共设施:公共厕所",
        "type": 0,
        "location": {
            "lat": 39.986962,
            "lng": 98.898197
        },
        "ad_info": {
            "adcode": 620921,
            "province": "甘肃省",
            "city": "酒泉市",
            "district": "金塔县"
        }
    },
    {
        "id": "16141998336475867504",
        "title": "公共卫生间",
        "address": "甘肃省酒泉市肃州区西大街与西环北路交叉口正西方向106米左右",
        "tel": "",
        "category": "基础设施:公共设施:公共厕所",
        "type": 0,
        "location": {
            "lat": 39.744916,
            "lng": 98.501481
        },
        "ad_info": {
            "adcode": 620902,
            "province": "甘肃省",
            "city": "酒泉市",
            "district": "肃州区"
        }
    },
    {
        "id": "16246432776511316686",
        "title": "赤金停车区第二公共厕所",
        "address": "甘肃省酒泉市玉门市赤金停车区南50米",
        "tel": "",
        "category": "基础设施:公共设施:公共厕所",
        "type": 0,
        "location": {
            "lat": 40.035407,
            "lng": 97.4266
        },
        "ad_info": {
            "adcode": 620981,
            "province": "甘肃省",
            "city": "酒泉市",
            "district": "玉门市"
        }
    },
    {
        "id": "1233295368715710472",
        "title": "公共厕所",
        "address": "甘肃省酒泉市金塔县解放路352号",
        "tel": "",
        "category": "基础设施:公共设施:公共厕所",
        "type": 0,
        "location": {
            "lat": 39.983919,
            "lng": 98.903007
        },
        "ad_info": {
            "adcode": 620921,
            "province": "甘肃省",
            "city": "酒泉市",
            "district": "金塔县"
        }
    },
    {
        "id": "13568273289541274456",
        "title": "当金山南停车区公共厕所",
        "address": "甘肃省酒泉市阿克塞哈萨克族自治县G3011柳格高速与当金山南停车区交叉口西440米",
        "tel": "",
        "category": "基础设施:公共设施:公共厕所",
        "type": 0,
        "location": {
            "lat": 39.239907,
            "lng": 94.259355
        },
        "ad_info": {
            "adcode": 620924,
            "province": "甘肃省",
            "city": "酒泉市",
            "district": "阿克塞哈萨克族自治县"
        }
    },
    {
        "id": "6483838262850598564",
        "title": "新桥服务区第二公共厕所",
        "address": "甘肃省酒泉市敦煌市",
        "tel": "",
        "category": "基础设施:公共设施:公共厕所",
        "type": 0,
        "location": {
            "lat": 39.971472,
            "lng": 95.244224
        },
        "ad_info": {
            "adcode": 620982,
            "province": "甘肃省",
            "city": "酒泉市",
            "district": "敦煌市"
        }
    },
    {
        "id": "5185303825745177165",
        "title": "悬泉置服务区公共厕所",
        "address": "甘肃省酒泉市敦煌市G3011柳格高速与甜水井停车区交叉口西280米",
        "tel": "",
        "category": "基础设施:公共设施:公共厕所",
        "type": 0,
        "location": {
            "lat": 40.258032,
            "lng": 95.27985
        },
        "ad_info": {
            "adcode": 620982,
            "province": "甘肃省",
            "city": "酒泉市",
            "district": "敦煌市"
        }
    },
    {
        "id": "9274054541889152372",
        "title": "移动卫生间",
        "address": "甘肃省酒泉市肃州区G213与牌路交叉口东南方向837米左右",
        "tel": "",
        "category": "基础设施:公共设施:公共厕所",
        "type": 0,
        "location": {
            "lat": 39.696639,
            "lng": 98.591187
        },
        "ad_info": {
            "adcode": 620902,
            "province": "甘肃省",
            "city": "酒泉市",
            "district": "肃州区"
        }
    },
    {
        "id": "15590925736393403624",
        "title": "公共厕所",
        "address": "甘肃省酒泉市瓜州县广德路与渊泉街交叉口正西方向208米左右",
        "tel": "",
        "category": "基础设施:公共设施:公共厕所",
        "type": 0,
        "location": {
            "lat": 40.515942,
            "lng": 95.770753
        },
        "ad_info": {
            "adcode": 620922,
            "province": "甘肃省",
            "city": "酒泉市",
            "district": "瓜州县"
        }
    },
    {
        "id": "12615148009136880321",
        "title": "公共厕所",
        "address": "甘肃省酒泉市玉门市永吉路与迎宾大道交叉口西南方向222米左右",
        "tel": "",
        "category": "基础设施:公共设施:公共厕所",
        "type": 0,
        "location": {
            "lat": 40.292321,
            "lng": 97.057105
        },
        "ad_info": {
            "adcode": 620981,
            "province": "甘肃省",
            "city": "酒泉市",
            "district": "玉门市"
        }
    },
    {
        "id": "5584107073336952518",
        "title": "公共厕所",
        "address": "甘肃省酒泉市金塔县工农街与西城路交叉口东北方向114米左右",
        "tel": "",
        "category": "基础设施:公共设施:公共厕所",
        "type": 0,
        "location": {
            "lat": 39.989241,
            "lng": 98.90373
        },
        "ad_info": {
            "adcode": 620921,
            "province": "甘肃省",
            "city": "酒泉市",
            "district": "金塔县"
        }
    },
    {
        "id": "11372850523522374812",
        "title": "阳关服务区公共厕所",
        "address": "甘肃省酒泉市敦煌市阳关服务区与G3011柳格高速交叉口东480米",
        "tel": "",
        "category": "基础设施:公共设施:公共厕所",
        "type": 0,
        "location": {
            "lat": 39.980069,
            "lng": 94.300218
        },
        "ad_info": {
            "adcode": 620982,
            "province": "甘肃省",
            "city": "酒泉市",
            "district": "敦煌市"
        }
    },
    {
        "id": "17059690922151133754",
        "title": "公共厕所",
        "address": "甘肃省酒泉市瓜州县G215与G312交叉口正南方向326米左右",
        "tel": "",
        "category": "基础设施:公共设施:公共厕所",
        "type": 0,
        "location": {
            "lat": 40.579824,
            "lng": 96.735915
        },
        "ad_info": {
            "adcode": 620922,
            "province": "甘肃省",
            "city": "酒泉市",
            "district": "瓜州县"
        }
    },
    {
        "id": "12250264336905103080",
        "title": "公共厕所",
        "address": "甘肃省酒泉市阿克塞哈萨克族自治县团结路与小康路交叉口正北方向115米左右",
        "tel": "",
        "category": "基础设施:公共设施:公共厕所",
        "type": 0,
        "location": {
            "lat": 39.633663,
            "lng": 94.346925
        },
        "ad_info": {
            "adcode": 620924,
            "province": "甘肃省",
            "city": "酒泉市",
            "district": "阿克塞哈萨克族自治县"
        }
    },
    {
        "id": "12195646325175981388",
        "title": "公共厕所",
        "address": "甘肃省酒泉市肃州区文体路居雅苑",
        "tel": "",
        "category": "基础设施:公共设施:公共厕所",
        "type": 0,
        "location": {
            "lat": 39.742156,
            "lng": 98.483891
        },
        "ad_info": {
            "adcode": 620902,
            "province": "甘肃省",
            "city": "酒泉市",
            "district": "肃州区"
        }
    },
    {
        "id": "11394353713337689042",
        "title": "赤金停车区第一公共厕所",
        "address": "甘肃省酒泉市玉门市赤金停车区与G30连霍高速交叉口南200米",
        "tel": "",
        "category": "基础设施:公共设施:公共厕所",
        "type": 0,
        "location": {
            "lat": 40.036133,
            "lng": 97.425275
        },
        "ad_info": {
            "adcode": 620981,
            "province": "甘肃省",
            "city": "酒泉市",
            "district": "玉门市"
        }
    },
    {
        "id": "7580051804795111699",
        "title": "公共厕所",
        "address": "甘肃省酒泉市玉门市永吉路与石油路交叉口正南方向208米左右",
        "tel": "",
        "category": "基础设施:公共设施:公共厕所",
        "type": 0,
        "location": {
            "lat": 40.292878,
            "lng": 97.053852
        },
        "ad_info": {
            "adcode": 620981,
            "province": "甘肃省",
            "city": "酒泉市",
            "district": "玉门市"
        }
    },
    {
        "id": "10842286655215591610",
        "title": "瓜州停车区公共厕所",
        "address": "甘肃省酒泉市瓜州县瓜州停车区西50米",
        "tel": "",
        "category": "基础设施:公共设施:公共厕所",
        "type": 0,
        "location": {
            "lat": 40.499156,
            "lng": 95.899728
        },
        "ad_info": {
            "adcode": 620922,
            "province": "甘肃省",
            "city": "酒泉市",
            "district": "瓜州县"
        }
    },
    {
        "id": "511016752647675890",
        "title": "公共厕所",
        "address": "甘肃省酒泉市瓜州县元通步行街与公园街交叉口正东方向144米左右",
        "tel": "",
        "category": "基础设施:公共设施:公共厕所",
        "type": 0,
        "location": {
            "lat": 40.509572,
            "lng": 95.792598
        },
        "ad_info": {
            "adcode": 620922,
            "province": "甘肃省",
            "city": "酒泉市",
            "district": "瓜州县"
        }
    },
    {
        "id": "16018811811313964533",
        "title": "公共厕所",
        "address": "甘肃省酒泉市肃州区世纪大道与园林路交叉口正北方向125米左右",
        "tel": "",
        "category": "基础设施:公共设施:公共厕所",
        "type": 0,
        "location": {
            "lat": 39.750467,
            "lng": 98.493544
        },
        "ad_info": {
            "adcode": 620902,
            "province": "甘肃省",
            "city": "酒泉市",
            "district": "肃州区"
        }
    },
    {
        "id": "9746477856321852080",
        "title": "公共厕所GSJQ-0072",
        "address": "甘肃省酒泉市金塔县建新路与新华街交叉口东南方向163米左右",
        "tel": "",
        "category": "基础设施:公共设施:公共厕所",
        "type": 0,
        "location": {
            "lat": 39.986962,
            "lng": 98.898197
        },
        "ad_info": {
            "adcode": 620921,
            "province": "甘肃省",
            "city": "酒泉市",
            "district": "金塔县"
        }
    },
    {
        "id": "16141998336475867504",
        "title": "公共卫生间",
        "address": "甘肃省酒泉市肃州区西大街与西环北路交叉口正西方向106米左右",
        "tel": "",
        "category": "基础设施:公共设施:公共厕所",
        "type": 0,
        "location": {
            "lat": 39.744916,
            "lng": 98.501481
        },
        "ad_info": {
            "adcode": 620902,
            "province": "甘肃省",
            "city": "酒泉市",
            "district": "肃州区"
        }
    },
    {
        "id": "16246432776511316686",
        "title": "赤金停车区第二公共厕所",
        "address": "甘肃省酒泉市玉门市赤金停车区南50米",
        "tel": "",
        "category": "基础设施:公共设施:公共厕所",
        "type": 0,
        "location": {
            "lat": 40.035407,
            "lng": 97.4266
        },
        "ad_info": {
            "adcode": 620981,
            "province": "甘肃省",
            "city": "酒泉市",
            "district": "玉门市"
        }
    },
    {
        "id": "1233295368715710472",
        "title": "公共厕所",
        "address": "甘肃省酒泉市金塔县解放路352号",
        "tel": "",
        "category": "基础设施:公共设施:公共厕所",
        "type": 0,
        "location": {
            "lat": 39.983919,
            "lng": 98.903007
        },
        "ad_info": {
            "adcode": 620921,
            "province": "甘肃省",
            "city": "酒泉市",
            "district": "金塔县"
        }
    },
    {
        "id": "13568273289541274456",
        "title": "当金山南停车区公共厕所",
        "address": "甘肃省酒泉市阿克塞哈萨克族自治县G3011柳格高速与当金山南停车区交叉口西440米",
        "tel": "",
        "category": "基础设施:公共设施:公共厕所",
        "type": 0,
        "location": {
            "lat": 39.239907,
            "lng": 94.259355
        },
        "ad_info": {
            "adcode": 620924,
            "province": "甘肃省",
            "city": "酒泉市",
            "district": "阿克塞哈萨克族自治县"
        }
    },
    {
        "id": "6483838262850598564",
        "title": "新桥服务区第二公共厕所",
        "address": "甘肃省酒泉市敦煌市",
        "tel": "",
        "category": "基础设施:公共设施:公共厕所",
        "type": 0,
        "location": {
            "lat": 39.971472,
            "lng": 95.244224
        },
        "ad_info": {
            "adcode": 620982,
            "province": "甘肃省",
            "city": "酒泉市",
            "district": "敦煌市"
        }
    },
    {
        "id": "5185303825745177165",
        "title": "悬泉置服务区公共厕所",
        "address": "甘肃省酒泉市敦煌市G3011柳格高速与甜水井停车区交叉口西280米",
        "tel": "",
        "category": "基础设施:公共设施:公共厕所",
        "type": 0,
        "location": {
            "lat": 40.258032,
            "lng": 95.27985
        },
        "ad_info": {
            "adcode": 620982,
            "province": "甘肃省",
            "city": "酒泉市",
            "district": "敦煌市"
        }
    },
    {
        "id": "9274054541889152372",
        "title": "移动卫生间",
        "address": "甘肃省酒泉市肃州区G213与牌路交叉口东南方向837米左右",
        "tel": "",
        "category": "基础设施:公共设施:公共厕所",
        "type": 0,
        "location": {
            "lat": 39.696639,
            "lng": 98.591187
        },
        "ad_info": {
            "adcode": 620902,
            "province": "甘肃省",
            "city": "酒泉市",
            "district": "肃州区"
        }
    },
    {
        "id": "15590925736393403624",
        "title": "公共厕所",
        "address": "甘肃省酒泉市瓜州县广德路与渊泉街交叉口正西方向208米左右",
        "tel": "",
        "category": "基础设施:公共设施:公共厕所",
        "type": 0,
        "location": {
            "lat": 40.515942,
            "lng": 95.770753
        },
        "ad_info": {
            "adcode": 620922,
            "province": "甘肃省",
            "city": "酒泉市",
            "district": "瓜州县"
        }
    },
    {
        "id": "12615148009136880321",
        "title": "公共厕所",
        "address": "甘肃省酒泉市玉门市永吉路与迎宾大道交叉口西南方向222米左右",
        "tel": "",
        "category": "基础设施:公共设施:公共厕所",
        "type": 0,
        "location": {
            "lat": 40.292321,
            "lng": 97.057105
        },
        "ad_info": {
            "adcode": 620981,
            "province": "甘肃省",
            "city": "酒泉市",
            "district": "玉门市"
        }
    },
    {
        "id": "5584107073336952518",
        "title": "公共厕所",
        "address": "甘肃省酒泉市金塔县工农街与西城路交叉口东北方向114米左右",
        "tel": "",
        "category": "基础设施:公共设施:公共厕所",
        "type": 0,
        "location": {
            "lat": 39.989241,
            "lng": 98.90373
        },
        "ad_info": {
            "adcode": 620921,
            "province": "甘肃省",
            "city": "酒泉市",
            "district": "金塔县"
        }
    },
    {
        "id": "11372850523522374812",
        "title": "阳关服务区公共厕所",
        "address": "甘肃省酒泉市敦煌市阳关服务区与G3011柳格高速交叉口东480米",
        "tel": "",
        "category": "基础设施:公共设施:公共厕所",
        "type": 0,
        "location": {
            "lat": 39.980069,
            "lng": 94.300218
        },
        "ad_info": {
            "adcode": 620982,
            "province": "甘肃省",
            "city": "酒泉市",
            "district": "敦煌市"
        }
    },
    {
        "id": "17059690922151133754",
        "title": "公共厕所",
        "address": "甘肃省酒泉市瓜州县G215与G312交叉口正南方向326米左右",
        "tel": "",
        "category": "基础设施:公共设施:公共厕所",
        "type": 0,
        "location": {
            "lat": 40.579824,
            "lng": 96.735915
        },
        "ad_info": {
            "adcode": 620922,
            "province": "甘肃省",
            "city": "酒泉市",
            "district": "瓜州县"
        }
    },
    {
        "id": "12250264336905103080",
        "title": "公共厕所",
        "address": "甘肃省酒泉市阿克塞哈萨克族自治县团结路与小康路交叉口正北方向115米左右",
        "tel": "",
        "category": "基础设施:公共设施:公共厕所",
        "type": 0,
        "location": {
            "lat": 39.633663,
            "lng": 94.346925
        },
        "ad_info": {
            "adcode": 620924,
            "province": "甘肃省",
            "city": "酒泉市",
            "district": "阿克塞哈萨克族自治县"
        }
    },
    {
        "id": "12195646325175981388",
        "title": "公共厕所",
        "address": "甘肃省酒泉市肃州区文体路居雅苑",
        "tel": "",
        "category": "基础设施:公共设施:公共厕所",
        "type": 0,
        "location": {
            "lat": 39.742156,
            "lng": 98.483891
        },
        "ad_info": {
            "adcode": 620902,
            "province": "甘肃省",
            "city": "酒泉市",
            "district": "肃州区"
        }
    },
    {
        "id": "11394353713337689042",
        "title": "赤金停车区第一公共厕所",
        "address": "甘肃省酒泉市玉门市赤金停车区与G30连霍高速交叉口南200米",
        "tel": "",
        "category": "基础设施:公共设施:公共厕所",
        "type": 0,
        "location": {
            "lat": 40.036133,
            "lng": 97.425275
        },
        "ad_info": {
            "adcode": 620981,
            "province": "甘肃省",
            "city": "酒泉市",
            "district": "玉门市"
        }
    },
    {
        "id": "7580051804795111699",
        "title": "公共厕所",
        "address": "甘肃省酒泉市玉门市永吉路与石油路交叉口正南方向208米左右",
        "tel": "",
        "category": "基础设施:公共设施:公共厕所",
        "type": 0,
        "location": {
            "lat": 40.292878,
            "lng": 97.053852
        },
        "ad_info": {
            "adcode": 620981,
            "province": "甘肃省",
            "city": "酒泉市",
            "district": "玉门市"
        }
    },
    {
        "id": "10842286655215591610",
        "title": "瓜州停车区公共厕所",
        "address": "甘肃省酒泉市瓜州县瓜州停车区西50米",
        "tel": "",
        "category": "基础设施:公共设施:公共厕所",
        "type": 0,
        "location": {
            "lat": 40.499156,
            "lng": 95.899728
        },
        "ad_info": {
            "adcode": 620922,
            "province": "甘肃省",
            "city": "酒泉市",
            "district": "瓜州县"
        }
    },
    {
        "id": "511016752647675890",
        "title": "公共厕所",
        "address": "甘肃省酒泉市瓜州县元通步行街与公园街交叉口正东方向144米左右",
        "tel": "",
        "category": "基础设施:公共设施:公共厕所",
        "type": 0,
        "location": {
            "lat": 40.509572,
            "lng": 95.792598
        },
        "ad_info": {
            "adcode": 620922,
            "province": "甘肃省",
            "city": "酒泉市",
            "district": "瓜州县"
        }
    },
    {
        "id": "16018811811313964533",
        "title": "公共厕所",
        "address": "甘肃省酒泉市肃州区世纪大道与园林路交叉口正北方向125米左右",
        "tel": "",
        "category": "基础设施:公共设施:公共厕所",
        "type": 0,
        "location": {
            "lat": 39.750467,
            "lng": 98.493544
        },
        "ad_info": {
            "adcode": 620902,
            "province": "甘肃省",
            "city": "酒泉市",
            "district": "肃州区"
        }
    },
    {
        "id": "9746477856321852080",
        "title": "公共厕所GSJQ-0072",
        "address": "甘肃省酒泉市金塔县建新路与新华街交叉口东南方向163米左右",
        "tel": "",
        "category": "基础设施:公共设施:公共厕所",
        "type": 0,
        "location": {
            "lat": 39.986962,
            "lng": 98.898197
        },
        "ad_info": {
            "adcode": 620921,
            "province": "甘肃省",
            "city": "酒泉市",
            "district": "金塔县"
        }
    },
    {
        "id": "16141998336475867504",
        "title": "公共卫生间",
        "address": "甘肃省酒泉市肃州区西大街与西环北路交叉口正西方向106米左右",
        "tel": "",
        "category": "基础设施:公共设施:公共厕所",
        "type": 0,
        "location": {
            "lat": 39.744916,
            "lng": 98.501481
        },
        "ad_info": {
            "adcode": 620902,
            "province": "甘肃省",
            "city": "酒泉市",
            "district": "肃州区"
        }
    },
    {
        "id": "16246432776511316686",
        "title": "赤金停车区第二公共厕所",
        "address": "甘肃省酒泉市玉门市赤金停车区南50米",
        "tel": "",
        "category": "基础设施:公共设施:公共厕所",
        "type": 0,
        "location": {
            "lat": 40.035407,
            "lng": 97.4266
        },
        "ad_info": {
            "adcode": 620981,
            "province": "甘肃省",
            "city": "酒泉市",
            "district": "玉门市"
        }
    }
]