[
    {
        "id": "11996864572092813853",
        "title": "公共厕所",
        "address": "甘肃省金昌市永昌县X194与永明线交叉口正西方向149米左右",
        "tel": "",
        "category": "基础设施:公共设施:公共厕所",
        "type": 0,
        "location": {
            "lat": 38.263362,
            "lng": 101.838064
        },
        "ad_info": {
            "adcode": 620321,
            "province": "甘肃省",
            "city": "金昌市",
            "district": "永昌县"
        }
    },
    {
        "id": "5705375527267219070",
        "title": "公共厕所",
        "address": "甘肃省金昌市永昌县东街与县府巷交叉口正北方向86米左右",
        "tel": "",
        "category": "基础设施:公共设施:公共厕所",
        "type": 0,
        "location": {
            "lat": 38.247687,
            "lng": 101.972547
        },
        "ad_info": {
            "adcode": 620321,
            "province": "甘肃省",
            "city": "金昌市",
            "district": "永昌县"
        }
    },
    {
        "id": "15209211639522629004",
        "title": "公共厕所",
        "address": "甘肃省金昌市永昌县环城西路与解放路交叉口正西方向257米左右",
        "tel": "",
        "category": "基础设施:公共设施:公共厕所",
        "type": 0,
        "location": {
            "lat": 38.247569,
            "lng": 101.960609
        },
        "ad_info": {
            "adcode": 620321,
            "province": "甘肃省",
            "city": "金昌市",
            "district": "永昌县"
        }
    },
    {
        "id": "13438821614965853985",
        "title": "公共厕所(6203020310007)",
        "address": "甘肃省金昌市永昌县农垦黑土洼农场西北侧50米",
        "tel": "",
        "category": "基础设施:公共设施:公共厕所",
        "type": 0,
        "location": {
            "lat": 38.274085,
            "lng": 101.47113
        },
        "ad_info": {
            "adcode": 620321,
            "province": "甘肃省",
            "city": "金昌市",
            "district": "永昌县"
        }
    },
    {
        "id": "9490060283470966615",
        "title": "公共厕所",
        "address": "甘肃省金昌市永昌县186县道东150米",
        "tel": "",
        "category": "基础设施:公共设施:公共厕所",
        "type": 0,
        "location": {
            "lat": 38.308607,
            "lng": 101.587505
        },
        "ad_info": {
            "adcode": 620321,
            "province": "甘肃省",
            "city": "金昌市",
            "district": "永昌县"
        }
    },
    {
        "id": "5008631098286229540",
        "title": "公共厕所",
        "address": "甘肃省金昌市永昌县312国道与G30连霍高速出口交叉口东100米",
        "tel": "",
        "category": "基础设施:公共设施:公共厕所",
        "type": 0,
        "location": {
            "lat": 38.289778,
            "lng": 101.76991
        },
        "ad_info": {
            "adcode": 620321,
            "province": "甘肃省",
            "city": "金昌市",
            "district": "永昌县"
        }
    },
    {
        "id": "9925699857171342053",
        "title": "公共厕所",
        "address": "甘肃省金昌市永昌县Y321与Y330交叉口正西方向97米左右",
        "tel": "",
        "category": "基础设施:公共设施:公共厕所",
        "type": 0,
        "location": {
            "lat": 38.107838,
            "lng": 102.102456
        },
        "ad_info": {
            "adcode": 620321,
            "province": "甘肃省",
            "city": "金昌市",
            "district": "永昌县"
        }
    },
    {
        "id": "4325834886345396001",
        "title": "公共厕所",
        "address": "甘肃省金昌市永昌县晴岚路与西关路交叉口正南方向37米左右",
        "tel": "",
        "category": "基础设施:公共设施:公共厕所",
        "type": 0,
        "location": {
            "lat": 38.248464,
            "lng": 101.956742
        },
        "ad_info": {
            "adcode": 620321,
            "province": "甘肃省",
            "city": "金昌市",
            "district": "永昌县"
        }
    },
    {
        "id": "7142309785148177366",
        "title": "公共卫生间",
        "address": "甘肃省金昌市永昌县东街与相府路交叉口西南方向146米左右",
        "tel": "",
        "category": "基础设施:公共设施:公共厕所",
        "type": 0,
        "location": {
            "lat": 38.245461,
            "lng": 101.973108
        },
        "ad_info": {
            "adcode": 620321,
            "province": "甘肃省",
            "city": "金昌市",
            "district": "永昌县"
        }
    },
    {
        "id": "3036764553306568970",
        "title": "公共厕所",
        "address": "甘肃省金昌市永昌县北京路与金昌路交叉口西北方向846米左右",
        "tel": "",
        "category": "基础设施:公共设施:公共厕所",
        "type": 0,
        "location": {
            "lat": 38.380893,
            "lng": 102.062805
        },
        "ad_info": {
            "adcode": 620321,
            "province": "甘肃省",
            "city": "金昌市",
            "district": "永昌县"
        }
    },
    {
        "id": "9558739384302860925",
        "title": "公共厕所",
        "address": "甘肃省金昌市永昌县西门王记榨油坊西(西关路南)",
        "tel": "",
        "category": "基础设施:公共设施:公共厕所",
        "type": 0,
        "location": {
            "lat": 38.248942,
            "lng": 101.961789
        },
        "ad_info": {
            "adcode": 620321,
            "province": "甘肃省",
            "city": "金昌市",
            "district": "永昌县"
        }
    },
    {
        "id": "13154431455201926131",
        "title": "公共厕所",
        "address": "甘肃省金昌市永昌县武当山大觉寺东南侧730米",
        "tel": "",
        "category": "基础设施:公共设施:公共厕所",
        "type": 0,
        "location": {
            "lat": 38.265142,
            "lng": 101.970189
        },
        "ad_info": {
            "adcode": 620321,
            "province": "甘肃省",
            "city": "金昌市",
            "district": "永昌县"
        }
    },
    {
        "id": "13860283950060405191",
        "title": "公共厕所",
        "address": "甘肃省金昌市永昌县河雅路与鸳鸯路交叉口东北180米",
        "tel": "",
        "category": "基础设施:公共设施:公共厕所",
        "type": 0,
        "location": {
            "lat": 38.384656,
            "lng": 102.094322
        },
        "ad_info": {
            "adcode": 620321,
            "province": "甘肃省",
            "city": "金昌市",
            "district": "永昌县"
        }
    },
    {
        "id": "3165054280262844397",
        "title": "公共厕所",
        "address": "甘肃省金昌市永昌县车站路与金昌路交叉口正北方向54米左右",
        "tel": "",
        "category": "基础设施:公共设施:公共厕所",
        "type": 0,
        "location": {
            "lat": 38.372256,
            "lng": 102.064419
        },
        "ad_info": {
            "adcode": 620321,
            "province": "甘肃省",
            "city": "金昌市",
            "district": "永昌县"
        }
    },
    {
        "id": "6548795999273216262",
        "title": "公共厕所",
        "address": "甘肃省金昌市永昌县环城南路与相府路交叉口东南方向159米左右",
        "tel": "",
        "category": "基础设施:公共设施:公共厕所",
        "type": 0,
        "location": {
            "lat": 38.239397,
            "lng": 101.972791
        },
        "ad_info": {
            "adcode": 620321,
            "province": "甘肃省",
            "city": "金昌市",
            "district": "永昌县"
        }
    },
    {
        "id": "4083531479300259642",
        "title": "公共厕所(品广场)",
        "address": "甘肃省金昌市金川区泰安路102号品广场F1层",
        "tel": "",
        "category": "基础设施:公共设施:公共厕所",
        "type": 0,
        "location": {
            "lat": 38.529372,
            "lng": 102.172105
        },
        "ad_info": {
            "adcode": 620302,
            "province": "甘肃省",
            "city": "金昌市",
            "district": "金川区"
        }
    },
    {
        "id": "439273100574319967",
        "title": "公共厕所",
        "address": "甘肃省金昌市永昌县永河路与河雅路交叉口东南方向277米左右",
        "tel": "",
        "category": "基础设施:公共设施:公共厕所",
        "type": 0,
        "location": {
            "lat": 38.367459,
            "lng": 102.07599
        },
        "ad_info": {
            "adcode": 620321,
            "province": "甘肃省",
            "city": "金昌市",
            "district": "永昌县"
        }
    },
    {
        "id": "3414579131620404003",
        "title": "公共厕所",
        "address": "甘肃省金昌市永昌县南街与金昌路交叉口正西方向46米左右",
        "tel": "",
        "category": "基础设施:公共设施:公共厕所",
        "type": 0,
        "location": {
            "lat": 38.245176,
            "lng": 101.969833
        },
        "ad_info": {
            "adcode": 620321,
            "province": "甘肃省",
            "city": "金昌市",
            "district": "永昌县"
        }
    },
    {
        "id": "9018866328179428826",
        "title": "公共厕所",
        "address": "甘肃省金昌市永昌县文德巷与解放路交叉口东南方向74米左右",
        "tel": "",
        "category": "基础设施:公共设施:公共厕所",
        "type": 0,
        "location": {
            "lat": 38.240244,
            "lng": 101.98436
        },
        "ad_info": {
            "adcode": 620321,
            "province": "甘肃省",
            "city": "金昌市",
            "district": "永昌县"
        }
    },
    {
        "id": "13055639719304601730",
        "title": "公共厕所",
        "address": "甘肃省金昌市永昌县X207与永民线交叉口正北方向141米左右",
        "tel": "",
        "category": "基础设施:公共设施:公共厕所",
        "type": 0,
        "location": {
            "lat": 38.199788,
            "lng": 101.589932
        },
        "ad_info": {
            "adcode": 620321,
            "province": "甘肃省",
            "city": "金昌市",
            "district": "永昌县"
        }
    },
    {
        "id": "3528647440262952514",
        "title": "公共厕所",
        "address": "甘肃省金昌市永昌县G312与Z058交叉口东北方向129米左右",
        "tel": "",
        "category": "基础设施:公共设施:公共厕所",
        "type": 0,
        "location": {
            "lat": 38.289361,
            "lng": 101.767772
        },
        "ad_info": {
            "adcode": 620321,
            "province": "甘肃省",
            "city": "金昌市",
            "district": "永昌县"
        }
    },
    {
        "id": "1652812778525681036",
        "title": "公共厕所",
        "address": "甘肃省金昌市金川区双建市场里面",
        "tel": "",
        "category": "基础设施:公共设施:公共厕所",
        "type": 0,
        "location": {
            "lat": 38.525855,
            "lng": 102.19579
        },
        "ad_info": {
            "adcode": 620302,
            "province": "甘肃省",
            "city": "金昌市",
            "district": "金川区"
        }
    },
    {
        "id": "7551295532045305450",
        "title": "公共厕所",
        "address": "甘肃省金昌市金川区金川公司总校第五小学西南(金三角商厦北)",
        "tel": "",
        "category": "基础设施:公共设施:公共厕所",
        "type": 0,
        "location": {
            "lat": 38.511488,
            "lng": 102.176161
        },
        "ad_info": {
            "adcode": 620302,
            "province": "甘肃省",
            "city": "金昌市",
            "district": "金川区"
        }
    },
    {
        "id": "3616893508945079048",
        "title": "公共厕所",
        "address": "甘肃省金昌市金川区延安路与昌荣巷交叉口东北120米",
        "tel": "",
        "category": "基础设施:公共设施:公共厕所",
        "type": 0,
        "location": {
            "lat": 38.525663,
            "lng": 102.179801
        },
        "ad_info": {
            "adcode": 620302,
            "province": "甘肃省",
            "city": "金昌市",
            "district": "金川区"
        }
    },
    {
        "id": "1470632914704709242",
        "title": "公共厕所",
        "address": "甘肃省金昌市金川区昆明路辅路与昌湖巷交叉口正南方向200米左右",
        "tel": "",
        "category": "基础设施:公共设施:公共厕所",
        "type": 0,
        "location": {
            "lat": 38.540523,
            "lng": 102.173668
        },
        "ad_info": {
            "adcode": 620302,
            "province": "甘肃省",
            "city": "金昌市",
            "district": "金川区"
        }
    },
    {
        "id": "14295665167846491681",
        "title": "公共厕所",
        "address": "甘肃省金昌市金川区天津路与沈阳路交叉口正西方向188米左右",
        "tel": "",
        "category": "基础设施:公共设施:公共厕所",
        "type": 0,
        "location": {
            "lat": 38.558256,
            "lng": 102.181059
        },
        "ad_info": {
            "adcode": 620302,
            "province": "甘肃省",
            "city": "金昌市",
            "district": "金川区"
        }
    },
    {
        "id": "11410325890071193380",
        "title": "公共厕所",
        "address": "甘肃省金昌市金川区新华大道人民文化广场(西北角)",
        "tel": "",
        "category": "基础设施:公共设施:公共厕所",
        "type": 0,
        "location": {
            "lat": 38.519606,
            "lng": 102.187255
        },
        "ad_info": {
            "adcode": 620302,
            "province": "甘肃省",
            "city": "金昌市",
            "district": "金川区"
        }
    },
    {
        "id": "14289196943347311864",
        "title": "公共厕所",
        "address": "甘肃省金昌市金川区延安路金昌市体育场",
        "tel": "",
        "category": "基础设施:公共设施:公共厕所",
        "type": 0,
        "location": {
            "lat": 38.526923,
            "lng": 102.179697
        },
        "ad_info": {
            "adcode": 620302,
            "province": "甘肃省",
            "city": "金昌市",
            "district": "金川区"
        }
    },
    {
        "id": "11928452006973242684",
        "title": "公共厕所",
        "address": "甘肃省金昌市金川区滨河路与龙门巷交叉口东南方向84米左右",
        "tel": "",
        "category": "基础设施:公共设施:公共厕所",
        "type": 0,
        "location": {
            "lat": 38.493393,
            "lng": 102.183159
        },
        "ad_info": {
            "adcode": 620302,
            "province": "甘肃省",
            "city": "金昌市",
            "district": "金川区"
        }
    },
    {
        "id": "16985598082998737304",
        "title": "公共厕所",
        "address": "甘肃省金昌市金川区平凉路与永昌路交叉口西北方向202米左右",
        "tel": "",
        "category": "基础设施:公共设施:公共厕所",
        "type": 0,
        "location": {
            "lat": 38.509479,
            "lng": 102.167747
        },
        "ad_info": {
            "adcode": 620302,
            "province": "甘肃省",
            "city": "金昌市",
            "district": "金川区"
        }
    },
    {
        "id": "5623925547024537141",
        "title": "公共厕所",
        "address": "甘肃省金昌市金川区宝斗巷与宝星巷交叉口西北方向267米左右",
        "tel": "",
        "category": "基础设施:公共设施:公共厕所",
        "type": 0,
        "location": {
            "lat": 38.530159,
            "lng": 102.196716
        },
        "ad_info": {
            "adcode": 620302,
            "province": "甘肃省",
            "city": "金昌市",
            "district": "金川区"
        }
    },
    {
        "id": "7571255803081928745",
        "title": "公共厕所",
        "address": "甘肃省金昌市金川区宝品西巷与延安路交叉口正北方向33米左右",
        "tel": "",
        "category": "基础设施:公共设施:公共厕所",
        "type": 0,
        "location": {
            "lat": 38.525014,
            "lng": 102.21403
        },
        "ad_info": {
            "adcode": 620302,
            "province": "甘肃省",
            "city": "金昌市",
            "district": "金川区"
        }
    },
    {
        "id": "10652461543826863359",
        "title": "公共厕所",
        "address": "甘肃省金昌市金川区广州路与泰安路交叉口西北方向27米左右",
        "tel": "",
        "category": "基础设施:公共设施:公共厕所",
        "type": 0,
        "location": {
            "lat": 38.529908,
            "lng": 102.201736
        },
        "ad_info": {
            "adcode": 620302,
            "province": "甘肃省",
            "city": "金昌市",
            "district": "金川区"
        }
    },
    {
        "id": "12965643852220621243",
        "title": "公共厕所",
        "address": "甘肃省金昌市金川区公园西路与永昌路交叉口东南方向165米左右",
        "tel": "",
        "category": "基础设施:公共设施:公共厕所",
        "type": 0,
        "location": {
            "lat": 38.503811,
            "lng": 102.172389
        },
        "ad_info": {
            "adcode": 620302,
            "province": "甘肃省",
            "city": "金昌市",
            "district": "金川区"
        }
    },
    {
        "id": "6361832686147758302",
        "title": "公共厕所",
        "address": "甘肃省金昌市金川区宝运巷与新华大道交叉口正西方向84米左右",
        "tel": "",
        "category": "基础设施:公共设施:公共厕所",
        "type": 0,
        "location": {
            "lat": 38.519602,
            "lng": 102.206473
        },
        "ad_info": {
            "adcode": 620302,
            "province": "甘肃省",
            "city": "金昌市",
            "district": "金川区"
        }
    },
    {
        "id": "11520381512988892462",
        "title": "公共厕所",
        "address": "甘肃省金昌市金川区新华大道与长沙路交叉口正西方向88米左右",
        "tel": "",
        "category": "基础设施:公共设施:公共厕所",
        "type": 0,
        "location": {
            "lat": 38.519662,
            "lng": 102.23584
        },
        "ad_info": {
            "adcode": 620302,
            "province": "甘肃省",
            "city": "金昌市",
            "district": "金川区"
        }
    },
    {
        "id": "12017617368993836552",
        "title": "公共厕所",
        "address": "甘肃省金昌市金川区北京路与河雅路交叉口西北方向491米左右",
        "tel": "",
        "category": "基础设施:公共设施:公共厕所",
        "type": 0,
        "location": {
            "lat": 38.486228,
            "lng": 102.198558
        },
        "ad_info": {
            "adcode": 620302,
            "province": "甘肃省",
            "city": "金昌市",
            "district": "金川区"
        }
    },
    {
        "id": "12077415446499975568",
        "title": "公共厕所",
        "address": "甘肃省金昌市金川区永昌路与金川西路交叉口正北方向102米左右",
        "tel": "",
        "category": "基础设施:公共设施:公共厕所",
        "type": 0,
        "location": {
            "lat": 38.500942,
            "lng": 102.174392
        },
        "ad_info": {
            "adcode": 620302,
            "province": "甘肃省",
            "city": "金昌市",
            "district": "金川区"
        }
    },
    {
        "id": "4714225818706360499",
        "title": "公共厕所",
        "address": "甘肃省金昌市金川区杭州路与金川路交叉口西北方向76米左右",
        "tel": "",
        "category": "基础设施:公共设施:公共厕所",
        "type": 0,
        "location": {
            "lat": 38.514386,
            "lng": 102.197217
        },
        "ad_info": {
            "adcode": 620302,
            "province": "甘肃省",
            "city": "金昌市",
            "district": "金川区"
        }
    },
    {
        "id": "1931313643833403103",
        "title": "公共厕所",
        "address": "甘肃省金昌市金川区新华大道与福州路交叉口东南方向476米左右",
        "tel": "",
        "category": "基础设施:公共设施:公共厕所",
        "type": 0,
        "location": {
            "lat": 38.516625,
            "lng": 102.247581
        },
        "ad_info": {
            "adcode": 620302,
            "province": "甘肃省",
            "city": "金昌市",
            "district": "金川区"
        }
    },
    {
        "id": "15685847128175187843",
        "title": "公共卫生间",
        "address": "甘肃省金昌市永昌县相府路与金昌路交叉口西北方向155米左右",
        "tel": "",
        "category": "基础设施:公共设施:公共厕所",
        "type": 0,
        "location": {
            "lat": 38.242939,
            "lng": 101.97078
        },
        "ad_info": {
            "adcode": 620321,
            "province": "甘肃省",
            "city": "金昌市",
            "district": "永昌县"
        }
    },
    {
        "id": "17012445648581125400",
        "title": "公共厕所",
        "address": "甘肃省金昌市金川区河雅路与北京路辅路交叉口东北360米",
        "tel": "",
        "category": "基础设施:公共设施:公共厕所",
        "type": 0,
        "location": {
            "lat": 38.486319,
            "lng": 102.204879
        },
        "ad_info": {
            "adcode": 620302,
            "province": "甘肃省",
            "city": "金昌市",
            "district": "金川区"
        }
    },
    {
        "id": "1365507969707062161",
        "title": "公共厕所",
        "address": "甘肃省金昌市永昌县南大街与西大街交叉口正东方向279米左右",
        "tel": "",
        "category": "基础设施:公共设施:公共厕所",
        "type": 0,
        "location": {
            "lat": 38.214615,
            "lng": 102.615452
        },
        "ad_info": {
            "adcode": 620321,
            "province": "甘肃省",
            "city": "金昌市",
            "district": "永昌县"
        }
    },
    {
        "id": "4223611940191986062",
        "title": "公共厕所",
        "address": "甘肃省金昌市永昌县永河路与河雅路交叉口东南方向134米左右",
        "tel": "",
        "category": "基础设施:公共设施:公共厕所",
        "type": 0,
        "location": {
            "lat": 38.368441,
            "lng": 102.074899
        },
        "ad_info": {
            "adcode": 620321,
            "province": "甘肃省",
            "city": "金昌市",
            "district": "永昌县"
        }
    },
    {
        "id": "14481980984626231606",
        "title": "公共厕所",
        "address": "甘肃省金昌市永昌县北京路与玉河路交叉口正西方向342米左右",
        "tel": "",
        "category": "基础设施:公共设施:公共厕所",
        "type": 0,
        "location": {
            "lat": 38.375102,
            "lng": 102.065112
        },
        "ad_info": {
            "adcode": 620321,
            "province": "甘肃省",
            "city": "金昌市",
            "district": "永昌县"
        }
    },
    {
        "id": "1220747060194412204",
        "title": "公共厕所",
        "address": "甘肃省金昌市永昌县第七中学北侧390米",
        "tel": "",
        "category": "基础设施:公共设施:公共厕所",
        "type": 0,
        "location": {
            "lat": 38.25827,
            "lng": 101.9625
        },
        "ad_info": {
            "adcode": 620321,
            "province": "甘肃省",
            "city": "金昌市",
            "district": "永昌县"
        }
    },
    {
        "id": "12975431963332064667",
        "title": "公共厕所",
        "address": "甘肃省金昌市金川区宁远中学东侧160米",
        "tel": "",
        "category": "基础设施:公共设施:公共厕所",
        "type": 0,
        "location": {
            "lat": 38.442318,
            "lng": 102.186067
        },
        "ad_info": {
            "adcode": 620302,
            "province": "甘肃省",
            "city": "金昌市",
            "district": "金川区"
        }
    },
    {
        "id": "15348499940804660816",
        "title": "公共厕所",
        "address": "甘肃省金昌市金川区龙门学校停车场内",
        "tel": "",
        "category": "基础设施:公共设施:公共厕所",
        "type": 0,
        "location": {
            "lat": 38.511629,
            "lng": 102.195674
        },
        "ad_info": {
            "adcode": 620302,
            "province": "甘肃省",
            "city": "金昌市",
            "district": "金川区"
        }
    },
    {
        "id": "12906925787065537958",
        "title": "公共厕所",
        "address": "甘肃省金昌市永昌县Y327与美阳路交叉口正东方向186米左右",
        "tel": "",
        "category": "基础设施:公共设施:公共厕所",
        "type": 0,
        "location": {
            "lat": 38.252878,
            "lng": 101.95529
        },
        "ad_info": {
            "adcode": 620321,
            "province": "甘肃省",
            "city": "金昌市",
            "district": "永昌县"
        }
    },
    {
        "id": "17389133490425922531",
        "title": "公共厕所",
        "address": "甘肃省金昌市永昌县东湖路与环城东路交叉口西南方向29米左右",
        "tel": "",
        "category": "基础设施:公共设施:公共厕所",
        "type": 0,
        "location": {
            "lat": 38.252188,
            "lng": 101.982119
        },
        "ad_info": {
            "adcode": 620321,
            "province": "甘肃省",
            "city": "金昌市",
            "district": "永昌县"
        }
    },
    {
        "id": "967323443212459677",
        "title": "公共厕所",
        "address": "甘肃省金昌市永昌县河西堡镇车站路昌盛小区西",
        "tel": "",
        "category": "基础设施:公共设施:公共厕所",
        "type": 0,
        "location": {
            "lat": 38.37725,
            "lng": 102.06358
        },
        "ad_info": {
            "adcode": 620321,
            "province": "甘肃省",
            "city": "金昌市",
            "district": "永昌县"
        }
    },
    {
        "id": "10927468321038944944",
        "title": "公共厕所",
        "address": "甘肃省金昌市金川区公园路32-10号",
        "tel": "",
        "category": "基础设施:公共设施:公共厕所",
        "type": 0,
        "location": {
            "lat": 38.513361,
            "lng": 102.184684
        },
        "ad_info": {
            "adcode": 620302,
            "province": "甘肃省",
            "city": "金昌市",
            "district": "金川区"
        }
    },
    {
        "id": "15394636059475774765",
        "title": "公共厕所",
        "address": "甘肃省金昌市金川区双湾镇中心卫生院东侧240米",
        "tel": "",
        "category": "基础设施:公共设施:公共厕所",
        "type": 0,
        "location": {
            "lat": 38.617916,
            "lng": 102.330378
        },
        "ad_info": {
            "adcode": 620302,
            "province": "甘肃省",
            "city": "金昌市",
            "district": "金川区"
        }
    },
    {
        "id": "18079569523827785541",
        "title": "永昌服务区公共厕所",
        "address": "甘肃省金昌市永昌县G312与恒源路交叉口东南方向319米左右",
        "tel": "",
        "category": "基础设施:公共设施:公共厕所",
        "type": 0,
        "location": {
            "lat": 38.229771,
            "lng": 102.013644
        },
        "ad_info": {
            "adcode": 620321,
            "province": "甘肃省",
            "city": "金昌市",
            "district": "永昌县"
        }
    },
    {
        "id": "9628987164305784827",
        "title": "公共厕所",
        "address": "甘肃省金昌市永昌县文昌路与金昌路交叉口西南方向120米左右",
        "tel": "",
        "category": "基础设施:公共设施:公共厕所",
        "type": 0,
        "location": {
            "lat": 38.243502,
            "lng": 101.965671
        },
        "ad_info": {
            "adcode": 620321,
            "province": "甘肃省",
            "city": "金昌市",
            "district": "永昌县"
        }
    },
    {
        "id": "5046668706766323523",
        "title": "公共厕所",
        "address": "甘肃省金昌市永昌县东关路与东街交叉口正东方向35米左右",
        "tel": "",
        "category": "基础设施:公共设施:公共厕所",
        "type": 0,
        "location": {
            "lat": 38.245016,
            "lng": 101.97867
        },
        "ad_info": {
            "adcode": 620321,
            "province": "甘肃省",
            "city": "金昌市",
            "district": "永昌县"
        }
    },
    {
        "id": "5795055914040077829",
        "title": "公共厕所",
        "address": "甘肃省金昌市金川区昌锦西巷与重庆路交叉口正西方向198米左右",
        "tel": "",
        "category": "基础设施:公共设施:公共厕所",
        "type": 0,
        "location": {
            "lat": 38.548103,
            "lng": 102.185727
        },
        "ad_info": {
            "adcode": 620302,
            "province": "甘肃省",
            "city": "金昌市",
            "district": "金川区"
        }
    },
    {
        "id": "12497084516818786269",
        "title": "公共厕所",
        "address": "甘肃省金昌市金川区延安东路与延安路交叉口西北方向91米左右",
        "tel": "",
        "category": "基础设施:公共设施:公共厕所",
        "type": 0,
        "location": {
            "lat": 38.525232,
            "lng": 102.220637
        },
        "ad_info": {
            "adcode": 620302,
            "province": "甘肃省",
            "city": "金昌市",
            "district": "金川区"
        }
    },
    {
        "id": "299687151351474156",
        "title": "公共厕所",
        "address": "甘肃省金昌市金川区龙川西巷与龙盘巷交叉口西南方向176米左右",
        "tel": "",
        "category": "基础设施:公共设施:公共厕所",
        "type": 0,
        "location": {
            "lat": 38.499144,
            "lng": 102.177952
        },
        "ad_info": {
            "adcode": 620302,
            "province": "甘肃省",
            "city": "金昌市",
            "district": "金川区"
        }
    },
    {
        "id": "2341619674067740123",
        "title": "公共厕所",
        "address": "甘肃省金昌市金川区上海路与北京路交叉口正南方向195米左右",
        "tel": "",
        "category": "基础设施:公共设施:公共厕所",
        "type": 0,
        "location": {
            "lat": 38.510038,
            "lng": 102.174251
        },
        "ad_info": {
            "adcode": 620302,
            "province": "甘肃省",
            "city": "金昌市",
            "district": "金川区"
        }
    },
    {
        "id": "6070444296452084752",
        "title": "公共厕所",
        "address": "甘肃省金昌市金川区庆阳路与金汇巷交叉口西北方向41米左右",
        "tel": "",
        "category": "基础设施:公共设施:公共厕所",
        "type": 0,
        "location": {
            "lat": 38.51895,
            "lng": 102.180988
        },
        "ad_info": {
            "adcode": 620302,
            "province": "甘肃省",
            "city": "金昌市",
            "district": "金川区"
        }
    },
    {
        "id": "1887707251946864812",
        "title": "旅游公共厕所",
        "address": "甘肃省金昌市永昌县X188与永河路交叉口正西方向886米左右",
        "tel": "15809350700",
        "category": "基础设施:公共设施:公共厕所",
        "type": 0,
        "location": {
            "lat": 38.297079,
            "lng": 102.013466
        },
        "ad_info": {
            "adcode": 620321,
            "province": "甘肃省",
            "city": "金昌市",
            "district": "永昌县"
        }
    },
    {
        "id": "6453534877280973060",
        "title": "公共厕所",
        "address": "甘肃省金昌市金川区宝品巷与桂林路交叉口东南方向33米左右",
        "tel": "",
        "category": "基础设施:公共设施:公共厕所",
        "type": 0,
        "location": {
            "lat": 38.527453,
            "lng": 102.21089
        },
        "ad_info": {
            "adcode": 620302,
            "province": "甘肃省",
            "city": "金昌市",
            "district": "金川区"
        }
    },
    {
        "id": "11868639648200879742",
        "title": "公共厕所",
        "address": "甘肃省金昌市金川区公园路与金建巷交叉口东南方向245米左右",
        "tel": "",
        "category": "基础设施:公共设施:公共厕所",
        "type": 0,
        "location": {
            "lat": 38.515204,
            "lng": 102.192592
        },
        "ad_info": {
            "adcode": 620302,
            "province": "甘肃省",
            "city": "金昌市",
            "district": "金川区"
        }
    },
    {
        "id": "10246534174347525898",
        "title": "锦都大酒店-洗手间",
        "address": "甘肃省金昌市金川区上海路与新华大道交叉口西南方向24米左右",
        "tel": "",
        "category": "基础设施:公共设施:公共厕所",
        "type": 0,
        "location": {
            "lat": 38.518201,
            "lng": 102.17433
        },
        "ad_info": {
            "adcode": 620302,
            "province": "甘肃省",
            "city": "金昌市",
            "district": "金川区"
        }
    },
    {
        "id": "7535115884265060299",
        "title": "公共厕所",
        "address": "甘肃省金昌市金川区天津路3号",
        "tel": "",
        "category": "基础设施:公共设施:公共厕所",
        "type": 0,
        "location": {
            "lat": 38.521181,
            "lng": 102.182703
        },
        "ad_info": {
            "adcode": 620302,
            "province": "甘肃省",
            "city": "金昌市",
            "district": "金川区"
        }
    },
    {
        "id": "16090809654984880890",
        "title": "公共厕所",
        "address": "甘肃省金昌市金川区天水路与贵阳路交叉口正西方向176米左右",
        "tel": "",
        "category": "基础设施:公共设施:公共厕所",
        "type": 0,
        "location": {
            "lat": 38.506091,
            "lng": 102.18877
        },
        "ad_info": {
            "adcode": 620302,
            "province": "甘肃省",
            "city": "金昌市",
            "district": "金川区"
        }
    },
    {
        "id": "2478738023622821321",
        "title": "永昌服务区公共厕所",
        "address": "甘肃省金昌市永昌县G312与恒源路交叉口东南方向351米左右",
        "tel": "",
        "category": "基础设施:公共设施:公共厕所",
        "type": 0,
        "location": {
            "lat": 38.229591,
            "lng": 102.013941
        },
        "ad_info": {
            "adcode": 620321,
            "province": "甘肃省",
            "city": "金昌市",
            "district": "永昌县"
        }
    },
    {
        "id": "5315748834540652347",
        "title": "公共厕所",
        "address": "甘肃省金昌市金川区兰州路与永昌路交叉口西南方向111米左右",
        "tel": "",
        "category": "基础设施:公共设施:公共厕所",
        "type": 0,
        "location": {
            "lat": 38.493924,
            "lng": 102.178494
        },
        "ad_info": {
            "adcode": 620302,
            "province": "甘肃省",
            "city": "金昌市",
            "district": "金川区"
        }
    },
    {
        "id": "12434939008714336204",
        "title": "公共厕所",
        "address": "甘肃省金昌市金川区天水路与贵阳路交叉口西北方向112米左右",
        "tel": "",
        "category": "基础设施:公共设施:公共厕所",
        "type": 0,
        "location": {
            "lat": 38.507335,
            "lng": 102.190098
        },
        "ad_info": {
            "adcode": 620302,
            "province": "甘肃省",
            "city": "金昌市",
            "district": "金川区"
        }
    },
    {
        "id": "7268225970205789827",
        "title": "公共厕所",
        "address": "甘肃省金昌市金川区宝运东巷与新华大道交叉口正北方向113米左右",
        "tel": "",
        "category": "基础设施:公共设施:公共厕所",
        "type": 0,
        "location": {
            "lat": 38.520882,
            "lng": 102.208568
        },
        "ad_info": {
            "adcode": 620302,
            "province": "甘肃省",
            "city": "金昌市",
            "district": "金川区"
        }
    },
    {
        "id": "10482856247174930516",
        "title": "公共厕所",
        "address": "甘肃省金昌市金川区金川路与金贵四巷交叉口东南方向126米左右",
        "tel": "",
        "category": "基础设施:公共设施:公共厕所",
        "type": 0,
        "location": {
            "lat": 38.514012,
            "lng": 102.200251
        },
        "ad_info": {
            "adcode": 620302,
            "province": "甘肃省",
            "city": "金昌市",
            "district": "金川区"
        }
    },
    {
        "id": "13102710490561995683",
        "title": "昌泰公园-公共厕所",
        "address": "甘肃省金昌市金川区泰安路与长春路交叉口正北方向144米左右",
        "tel": "",
        "category": "基础设施:公共设施:公共厕所",
        "type": 0,
        "location": {
            "lat": 38.531087,
            "lng": 102.193627
        },
        "ad_info": {
            "adcode": 620302,
            "province": "甘肃省",
            "city": "金昌市",
            "district": "金川区"
        }
    },
    {
        "id": "7897280866144145392",
        "title": "公共厕所",
        "address": "甘肃省金昌市金川区贵阳路与金贵一巷交叉口东北方向167米左右",
        "tel": "",
        "category": "基础设施:公共设施:公共厕所",
        "type": 0,
        "location": {
            "lat": 38.518046,
            "lng": 102.209227
        },
        "ad_info": {
            "adcode": 620302,
            "province": "甘肃省",
            "city": "金昌市",
            "district": "金川区"
        }
    },
    {
        "id": "14354916639012543213",
        "title": "永昌服务区第二公共厕所",
        "address": "甘肃省金昌市永昌县G312与恒源路交叉口东南方向354米左右",
        "tel": "",
        "category": "基础设施:公共设施:公共厕所",
        "type": 0,
        "location": {
            "lat": 38.22935,
            "lng": 102.013604
        },
        "ad_info": {
            "adcode": 620321,
            "province": "甘肃省",
            "city": "金昌市",
            "district": "永昌县"
        }
    },
    {
        "id": "7768291867810487124",
        "title": "公共厕所",
        "address": "甘肃省金昌市永昌县东街与相府路交叉口东北方向37米左右",
        "tel": "",
        "category": "基础设施:公共设施:公共厕所",
        "type": 0,
        "location": {
            "lat": 38.246587,
            "lng": 101.974926
        },
        "ad_info": {
            "adcode": 620321,
            "province": "甘肃省",
            "city": "金昌市",
            "district": "永昌县"
        }
    }
]