[
    {
        "id": "18381316825433782840",
        "title": "公共厕所",
        "address": "广西壮族自治区钦州市钦南区二马路与龙墩八巷交叉口正东方向103米左右",
        "tel": "",
        "category": "基础设施:公共设施:公共厕所",
        "type": 0,
        "location": {
            "lat": 21.951429,
            "lng": 108.620588
        },
        "ad_info": {
            "adcode": 450702,
            "province": "广西壮族自治区",
            "city": "钦州市",
            "district": "钦南区"
        }
    },
    {
        "id": "17958940487816800204",
        "title": "公共厕所",
        "address": "广西壮族自治区钦州市钦南区人民路6-11号",
        "tel": "",
        "category": "基础设施:公共设施:公共厕所",
        "type": 0,
        "location": {
            "lat": 21.959517,
            "lng": 108.62218
        },
        "ad_info": {
            "adcode": 450702,
            "province": "广西壮族自治区",
            "city": "钦州市",
            "district": "钦南区"
        }
    },
    {
        "id": "16268650783644192906",
        "title": "公共厕所",
        "address": "广西壮族自治区钦州市钦南区子材东大街人和春天-G区",
        "tel": "",
        "category": "基础设施:公共设施:公共厕所",
        "type": 0,
        "location": {
            "lat": 21.961312,
            "lng": 108.650006
        },
        "ad_info": {
            "adcode": 450702,
            "province": "广西壮族自治区",
            "city": "钦州市",
            "district": "钦南区"
        }
    },
    {
        "id": "18130154678220559590",
        "title": "公共厕所",
        "address": "广西壮族自治区钦州市钦北区东升街与富民路交叉口正西方向122米左右",
        "tel": "",
        "category": "基础设施:公共设施:公共厕所",
        "type": 0,
        "location": {
            "lat": 21.979923,
            "lng": 108.652104
        },
        "ad_info": {
            "adcode": 450703,
            "province": "广西壮族自治区",
            "city": "钦州市",
            "district": "钦北区"
        }
    },
    {
        "id": "5653683154085856822",
        "title": "公共厕所",
        "address": "广西壮族自治区钦州市钦南区安州大道与金海湾东大街交叉口正东方向342米左右",
        "tel": "",
        "category": "基础设施:公共设施:公共厕所",
        "type": 0,
        "location": {
            "lat": 21.9377,
            "lng": 108.63331
        },
        "ad_info": {
            "adcode": 450702,
            "province": "广西壮族自治区",
            "city": "钦州市",
            "district": "钦南区"
        }
    },
    {
        "id": "14127152350496616638",
        "title": "公共厕所",
        "address": "广西壮族自治区钦州市钦北区环宇街35号",
        "tel": "",
        "category": "基础设施:公共设施:公共厕所",
        "type": 0,
        "location": {
            "lat": 21.978988,
            "lng": 108.632959
        },
        "ad_info": {
            "adcode": 450703,
            "province": "广西壮族自治区",
            "city": "钦州市",
            "district": "钦北区"
        }
    },
    {
        "id": "14712942617103330763",
        "title": "公共厕所",
        "address": "广西壮族自治区钦州市钦南区滨湖路白石湖公园(西南角)",
        "tel": "",
        "category": "基础设施:公共设施:公共厕所",
        "type": 0,
        "location": {
            "lat": 21.931719,
            "lng": 108.631289
        },
        "ad_info": {
            "adcode": 450702,
            "province": "广西壮族自治区",
            "city": "钦州市",
            "district": "钦南区"
        }
    },
    {
        "id": "16321506094445170274",
        "title": "公共厕所",
        "address": "广西壮族自治区钦州市钦南区子材西大街与滨江北路交叉口正南方向7米左右",
        "tel": "",
        "category": "基础设施:公共设施:公共厕所",
        "type": 0,
        "location": {
            "lat": 21.967129,
            "lng": 108.635725
        },
        "ad_info": {
            "adcode": 450702,
            "province": "广西壮族自治区",
            "city": "钦州市",
            "district": "钦南区"
        }
    },
    {
        "id": "7172821651312974909",
        "title": "公共厕所",
        "address": "广西壮族自治区钦州市钦南区牡丹北路与茶亭西二巷交叉口正北方向184米左右",
        "tel": "",
        "category": "基础设施:公共设施:公共厕所",
        "type": 0,
        "location": {
            "lat": 21.953228,
            "lng": 108.632726
        },
        "ad_info": {
            "adcode": 450702,
            "province": "广西壮族自治区",
            "city": "钦州市",
            "district": "钦南区"
        }
    },
    {
        "id": "11980968081922109785",
        "title": "公共厕所",
        "address": "广西壮族自治区钦州市钦南区安州大道与敏昌大街辅路交叉口西南方向190米左右",
        "tel": "",
        "category": "基础设施:公共设施:公共厕所",
        "type": 0,
        "location": {
            "lat": 21.899336,
            "lng": 108.6239
        },
        "ad_info": {
            "adcode": 450702,
            "province": "广西壮族自治区",
            "city": "钦州市",
            "district": "钦南区"
        }
    },
    {
        "id": "15803638671304439051",
        "title": "公共厕所",
        "address": "广西壮族自治区钦州市钦北区华发壹号西侧110米",
        "tel": "",
        "category": "基础设施:公共设施:公共厕所",
        "type": 0,
        "location": {
            "lat": 22.0301,
            "lng": 108.632809
        },
        "ad_info": {
            "adcode": 450703,
            "province": "广西壮族自治区",
            "city": "钦州市",
            "district": "钦北区"
        }
    },
    {
        "id": "12533386014528153036",
        "title": "公共厕所",
        "address": "广西壮族自治区钦州市钦北区三沿路与广益街交叉口正南方向147米左右",
        "tel": "",
        "category": "基础设施:公共设施:公共厕所",
        "type": 0,
        "location": {
            "lat": 21.974698,
            "lng": 108.625602
        },
        "ad_info": {
            "adcode": 450703,
            "province": "广西壮族自治区",
            "city": "钦州市",
            "district": "钦北区"
        }
    },
    {
        "id": "5413055292945057410",
        "title": "公共厕所",
        "address": "广西壮族自治区钦州市钦南区南珠东大街中国石化加油站(城东站)",
        "tel": "",
        "category": "基础设施:公共设施:公共厕所",
        "type": 0,
        "location": {
            "lat": 21.949907,
            "lng": 108.641517
        },
        "ad_info": {
            "adcode": 450702,
            "province": "广西壮族自治区",
            "city": "钦州市",
            "district": "钦南区"
        }
    },
    {
        "id": "9969954825312638304",
        "title": "公共厕所",
        "address": "广西壮族自治区钦州市钦南区北坛路与建设街交叉口正南方向192米左右",
        "tel": "",
        "category": "基础设施:公共设施:公共厕所",
        "type": 0,
        "location": {
            "lat": 21.95842,
            "lng": 108.62219
        },
        "ad_info": {
            "adcode": 450702,
            "province": "广西壮族自治区",
            "city": "钦州市",
            "district": "钦南区"
        }
    },
    {
        "id": "74573693418496377",
        "title": "公共厕所",
        "address": "广西壮族自治区钦州市钦南区滨海公路与金鼓大街交叉口东北方向155米左右",
        "tel": "",
        "category": "基础设施:公共设施:公共厕所",
        "type": 0,
        "location": {
            "lat": 21.744436,
            "lng": 108.607129
        },
        "ad_info": {
            "adcode": 450702,
            "province": "广西壮族自治区",
            "city": "钦州市",
            "district": "钦南区"
        }
    },
    {
        "id": "7630384898741284010",
        "title": "公共厕所",
        "address": "广西壮族自治区钦州市钦南区南珠西大街辅路与珠宝路交叉口西北60米",
        "tel": "",
        "category": "基础设施:公共设施:公共厕所",
        "type": 0,
        "location": {
            "lat": 21.968669,
            "lng": 108.613199
        },
        "ad_info": {
            "adcode": 450702,
            "province": "广西壮族自治区",
            "city": "钦州市",
            "district": "钦南区"
        }
    },
    {
        "id": "5627812890785834367",
        "title": "公共厕所",
        "address": "广西壮族自治区钦州市钦南区东泉街与蓬莱北大道交叉口正北方向156米左右",
        "tel": "",
        "category": "基础设施:公共设施:公共厕所",
        "type": 0,
        "location": {
            "lat": 21.954379,
            "lng": 108.660471
        },
        "ad_info": {
            "adcode": 450702,
            "province": "广西壮族自治区",
            "city": "钦州市",
            "district": "钦南区"
        }
    },
    {
        "id": "8939270979260975333",
        "title": "公共厕所",
        "address": "广西壮族自治区钦州市钦北区滨河东路与鸿亭街交叉口正北方向199米左右",
        "tel": "",
        "category": "基础设施:公共设施:公共厕所",
        "type": 0,
        "location": {
            "lat": 21.969287,
            "lng": 108.642758
        },
        "ad_info": {
            "adcode": 450703,
            "province": "广西壮族自治区",
            "city": "钦州市",
            "district": "钦北区"
        }
    },
    {
        "id": "3546206393649770537",
        "title": "公共厕所",
        "address": "广西壮族自治区钦州市钦南区G242与南北二级公路交叉口正北方向135米左右",
        "tel": "",
        "category": "基础设施:公共设施:公共厕所",
        "type": 0,
        "location": {
            "lat": 21.941037,
            "lng": 108.69052
        },
        "ad_info": {
            "adcode": 450702,
            "province": "广西壮族自治区",
            "city": "钦州市",
            "district": "钦南区"
        }
    },
    {
        "id": "17851004310566017798",
        "title": "厕所",
        "address": "广西壮族自治区钦州市钦北区附近",
        "tel": "19127729117",
        "category": "基础设施:公共设施:公共厕所",
        "type": 0,
        "location": {
            "lat": 22.288005,
            "lng": 108.801832
        },
        "ad_info": {
            "adcode": 450703,
            "province": "广西壮族自治区",
            "city": "钦州市",
            "district": "钦北区"
        }
    },
    {
        "id": "2309072685899200418",
        "title": "公共厕所",
        "address": "广西壮族自治区钦州市钦南区南珠西大街与文峰南路交叉口东北方向68米左右",
        "tel": "",
        "category": "基础设施:公共设施:公共厕所",
        "type": 0,
        "location": {
            "lat": 21.966498,
            "lng": 108.617991
        },
        "ad_info": {
            "adcode": 450702,
            "province": "广西壮族自治区",
            "city": "钦州市",
            "district": "钦南区"
        }
    },
    {
        "id": "16716338643400767119",
        "title": "公共厕所",
        "address": "广西壮族自治区钦州市浦北县G359与越州大道交叉口西北方向626米左右",
        "tel": "",
        "category": "基础设施:公共设施:公共厕所",
        "type": 0,
        "location": {
            "lat": 22.257062,
            "lng": 109.541471
        },
        "ad_info": {
            "adcode": 450722,
            "province": "广西壮族自治区",
            "city": "钦州市",
            "district": "浦北县"
        }
    },
    {
        "id": "10951759173575129524",
        "title": "公共厕所",
        "address": "广西壮族自治区钦州市钦南区逸仙路与钦州港大道交叉口正东方向224米左右",
        "tel": "",
        "category": "基础设施:公共设施:公共厕所",
        "type": 0,
        "location": {
            "lat": 21.732199,
            "lng": 108.604795
        },
        "ad_info": {
            "adcode": 450702,
            "province": "广西壮族自治区",
            "city": "钦州市",
            "district": "钦南区"
        }
    },
    {
        "id": "11530416155752398925",
        "title": "公共厕所",
        "address": "广西壮族自治区钦州市钦南区文峰南路中国石化(文峰加油站)",
        "tel": "",
        "category": "基础设施:公共设施:公共厕所",
        "type": 0,
        "location": {
            "lat": 21.950899,
            "lng": 108.615892
        },
        "ad_info": {
            "adcode": 450702,
            "province": "广西壮族自治区",
            "city": "钦州市",
            "district": "钦南区"
        }
    },
    {
        "id": "7404202116785032419",
        "title": "公共厕所",
        "address": "广西壮族自治区钦州市浦北县六一路与民兴路交叉口正北方向215米左右",
        "tel": "",
        "category": "基础设施:公共设施:公共厕所",
        "type": 0,
        "location": {
            "lat": 22.276687,
            "lng": 109.553261
        },
        "ad_info": {
            "adcode": 450722,
            "province": "广西壮族自治区",
            "city": "钦州市",
            "district": "浦北县"
        }
    },
    {
        "id": "18387070687271204237",
        "title": "公共厕所",
        "address": "广西壮族自治区钦州市钦北区金中街与钦州湾大道交叉口西北方向140米左右",
        "tel": "",
        "category": "基础设施:公共设施:公共厕所",
        "type": 0,
        "location": {
            "lat": 21.975332,
            "lng": 108.62631
        },
        "ad_info": {
            "adcode": 450703,
            "province": "广西壮族自治区",
            "city": "钦州市",
            "district": "钦北区"
        }
    },
    {
        "id": "9498902621241099317",
        "title": "公共厕所",
        "address": "广西壮族自治区钦州市钦南区G325与X295交叉口正西方向368米左右",
        "tel": "",
        "category": "基础设施:公共设施:公共厕所",
        "type": 0,
        "location": {
            "lat": 21.872252,
            "lng": 108.792238
        },
        "ad_info": {
            "adcode": 450702,
            "province": "广西壮族自治区",
            "city": "钦州市",
            "district": "钦南区"
        }
    },
    {
        "id": "9224305963003107942",
        "title": "公共厕所",
        "address": "广西壮族自治区钦州市钦南区粤桂南路与金海湾东大街辅路交叉口正东方向250米左右",
        "tel": "",
        "category": "基础设施:公共设施:公共厕所",
        "type": 0,
        "location": {
            "lat": 21.938976,
            "lng": 108.651944
        },
        "ad_info": {
            "adcode": 450702,
            "province": "广西壮族自治区",
            "city": "钦州市",
            "district": "钦南区"
        }
    },
    {
        "id": "3080866600548522357",
        "title": "公共厕所",
        "address": "广西壮族自治区钦州市钦北区书香街与铜鱼路交叉口正北方向149米左右",
        "tel": "",
        "category": "基础设施:公共设施:公共厕所",
        "type": 0,
        "location": {
            "lat": 22.221841,
            "lng": 108.628161
        },
        "ad_info": {
            "adcode": 450703,
            "province": "广西壮族自治区",
            "city": "钦州市",
            "district": "钦北区"
        }
    },
    {
        "id": "7839630887075684141",
        "title": "公共厕所",
        "address": "广西壮族自治区钦州市钦北区北环东路与通富路交叉口正东方向262米左右",
        "tel": "",
        "category": "基础设施:公共设施:公共厕所",
        "type": 0,
        "location": {
            "lat": 21.979523,
            "lng": 108.668028
        },
        "ad_info": {
            "adcode": 450703,
            "province": "广西壮族自治区",
            "city": "钦州市",
            "district": "钦北区"
        }
    },
    {
        "id": "17155825411742745175",
        "title": "公共厕所",
        "address": "广西壮族自治区钦州市钦北区北环东路与通富路交叉口正东方向122米左右",
        "tel": "",
        "category": "基础设施:公共设施:公共厕所",
        "type": 0,
        "location": {
            "lat": 21.978661,
            "lng": 108.666686
        },
        "ad_info": {
            "adcode": 450703,
            "province": "广西壮族自治区",
            "city": "钦州市",
            "district": "钦北区"
        }
    },
    {
        "id": "1961511720428847416",
        "title": "公共厕所",
        "address": "广西壮族自治区钦州市钦北区钦州湾大道辅路与人和街交叉口南40米",
        "tel": "",
        "category": "基础设施:公共设施:公共厕所",
        "type": 0,
        "location": {
            "lat": 22.000485,
            "lng": 108.635924
        },
        "ad_info": {
            "adcode": 450703,
            "province": "广西壮族自治区",
            "city": "钦州市",
            "district": "钦北区"
        }
    },
    {
        "id": "3647634416413623227",
        "title": "公共厕所",
        "address": "广西壮族自治区钦州市浦北县振兴街与西滨路交叉口正西方向57米左右",
        "tel": "",
        "category": "基础设施:公共设施:公共厕所",
        "type": 0,
        "location": {
            "lat": 22.269369,
            "lng": 109.557582
        },
        "ad_info": {
            "adcode": 450722,
            "province": "广西壮族自治区",
            "city": "钦州市",
            "district": "浦北县"
        }
    },
    {
        "id": "10669556582013489965",
        "title": "公共厕所",
        "address": "广西壮族自治区钦州市钦北区X021与长滩街交叉口正南方向854米左右",
        "tel": "",
        "category": "基础设施:公共设施:公共厕所",
        "type": 0,
        "location": {
            "lat": 22.294513,
            "lng": 108.609903
        },
        "ad_info": {
            "adcode": 450703,
            "province": "广西壮族自治区",
            "city": "钦州市",
            "district": "钦北区"
        }
    },
    {
        "id": "376197008049551627",
        "title": "公共厕所",
        "address": "广西壮族自治区钦州市钦北区兴桂北路与子材东大街交叉口正北方向92米左右",
        "tel": "",
        "category": "基础设施:公共设施:公共厕所",
        "type": 0,
        "location": {
            "lat": 21.962646,
            "lng": 108.655567
        },
        "ad_info": {
            "adcode": 450703,
            "province": "广西壮族自治区",
            "city": "钦州市",
            "district": "钦北区"
        }
    },
    {
        "id": "17808447867456220262",
        "title": "公共厕所",
        "address": "广西壮族自治区钦州市钦南区二马路与龙墩路交叉口西北方向22米左右",
        "tel": "",
        "category": "基础设施:公共设施:公共厕所",
        "type": 0,
        "location": {
            "lat": 21.951669,
            "lng": 108.6178
        },
        "ad_info": {
            "adcode": 450702,
            "province": "广西壮族自治区",
            "city": "钦州市",
            "district": "钦南区"
        }
    },
    {
        "id": "6327392943463287144",
        "title": "公共厕所",
        "address": "广西壮族自治区钦州市钦北区兴桂北路与永福东大街交叉口正北方向106米左右",
        "tel": "",
        "category": "基础设施:公共设施:公共厕所",
        "type": 0,
        "location": {
            "lat": 21.975864,
            "lng": 108.655187
        },
        "ad_info": {
            "adcode": 450703,
            "province": "广西壮族自治区",
            "city": "钦州市",
            "district": "钦北区"
        }
    },
    {
        "id": "4975709095071639424",
        "title": "公共厕所",
        "address": "广西壮族自治区钦州市钦南区G242与滨海公路交叉口西北方向58米左右",
        "tel": "",
        "category": "基础设施:公共设施:公共厕所",
        "type": 0,
        "location": {
            "lat": 21.64002,
            "lng": 108.758752
        },
        "ad_info": {
            "adcode": 450702,
            "province": "广西壮族自治区",
            "city": "钦州市",
            "district": "钦南区"
        }
    },
    {
        "id": "17793823014293161328",
        "title": "公共厕所",
        "address": "广西壮族自治区钦州市钦北区小江街中国石化(二桥加油站)",
        "tel": "",
        "category": "基础设施:公共设施:公共厕所",
        "type": 0,
        "location": {
            "lat": 21.971609,
            "lng": 108.648378
        },
        "ad_info": {
            "adcode": 450703,
            "province": "广西壮族自治区",
            "city": "钦州市",
            "district": "钦北区"
        }
    },
    {
        "id": "12827303244865251022",
        "title": "公共厕所",
        "address": "广西壮族自治区钦州市钦南区S347与环珠西大街交叉口正北方向1587米左右",
        "tel": "",
        "category": "基础设施:公共设施:公共厕所",
        "type": 0,
        "location": {
            "lat": 21.789751,
            "lng": 108.612176
        },
        "ad_info": {
            "adcode": 450702,
            "province": "广西壮族自治区",
            "city": "钦州市",
            "district": "钦南区"
        }
    },
    {
        "id": "6213714342715020457",
        "title": "公共厕所",
        "address": "广西壮族自治区钦州市钦北区钦州湾大道94号",
        "tel": "",
        "category": "基础设施:公共设施:公共厕所",
        "type": 0,
        "location": {
            "lat": 21.980244,
            "lng": 108.628994
        },
        "ad_info": {
            "adcode": 450703,
            "province": "广西壮族自治区",
            "city": "钦州市",
            "district": "钦北区"
        }
    },
    {
        "id": "4967192819942209807",
        "title": "公共厕所",
        "address": "广西壮族自治区钦州市钦北区S218与屯羊桥交叉口正北方向351米左右",
        "tel": "",
        "category": "基础设施:公共设施:公共厕所",
        "type": 0,
        "location": {
            "lat": 22.149848,
            "lng": 108.45005
        },
        "ad_info": {
            "adcode": 450703,
            "province": "广西壮族自治区",
            "city": "钦州市",
            "district": "钦北区"
        }
    },
    {
        "id": "4568408106016334695",
        "title": "公共厕所",
        "address": "广西壮族自治区钦州市钦南区347省道与G75兰海高速出口交叉口西南200米",
        "tel": "",
        "category": "基础设施:公共设施:公共厕所",
        "type": 0,
        "location": {
            "lat": 21.886271,
            "lng": 108.660545
        },
        "ad_info": {
            "adcode": 450702,
            "province": "广西壮族自治区",
            "city": "钦州市",
            "district": "钦南区"
        }
    },
    {
        "id": "11301717705460571818",
        "title": "公共厕所",
        "address": "广西壮族自治区钦州市钦南区乘风大道北部湾职业技术学校",
        "tel": "",
        "category": "基础设施:公共设施:公共厕所",
        "type": 0,
        "location": {
            "lat": 21.965175,
            "lng": 108.5991
        },
        "ad_info": {
            "adcode": 450702,
            "province": "广西壮族自治区",
            "city": "钦州市",
            "district": "钦南区"
        }
    },
    {
        "id": "6858074203709885805",
        "title": "公共洗手间",
        "address": "广西壮族自治区钦州市钦南区海景三街",
        "tel": "",
        "category": "基础设施:公共设施:公共厕所",
        "type": 0,
        "location": {
            "lat": 21.739289,
            "lng": 108.600707
        },
        "ad_info": {
            "adcode": 450702,
            "province": "广西壮族自治区",
            "city": "钦州市",
            "district": "钦南区"
        }
    },
    {
        "id": "13621232793690713462",
        "title": "公共厕所",
        "address": "广西壮族自治区钦州市灵山县和平路66号",
        "tel": "",
        "category": "基础设施:公共设施:公共厕所",
        "type": 0,
        "location": {
            "lat": 22.421154,
            "lng": 109.296109
        },
        "ad_info": {
            "adcode": 450721,
            "province": "广西壮族自治区",
            "city": "钦州市",
            "district": "灵山县"
        }
    },
    {
        "id": "15174417440975865925",
        "title": "公共厕所",
        "address": "广西壮族自治区钦州市钦南区北部湾北大道与海城六巷交叉口西南方向57米左右",
        "tel": "",
        "category": "基础设施:公共设施:公共厕所",
        "type": 0,
        "location": {
            "lat": 21.949924,
            "lng": 108.610138
        },
        "ad_info": {
            "adcode": 450702,
            "province": "广西壮族自治区",
            "city": "钦州市",
            "district": "钦南区"
        }
    },
    {
        "id": "7309790256099882045",
        "title": "公共厕所",
        "address": "广西壮族自治区钦州市钦北区G210与洞利大桥交叉口西南方向562米左右",
        "tel": "",
        "category": "基础设施:公共设施:公共厕所",
        "type": 0,
        "location": {
            "lat": 22.134686,
            "lng": 108.261042
        },
        "ad_info": {
            "adcode": 450703,
            "province": "广西壮族自治区",
            "city": "钦州市",
            "district": "钦北区"
        }
    },
    {
        "id": "8759749230876436954",
        "title": "公共厕所",
        "address": "广西壮族自治区钦州市钦北区",
        "tel": "",
        "category": "基础设施:公共设施:公共厕所",
        "type": 0,
        "location": {
            "lat": 22.102387,
            "lng": 108.63492
        },
        "ad_info": {
            "adcode": 450703,
            "province": "广西壮族自治区",
            "city": "钦州市",
            "district": "钦北区"
        }
    },
    {
        "id": "6687434833817913546",
        "title": "公共厕所",
        "address": "广西壮族自治区钦州市钦北区G210与S311交叉口正北方向143米左右",
        "tel": "",
        "category": "基础设施:公共设施:公共厕所",
        "type": 0,
        "location": {
            "lat": 22.00076,
            "lng": 108.371418
        },
        "ad_info": {
            "adcode": 450703,
            "province": "广西壮族自治区",
            "city": "钦州市",
            "district": "钦北区"
        }
    },
    {
        "id": "7996854587971950357",
        "title": "公共厕所",
        "address": "广西壮族自治区钦州市钦南区安园一巷与安园路交叉口西北方向53米左右",
        "tel": "",
        "category": "基础设施:公共设施:公共厕所",
        "type": 0,
        "location": {
            "lat": 21.949852,
            "lng": 108.64749
        },
        "ad_info": {
            "adcode": 450702,
            "province": "广西壮族自治区",
            "city": "钦州市",
            "district": "钦南区"
        }
    },
    {
        "id": "13168263269274486334",
        "title": "公共厕所",
        "address": "广西壮族自治区钦州市钦南区南珠西大街与文峰北路交叉口正北方向63米左右",
        "tel": "",
        "category": "基础设施:公共设施:公共厕所",
        "type": 0,
        "location": {
            "lat": 21.966332,
            "lng": 108.618211
        },
        "ad_info": {
            "adcode": 450702,
            "province": "广西壮族自治区",
            "city": "钦州市",
            "district": "钦南区"
        }
    },
    {
        "id": "6524559250980442944",
        "title": "公共厕所",
        "address": "广西壮族自治区钦州市钦南区建政路与渡口街交叉口东北方向47米左右",
        "tel": "",
        "category": "基础设施:公共设施:公共厕所",
        "type": 0,
        "location": {
            "lat": 21.951202,
            "lng": 108.629414
        },
        "ad_info": {
            "adcode": 450702,
            "province": "广西壮族自治区",
            "city": "钦州市",
            "district": "钦南区"
        }
    },
    {
        "id": "1286983107028735757",
        "title": "公共厕所",
        "address": "广西壮族自治区钦州市钦北区振兴路与鹰山路交叉口西南方向1342米左右",
        "tel": "",
        "category": "基础设施:公共设施:公共厕所",
        "type": 0,
        "location": {
            "lat": 22.254822,
            "lng": 108.818906
        },
        "ad_info": {
            "adcode": 450703,
            "province": "广西壮族自治区",
            "city": "钦州市",
            "district": "钦北区"
        }
    },
    {
        "id": "904690530273862936",
        "title": "公共厕所",
        "address": "广西壮族自治区钦州市钦北区G210与S218交叉口正南方向221米左右",
        "tel": "",
        "category": "基础设施:公共设施:公共厕所",
        "type": 0,
        "location": {
            "lat": 22.001472,
            "lng": 108.371762
        },
        "ad_info": {
            "adcode": 450703,
            "province": "广西壮族自治区",
            "city": "钦州市",
            "district": "钦北区"
        }
    },
    {
        "id": "2615157110534429616",
        "title": "公共厕所",
        "address": "广西壮族自治区钦州市浦北县S207与柳北高速交叉口正北方向381米左右",
        "tel": "",
        "category": "基础设施:公共设施:公共厕所",
        "type": 0,
        "location": {
            "lat": 22.403064,
            "lng": 109.555983
        },
        "ad_info": {
            "adcode": 450722,
            "province": "广西壮族自治区",
            "city": "钦州市",
            "district": "浦北县"
        }
    },
    {
        "id": "4116130153386786689",
        "title": "公共厕所",
        "address": "广西壮族自治区钦州市钦北区325国道与G75兰海高速入口交叉口南150米",
        "tel": "",
        "category": "基础设施:公共设施:公共厕所",
        "type": 0,
        "location": {
            "lat": 22.246471,
            "lng": 108.42216
        },
        "ad_info": {
            "adcode": 450703,
            "province": "广西壮族自治区",
            "city": "钦州市",
            "district": "钦北区"
        }
    },
    {
        "id": "10522765442440410403",
        "title": "公共厕所",
        "address": "广西壮族自治区钦州市浦北县聚然山庄西北侧",
        "tel": "",
        "category": "基础设施:公共设施:公共厕所",
        "type": 0,
        "location": {
            "lat": 22.299161,
            "lng": 109.468837
        },
        "ad_info": {
            "adcode": 450722,
            "province": "广西壮族自治区",
            "city": "钦州市",
            "district": "浦北县"
        }
    },
    {
        "id": "2370044109894224391",
        "title": "公共厕所",
        "address": "广西壮族自治区钦州市灵山县钦灵公路与陆钦路交叉口正南方向43米左右",
        "tel": "",
        "category": "基础设施:公共设施:公共厕所",
        "type": 0,
        "location": {
            "lat": 22.263643,
            "lng": 108.960329
        },
        "ad_info": {
            "adcode": 450721,
            "province": "广西壮族自治区",
            "city": "钦州市",
            "district": "灵山县"
        }
    },
    {
        "id": "3836937503421502204",
        "title": "公共厕所",
        "address": "广西壮族自治区钦州市浦北县G359与越州大道交叉口正西方向634米左右",
        "tel": "",
        "category": "基础设施:公共设施:公共厕所",
        "type": 0,
        "location": {
            "lat": 22.256829,
            "lng": 109.541288
        },
        "ad_info": {
            "adcode": 450722,
            "province": "广西壮族自治区",
            "city": "钦州市",
            "district": "浦北县"
        }
    },
    {
        "id": "15328875841738893266",
        "title": "公共厕所",
        "address": "广西壮族自治区钦州市灵山县天山电子股份有限公司北侧180米",
        "tel": "",
        "category": "基础设施:公共设施:公共厕所",
        "type": 0,
        "location": {
            "lat": 22.352535,
            "lng": 109.219191
        },
        "ad_info": {
            "adcode": 450721,
            "province": "广西壮族自治区",
            "city": "钦州市",
            "district": "灵山县"
        }
    },
    {
        "id": "2514391883095100792",
        "title": "城西公共厕所",
        "address": "广西壮族自治区钦州市钦南区城西一街与广沿路交叉口正南方向20米左右",
        "tel": "",
        "category": "基础设施:公共设施:公共厕所",
        "type": 0,
        "location": {
            "lat": 21.963256,
            "lng": 108.619045
        },
        "ad_info": {
            "adcode": 450702,
            "province": "广西壮族自治区",
            "city": "钦州市",
            "district": "钦南区"
        }
    },
    {
        "id": "9745605799128782682",
        "title": "公共厕所",
        "address": "广西壮族自治区钦州市灵山县江滨三路与灵山大道交叉口正北方向230米左右",
        "tel": "",
        "category": "基础设施:公共设施:公共厕所",
        "type": 0,
        "location": {
            "lat": 22.404255,
            "lng": 109.268256
        },
        "ad_info": {
            "adcode": 450721,
            "province": "广西壮族自治区",
            "city": "钦州市",
            "district": "灵山县"
        }
    },
    {
        "id": "814725717997972875",
        "title": "公共厕所",
        "address": "广西壮族自治区钦州市浦北县S207与镇新路交叉口西南方向1189米左右",
        "tel": "",
        "category": "基础设施:公共设施:公共厕所",
        "type": 0,
        "location": {
            "lat": 22.417501,
            "lng": 109.557757
        },
        "ad_info": {
            "adcode": 450722,
            "province": "广西壮族自治区",
            "city": "钦州市",
            "district": "浦北县"
        }
    },
    {
        "id": "4982710973332731464",
        "title": "公共厕所",
        "address": "广西壮族自治区钦州市灵山县六峰路与环秀路交叉口正西方向117米左右",
        "tel": "",
        "category": "基础设施:公共设施:公共厕所",
        "type": 0,
        "location": {
            "lat": 22.416652,
            "lng": 109.288938
        },
        "ad_info": {
            "adcode": 450721,
            "province": "广西壮族自治区",
            "city": "钦州市",
            "district": "灵山县"
        }
    },
    {
        "id": "10519621382880025155",
        "title": "公共厕所",
        "address": "广西壮族自治区钦州市浦北县S207与东风路交叉口东南方向683米左右",
        "tel": "",
        "category": "基础设施:公共设施:公共厕所",
        "type": 0,
        "location": {
            "lat": 21.993964,
            "lng": 109.456875
        },
        "ad_info": {
            "adcode": 450722,
            "province": "广西壮族自治区",
            "city": "钦州市",
            "district": "浦北县"
        }
    },
    {
        "id": "2872287781481401244",
        "title": "公共厕所",
        "address": "广西壮族自治区钦州市浦北县G359与南丰路交叉口东北方向132米左右",
        "tel": "",
        "category": "基础设施:公共设施:公共厕所",
        "type": 0,
        "location": {
            "lat": 22.252799,
            "lng": 109.546933
        },
        "ad_info": {
            "adcode": 450722,
            "province": "广西壮族自治区",
            "city": "钦州市",
            "district": "浦北县"
        }
    },
    {
        "id": "15511917604828205526",
        "title": "吴屋园公共厕所",
        "address": "广西壮族自治区钦州市钦南区占鳌巷与新盛巷交叉口西北方向78米左右",
        "tel": "",
        "category": "基础设施:公共设施:公共厕所",
        "type": 0,
        "location": {
            "lat": 21.946273,
            "lng": 108.621669
        },
        "ad_info": {
            "adcode": 450702,
            "province": "广西壮族自治区",
            "city": "钦州市",
            "district": "钦南区"
        }
    },
    {
        "id": "17260045488451568695",
        "title": "公共厕所",
        "address": "广西壮族自治区钦州市灵山县209国道辅路与359国道交叉口西北60米",
        "tel": "",
        "category": "基础设施:公共设施:公共厕所",
        "type": 0,
        "location": {
            "lat": 22.406737,
            "lng": 109.267187
        },
        "ad_info": {
            "adcode": 450721,
            "province": "广西壮族自治区",
            "city": "钦州市",
            "district": "灵山县"
        }
    },
    {
        "id": "17060812726384534762",
        "title": "公共厕所",
        "address": "广西壮族自治区钦州市浦北县丰胜街与科园路交叉口正东方向430米左右",
        "tel": "",
        "category": "基础设施:公共设施:公共厕所",
        "type": 0,
        "location": {
            "lat": 22.238816,
            "lng": 109.541829
        },
        "ad_info": {
            "adcode": 450722,
            "province": "广西壮族自治区",
            "city": "钦州市",
            "district": "浦北县"
        }
    },
    {
        "id": "4942984976450104391",
        "title": "公共厕所",
        "address": "广西壮族自治区钦州市浦北县X315与XB60交叉口东北方向377米左右",
        "tel": "",
        "category": "基础设施:公共设施:公共厕所",
        "type": 0,
        "location": {
            "lat": 22.215914,
            "lng": 109.327958
        },
        "ad_info": {
            "adcode": 450722,
            "province": "广西壮族自治区",
            "city": "钦州市",
            "district": "浦北县"
        }
    },
    {
        "id": "17127737821768045101",
        "title": "公共厕所",
        "address": "广西壮族自治区钦州市浦北县S312与青龙街交叉口正东方向615米左右",
        "tel": "",
        "category": "基础设施:公共设施:公共厕所",
        "type": 0,
        "location": {
            "lat": 22.594605,
            "lng": 109.528268
        },
        "ad_info": {
            "adcode": 450722,
            "province": "广西壮族自治区",
            "city": "钦州市",
            "district": "浦北县"
        }
    },
    {
        "id": "14139625325782073011",
        "title": "公共厕所",
        "address": "广西壮族自治区钦州市浦北县G209与保安堂一路交叉口西北方向294米左右",
        "tel": "",
        "category": "基础设施:公共设施:公共厕所",
        "type": 0,
        "location": {
            "lat": 22.09722,
            "lng": 109.288021
        },
        "ad_info": {
            "adcode": 450722,
            "province": "广西壮族自治区",
            "city": "钦州市",
            "district": "浦北县"
        }
    },
    {
        "id": "1876859628373612928",
        "title": "公共厕所",
        "address": "广西壮族自治区钦州市灵山县中山路与和平路交叉口正南方向83米左右",
        "tel": "",
        "category": "基础设施:公共设施:公共厕所",
        "type": 0,
        "location": {
            "lat": 22.420814,
            "lng": 109.298317
        },
        "ad_info": {
            "adcode": 450721,
            "province": "广西壮族自治区",
            "city": "钦州市",
            "district": "灵山县"
        }
    },
    {
        "id": "12133737735024885236",
        "title": "公共厕所",
        "address": "广西壮族自治区钦州市灵山县沙路江滨二路灵山体育馆灵山腾飞球馆",
        "tel": "",
        "category": "基础设施:公共设施:公共厕所",
        "type": 0,
        "location": {
            "lat": 22.406565,
            "lng": 109.295901
        },
        "ad_info": {
            "adcode": 450721,
            "province": "广西壮族自治区",
            "city": "钦州市",
            "district": "灵山县"
        }
    },
    {
        "id": "13829727027031320814",
        "title": "公共厕所",
        "address": "广西壮族自治区钦州市浦北县新华街与民兴路交叉口正南方向15米左右",
        "tel": "",
        "category": "基础设施:公共设施:公共厕所",
        "type": 0,
        "location": {
            "lat": 22.267179,
            "lng": 109.55491
        },
        "ad_info": {
            "adcode": 450722,
            "province": "广西壮族自治区",
            "city": "钦州市",
            "district": "浦北县"
        }
    },
    {
        "id": "5169493969637387335",
        "title": "公共厕所",
        "address": "广西壮族自治区钦州市钦北区鸿发街34号",
        "tel": "",
        "category": "基础设施:公共设施:公共厕所",
        "type": 0,
        "location": {
            "lat": 21.981758,
            "lng": 108.631217
        },
        "ad_info": {
            "adcode": 450703,
            "province": "广西壮族自治区",
            "city": "钦州市",
            "district": "钦北区"
        }
    },
    {
        "id": "10543996284137894596",
        "title": "公共厕所",
        "address": "广西壮族自治区钦州市灵山县江南路与江滨二路交叉口西北方向27米左右",
        "tel": "",
        "category": "基础设施:公共设施:公共厕所",
        "type": 0,
        "location": {
            "lat": 22.414881,
            "lng": 109.29147
        },
        "ad_info": {
            "adcode": 450721,
            "province": "广西壮族自治区",
            "city": "钦州市",
            "district": "灵山县"
        }
    },
    {
        "id": "2435304089880118340",
        "title": "公共厕所",
        "address": "广西壮族自治区钦州市浦北县建华街与西滨路交叉口东北方向139米左右",
        "tel": "",
        "category": "基础设施:公共设施:公共厕所",
        "type": 0,
        "location": {
            "lat": 22.263374,
            "lng": 109.55693
        },
        "ad_info": {
            "adcode": 450722,
            "province": "广西壮族自治区",
            "city": "钦州市",
            "district": "浦北县"
        }
    },
    {
        "id": "14791606177414405932",
        "title": "公共厕所",
        "address": "广西壮族自治区钦州市灵山县S312与万宝路交叉口东南方向29米左右",
        "tel": "",
        "category": "基础设施:公共设施:公共厕所",
        "type": 0,
        "location": {
            "lat": 22.585017,
            "lng": 109.505748
        },
        "ad_info": {
            "adcode": 450721,
            "province": "广西壮族自治区",
            "city": "钦州市",
            "district": "灵山县"
        }
    },
    {
        "id": "4669394777759931187",
        "title": "公共厕所",
        "address": "广西壮族自治区钦州市灵山县G242与G359交叉口正北方向493米左右",
        "tel": "",
        "category": "基础设施:公共设施:公共厕所",
        "type": 0,
        "location": {
            "lat": 22.39735,
            "lng": 108.807382
        },
        "ad_info": {
            "adcode": 450721,
            "province": "广西壮族自治区",
            "city": "钦州市",
            "district": "灵山县"
        }
    },
    {
        "id": "17325890136144514978",
        "title": "公共厕所",
        "address": "广西壮族自治区钦州市灵山县卫生街与环山路交叉口正东方向84米左右",
        "tel": "",
        "category": "基础设施:公共设施:公共厕所",
        "type": 0,
        "location": {
            "lat": 22.518389,
            "lng": 108.96626
        },
        "ad_info": {
            "adcode": 450721,
            "province": "广西壮族自治区",
            "city": "钦州市",
            "district": "灵山县"
        }
    },
    {
        "id": "6633141532844220839",
        "title": "公共厕所",
        "address": "广西壮族自治区钦州市灵山县友谊路与友谊路南二巷交叉口正东方向73米左右",
        "tel": "",
        "category": "基础设施:公共设施:公共厕所",
        "type": 0,
        "location": {
            "lat": 22.425158,
            "lng": 109.292277
        },
        "ad_info": {
            "adcode": 450721,
            "province": "广西壮族自治区",
            "city": "钦州市",
            "district": "灵山县"
        }
    },
    {
        "id": "11099509828796360329",
        "title": "公共厕所",
        "address": "广西壮族自治区钦州市灵山县江南路中国石油海兴加油站",
        "tel": "",
        "category": "基础设施:公共设施:公共厕所",
        "type": 0,
        "location": {
            "lat": 22.397211,
            "lng": 109.276553
        },
        "ad_info": {
            "adcode": 450721,
            "province": "广西壮族自治区",
            "city": "钦州市",
            "district": "灵山县"
        }
    },
    {
        "id": "1276949176604535484",
        "title": "公共厕所",
        "address": "广西壮族自治区钦州市浦北县泰安石油加油站北侧100米",
        "tel": "",
        "category": "基础设施:公共设施:公共厕所",
        "type": 0,
        "location": {
            "lat": 22.297978,
            "lng": 109.554101
        },
        "ad_info": {
            "adcode": 450722,
            "province": "广西壮族自治区",
            "city": "钦州市",
            "district": "浦北县"
        }
    },
    {
        "id": "12722868201426856347",
        "title": "公共厕所",
        "address": "广西壮族自治区钦州市灵山县S312与福宁路交叉口正西方向348米左右",
        "tel": "",
        "category": "基础设施:公共设施:公共厕所",
        "type": 0,
        "location": {
            "lat": 22.439634,
            "lng": 109.376249
        },
        "ad_info": {
            "adcode": 450721,
            "province": "广西壮族自治区",
            "city": "钦州市",
            "district": "灵山县"
        }
    },
    {
        "id": "10966747089760895971",
        "title": "钦州西服务区公共厕所",
        "address": "广西壮族自治区钦州市钦南区兰海高速公路钦州西服务区",
        "tel": "",
        "category": "基础设施:公共设施:公共厕所",
        "type": 0,
        "location": {
            "lat": 21.981515,
            "lng": 108.501196
        },
        "ad_info": {
            "adcode": 450702,
            "province": "广西壮族自治区",
            "city": "钦州市",
            "district": "钦南区"
        }
    },
    {
        "id": "11305767369503605008",
        "title": "公共厕所",
        "address": "广西壮族自治区钦州市浦北县东滨路广西壮族自治区示范性普通高中浦北中学",
        "tel": "",
        "category": "基础设施:公共设施:公共厕所",
        "type": 0,
        "location": {
            "lat": 22.257344,
            "lng": 109.560609
        },
        "ad_info": {
            "adcode": 450722,
            "province": "广西壮族自治区",
            "city": "钦州市",
            "district": "浦北县"
        }
    },
    {
        "id": "2022792725241784142",
        "title": "钦州西服务区公共厕所",
        "address": "广西壮族自治区钦州市钦南区兰海高速公路钦州西服务区",
        "tel": "",
        "category": "基础设施:公共设施:公共厕所",
        "type": 0,
        "location": {
            "lat": 21.980822,
            "lng": 108.499002
        },
        "ad_info": {
            "adcode": 450702,
            "province": "广西壮族自治区",
            "city": "钦州市",
            "district": "钦南区"
        }
    },
    {
        "id": "2164784225705223190",
        "title": "那丽服务区公共厕所",
        "address": "广西壮族自治区钦州市钦南区那丽镇兰海高速公路石滩服务区东南",
        "tel": "",
        "category": "基础设施:公共设施:公共厕所",
        "type": 0,
        "location": {
            "lat": 21.811174,
            "lng": 108.93747
        },
        "ad_info": {
            "adcode": 450702,
            "province": "广西壮族自治区",
            "city": "钦州市",
            "district": "钦南区"
        }
    },
    {
        "id": "12313833991576104099",
        "title": "坭兴厂公共厕所",
        "address": "广西壮族自治区钦州市钦南区南珠东大街与南珠大街交叉口正西方向227米左右",
        "tel": "",
        "category": "基础设施:公共设施:公共厕所",
        "type": 0,
        "location": {
            "lat": 21.952544,
            "lng": 108.626965
        },
        "ad_info": {
            "adcode": 450702,
            "province": "广西壮族自治区",
            "city": "钦州市",
            "district": "钦南区"
        }
    },
    {
        "id": "13251517245724120361",
        "title": "公共厕所",
        "address": "广西壮族自治区钦州市灵山县S312与Y007交叉口西南方向133米左右",
        "tel": "",
        "category": "基础设施:公共设施:公共厕所",
        "type": 0,
        "location": {
            "lat": 22.430818,
            "lng": 109.339395
        },
        "ad_info": {
            "adcode": 450721,
            "province": "广西壮族自治区",
            "city": "钦州市",
            "district": "灵山县"
        }
    },
    {
        "id": "5254156996676105611",
        "title": "那丽服务区公共厕所",
        "address": "广西壮族自治区钦州市钦南区G75兰海高速附近",
        "tel": "",
        "category": "基础设施:公共设施:公共厕所",
        "type": 0,
        "location": {
            "lat": 21.813192,
            "lng": 108.936813
        },
        "ad_info": {
            "adcode": 450702,
            "province": "广西壮族自治区",
            "city": "钦州市",
            "district": "钦南区"
        }
    },
    {
        "id": "12270988794676068371",
        "title": "旧车站公共厕所",
        "address": "广西壮族自治区钦州市钦南区南珠西大街紫荆花城市连锁酒店",
        "tel": "",
        "category": "基础设施:公共设施:公共厕所",
        "type": 0,
        "location": {
            "lat": 21.962918,
            "lng": 108.621795
        },
        "ad_info": {
            "adcode": 450702,
            "province": "广西壮族自治区",
            "city": "钦州市",
            "district": "钦南区"
        }
    },
    {
        "id": "18097164025366355178",
        "title": "永兴市场公共厕所",
        "address": "广西壮族自治区钦州市钦北区思源横二巷与白水塘路交叉口正西方向84米左右",
        "tel": "",
        "category": "基础设施:公共设施:公共厕所",
        "type": 0,
        "location": {
            "lat": 21.98076,
            "lng": 108.62296
        },
        "ad_info": {
            "adcode": 450703,
            "province": "广西壮族自治区",
            "city": "钦州市",
            "district": "钦北区"
        }
    },
    {
        "id": "10010277691696791674",
        "title": "新棠服务区-公共厕所",
        "address": "广西壮族自治区钦州市钦北区岑筋高速附近",
        "tel": "",
        "category": "基础设施:公共设施:公共厕所",
        "type": 0,
        "location": {
            "lat": 22.350913,
            "lng": 108.573649
        },
        "ad_info": {
            "adcode": 450703,
            "province": "广西壮族自治区",
            "city": "钦州市",
            "district": "钦北区"
        }
    },
    {
        "id": "9563888059608718814",
        "title": "六峰山公共厕所",
        "address": "广西壮族自治区钦州市灵山县六峰路与广场路交叉口正西方向110米左右",
        "tel": "",
        "category": "基础设施:公共设施:公共厕所",
        "type": 0,
        "location": {
            "lat": 22.418596,
            "lng": 109.2908
        },
        "ad_info": {
            "adcode": 450721,
            "province": "广西壮族自治区",
            "city": "钦州市",
            "district": "灵山县"
        }
    },
    {
        "id": "9885851296147150100",
        "title": "公共厕所",
        "address": "广西壮族自治区钦州市浦北县建华街与西滨路交叉口东北方向158米左右",
        "tel": "",
        "category": "基础设施:公共设施:公共厕所",
        "type": 0,
        "location": {
            "lat": 22.262811,
            "lng": 109.557765
        },
        "ad_info": {
            "adcode": 450722,
            "province": "广西壮族自治区",
            "city": "钦州市",
            "district": "浦北县"
        }
    },
    {
        "id": "2698721190691255970",
        "title": "公共厕所",
        "address": "广西壮族自治区钦州市钦北区子材东大街与子材西大街交叉口西北方向248米左右",
        "tel": "",
        "category": "基础设施:公共设施:公共厕所",
        "type": 0,
        "location": {
            "lat": 21.967021,
            "lng": 108.638964
        },
        "ad_info": {
            "adcode": 450703,
            "province": "广西壮族自治区",
            "city": "钦州市",
            "district": "钦北区"
        }
    },
    {
        "id": "2571035112588993315",
        "title": "金窝服务区公共厕所",
        "address": "广西壮族自治区钦州市钦南区云顶大街与锦绣大道交叉口正东方向425米左右",
        "tel": "",
        "category": "基础设施:公共设施:公共厕所",
        "type": 0,
        "location": {
            "lat": 21.78416,
            "lng": 108.691666
        },
        "ad_info": {
            "adcode": 450702,
            "province": "广西壮族自治区",
            "city": "钦州市",
            "district": "钦南区"
        }
    },
    {
        "id": "7814645018582282019",
        "title": "吊苗停车区公共厕所",
        "address": "广西壮族自治区钦州市钦北区S60合那高速附近",
        "tel": "",
        "category": "基础设施:公共设施:公共厕所",
        "type": 0,
        "location": {
            "lat": 22.050045,
            "lng": 108.384425
        },
        "ad_info": {
            "adcode": 450703,
            "province": "广西壮族自治区",
            "city": "钦州市",
            "district": "钦北区"
        }
    },
    {
        "id": "4178256797146794104",
        "title": "六峰山公共厕所",
        "address": "广西壮族自治区钦州市灵山县六峰路与环秀路交叉口正北方向124米左右",
        "tel": "",
        "category": "基础设施:公共设施:公共厕所",
        "type": 0,
        "location": {
            "lat": 22.418123,
            "lng": 109.290267
        },
        "ad_info": {
            "adcode": 450721,
            "province": "广西壮族自治区",
            "city": "钦州市",
            "district": "灵山县"
        }
    },
    {
        "id": "15748557172839003083",
        "title": "灵山人民广场公共厕所",
        "address": "广西壮族自治区钦州市灵山县丰江路与广场路交叉口西北方向59米左右",
        "tel": "",
        "category": "基础设施:公共设施:公共厕所",
        "type": 0,
        "location": {
            "lat": 22.417137,
            "lng": 109.292419
        },
        "ad_info": {
            "adcode": 450721,
            "province": "广西壮族自治区",
            "city": "钦州市",
            "district": "灵山县"
        }
    },
    {
        "id": "2186989929891108563",
        "title": "高厘停车区公共厕所",
        "address": "广西壮族自治区钦州市钦南区高厘停车区东50米",
        "tel": "",
        "category": "基础设施:公共设施:公共厕所",
        "type": 0,
        "location": {
            "lat": 22.03924,
            "lng": 108.769344
        },
        "ad_info": {
            "adcode": 450702,
            "province": "广西壮族自治区",
            "city": "钦州市",
            "district": "钦南区"
        }
    },
    {
        "id": "5692219605642480017",
        "title": "公共厕所",
        "address": "广西壮族自治区钦州市灵山县丰江路与小南门街交叉口西南方向51米左右",
        "tel": "",
        "category": "基础设施:公共设施:公共厕所",
        "type": 0,
        "location": {
            "lat": 22.419213,
            "lng": 109.30058
        },
        "ad_info": {
            "adcode": 450721,
            "province": "广西壮族自治区",
            "city": "钦州市",
            "district": "灵山县"
        }
    },
    {
        "id": "11400642289272669080",
        "title": "公共厕所",
        "address": "广西壮族自治区钦州市灵山县新光路与江南路交叉口西南方向65米左右",
        "tel": "",
        "category": "基础设施:公共设施:公共厕所",
        "type": 0,
        "location": {
            "lat": 22.407733,
            "lng": 109.286528
        },
        "ad_info": {
            "adcode": 450721,
            "province": "广西壮族自治区",
            "city": "钦州市",
            "district": "灵山县"
        }
    },
    {
        "id": "10089536868240454522",
        "title": "高厘停车区公共厕所",
        "address": "广西壮族自治区钦州市钦南区高厘停车区西50米",
        "tel": "",
        "category": "基础设施:公共设施:公共厕所",
        "type": 0,
        "location": {
            "lat": 22.041399,
            "lng": 108.768968
        },
        "ad_info": {
            "adcode": 450702,
            "province": "广西壮族自治区",
            "city": "钦州市",
            "district": "钦南区"
        }
    },
    {
        "id": "6920897209738669270",
        "title": "新棠服务区公共厕所",
        "address": "广西壮族自治区钦州市钦北区新棠服务区北侧",
        "tel": "",
        "category": "基础设施:公共设施:公共厕所",
        "type": 0,
        "location": {
            "lat": 22.353207,
            "lng": 108.573655
        },
        "ad_info": {
            "adcode": 450703,
            "province": "广西壮族自治区",
            "city": "钦州市",
            "district": "钦北区"
        }
    },
    {
        "id": "5786767172448222977",
        "title": "灵山服务区公共厕所",
        "address": "广西壮族自治区钦州市灵山县与S50清凭高速交叉口西460米",
        "tel": "",
        "category": "基础设施:公共设施:公共厕所",
        "type": 0,
        "location": {
            "lat": 22.351834,
            "lng": 109.246548
        },
        "ad_info": {
            "adcode": 450721,
            "province": "广西壮族自治区",
            "city": "钦州市",
            "district": "灵山县"
        }
    },
    {
        "id": "9157845441795985550",
        "title": "公共厕所",
        "address": "广西壮族自治区钦州市灵山县江南路与江滨三路交叉口正西方向136米左右",
        "tel": "",
        "category": "基础设施:公共设施:公共厕所",
        "type": 0,
        "location": {
            "lat": 22.414008,
            "lng": 109.288301
        },
        "ad_info": {
            "adcode": 450721,
            "province": "广西壮族自治区",
            "city": "钦州市",
            "district": "灵山县"
        }
    },
    {
        "id": "14567060605284478612",
        "title": "福旺停车区公共厕所",
        "address": "广西壮族自治区钦州市浦北县三北高速",
        "tel": "",
        "category": "基础设施:公共设施:公共厕所",
        "type": 0,
        "location": {
            "lat": 22.422591,
            "lng": 109.57196
        },
        "ad_info": {
            "adcode": 450722,
            "province": "广西壮族自治区",
            "city": "钦州市",
            "district": "浦北县"
        }
    },
    {
        "id": "14341052341694830118",
        "title": "福旺停车区公共厕所",
        "address": "广西壮族自治区钦州市浦北县S207与镇新路交叉口东南方向1301米左右",
        "tel": "",
        "category": "基础设施:公共设施:公共厕所",
        "type": 0,
        "location": {
            "lat": 22.421664,
            "lng": 109.574149
        },
        "ad_info": {
            "adcode": 450722,
            "province": "广西壮族自治区",
            "city": "钦州市",
            "district": "浦北县"
        }
    },
    {
        "id": "16470143353962691872",
        "title": "浦北服务区公共厕所",
        "address": "广西壮族自治区钦州市浦北县中国石油北投能源浦北服务区加油站南侧120米",
        "tel": "",
        "category": "基础设施:公共设施:公共厕所",
        "type": 0,
        "location": {
            "lat": 22.319682,
            "lng": 109.553918
        },
        "ad_info": {
            "adcode": 450722,
            "province": "广西壮族自治区",
            "city": "钦州市",
            "district": "浦北县"
        }
    },
    {
        "id": "7273241458804424203",
        "title": "陆屋北服务区公共厕所",
        "address": "广西壮族自治区钦州市灵山县S50清凭高速与陆屋北服务区交叉口西460米",
        "tel": "",
        "category": "基础设施:公共设施:公共厕所",
        "type": 0,
        "location": {
            "lat": 22.339506,
            "lng": 108.962867
        },
        "ad_info": {
            "adcode": 450721,
            "province": "广西壮族自治区",
            "city": "钦州市",
            "district": "灵山县"
        }
    },
    {
        "id": "14228250588479642034",
        "title": "寨圩服务区公共厕所",
        "address": "广西壮族自治区钦州市浦北县中国石油北投能源寨圩服务区加油站北侧100米",
        "tel": "",
        "category": "基础设施:公共设施:公共厕所",
        "type": 0,
        "location": {
            "lat": 22.609991,
            "lng": 109.644959
        },
        "ad_info": {
            "adcode": 450722,
            "province": "广西壮族自治区",
            "city": "钦州市",
            "district": "浦北县"
        }
    },
    {
        "id": "5744368252466697158",
        "title": "张黄服务区公共厕所",
        "address": "广西壮族自治区钦州市浦北县中国石油北投能源张黄服务区加油站西南侧160米",
        "tel": "",
        "category": "基础设施:公共设施:公共厕所",
        "type": 0,
        "location": {
            "lat": 21.991359,
            "lng": 109.407693
        },
        "ad_info": {
            "adcode": 450722,
            "province": "广西壮族自治区",
            "city": "钦州市",
            "district": "浦北县"
        }
    },
    {
        "id": "4972619361801029175",
        "title": "陆屋北服务区公共厕所",
        "address": "广西壮族自治区钦州市灵山县S50清凭高速与陆屋北服务区交叉口西400米",
        "tel": "",
        "category": "基础设施:公共设施:公共厕所",
        "type": 0,
        "location": {
            "lat": 22.3371,
            "lng": 108.963564
        },
        "ad_info": {
            "adcode": 450721,
            "province": "广西壮族自治区",
            "city": "钦州市",
            "district": "灵山县"
        }
    },
    {
        "id": "6041335807414184257",
        "title": "陆屋服务区公共厕所",
        "address": "广西壮族自治区钦州市灵山县六钦高速与宾钦高速交叉口正南方向1332米左右",
        "tel": "",
        "category": "基础设施:公共设施:公共厕所",
        "type": 0,
        "location": {
            "lat": 22.312491,
            "lng": 108.919159
        },
        "ad_info": {
            "adcode": 450721,
            "province": "广西壮族自治区",
            "city": "钦州市",
            "district": "灵山县"
        }
    },
    {
        "id": "14379637944198817426",
        "title": "陆屋服务区公共厕所",
        "address": "广西壮族自治区钦州市灵山县六钦高速与宾钦高速交叉口正南方向1584米左右",
        "tel": "",
        "category": "基础设施:公共设施:公共厕所",
        "type": 0,
        "location": {
            "lat": 22.310329,
            "lng": 108.920551
        },
        "ad_info": {
            "adcode": 450721,
            "province": "广西壮族自治区",
            "city": "钦州市",
            "district": "灵山县"
        }
    },
    {
        "id": "7864749500352221267",
        "title": "公共厕所",
        "address": "广西壮族自治区钦州市钦南区子材东大街与富民路交叉口西南方向134米左右",
        "tel": "",
        "category": "基础设施:公共设施:公共厕所",
        "type": 0,
        "location": {
            "lat": 21.961325,
            "lng": 108.652032
        },
        "ad_info": {
            "adcode": 450702,
            "province": "广西壮族自治区",
            "city": "钦州市",
            "district": "钦南区"
        }
    },
    {
        "id": "8416635684229611607",
        "title": "灵山服务区公共厕所",
        "address": "广西壮族自治区钦州市灵山县与S50清凭高速交叉口东440米",
        "tel": "",
        "category": "基础设施:公共设施:公共厕所",
        "type": 0,
        "location": {
            "lat": 22.354097,
            "lng": 109.246331
        },
        "ad_info": {
            "adcode": 450721,
            "province": "广西壮族自治区",
            "city": "钦州市",
            "district": "灵山县"
        }
    },
    {
        "id": "17122170514078836224",
        "title": "公共厕所",
        "address": "广西壮族自治区钦州市钦北区G325与新城八路交叉口东北方向63米左右",
        "tel": "",
        "category": "基础设施:公共设施:公共厕所",
        "type": 0,
        "location": {
            "lat": 22.024885,
            "lng": 108.637092
        },
        "ad_info": {
            "adcode": 450703,
            "province": "广西壮族自治区",
            "city": "钦州市",
            "district": "钦北区"
        }
    },
    {
        "id": "2797713168106828732",
        "title": "公共厕所",
        "address": "广西壮族自治区钦州市灵山县华源路与江滨三路交叉口正东方向125米左右",
        "tel": "",
        "category": "基础设施:公共设施:公共厕所",
        "type": 0,
        "location": {
            "lat": 22.402839,
            "lng": 109.276589
        },
        "ad_info": {
            "adcode": 450721,
            "province": "广西壮族自治区",
            "city": "钦州市",
            "district": "灵山县"
        }
    },
    {
        "id": "10235973323067945942",
        "title": "公共厕所",
        "address": "广西壮族自治区钦州市钦北区娥眉湾",
        "tel": "",
        "category": "基础设施:公共设施:公共厕所",
        "type": 0,
        "location": {
            "lat": 22.220458,
            "lng": 108.423581
        },
        "ad_info": {
            "adcode": 450703,
            "province": "广西壮族自治区",
            "city": "钦州市",
            "district": "钦北区"
        }
    },
    {
        "id": "1087522521783813210",
        "title": "公共厕所",
        "address": "广西壮族自治区钦州市钦南区商城大道北部湾国际建材商贸城",
        "tel": "",
        "category": "基础设施:公共设施:公共厕所",
        "type": 0,
        "location": {
            "lat": 21.939002,
            "lng": 108.637451
        },
        "ad_info": {
            "adcode": 450702,
            "province": "广西壮族自治区",
            "city": "钦州市",
            "district": "钦南区"
        }
    },
    {
        "id": "16006626788318433021",
        "title": "浦北江城服务区公共厕所",
        "address": "广西壮族自治区钦州市浦北县江城服务区南侧",
        "tel": "",
        "category": "基础设施:公共设施:公共厕所",
        "type": 0,
        "location": {
            "lat": 22.218751,
            "lng": 109.531117
        },
        "ad_info": {
            "adcode": 450722,
            "province": "广西壮族自治区",
            "city": "钦州市",
            "district": "浦北县"
        }
    },
    {
        "id": "2813156001443258258",
        "title": "公共厕所",
        "address": "广西壮族自治区钦州市钦北区北部湾北大道与西环北路交叉口正西方向283米左右",
        "tel": "",
        "category": "基础设施:公共设施:公共厕所",
        "type": 0,
        "location": {
            "lat": 21.97684,
            "lng": 108.608276
        },
        "ad_info": {
            "adcode": 450703,
            "province": "广西壮族自治区",
            "city": "钦州市",
            "district": "钦北区"
        }
    },
    {
        "id": "13843300767787821317",
        "title": "公共厕所",
        "address": "广西壮族自治区钦州市钦南区彭屋北路与新兴街交叉口东南方向44米左右",
        "tel": "",
        "category": "基础设施:公共设施:公共厕所",
        "type": 0,
        "location": {
            "lat": 21.956267,
            "lng": 108.601869
        },
        "ad_info": {
            "adcode": 450702,
            "province": "广西壮族自治区",
            "city": "钦州市",
            "district": "钦南区"
        }
    },
    {
        "id": "8817752771174877380",
        "title": "公共厕所",
        "address": "广西壮族自治区钦州市灵山县江南路与燕山路交叉口正西方向121米左右",
        "tel": "",
        "category": "基础设施:公共设施:公共厕所",
        "type": 0,
        "location": {
            "lat": 22.416537,
            "lng": 109.2957
        },
        "ad_info": {
            "adcode": 450721,
            "province": "广西壮族自治区",
            "city": "钦州市",
            "district": "灵山县"
        }
    },
    {
        "id": "5764640556350224873",
        "title": "公共厕所",
        "address": "广西壮族自治区钦州市钦南区滨江南路19号",
        "tel": "",
        "category": "基础设施:公共设施:公共厕所",
        "type": 0,
        "location": {
            "lat": 21.948796,
            "lng": 108.623375
        },
        "ad_info": {
            "adcode": 450702,
            "province": "广西壮族自治区",
            "city": "钦州市",
            "district": "钦南区"
        }
    },
    {
        "id": "17852183705227202970",
        "title": "公共厕所",
        "address": "广西壮族自治区钦州市灵山县华源路与江滨三路交叉口正东方向90米左右",
        "tel": "",
        "category": "基础设施:公共设施:公共厕所",
        "type": 0,
        "location": {
            "lat": 22.402941,
            "lng": 109.276259
        },
        "ad_info": {
            "adcode": 450721,
            "province": "广西壮族自治区",
            "city": "钦州市",
            "district": "灵山县"
        }
    },
    {
        "id": "8273525213484577771",
        "title": "公共厕所",
        "address": "广西壮族自治区钦州市钦南区兴桂北路水东农贸市场",
        "tel": "",
        "category": "基础设施:公共设施:公共厕所",
        "type": 0,
        "location": {
            "lat": 21.951753,
            "lng": 108.654051
        },
        "ad_info": {
            "adcode": 450702,
            "province": "广西壮族自治区",
            "city": "钦州市",
            "district": "钦南区"
        }
    },
    {
        "id": "12050156754084854560",
        "title": "浦北服务区公共厕所",
        "address": "广西壮族自治区钦州市浦北县G7212柳北高速与浦北服务区交叉口西南200米",
        "tel": "",
        "category": "基础设施:公共设施:公共厕所",
        "type": 0,
        "location": {
            "lat": 22.32234,
            "lng": 109.552385
        },
        "ad_info": {
            "adcode": 450722,
            "province": "广西壮族自治区",
            "city": "钦州市",
            "district": "浦北县"
        }
    },
    {
        "id": "17381899285444907661",
        "title": "北部湾大学东区操场-公共厕所",
        "address": "广西壮族自治区钦州市钦南区安州大道与敏昌大街辅路交叉口正西方向926米左右",
        "tel": "",
        "category": "基础设施:公共设施:公共厕所",
        "type": 0,
        "location": {
            "lat": 21.901526,
            "lng": 108.616369
        },
        "ad_info": {
            "adcode": 450702,
            "province": "广西壮族自治区",
            "city": "钦州市",
            "district": "钦南区"
        }
    },
    {
        "id": "3078823049458633527",
        "title": "吊苗停车区公共厕所",
        "address": "广西壮族自治区钦州市钦北区S60合那高速附近",
        "tel": "",
        "category": "基础设施:公共设施:公共厕所",
        "type": 0,
        "location": {
            "lat": 22.049366,
            "lng": 108.383091
        },
        "ad_info": {
            "adcode": 450703,
            "province": "广西壮族自治区",
            "city": "钦州市",
            "district": "钦北区"
        }
    },
    {
        "id": "12806855521763596682",
        "title": "公共厕所(GX-QZ-0259)",
        "address": "广西壮族自治区钦州市灵山县大庙岭",
        "tel": "",
        "category": "基础设施:公共设施:公共厕所",
        "type": 0,
        "location": {
            "lat": 22.391254,
            "lng": 109.379217
        },
        "ad_info": {
            "adcode": 450721,
            "province": "广西壮族自治区",
            "city": "钦州市",
            "district": "灵山县"
        }
    },
    {
        "id": "7687903781157734208",
        "title": "公共厕所",
        "address": "广西壮族自治区钦州市钦南区犀丽湾惠惠小吃店西北侧90米",
        "tel": "",
        "category": "基础设施:公共设施:公共厕所",
        "type": 0,
        "location": {
            "lat": 21.646122,
            "lng": 108.727761
        },
        "ad_info": {
            "adcode": 450702,
            "province": "广西壮族自治区",
            "city": "钦州市",
            "district": "钦南区"
        }
    },
    {
        "id": "3407712202065453359",
        "title": "公共厕所",
        "address": "广西壮族自治区钦州市浦北县丰胜街与科园路交叉口正南方向571米左右",
        "tel": "",
        "category": "基础设施:公共设施:公共厕所",
        "type": 0,
        "location": {
            "lat": 22.233766,
            "lng": 109.538757
        },
        "ad_info": {
            "adcode": 450722,
            "province": "广西壮族自治区",
            "city": "钦州市",
            "district": "浦北县"
        }
    },
    {
        "id": "17840358446034427832",
        "title": "公共厕所",
        "address": "广西壮族自治区钦州市浦北县G324与中兴街交叉口正南方向45米左右",
        "tel": "",
        "category": "基础设施:公共设施:公共厕所",
        "type": 0,
        "location": {
            "lat": 22.569145,
            "lng": 109.630153
        },
        "ad_info": {
            "adcode": 450722,
            "province": "广西壮族自治区",
            "city": "钦州市",
            "district": "浦北县"
        }
    },
    {
        "id": "14621091613990212936",
        "title": "泡沫式节水生态环保公共厕所",
        "address": "广西壮族自治区钦州市钦南区城西一街与广沿路交叉口正南方向17米左右",
        "tel": "",
        "category": "基础设施:公共设施:公共厕所",
        "type": 0,
        "location": {
            "lat": 21.963269,
            "lng": 108.619113
        },
        "ad_info": {
            "adcode": 450702,
            "province": "广西壮族自治区",
            "city": "钦州市",
            "district": "钦南区"
        }
    },
    {
        "id": "18396182198750014335",
        "title": "女洗手间",
        "address": "广西壮族自治区钦州市钦北区子材街道永福西大街94号永兴市场公共厕所",
        "tel": "",
        "category": "基础设施:公共设施:公共厕所",
        "type": 0,
        "location": {
            "lat": 21.980998,
            "lng": 108.62311
        },
        "ad_info": {
            "adcode": 450703,
            "province": "广西壮族自治区",
            "city": "钦州市",
            "district": "钦北区"
        }
    },
    {
        "id": "17645574214934321949",
        "title": "公共厕所",
        "address": "广西壮族自治区钦州市浦北县滨河路与越州大道交叉口正北方向160米左右",
        "tel": "",
        "category": "基础设施:公共设施:公共厕所",
        "type": 0,
        "location": {
            "lat": 22.258759,
            "lng": 109.557541
        },
        "ad_info": {
            "adcode": 450722,
            "province": "广西壮族自治区",
            "city": "钦州市",
            "district": "浦北县"
        }
    },
    {
        "id": "11331845795070919346",
        "title": "公共厕所",
        "address": "广西壮族自治区钦州市浦北县阳山头北路与阳山头西路交叉口西北方向42米左右",
        "tel": "",
        "category": "基础设施:公共设施:公共厕所",
        "type": 0,
        "location": {
            "lat": 22.250741,
            "lng": 109.459519
        },
        "ad_info": {
            "adcode": 450722,
            "province": "广西壮族自治区",
            "city": "钦州市",
            "district": "浦北县"
        }
    },
    {
        "id": "587661108353483032",
        "title": "新棠服务区公共厕所",
        "address": "广西壮族自治区钦州市钦北区新棠服务区南30米",
        "tel": "",
        "category": "基础设施:公共设施:公共厕所",
        "type": 0,
        "location": {
            "lat": 22.350688,
            "lng": 108.573488
        },
        "ad_info": {
            "adcode": 450703,
            "province": "广西壮族自治区",
            "city": "钦州市",
            "district": "钦北区"
        }
    },
    {
        "id": "16077362723143880821",
        "title": "公共厕所",
        "address": "广西壮族自治区钦州市灵山县东风路与和平路交叉口正东方向160米左右",
        "tel": "",
        "category": "基础设施:公共设施:公共厕所",
        "type": 0,
        "location": {
            "lat": 22.42266,
            "lng": 109.303033
        },
        "ad_info": {
            "adcode": 450721,
            "province": "广西壮族自治区",
            "city": "钦州市",
            "district": "灵山县"
        }
    },
    {
        "id": "224890146154241330",
        "title": "公共厕所",
        "address": "广西壮族自治区钦州市钦南区一马路38号",
        "tel": "",
        "category": "基础设施:公共设施:公共厕所",
        "type": 0,
        "location": {
            "lat": 21.953736,
            "lng": 108.618801
        },
        "ad_info": {
            "adcode": 450702,
            "province": "广西壮族自治区",
            "city": "钦州市",
            "district": "钦南区"
        }
    },
    {
        "id": "4528373195115721767",
        "title": "公共厕所",
        "address": "广西壮族自治区钦州市灵山县梓崇路与江南路交叉口东北方向90米左右",
        "tel": "",
        "category": "基础设施:公共设施:公共厕所",
        "type": 0,
        "location": {
            "lat": 22.421003,
            "lng": 109.307794
        },
        "ad_info": {
            "adcode": 450721,
            "province": "广西壮族自治区",
            "city": "钦州市",
            "district": "灵山县"
        }
    },
    {
        "id": "12448794991370470255",
        "title": "河堤公园-公共厕所",
        "address": "广西壮族自治区钦州市钦南区中山路95号",
        "tel": "",
        "category": "基础设施:公共设施:公共厕所",
        "type": 0,
        "location": {
            "lat": 21.949986,
            "lng": 108.623741
        },
        "ad_info": {
            "adcode": 450702,
            "province": "广西壮族自治区",
            "city": "钦州市",
            "district": "钦南区"
        }
    },
    {
        "id": "16379723360478256182",
        "title": "公共厕所",
        "address": "广西壮族自治区钦州市浦北县S207与S326交叉口东北方向168米左右",
        "tel": "",
        "category": "基础设施:公共设施:公共厕所",
        "type": 0,
        "location": {
            "lat": 22.188329,
            "lng": 109.475461
        },
        "ad_info": {
            "adcode": 450722,
            "province": "广西壮族自治区",
            "city": "钦州市",
            "district": "浦北县"
        }
    },
    {
        "id": "10393828667184600841",
        "title": "公共厕所",
        "address": "广西壮族自治区钦州市灵山县望阳街与香山路交叉口正北方向786米左右",
        "tel": "",
        "category": "基础设施:公共设施:公共厕所",
        "type": 0,
        "location": {
            "lat": 22.439009,
            "lng": 109.302839
        },
        "ad_info": {
            "adcode": 450721,
            "province": "广西壮族自治区",
            "city": "钦州市",
            "district": "灵山县"
        }
    },
    {
        "id": "6981024475034815752",
        "title": "公共厕所",
        "address": "广西壮族自治区钦州市灵山县番桃园农庄东侧60米",
        "tel": "",
        "category": "基础设施:公共设施:公共厕所",
        "type": 0,
        "location": {
            "lat": 22.270602,
            "lng": 109.006508
        },
        "ad_info": {
            "adcode": 450721,
            "province": "广西壮族自治区",
            "city": "钦州市",
            "district": "灵山县"
        }
    },
    {
        "id": "8324707790913821976",
        "title": "公共厕所",
        "address": "广西壮族自治区钦州市浦北县G209与S313交叉口正南方向399米左右",
        "tel": "",
        "category": "基础设施:公共设施:公共厕所",
        "type": 0,
        "location": {
            "lat": 21.981328,
            "lng": 109.457748
        },
        "ad_info": {
            "adcode": 450722,
            "province": "广西壮族自治区",
            "city": "钦州市",
            "district": "浦北县"
        }
    },
    {
        "id": "2307560380440214719",
        "title": "公共厕所",
        "address": "广西壮族自治区钦州市浦北县S207与S313交叉口正西方向380米左右",
        "tel": "",
        "category": "基础设施:公共设施:公共厕所",
        "type": 0,
        "location": {
            "lat": 22.00436,
            "lng": 109.443902
        },
        "ad_info": {
            "adcode": 450722,
            "province": "广西壮族自治区",
            "city": "钦州市",
            "district": "浦北县"
        }
    },
    {
        "id": "7699600260003037312",
        "title": "公共厕所",
        "address": "广西壮族自治区钦州市浦北县G324与柳北高速交叉口正西方向277米左右",
        "tel": "",
        "category": "基础设施:公共设施:公共厕所",
        "type": 0,
        "location": {
            "lat": 22.572652,
            "lng": 109.643763
        },
        "ad_info": {
            "adcode": 450722,
            "province": "广西壮族自治区",
            "city": "钦州市",
            "district": "浦北县"
        }
    },
    {
        "id": "10548891901839974846",
        "title": "寨圩服务区公共厕所",
        "address": "广西壮族自治区钦州市浦北县中国石油北投能源寨圩服务区加油站东南侧100米",
        "tel": "",
        "category": "基础设施:公共设施:公共厕所",
        "type": 0,
        "location": {
            "lat": 22.609192,
            "lng": 109.647181
        },
        "ad_info": {
            "adcode": 450722,
            "province": "广西壮族自治区",
            "city": "钦州市",
            "district": "浦北县"
        }
    },
    {
        "id": "5214479808789093447",
        "title": "公共厕所",
        "address": "广西壮族自治区钦州市钦南区三娘湾",
        "tel": "",
        "category": "基础设施:公共设施:公共厕所",
        "type": 0,
        "location": {
            "lat": 21.619409,
            "lng": 108.768508
        },
        "ad_info": {
            "adcode": 450702,
            "province": "广西壮族自治区",
            "city": "钦州市",
            "district": "钦南区"
        }
    },
    {
        "id": "13200637922074506330",
        "title": "公共厕所",
        "address": "广西壮族自治区钦州市钦北区永福西大街与西环北路辅路交叉口西南方向112米左右",
        "tel": "",
        "category": "基础设施:公共设施:公共厕所",
        "type": 0,
        "location": {
            "lat": 21.982403,
            "lng": 108.619537
        },
        "ad_info": {
            "adcode": 450703,
            "province": "广西壮族自治区",
            "city": "钦州市",
            "district": "钦北区"
        }
    },
    {
        "id": "16749498369042861938",
        "title": "公共厕所",
        "address": "广西壮族自治区钦州市钦北区大煌糖业公司东侧60米",
        "tel": "",
        "category": "基础设施:公共设施:公共厕所",
        "type": 0,
        "location": {
            "lat": 22.115711,
            "lng": 108.445556
        },
        "ad_info": {
            "adcode": 450703,
            "province": "广西壮族自治区",
            "city": "钦州市",
            "district": "钦北区"
        }
    },
    {
        "id": "8276209225453566423",
        "title": "公共厕所",
        "address": "广西壮族自治区钦州市钦南区四马路与文昌二巷交叉口正南方向65米左右",
        "tel": "",
        "category": "基础设施:公共设施:公共厕所",
        "type": 0,
        "location": {
            "lat": 21.942377,
            "lng": 108.622291
        },
        "ad_info": {
            "adcode": 450702,
            "province": "广西壮族自治区",
            "city": "钦州市",
            "district": "钦南区"
        }
    },
    {
        "id": "2463698657775125645",
        "title": "公共厕所(GX-QZ-007)",
        "address": "广西壮族自治区钦州市钦南区占鳌巷与攀桂巷交叉口东南方向38米左右",
        "tel": "",
        "category": "基础设施:公共设施:公共厕所",
        "type": 0,
        "location": {
            "lat": 21.944023,
            "lng": 108.622459
        },
        "ad_info": {
            "adcode": 450702,
            "province": "广西壮族自治区",
            "city": "钦州市",
            "district": "钦南区"
        }
    },
    {
        "id": "3867199010925518786",
        "title": "公共厕所",
        "address": "广西壮族自治区钦州市灵山县XB60与金龙二街交叉口正北方向352米左右",
        "tel": "",
        "category": "基础设施:公共设施:公共厕所",
        "type": 0,
        "location": {
            "lat": 22.170373,
            "lng": 109.244105
        },
        "ad_info": {
            "adcode": 450721,
            "province": "广西壮族自治区",
            "city": "钦州市",
            "district": "灵山县"
        }
    },
    {
        "id": "1029378843871547495",
        "title": "公共厕所",
        "address": "广西壮族自治区钦州市钦北区纱帽大道与长安路交叉口正南方向1924米左右",
        "tel": "",
        "category": "基础设施:公共设施:公共厕所",
        "type": 0,
        "location": {
            "lat": 22.065579,
            "lng": 108.635891
        },
        "ad_info": {
            "adcode": 450703,
            "province": "广西壮族自治区",
            "city": "钦州市",
            "district": "钦北区"
        }
    },
    {
        "id": "8968770846655434079",
        "title": "公共厕所",
        "address": "广西壮族自治区钦州市灵山县江南路与灵隆路交叉口东北方向129米左右",
        "tel": "",
        "category": "基础设施:公共设施:公共厕所",
        "type": 0,
        "location": {
            "lat": 22.315547,
            "lng": 109.112579
        },
        "ad_info": {
            "adcode": 450721,
            "province": "广西壮族自治区",
            "city": "钦州市",
            "district": "灵山县"
        }
    },
    {
        "id": "15319499021071016123",
        "title": "公共厕所",
        "address": "广西壮族自治区钦州市灵山县宝润六峰华府西南侧220米",
        "tel": "",
        "category": "基础设施:公共设施:公共厕所",
        "type": 0,
        "location": {
            "lat": 22.421789,
            "lng": 109.28685
        },
        "ad_info": {
            "adcode": 450721,
            "province": "广西壮族自治区",
            "city": "钦州市",
            "district": "灵山县"
        }
    },
    {
        "id": "15507123614159052988",
        "title": "公共厕所",
        "address": "广西壮族自治区钦州市钦南区友谊路与金海湾西大街辅路交叉口正北方向63米左右",
        "tel": "",
        "category": "基础设施:公共设施:公共厕所",
        "type": 0,
        "location": {
            "lat": 21.943927,
            "lng": 108.578353
        },
        "ad_info": {
            "adcode": 450702,
            "province": "广西壮族自治区",
            "city": "钦州市",
            "district": "钦南区"
        }
    },
    {
        "id": "7887883555225446411",
        "title": "公共厕所",
        "address": "广西壮族自治区钦州市钦北区G325与S515交叉口西北方向960米左右",
        "tel": "",
        "category": "基础设施:公共设施:公共厕所",
        "type": 0,
        "location": {
            "lat": 22.234924,
            "lng": 108.41895
        },
        "ad_info": {
            "adcode": 450703,
            "province": "广西壮族自治区",
            "city": "钦州市",
            "district": "钦北区"
        }
    },
    {
        "id": "16489385293539971165",
        "title": "公共厕所",
        "address": "广西壮族自治区钦州市钦北区325国道南50米",
        "tel": "",
        "category": "基础设施:公共设施:公共厕所",
        "type": 0,
        "location": {
            "lat": 22.184623,
            "lng": 108.539109
        },
        "ad_info": {
            "adcode": 450703,
            "province": "广西壮族自治区",
            "city": "钦州市",
            "district": "钦北区"
        }
    },
    {
        "id": "16496138939095441428",
        "title": "公共厕所",
        "address": "广西壮族自治区钦州市钦南区果鹰大街与钦州港大道交叉口正西方向150米左右",
        "tel": "",
        "category": "基础设施:公共设施:公共厕所",
        "type": 0,
        "location": {
            "lat": 21.731126,
            "lng": 108.600783
        },
        "ad_info": {
            "adcode": 450702,
            "province": "广西壮族自治区",
            "city": "钦州市",
            "district": "钦南区"
        }
    },
    {
        "id": "12245316749092390251",
        "title": "公共厕所",
        "address": "广西壮族自治区钦州市钦南区果鹰大街与钦州港大道交叉口正西方向172米左右",
        "tel": "",
        "category": "基础设施:公共设施:公共厕所",
        "type": 0,
        "location": {
            "lat": 21.73157,
            "lng": 108.600594
        },
        "ad_info": {
            "adcode": 450702,
            "province": "广西壮族自治区",
            "city": "钦州市",
            "district": "钦南区"
        }
    },
    {
        "id": "7654221899430266821",
        "title": "卫生间",
        "address": "广西壮族自治区钦州市灵山县丰收路与丰裕路交叉口西南方向599米左右",
        "tel": "",
        "category": "基础设施:公共设施:公共厕所",
        "type": 0,
        "location": {
            "lat": 22.406599,
            "lng": 109.297396
        },
        "ad_info": {
            "adcode": 450721,
            "province": "广西壮族自治区",
            "city": "钦州市",
            "district": "灵山县"
        }
    },
    {
        "id": "16349969564743283970",
        "title": "公共厕所",
        "address": "广西壮族自治区钦州市浦北县反修街与解放东路交叉口东南方向107米左右",
        "tel": "",
        "category": "基础设施:公共设施:公共厕所",
        "type": 0,
        "location": {
            "lat": 21.904222,
            "lng": 109.482464
        },
        "ad_info": {
            "adcode": 450722,
            "province": "广西壮族自治区",
            "city": "钦州市",
            "district": "浦北县"
        }
    },
    {
        "id": "9615637917183048761",
        "title": "张黄服务区-公共厕所",
        "address": "广西壮族自治区钦州市浦北县中国石油北投能源张黄服务区加油站东北侧150米",
        "tel": "",
        "category": "基础设施:公共设施:公共厕所",
        "type": 0,
        "location": {
            "lat": 21.992851,
            "lng": 109.406329
        },
        "ad_info": {
            "adcode": 450722,
            "province": "广西壮族自治区",
            "city": "钦州市",
            "district": "浦北县"
        }
    },
    {
        "id": "15205817016677528761",
        "title": "公共厕所",
        "address": "广西壮族自治区钦州市钦南区乘风大道与金海湾西大街交叉口正西方向93米左右",
        "tel": "",
        "category": "基础设施:公共设施:公共厕所",
        "type": 0,
        "location": {
            "lat": 21.943213,
            "lng": 108.597845
        },
        "ad_info": {
            "adcode": 450702,
            "province": "广西壮族自治区",
            "city": "钦州市",
            "district": "钦南区"
        }
    },
    {
        "id": "711231535555368483",
        "title": "金窝服务区公共厕所",
        "address": "广西壮族自治区钦州市钦南区云顶大街与锦绣大道交叉口正东方向359米左右",
        "tel": "",
        "category": "基础设施:公共设施:公共厕所",
        "type": 0,
        "location": {
            "lat": 21.785304,
            "lng": 108.691069
        },
        "ad_info": {
            "adcode": 450702,
            "province": "广西壮族自治区",
            "city": "钦州市",
            "district": "钦南区"
        }
    },
    {
        "id": "15315060726544994719",
        "title": "公共厕所",
        "address": "广西壮族自治区钦州市钦南区逸仙路与钦州港大道交叉口正西方向91米左右",
        "tel": "",
        "category": "基础设施:公共设施:公共厕所",
        "type": 0,
        "location": {
            "lat": 21.732211,
            "lng": 108.60179
        },
        "ad_info": {
            "adcode": 450702,
            "province": "广西壮族自治区",
            "city": "钦州市",
            "district": "钦南区"
        }
    },
    {
        "id": "984802353142240303",
        "title": "公共厕所(GX-QZ-0038)",
        "address": "广西壮族自治区钦州市钦南区新阳东二巷与新阳街交叉口正东方向261米左右",
        "tel": "",
        "category": "基础设施:公共设施:公共厕所",
        "type": 0,
        "location": {
            "lat": 21.96518,
            "lng": 108.637798
        },
        "ad_info": {
            "adcode": 450702,
            "province": "广西壮族自治区",
            "city": "钦州市",
            "district": "钦南区"
        }
    },
    {
        "id": "4270140430773466008",
        "title": "公共厕所",
        "address": "广西壮族自治区钦州市钦南区中沙巷与新兴街交叉口东南方向317米左右",
        "tel": "",
        "category": "基础设施:公共设施:公共厕所",
        "type": 0,
        "location": {
            "lat": 21.956114,
            "lng": 108.637268
        },
        "ad_info": {
            "adcode": 450702,
            "province": "广西壮族自治区",
            "city": "钦州市",
            "district": "钦南区"
        }
    },
    {
        "id": "7373257820417081501",
        "title": "永福广场公共厕所",
        "address": "广西壮族自治区钦州市钦南区占鳌巷与攀桂巷交叉口东南方向37米左右",
        "tel": "",
        "category": "基础设施:公共设施:公共厕所",
        "type": 0,
        "location": {
            "lat": 21.944048,
            "lng": 108.622463
        },
        "ad_info": {
            "adcode": 450702,
            "province": "广西壮族自治区",
            "city": "钦州市",
            "district": "钦南区"
        }
    },
    {
        "id": "15100879402504810615",
        "title": "公共厕所",
        "address": "广西壮族自治区钦州市灵山县文峰路与滨江南路交叉口正西方向35米左右",
        "tel": "",
        "category": "基础设施:公共设施:公共厕所",
        "type": 0,
        "location": {
            "lat": 22.403318,
            "lng": 109.280043
        },
        "ad_info": {
            "adcode": 450721,
            "province": "广西壮族自治区",
            "city": "钦州市",
            "district": "灵山县"
        }
    },
    {
        "id": "1900599712665075656",
        "title": "公共厕所",
        "address": "广西壮族自治区钦州市浦北县新华街与西滨路交叉口正南方向54米左右",
        "tel": "",
        "category": "基础设施:公共设施:公共厕所",
        "type": 0,
        "location": {
            "lat": 22.266114,
            "lng": 109.558463
        },
        "ad_info": {
            "adcode": 450722,
            "province": "广西壮族自治区",
            "city": "钦州市",
            "district": "浦北县"
        }
    },
    {
        "id": "2590182024967122531",
        "title": "公共厕所",
        "address": "广西壮族自治区钦州市浦北县S207与浦越路交叉口东南方向272米左右",
        "tel": "",
        "category": "基础设施:公共设施:公共厕所",
        "type": 0,
        "location": {
            "lat": 22.265925,
            "lng": 109.547517
        },
        "ad_info": {
            "adcode": 450722,
            "province": "广西壮族自治区",
            "city": "钦州市",
            "district": "浦北县"
        }
    },
    {
        "id": "9130208365693537000",
        "title": "公共厕所",
        "address": "广西壮族自治区钦州市钦北区石泉东五巷与石泉路交叉口正西方向31米左右",
        "tel": "",
        "category": "基础设施:公共设施:公共厕所",
        "type": 0,
        "location": {
            "lat": 21.975645,
            "lng": 108.61873
        },
        "ad_info": {
            "adcode": 450703,
            "province": "广西壮族自治区",
            "city": "钦州市",
            "district": "钦北区"
        }
    }
]