[
    {
        "id": "497581716121825890",
        "title": "公共厕所",
        "address": "辽宁省铁岭市铁岭县嘉陵江路与黄山路交叉口正南方向205米左右",
        "tel": "",
        "category": "基础设施:公共设施:公共厕所",
        "type": 0,
        "location": {
            "lat": 42.236038,
            "lng": 123.738449
        },
        "ad_info": {
            "adcode": 211221,
            "province": "辽宁省",
            "city": "铁岭市",
            "district": "铁岭县"
        }
    },
    {
        "id": "10432399146785241791",
        "title": "公共厕所",
        "address": "辽宁省铁岭市调兵山市隆悦府小区东南侧180米",
        "tel": "",
        "category": "基础设施:公共设施:公共厕所",
        "type": 0,
        "location": {
            "lat": 42.42612,
            "lng": 123.539855
        },
        "ad_info": {
            "adcode": 211281,
            "province": "辽宁省",
            "city": "铁岭市",
            "district": "调兵山市"
        }
    },
    {
        "id": "446223305233171394",
        "title": "公共厕所",
        "address": "辽宁省铁岭市银州区八中路与柴河街南段交叉口正西方向235米左右",
        "tel": "",
        "category": "基础设施:公共设施:公共厕所",
        "type": 0,
        "location": {
            "lat": 42.270092,
            "lng": 123.831165
        },
        "ad_info": {
            "adcode": 211202,
            "province": "辽宁省",
            "city": "铁岭市",
            "district": "银州区"
        }
    },
    {
        "id": "10094171547655509746",
        "title": "公共厕所",
        "address": "辽宁省铁岭市银州区工人街与银州路交叉口东北方向164米左右",
        "tel": "",
        "category": "基础设施:公共设施:公共厕所",
        "type": 0,
        "location": {
            "lat": 42.293431,
            "lng": 123.84171
        },
        "ad_info": {
            "adcode": 211202,
            "province": "辽宁省",
            "city": "铁岭市",
            "district": "银州区"
        }
    },
    {
        "id": "7827550321146940706",
        "title": "公共厕所",
        "address": "辽宁省铁岭市调兵山市明月禅寺西南侧280米",
        "tel": "",
        "category": "基础设施:公共设施:公共厕所",
        "type": 0,
        "location": {
            "lat": 42.447515,
            "lng": 123.527463
        },
        "ad_info": {
            "adcode": 211281,
            "province": "辽宁省",
            "city": "铁岭市",
            "district": "调兵山市"
        }
    },
    {
        "id": "3595978412423611636",
        "title": "公共厕所",
        "address": "辽宁省铁岭市调兵山市砬子山北侧",
        "tel": "",
        "category": "基础设施:公共设施:公共厕所",
        "type": 0,
        "location": {
            "lat": 42.448552,
            "lng": 123.52187
        },
        "ad_info": {
            "adcode": 211281,
            "province": "辽宁省",
            "city": "铁岭市",
            "district": "调兵山市"
        }
    },
    {
        "id": "5663816345564124045",
        "title": "公共厕所",
        "address": "辽宁省铁岭市银州区三百后巷与三百后胡同交叉口正西方向25米左右",
        "tel": "",
        "category": "基础设施:公共设施:公共厕所",
        "type": 0,
        "location": {
            "lat": 42.299242,
            "lng": 123.845828
        },
        "ad_info": {
            "adcode": 211202,
            "province": "辽宁省",
            "city": "铁岭市",
            "district": "银州区"
        }
    },
    {
        "id": "2612840510808270591",
        "title": "公共厕所",
        "address": "辽宁省铁岭市银州区县委党校东巷与广裕街交叉口正东方向70米左右",
        "tel": "",
        "category": "基础设施:公共设施:公共厕所",
        "type": 0,
        "location": {
            "lat": 42.280029,
            "lng": 123.842047
        },
        "ad_info": {
            "adcode": 211202,
            "province": "辽宁省",
            "city": "铁岭市",
            "district": "银州区"
        }
    },
    {
        "id": "10364979235985887139",
        "title": "公共厕所",
        "address": "辽宁省铁岭市银州区光荣街与光荣街南段交叉口正北方向33米左右",
        "tel": "",
        "category": "基础设施:公共设施:公共厕所",
        "type": 0,
        "location": {
            "lat": 42.28418,
            "lng": 123.834854
        },
        "ad_info": {
            "adcode": 211202,
            "province": "辽宁省",
            "city": "铁岭市",
            "district": "银州区"
        }
    },
    {
        "id": "4947628278157810185",
        "title": "公共厕所",
        "address": "辽宁省铁岭市铁岭县泰山路与澜沧江路交叉口正南方向205米左右",
        "tel": "",
        "category": "基础设施:公共设施:公共厕所",
        "type": 0,
        "location": {
            "lat": 42.224646,
            "lng": 123.732418
        },
        "ad_info": {
            "adcode": 211221,
            "province": "辽宁省",
            "city": "铁岭市",
            "district": "铁岭县"
        }
    },
    {
        "id": "16667436080937195839",
        "title": "公共厕所",
        "address": "辽宁省铁岭市银州区岭东街与长青路交叉口正东方向155米左右",
        "tel": "",
        "category": "基础设施:公共设施:公共厕所",
        "type": 0,
        "location": {
            "lat": 42.270041,
            "lng": 123.842476
        },
        "ad_info": {
            "adcode": 211202,
            "province": "辽宁省",
            "city": "铁岭市",
            "district": "银州区"
        }
    },
    {
        "id": "16670435500007869766",
        "title": "公共厕所",
        "address": "辽宁省铁岭市调兵山市光明街与育才路交叉口正东方向210米左右",
        "tel": "",
        "category": "基础设施:公共设施:公共厕所",
        "type": 0,
        "location": {
            "lat": 42.469434,
            "lng": 123.576967
        },
        "ad_info": {
            "adcode": 211281,
            "province": "辽宁省",
            "city": "铁岭市",
            "district": "调兵山市"
        }
    },
    {
        "id": "15870821106368398198",
        "title": "公共厕所",
        "address": "辽宁省铁岭市银州区北市路与昌盛街交叉口正北方向167米左右",
        "tel": "",
        "category": "基础设施:公共设施:公共厕所",
        "type": 0,
        "location": {
            "lat": 42.307652,
            "lng": 123.847181
        },
        "ad_info": {
            "adcode": 211202,
            "province": "辽宁省",
            "city": "铁岭市",
            "district": "银州区"
        }
    },
    {
        "id": "11220223375609943016",
        "title": "公共厕所",
        "address": "辽宁省铁岭市调兵山市环山路与迎宾路交叉口西北方向300米左右",
        "tel": "",
        "category": "基础设施:公共设施:公共厕所",
        "type": 0,
        "location": {
            "lat": 42.449061,
            "lng": 123.535272
        },
        "ad_info": {
            "adcode": 211281,
            "province": "辽宁省",
            "city": "铁岭市",
            "district": "调兵山市"
        }
    },
    {
        "id": "710771555359836558",
        "title": "公共厕所",
        "address": "辽宁省铁岭市开原市北环路与长征街交叉口正东方向80米左右",
        "tel": "",
        "category": "基础设施:公共设施:公共厕所",
        "type": 0,
        "location": {
            "lat": 42.555229,
            "lng": 124.05093
        },
        "ad_info": {
            "adcode": 211282,
            "province": "辽宁省",
            "city": "铁岭市",
            "district": "开原市"
        }
    },
    {
        "id": "12113224788984318095",
        "title": "公共厕所",
        "address": "辽宁省铁岭市西丰县站前街与顺城路交叉口正东方向113米左右",
        "tel": "",
        "category": "基础设施:公共设施:公共厕所",
        "type": 0,
        "location": {
            "lat": 42.741448,
            "lng": 124.72574
        },
        "ad_info": {
            "adcode": 211223,
            "province": "辽宁省",
            "city": "铁岭市",
            "district": "西丰县"
        }
    },
    {
        "id": "4456302081688677333",
        "title": "公共厕所",
        "address": "辽宁省铁岭市西丰县新立街与顺城路交叉口西北方向79米左右",
        "tel": "",
        "category": "基础设施:公共设施:公共厕所",
        "type": 0,
        "location": {
            "lat": 42.740454,
            "lng": 124.713016
        },
        "ad_info": {
            "adcode": 211223,
            "province": "辽宁省",
            "city": "铁岭市",
            "district": "西丰县"
        }
    },
    {
        "id": "9983161659943936086",
        "title": "公共厕所",
        "address": "辽宁省铁岭市银州区汇工街与繁荣路交叉口东北方向211米左右",
        "tel": "",
        "category": "基础设施:公共设施:公共厕所",
        "type": 0,
        "location": {
            "lat": 42.306671,
            "lng": 123.837682
        },
        "ad_info": {
            "adcode": 211202,
            "province": "辽宁省",
            "city": "铁岭市",
            "district": "银州区"
        }
    },
    {
        "id": "10286251669258605285",
        "title": "公共厕所",
        "address": "辽宁省铁岭市银州区广裕街98-3号",
        "tel": "",
        "category": "基础设施:公共设施:公共厕所",
        "type": 0,
        "location": {
            "lat": 42.311174,
            "lng": 123.850271
        },
        "ad_info": {
            "adcode": 211202,
            "province": "辽宁省",
            "city": "铁岭市",
            "district": "银州区"
        }
    },
    {
        "id": "18025814257628505882",
        "title": "公共厕所",
        "address": "辽宁省铁岭市银州区光华路与柴河街南段交叉口正西方向68米左右",
        "tel": "",
        "category": "基础设施:公共设施:公共厕所",
        "type": 0,
        "location": {
            "lat": 42.278269,
            "lng": 123.842776
        },
        "ad_info": {
            "adcode": 211202,
            "province": "辽宁省",
            "city": "铁岭市",
            "district": "银州区"
        }
    },
    {
        "id": "15955471074620918752",
        "title": "公共厕所",
        "address": "辽宁省铁岭市银州区南马路与柴河街交叉口正东方向96米左右",
        "tel": "",
        "category": "基础设施:公共设施:公共厕所",
        "type": 0,
        "location": {
            "lat": 42.296267,
            "lng": 123.856866
        },
        "ad_info": {
            "adcode": 211202,
            "province": "辽宁省",
            "city": "铁岭市",
            "district": "银州区"
        }
    },
    {
        "id": "4997053195382586019",
        "title": "公共厕所",
        "address": "辽宁省铁岭市银州区人民路与站北街交叉口正西方向155米左右",
        "tel": "",
        "category": "基础设施:公共设施:公共厕所",
        "type": 0,
        "location": {
            "lat": 42.295964,
            "lng": 123.836222
        },
        "ad_info": {
            "adcode": 211202,
            "province": "辽宁省",
            "city": "铁岭市",
            "district": "银州区"
        }
    },
    {
        "id": "13997050547149257063",
        "title": "公共厕所",
        "address": "辽宁省铁岭市银州区汇安路与汇工街交叉口正东方向202米左右",
        "tel": "",
        "category": "基础设施:公共设施:公共厕所",
        "type": 0,
        "location": {
            "lat": 42.288702,
            "lng": 123.830289
        },
        "ad_info": {
            "adcode": 211202,
            "province": "辽宁省",
            "city": "铁岭市",
            "district": "银州区"
        }
    },
    {
        "id": "13911591317102504309",
        "title": "公共厕所",
        "address": "辽宁省铁岭市银州区南马路64号",
        "tel": "",
        "category": "基础设施:公共设施:公共厕所",
        "type": 0,
        "location": {
            "lat": 42.292849,
            "lng": 123.859649
        },
        "ad_info": {
            "adcode": 211202,
            "province": "辽宁省",
            "city": "铁岭市",
            "district": "银州区"
        }
    },
    {
        "id": "6218764644529077766",
        "title": "公共厕所",
        "address": "辽宁省铁岭市调兵山市沈环线",
        "tel": "",
        "category": "基础设施:公共设施:公共厕所",
        "type": 0,
        "location": {
            "lat": 42.442498,
            "lng": 123.610757
        },
        "ad_info": {
            "adcode": 211281,
            "province": "辽宁省",
            "city": "铁岭市",
            "district": "调兵山市"
        }
    },
    {
        "id": "12384829749413231644",
        "title": "公共厕所",
        "address": "辽宁省铁岭市银州区岭东街辅路与南马路交叉口北40米",
        "tel": "",
        "category": "基础设施:公共设施:公共厕所",
        "type": 0,
        "location": {
            "lat": 42.283776,
            "lng": 123.867036
        },
        "ad_info": {
            "adcode": 211202,
            "province": "辽宁省",
            "city": "铁岭市",
            "district": "银州区"
        }
    },
    {
        "id": "805384444192795951",
        "title": "公共厕所",
        "address": "辽宁省铁岭市银州区兴工街与北一路交叉口正北方向95米左右",
        "tel": "",
        "category": "基础设施:公共设施:公共厕所",
        "type": 0,
        "location": {
            "lat": 42.293886,
            "lng": 123.824027
        },
        "ad_info": {
            "adcode": 211202,
            "province": "辽宁省",
            "city": "铁岭市",
            "district": "银州区"
        }
    },
    {
        "id": "6760013246901053281",
        "title": "公共厕所",
        "address": "辽宁省铁岭市调兵山市古城街与站北路交叉口西北方向957米左右",
        "tel": "",
        "category": "基础设施:公共设施:公共厕所",
        "type": 0,
        "location": {
            "lat": 42.464738,
            "lng": 123.535468
        },
        "ad_info": {
            "adcode": 211281,
            "province": "辽宁省",
            "city": "铁岭市",
            "district": "调兵山市"
        }
    },
    {
        "id": "6878296967352026976",
        "title": "公共厕所",
        "address": "辽宁省铁岭市调兵山市明月禅寺西北侧270米",
        "tel": "",
        "category": "基础设施:公共设施:公共厕所",
        "type": 0,
        "location": {
            "lat": 42.45105,
            "lng": 123.528349
        },
        "ad_info": {
            "adcode": 211281,
            "province": "辽宁省",
            "city": "铁岭市",
            "district": "调兵山市"
        }
    },
    {
        "id": "2052913691314045390",
        "title": "公共厕所",
        "address": "辽宁省铁岭市银州区人民路与新华街交叉口正东方向128米左右",
        "tel": "",
        "category": "基础设施:公共设施:公共厕所",
        "type": 0,
        "location": {
            "lat": 42.294291,
            "lng": 123.845592
        },
        "ad_info": {
            "adcode": 211202,
            "province": "辽宁省",
            "city": "铁岭市",
            "district": "银州区"
        }
    },
    {
        "id": "12021037577951093383",
        "title": "公共厕所",
        "address": "辽宁省铁岭市银州区汇工街32号",
        "tel": "",
        "category": "基础设施:公共设施:公共厕所",
        "type": 0,
        "location": {
            "lat": 42.292171,
            "lng": 123.828786
        },
        "ad_info": {
            "adcode": 211202,
            "province": "辽宁省",
            "city": "铁岭市",
            "district": "银州区"
        }
    },
    {
        "id": "14819707441112903125",
        "title": "公共厕所",
        "address": "辽宁省铁岭市西丰县西丰县国土局(红旗路北)",
        "tel": "",
        "category": "基础设施:公共设施:公共厕所",
        "type": 0,
        "location": {
            "lat": 42.740063,
            "lng": 124.732472
        },
        "ad_info": {
            "adcode": 211223,
            "province": "辽宁省",
            "city": "铁岭市",
            "district": "西丰县"
        }
    },
    {
        "id": "5834160313580951741",
        "title": "公共厕所",
        "address": "辽宁省铁岭市铁岭县枢纽路与金沙江路交叉口正西方向152米左右",
        "tel": "",
        "category": "基础设施:公共设施:公共厕所",
        "type": 0,
        "location": {
            "lat": 42.220603,
            "lng": 123.734283
        },
        "ad_info": {
            "adcode": 211221,
            "province": "辽宁省",
            "city": "铁岭市",
            "district": "铁岭县"
        }
    },
    {
        "id": "16805868152571986756",
        "title": "公共厕所",
        "address": "辽宁省铁岭市银州区岭东街与建设路交叉口正西方向88米左右",
        "tel": "",
        "category": "基础设施:公共设施:公共厕所",
        "type": 0,
        "location": {
            "lat": 42.26925,
            "lng": 123.836446
        },
        "ad_info": {
            "adcode": 211202,
            "province": "辽宁省",
            "city": "铁岭市",
            "district": "银州区"
        }
    },
    {
        "id": "15620670901609403720",
        "title": "公共厕所",
        "address": "辽宁省铁岭市银州区兴工街58号",
        "tel": "",
        "category": "基础设施:公共设施:公共厕所",
        "type": 0,
        "location": {
            "lat": 42.2844,
            "lng": 123.821026
        },
        "ad_info": {
            "adcode": 211202,
            "province": "辽宁省",
            "city": "铁岭市",
            "district": "银州区"
        }
    },
    {
        "id": "3767958401883818924",
        "title": "公共厕所",
        "address": "辽宁省铁岭市昌图县东环路与新梨线交叉口正西方向478米左右",
        "tel": "",
        "category": "基础设施:公共设施:公共厕所",
        "type": 0,
        "location": {
            "lat": 43.204039,
            "lng": 124.0608
        },
        "ad_info": {
            "adcode": 211224,
            "province": "辽宁省",
            "city": "铁岭市",
            "district": "昌图县"
        }
    },
    {
        "id": "16052012872804455342",
        "title": "公共厕所",
        "address": "辽宁省铁岭市银州区农校路与岭东街交叉口正北方向231米左右",
        "tel": "",
        "category": "基础设施:公共设施:公共厕所",
        "type": 0,
        "location": {
            "lat": 42.308243,
            "lng": 123.882696
        },
        "ad_info": {
            "adcode": 211202,
            "province": "辽宁省",
            "city": "铁岭市",
            "district": "银州区"
        }
    },
    {
        "id": "3061887906288117654",
        "title": "公共厕所",
        "address": "辽宁省铁岭市银州区汇工街与汇平路交叉口正东方向92米左右",
        "tel": "",
        "category": "基础设施:公共设施:公共厕所",
        "type": 0,
        "location": {
            "lat": 42.290441,
            "lng": 123.829685
        },
        "ad_info": {
            "adcode": 211202,
            "province": "辽宁省",
            "city": "铁岭市",
            "district": "银州区"
        }
    },
    {
        "id": "9861252502004440194",
        "title": "公共厕所",
        "address": "辽宁省铁岭市铁岭县当茧线与沈平线交叉口正东方向545米左右",
        "tel": "",
        "category": "基础设施:公共设施:公共厕所",
        "type": 0,
        "location": {
            "lat": 42.175926,
            "lng": 124.178363
        },
        "ad_info": {
            "adcode": 211221,
            "province": "辽宁省",
            "city": "铁岭市",
            "district": "铁岭县"
        }
    },
    {
        "id": "16995773243212307244",
        "title": "公共厕所",
        "address": "辽宁省铁岭市西丰县红旗路与顺城路交叉口正北方向295米左右",
        "tel": "",
        "category": "基础设施:公共设施:公共厕所",
        "type": 0,
        "location": {
            "lat": 42.743044,
            "lng": 124.733958
        },
        "ad_info": {
            "adcode": 211223,
            "province": "辽宁省",
            "city": "铁岭市",
            "district": "西丰县"
        }
    },
    {
        "id": "12128522676554557794",
        "title": "公共厕所",
        "address": "辽宁省铁岭市开原市弘业建材东南侧130米",
        "tel": "",
        "category": "基础设施:公共设施:公共厕所",
        "type": 0,
        "location": {
            "lat": 42.561356,
            "lng": 124.04659
        },
        "ad_info": {
            "adcode": 211282,
            "province": "辽宁省",
            "city": "铁岭市",
            "district": "开原市"
        }
    },
    {
        "id": "15614265030339753549",
        "title": "公共厕所",
        "address": "辽宁省铁岭市西丰县沈平线与辽开线交叉口东北方向857米左右",
        "tel": "",
        "category": "基础设施:公共设施:公共厕所",
        "type": 0,
        "location": {
            "lat": 42.746501,
            "lng": 124.741514
        },
        "ad_info": {
            "adcode": 211223,
            "province": "辽宁省",
            "city": "铁岭市",
            "district": "西丰县"
        }
    },
    {
        "id": "13721545126442009594",
        "title": "公共厕所",
        "address": "辽宁省铁岭市西丰县新立街与解放路交叉口东南方向62米左右",
        "tel": "",
        "category": "基础设施:公共设施:公共厕所",
        "type": 0,
        "location": {
            "lat": 42.734193,
            "lng": 124.713162
        },
        "ad_info": {
            "adcode": 211223,
            "province": "辽宁省",
            "city": "铁岭市",
            "district": "西丰县"
        }
    },
    {
        "id": "10209892680655561858",
        "title": "公共厕所",
        "address": "辽宁省铁岭市清河区清波巷与繁荣路交叉路口东北侧(世纪广场南侧约50米)",
        "tel": "",
        "category": "基础设施:公共设施:公共厕所",
        "type": 0,
        "location": {
            "lat": 42.540446,
            "lng": 124.150933
        },
        "ad_info": {
            "adcode": 211204,
            "province": "辽宁省",
            "city": "铁岭市",
            "district": "清河区"
        }
    },
    {
        "id": "1699656345543958652",
        "title": "公共厕所",
        "address": "辽宁省铁岭市西丰县辽开线与郜家店互通交叉口东北方向126米左右",
        "tel": "",
        "category": "基础设施:公共设施:公共厕所",
        "type": 0,
        "location": {
            "lat": 42.71833,
            "lng": 124.486766
        },
        "ad_info": {
            "adcode": 211223,
            "province": "辽宁省",
            "city": "铁岭市",
            "district": "西丰县"
        }
    },
    {
        "id": "10384374243140662058",
        "title": "公共厕所",
        "address": "辽宁省铁岭市西丰县桃源圣地西侧290米",
        "tel": "",
        "category": "基础设施:公共设施:公共厕所",
        "type": 0,
        "location": {
            "lat": 42.825561,
            "lng": 124.794376
        },
        "ad_info": {
            "adcode": 211223,
            "province": "辽宁省",
            "city": "铁岭市",
            "district": "西丰县"
        }
    },
    {
        "id": "15231607026056644370",
        "title": "公共厕所",
        "address": "辽宁省铁岭市银州区光荣东路与光荣街交叉口正西方向248米左右",
        "tel": "",
        "category": "基础设施:公共设施:公共厕所",
        "type": 0,
        "location": {
            "lat": 42.310696,
            "lng": 123.844746
        },
        "ad_info": {
            "adcode": 211202,
            "province": "辽宁省",
            "city": "铁岭市",
            "district": "银州区"
        }
    },
    {
        "id": "10282643435871075059",
        "title": "公共厕所",
        "address": "辽宁省铁岭市昌图县S202与XC06交叉口东南方向643米左右",
        "tel": "",
        "category": "基础设施:公共设施:公共厕所",
        "type": 0,
        "location": {
            "lat": 42.898801,
            "lng": 123.819609
        },
        "ad_info": {
            "adcode": 211224,
            "province": "辽宁省",
            "city": "铁岭市",
            "district": "昌图县"
        }
    },
    {
        "id": "9980666653219833467",
        "title": "公共厕所",
        "address": "辽宁省铁岭市西丰县六安路与大通街交叉口东南方向51米左右",
        "tel": "",
        "category": "基础设施:公共设施:公共厕所",
        "type": 0,
        "location": {
            "lat": 42.727646,
            "lng": 124.726791
        },
        "ad_info": {
            "adcode": 211223,
            "province": "辽宁省",
            "city": "铁岭市",
            "district": "西丰县"
        }
    },
    {
        "id": "4288824305591084033",
        "title": "公共厕所",
        "address": "辽宁省铁岭市铁岭县建设村小学北侧",
        "tel": "",
        "category": "基础设施:公共设施:公共厕所",
        "type": 0,
        "location": {
            "lat": 42.345572,
            "lng": 123.912321
        },
        "ad_info": {
            "adcode": 211221,
            "province": "辽宁省",
            "city": "铁岭市",
            "district": "铁岭县"
        }
    },
    {
        "id": "12384708624820392251",
        "title": "公共厕所",
        "address": "辽宁省铁岭市开原市花园街与青年路交叉口正南方向86米左右",
        "tel": "",
        "category": "基础设施:公共设施:公共厕所",
        "type": 0,
        "location": {
            "lat": 42.54296,
            "lng": 124.045985
        },
        "ad_info": {
            "adcode": 211282,
            "province": "辽宁省",
            "city": "铁岭市",
            "district": "开原市"
        }
    },
    {
        "id": "17782673521226593087",
        "title": "公共厕所",
        "address": "辽宁省铁岭市清河区工六街与昌盛路西段交叉口东北方向210米左右",
        "tel": "",
        "category": "基础设施:公共设施:公共厕所",
        "type": 0,
        "location": {
            "lat": 42.54925,
            "lng": 124.084774
        },
        "ad_info": {
            "adcode": 211204,
            "province": "辽宁省",
            "city": "铁岭市",
            "district": "清河区"
        }
    },
    {
        "id": "14850223325232862702",
        "title": "公共厕所",
        "address": "辽宁省铁岭市清河区影城街与文化路交叉口东北方向458米左右",
        "tel": "",
        "category": "基础设施:公共设施:公共厕所",
        "type": 0,
        "location": {
            "lat": 42.547175,
            "lng": 124.170521
        },
        "ad_info": {
            "adcode": 211204,
            "province": "辽宁省",
            "city": "铁岭市",
            "district": "清河区"
        }
    },
    {
        "id": "8500400606557277348",
        "title": "公共厕所",
        "address": "辽宁省铁岭市开原市三秀线与辽开线交叉口正东方向1693米左右",
        "tel": "",
        "category": "基础设施:公共设施:公共厕所",
        "type": 0,
        "location": {
            "lat": 42.632101,
            "lng": 124.172576
        },
        "ad_info": {
            "adcode": 211282,
            "province": "辽宁省",
            "city": "铁岭市",
            "district": "开原市"
        }
    },
    {
        "id": "15786109558612603901",
        "title": "公共厕所",
        "address": "辽宁省铁岭市昌图县文化大街与迎宾路交叉口西南方向349米左右",
        "tel": "",
        "category": "基础设施:公共设施:公共厕所",
        "type": 0,
        "location": {
            "lat": 42.792128,
            "lng": 124.099033
        },
        "ad_info": {
            "adcode": 211224,
            "province": "辽宁省",
            "city": "铁岭市",
            "district": "昌图县"
        }
    },
    {
        "id": "10158774504708332322",
        "title": "公共厕所",
        "address": "辽宁省铁岭市昌图县北环路与站前大街交叉口正北方向222米左右",
        "tel": "",
        "category": "基础设施:公共设施:公共厕所",
        "type": 0,
        "location": {
            "lat": 42.793043,
            "lng": 124.112007
        },
        "ad_info": {
            "adcode": 211224,
            "province": "辽宁省",
            "city": "铁岭市",
            "district": "昌图县"
        }
    },
    {
        "id": "11918412910008484900",
        "title": "公共厕所",
        "address": "辽宁省铁岭市昌图县文萃路与迎宾路交叉口东北方向122米左右",
        "tel": "",
        "category": "基础设施:公共设施:公共厕所",
        "type": 0,
        "location": {
            "lat": 42.768579,
            "lng": 124.100766
        },
        "ad_info": {
            "adcode": 211224,
            "province": "辽宁省",
            "city": "铁岭市",
            "district": "昌图县"
        }
    },
    {
        "id": "1574631809633737271",
        "title": "公共厕所",
        "address": "辽宁省铁岭市银州区北五路与汇工街交叉口西南方向211米左右",
        "tel": "",
        "category": "基础设施:公共设施:公共厕所",
        "type": 0,
        "location": {
            "lat": 42.307051,
            "lng": 123.837677
        },
        "ad_info": {
            "adcode": 211202,
            "province": "辽宁省",
            "city": "铁岭市",
            "district": "银州区"
        }
    },
    {
        "id": "12153812243096432748",
        "title": "公共厕所",
        "address": "辽宁省铁岭市西丰县安民互通与辽开线交叉口正东方向185米左右",
        "tel": "",
        "category": "基础设施:公共设施:公共厕所",
        "type": 0,
        "location": {
            "lat": 42.752118,
            "lng": 124.89635
        },
        "ad_info": {
            "adcode": 211223,
            "province": "辽宁省",
            "city": "铁岭市",
            "district": "西丰县"
        }
    },
    {
        "id": "1855149904278457407",
        "title": "公共厕所",
        "address": "辽宁省铁岭市西丰县国有城郊林场西南侧230米",
        "tel": "",
        "category": "基础设施:公共设施:公共厕所",
        "type": 0,
        "location": {
            "lat": 42.739471,
            "lng": 124.749882
        },
        "ad_info": {
            "adcode": 211223,
            "province": "辽宁省",
            "city": "铁岭市",
            "district": "西丰县"
        }
    },
    {
        "id": "11352832107457556684",
        "title": "公共厕所",
        "address": "辽宁省铁岭市西丰县郜兴线",
        "tel": "",
        "category": "基础设施:公共设施:公共厕所",
        "type": 0,
        "location": {
            "lat": 42.56874,
            "lng": 124.689461
        },
        "ad_info": {
            "adcode": 211223,
            "province": "辽宁省",
            "city": "铁岭市",
            "district": "西丰县"
        }
    },
    {
        "id": "17116348943292740738",
        "title": "公共厕所",
        "address": "辽宁省铁岭市西丰县沈平线与辽开线交叉口正东方向724米左右",
        "tel": "",
        "category": "基础设施:公共设施:公共厕所",
        "type": 0,
        "location": {
            "lat": 42.737662,
            "lng": 124.744081
        },
        "ad_info": {
            "adcode": 211223,
            "province": "辽宁省",
            "city": "铁岭市",
            "district": "西丰县"
        }
    },
    {
        "id": "2502008063878238591",
        "title": "公共厕所",
        "address": "辽宁省铁岭市西丰县东德线与辽开线交叉口正东方向761米左右",
        "tel": "",
        "category": "基础设施:公共设施:公共厕所",
        "type": 0,
        "location": {
            "lat": 42.741499,
            "lng": 124.636348
        },
        "ad_info": {
            "adcode": 211223,
            "province": "辽宁省",
            "city": "铁岭市",
            "district": "西丰县"
        }
    },
    {
        "id": "18317732383739676131",
        "title": "公共厕所",
        "address": "辽宁省铁岭市西丰县沈平线与辽开线交叉口正东方向626米左右",
        "tel": "",
        "category": "基础设施:公共设施:公共厕所",
        "type": 0,
        "location": {
            "lat": 42.738465,
            "lng": 124.743183
        },
        "ad_info": {
            "adcode": 211223,
            "province": "辽宁省",
            "city": "铁岭市",
            "district": "西丰县"
        }
    },
    {
        "id": "6177865945005411386",
        "title": "公共厕所",
        "address": "辽宁省铁岭市昌图县S302与昌付线交叉口正西方向714米左右",
        "tel": "",
        "category": "基础设施:公共设施:公共厕所",
        "type": 0,
        "location": {
            "lat": 42.785062,
            "lng": 124.012377
        },
        "ad_info": {
            "adcode": 211224,
            "province": "辽宁省",
            "city": "铁岭市",
            "district": "昌图县"
        }
    },
    {
        "id": "11507869357769580495",
        "title": "公共厕所",
        "address": "辽宁省铁岭市昌图县G303与四三线交叉口西北方向636米左右",
        "tel": "",
        "category": "基础设施:公共设施:公共厕所",
        "type": 0,
        "location": {
            "lat": 43.36893,
            "lng": 123.730137
        },
        "ad_info": {
            "adcode": 211224,
            "province": "辽宁省",
            "city": "铁岭市",
            "district": "昌图县"
        }
    },
    {
        "id": "1874952855869362655",
        "title": "公共厕所",
        "address": "辽宁省铁岭市昌图县北环路与迎宾路交叉口东北方向105米左右",
        "tel": "",
        "category": "基础设施:公共设施:公共厕所",
        "type": 0,
        "location": {
            "lat": 42.785556,
            "lng": 124.095433
        },
        "ad_info": {
            "adcode": 211224,
            "province": "辽宁省",
            "city": "铁岭市",
            "district": "昌图县"
        }
    },
    {
        "id": "10758938282471786028",
        "title": "公共厕所",
        "address": "辽宁省铁岭市西丰县红光街与育英路交叉口正西方向952米左右",
        "tel": "",
        "category": "基础设施:公共设施:公共厕所",
        "type": 0,
        "location": {
            "lat": 42.741599,
            "lng": 124.697486
        },
        "ad_info": {
            "adcode": 211223,
            "province": "辽宁省",
            "city": "铁岭市",
            "district": "西丰县"
        }
    },
    {
        "id": "8998921709527562295",
        "title": "公共厕所",
        "address": "辽宁省铁岭市昌图县昌威线",
        "tel": "",
        "category": "基础设施:公共设施:公共厕所",
        "type": 0,
        "location": {
            "lat": 42.730791,
            "lng": 124.154995
        },
        "ad_info": {
            "adcode": 211224,
            "province": "辽宁省",
            "city": "铁岭市",
            "district": "昌图县"
        }
    },
    {
        "id": "11741340350311157408",
        "title": "公共厕所",
        "address": "辽宁省铁岭市昌图县兴宝家园东侧270米",
        "tel": "",
        "category": "基础设施:公共设施:公共厕所",
        "type": 0,
        "location": {
            "lat": 42.918119,
            "lng": 123.805349
        },
        "ad_info": {
            "adcode": 211224,
            "province": "辽宁省",
            "city": "铁岭市",
            "district": "昌图县"
        }
    },
    {
        "id": "446453817412368485",
        "title": "公共厕所",
        "address": "辽宁省铁岭市昌图县G303与付太线交叉口西北方向754米左右",
        "tel": "",
        "category": "基础设施:公共设施:公共厕所",
        "type": 0,
        "location": {
            "lat": 43.291189,
            "lng": 123.809574
        },
        "ad_info": {
            "adcode": 211224,
            "province": "辽宁省",
            "city": "铁岭市",
            "district": "昌图县"
        }
    },
    {
        "id": "12562647272136389011",
        "title": "公共厕所",
        "address": "辽宁省铁岭市昌图县XC07与煤矿路交叉口正东方向1520米左右",
        "tel": "",
        "category": "基础设施:公共设施:公共厕所",
        "type": 0,
        "location": {
            "lat": 42.785333,
            "lng": 124.168952
        },
        "ad_info": {
            "adcode": 211224,
            "province": "辽宁省",
            "city": "铁岭市",
            "district": "昌图县"
        }
    },
    {
        "id": "5480716146751026605",
        "title": "公共厕所",
        "address": "辽宁省铁岭市开原市兴开街与小李台街西七巷交叉口西南方向649米左右",
        "tel": "",
        "category": "基础设施:公共设施:公共厕所",
        "type": 0,
        "location": {
            "lat": 42.53303,
            "lng": 124.007323
        },
        "ad_info": {
            "adcode": 211282,
            "province": "辽宁省",
            "city": "铁岭市",
            "district": "开原市"
        }
    },
    {
        "id": "9146676390299725225",
        "title": "公共厕所",
        "address": "辽宁省铁岭市开原市沈平线",
        "tel": "",
        "category": "基础设施:公共设施:公共厕所",
        "type": 0,
        "location": {
            "lat": 42.304077,
            "lng": 124.361851
        },
        "ad_info": {
            "adcode": 211282,
            "province": "辽宁省",
            "city": "铁岭市",
            "district": "开原市"
        }
    },
    {
        "id": "2913636774382640077",
        "title": "公共厕所",
        "address": "辽宁省铁岭市昌图县G303与宝曲线交叉口正东方向66米左右",
        "tel": "",
        "category": "基础设施:公共设施:公共厕所",
        "type": 0,
        "location": {
            "lat": 43.221424,
            "lng": 123.922917
        },
        "ad_info": {
            "adcode": 211224,
            "province": "辽宁省",
            "city": "铁岭市",
            "district": "昌图县"
        }
    },
    {
        "id": "7896557124031978172",
        "title": "公共厕所",
        "address": "辽宁省铁岭市铁岭县昆仑山路与金沙江路交叉口东南方向774米左右",
        "tel": "",
        "category": "基础设施:公共设施:公共厕所",
        "type": 0,
        "location": {
            "lat": 42.216322,
            "lng": 123.720838
        },
        "ad_info": {
            "adcode": 211221,
            "province": "辽宁省",
            "city": "铁岭市",
            "district": "铁岭县"
        }
    },
    {
        "id": "7602665602186542159",
        "title": "公共厕所",
        "address": "辽宁省铁岭市开原市义和路与铁西街交叉口东北方向237米左右",
        "tel": "",
        "category": "基础设施:公共设施:公共厕所",
        "type": 0,
        "location": {
            "lat": 42.544122,
            "lng": 124.030434
        },
        "ad_info": {
            "adcode": 211282,
            "province": "辽宁省",
            "city": "铁岭市",
            "district": "开原市"
        }
    },
    {
        "id": "16746061118257271531",
        "title": "公共厕所",
        "address": "辽宁省铁岭市铁岭县万泉路与繁荣街交叉口西南方向236米左右",
        "tel": "",
        "category": "基础设施:公共设施:公共厕所",
        "type": 0,
        "location": {
            "lat": 42.125753,
            "lng": 123.598374
        },
        "ad_info": {
            "adcode": 211221,
            "province": "辽宁省",
            "city": "铁岭市",
            "district": "铁岭县"
        }
    },
    {
        "id": "14248513839679346171",
        "title": "公共厕所",
        "address": "辽宁省铁岭市昌图县胜利加油站(昌付线南)",
        "tel": "",
        "category": "基础设施:公共设施:公共厕所",
        "type": 0,
        "location": {
            "lat": 42.796154,
            "lng": 123.980447
        },
        "ad_info": {
            "adcode": 211224,
            "province": "辽宁省",
            "city": "铁岭市",
            "district": "昌图县"
        }
    },
    {
        "id": "2950552301834763825",
        "title": "公共厕所",
        "address": "辽宁省铁岭市昌图县G102与S302交叉口西南方向381米左右",
        "tel": "",
        "category": "基础设施:公共设施:公共厕所",
        "type": 0,
        "location": {
            "lat": 42.748196,
            "lng": 124.074174
        },
        "ad_info": {
            "adcode": 211224,
            "province": "辽宁省",
            "city": "铁岭市",
            "district": "昌图县"
        }
    },
    {
        "id": "2224182031984918485",
        "title": "公共厕所",
        "address": "辽宁省铁岭市昌图县303国道西50米",
        "tel": "",
        "category": "基础设施:公共设施:公共厕所",
        "type": 0,
        "location": {
            "lat": 43.34291,
            "lng": 123.765561
        },
        "ad_info": {
            "adcode": 211224,
            "province": "辽宁省",
            "city": "铁岭市",
            "district": "昌图县"
        }
    },
    {
        "id": "3985310010855391202",
        "title": "公共厕所",
        "address": "辽宁省铁岭市开原市光旭苗圃东侧",
        "tel": "",
        "category": "基础设施:公共设施:公共厕所",
        "type": 0,
        "location": {
            "lat": 42.523152,
            "lng": 124.074893
        },
        "ad_info": {
            "adcode": 211282,
            "province": "辽宁省",
            "city": "铁岭市",
            "district": "开原市"
        }
    },
    {
        "id": "5634948138271975267",
        "title": "公共厕所",
        "address": "辽宁省铁岭市铁岭县G102与万泉路交叉口正北方向257米左右",
        "tel": "",
        "category": "基础设施:公共设施:公共厕所",
        "type": 0,
        "location": {
            "lat": 42.108783,
            "lng": 123.65176
        },
        "ad_info": {
            "adcode": 211221,
            "province": "辽宁省",
            "city": "铁岭市",
            "district": "铁岭县"
        }
    },
    {
        "id": "8160472080365881321",
        "title": "公共厕所",
        "address": "辽宁省铁岭市铁岭县文化路与铁西街交叉口正南方向390米左右",
        "tel": "",
        "category": "基础设施:公共设施:公共厕所",
        "type": 0,
        "location": {
            "lat": 42.123497,
            "lng": 123.605757
        },
        "ad_info": {
            "adcode": 211221,
            "province": "辽宁省",
            "city": "铁岭市",
            "district": "铁岭县"
        }
    },
    {
        "id": "14288295782282599371",
        "title": "公共厕所",
        "address": "辽宁省铁岭市铁岭县沈环线与镇养线交叉口正西方向602米左右",
        "tel": "",
        "category": "基础设施:公共设施:公共厕所",
        "type": 0,
        "location": {
            "lat": 42.340248,
            "lng": 123.819499
        },
        "ad_info": {
            "adcode": 211221,
            "province": "辽宁省",
            "city": "铁岭市",
            "district": "铁岭县"
        }
    },
    {
        "id": "13409606825739316665",
        "title": "公共厕所",
        "address": "辽宁省铁岭市铁岭县G102与宋山线交叉口东北方向805米左右",
        "tel": "",
        "category": "基础设施:公共设施:公共厕所",
        "type": 0,
        "location": {
            "lat": 42.384567,
            "lng": 123.949564
        },
        "ad_info": {
            "adcode": 211221,
            "province": "辽宁省",
            "city": "铁岭市",
            "district": "铁岭县"
        }
    },
    {
        "id": "7067441765265802011",
        "title": "公共厕所",
        "address": "辽宁省铁岭市铁岭县G102与澜沧江路交叉口正西方向632米左右",
        "tel": "",
        "category": "基础设施:公共设施:公共厕所",
        "type": 0,
        "location": {
            "lat": 42.210596,
            "lng": 123.753521
        },
        "ad_info": {
            "adcode": 211221,
            "province": "辽宁省",
            "city": "铁岭市",
            "district": "铁岭县"
        }
    },
    {
        "id": "13232285608456183178",
        "title": "公共厕所",
        "address": "辽宁省铁岭市昌图县洪源生猪经营处西北侧120米",
        "tel": "",
        "category": "基础设施:公共设施:公共厕所",
        "type": 0,
        "location": {
            "lat": 42.866976,
            "lng": 123.842853
        },
        "ad_info": {
            "adcode": 211224,
            "province": "辽宁省",
            "city": "铁岭市",
            "district": "昌图县"
        }
    },
    {
        "id": "1345414696235460077",
        "title": "公共厕所",
        "address": "辽宁省铁岭市开原市中固镇白庙子小学西侧",
        "tel": "",
        "category": "基础设施:公共设施:公共厕所",
        "type": 0,
        "location": {
            "lat": 42.45467,
            "lng": 124.069472
        },
        "ad_info": {
            "adcode": 211282,
            "province": "辽宁省",
            "city": "铁岭市",
            "district": "开原市"
        }
    },
    {
        "id": "1211005016600102965",
        "title": "公共厕所",
        "address": "辽宁省铁岭市开原市G102与中兰线交叉口东北方向1771米左右",
        "tel": "",
        "category": "基础设施:公共设施:公共厕所",
        "type": 0,
        "location": {
            "lat": 42.441218,
            "lng": 124.016457
        },
        "ad_info": {
            "adcode": 211282,
            "province": "辽宁省",
            "city": "铁岭市",
            "district": "开原市"
        }
    },
    {
        "id": "2998968575786506563",
        "title": "公共厕所",
        "address": "辽宁省铁岭市开原市兴工路与铁东街交叉口正北方向188米左右",
        "tel": "",
        "category": "基础设施:公共设施:公共厕所",
        "type": 0,
        "location": {
            "lat": 42.552071,
            "lng": 124.033301
        },
        "ad_info": {
            "adcode": 211282,
            "province": "辽宁省",
            "city": "铁岭市",
            "district": "开原市"
        }
    },
    {
        "id": "16086905435156597954",
        "title": "公共厕所",
        "address": "辽宁省铁岭市开原市昌威线与辽开线交叉口西南方向1459米左右",
        "tel": "",
        "category": "基础设施:公共设施:公共厕所",
        "type": 0,
        "location": {
            "lat": 42.668013,
            "lng": 124.245231
        },
        "ad_info": {
            "adcode": 211282,
            "province": "辽宁省",
            "city": "铁岭市",
            "district": "开原市"
        }
    },
    {
        "id": "1993649901185830657",
        "title": "公共厕所",
        "address": "辽宁省铁岭市铁岭县沈环线与镇养线交叉口正西方向767米左右",
        "tel": "",
        "category": "基础设施:公共设施:公共厕所",
        "type": 0,
        "location": {
            "lat": 42.340939,
            "lng": 123.817662
        },
        "ad_info": {
            "adcode": 211221,
            "province": "辽宁省",
            "city": "铁岭市",
            "district": "铁岭县"
        }
    },
    {
        "id": "1027383745648099378",
        "title": "公共厕所",
        "address": "辽宁省铁岭市银州区富州路与柴河街南段交叉口东南方向140米左右",
        "tel": "",
        "category": "基础设施:公共设施:公共厕所",
        "type": 0,
        "location": {
            "lat": 42.261426,
            "lng": 123.827214
        },
        "ad_info": {
            "adcode": 211202,
            "province": "辽宁省",
            "city": "铁岭市",
            "district": "银州区"
        }
    },
    {
        "id": "15365928072177733726",
        "title": "公共厕所",
        "address": "辽宁省铁岭市开原市联盟路与长征街交叉口正西方向18米左右",
        "tel": "",
        "category": "基础设施:公共设施:公共厕所",
        "type": 0,
        "location": {
            "lat": 42.54565,
            "lng": 124.05087
        },
        "ad_info": {
            "adcode": 211282,
            "province": "辽宁省",
            "city": "铁岭市",
            "district": "开原市"
        }
    },
    {
        "id": "479506006488590478",
        "title": "公共厕所",
        "address": "辽宁省铁岭市银州区兴工街37号",
        "tel": "",
        "category": "基础设施:公共设施:公共厕所",
        "type": 0,
        "location": {
            "lat": 42.286582,
            "lng": 123.822851
        },
        "ad_info": {
            "adcode": 211202,
            "province": "辽宁省",
            "city": "铁岭市",
            "district": "银州区"
        }
    },
    {
        "id": "7696730042313645566",
        "title": "无障碍公共厕所",
        "address": "辽宁省铁岭市银州区卫校后巷与学府街交叉口正东方向16米左右",
        "tel": "",
        "category": "基础设施:公共设施:公共厕所",
        "type": 0,
        "location": {
            "lat": 42.283769,
            "lng": 123.871643
        },
        "ad_info": {
            "adcode": 211202,
            "province": "辽宁省",
            "city": "铁岭市",
            "district": "银州区"
        }
    },
    {
        "id": "2798578494300068186",
        "title": "公共厕所",
        "address": "辽宁省铁岭市昌图县文化大街与滨河南路交叉口正东方向127米左右",
        "tel": "",
        "category": "基础设施:公共设施:公共厕所",
        "type": 0,
        "location": {
            "lat": 42.780671,
            "lng": 124.10907
        },
        "ad_info": {
            "adcode": 211224,
            "province": "辽宁省",
            "city": "铁岭市",
            "district": "昌图县"
        }
    },
    {
        "id": "3588741991898032541",
        "title": "公共厕所",
        "address": "辽宁省铁岭市调兵山市中央大街与铁秀路交叉口西北方向52米左右",
        "tel": "",
        "category": "基础设施:公共设施:公共厕所",
        "type": 0,
        "location": {
            "lat": 42.459206,
            "lng": 123.553945
        },
        "ad_info": {
            "adcode": 211281,
            "province": "辽宁省",
            "city": "铁岭市",
            "district": "调兵山市"
        }
    },
    {
        "id": "8103204208948564998",
        "title": "公共厕所",
        "address": "辽宁省铁岭市银州区柴河街与龙翔路交叉口正北方向75米左右",
        "tel": "",
        "category": "基础设施:公共设施:公共厕所",
        "type": 0,
        "location": {
            "lat": 42.303357,
            "lng": 123.860954
        },
        "ad_info": {
            "adcode": 211202,
            "province": "辽宁省",
            "city": "铁岭市",
            "district": "银州区"
        }
    },
    {
        "id": "1468447065905693102",
        "title": "铁岭服务区公共厕所",
        "address": "辽宁省铁岭市银州区卫校后巷与学府街交叉口正东方向598米左右",
        "tel": "",
        "category": "基础设施:公共设施:公共厕所",
        "type": 0,
        "location": {
            "lat": 42.284664,
            "lng": 123.878591
        },
        "ad_info": {
            "adcode": 211202,
            "province": "辽宁省",
            "city": "铁岭市",
            "district": "银州区"
        }
    },
    {
        "id": "15389822288067356552",
        "title": "公用卫生间",
        "address": "辽宁省铁岭市银州区卫校后巷与学府街交叉口正东方向17米左右",
        "tel": "",
        "category": "基础设施:公共设施:公共厕所",
        "type": 0,
        "location": {
            "lat": 42.283721,
            "lng": 123.871647
        },
        "ad_info": {
            "adcode": 211202,
            "province": "辽宁省",
            "city": "铁岭市",
            "district": "银州区"
        }
    },
    {
        "id": "16026615982561396643",
        "title": "公共厕所",
        "address": "辽宁省铁岭市昌图县G102与文化大街交叉口东南方向642米左右",
        "tel": "",
        "category": "基础设施:公共设施:公共厕所",
        "type": 0,
        "location": {
            "lat": 42.758372,
            "lng": 124.11714
        },
        "ad_info": {
            "adcode": 211224,
            "province": "辽宁省",
            "city": "铁岭市",
            "district": "昌图县"
        }
    },
    {
        "id": "2144501210664094179",
        "title": "户外卫生间",
        "address": "辽宁省铁岭市清河区聂家九九草莓采摘园西北侧",
        "tel": "",
        "category": "基础设施:公共设施:公共厕所",
        "type": 0,
        "location": {
            "lat": 42.473519,
            "lng": 124.2804
        },
        "ad_info": {
            "adcode": 211204,
            "province": "辽宁省",
            "city": "铁岭市",
            "district": "清河区"
        }
    },
    {
        "id": "9241354354859596037",
        "title": "公共厕所",
        "address": "辽宁省铁岭市昌图县文化大街与昌盛路交叉口西北方向132米左右",
        "tel": "",
        "category": "基础设施:公共设施:公共厕所",
        "type": 0,
        "location": {
            "lat": 42.77867,
            "lng": 124.10793
        },
        "ad_info": {
            "adcode": 211224,
            "province": "辽宁省",
            "city": "铁岭市",
            "district": "昌图县"
        }
    },
    {
        "id": "16018990915751640807",
        "title": "西丰服务区公共厕所",
        "address": "辽宁省铁岭市西丰县东德线与辽开线交叉口东南方向1743米左右",
        "tel": "",
        "category": "基础设施:公共设施:公共厕所",
        "type": 0,
        "location": {
            "lat": 42.72936,
            "lng": 124.638114
        },
        "ad_info": {
            "adcode": 211223,
            "province": "辽宁省",
            "city": "铁岭市",
            "district": "西丰县"
        }
    },
    {
        "id": "17442276427083939647",
        "title": "公共厕所",
        "address": "辽宁省铁岭市昌图县北环路与文化大街交叉口正北方向43米左右",
        "tel": "",
        "category": "基础设施:公共设施:公共厕所",
        "type": 0,
        "location": {
            "lat": 42.788845,
            "lng": 124.104789
        },
        "ad_info": {
            "adcode": 211224,
            "province": "辽宁省",
            "city": "铁岭市",
            "district": "昌图县"
        }
    },
    {
        "id": "16170866803367824117",
        "title": "8号水洗公共厕所",
        "address": "辽宁省铁岭市西丰县菜市街(水岸家园)",
        "tel": "",
        "category": "基础设施:公共设施:公共厕所",
        "type": 0,
        "location": {
            "lat": 42.732833,
            "lng": 124.733603
        },
        "ad_info": {
            "adcode": 211223,
            "province": "辽宁省",
            "city": "铁岭市",
            "district": "西丰县"
        }
    },
    {
        "id": "7802137756020842385",
        "title": "公共厕所",
        "address": "辽宁省铁岭市昌图县东环路与新梨线交叉口正南方向337米左右",
        "tel": "",
        "category": "基础设施:公共设施:公共厕所",
        "type": 0,
        "location": {
            "lat": 43.201517,
            "lng": 124.065913
        },
        "ad_info": {
            "adcode": 211224,
            "province": "辽宁省",
            "city": "铁岭市",
            "district": "昌图县"
        }
    },
    {
        "id": "5326923841677967765",
        "title": "西丰服务区公共厕所",
        "address": "辽宁省铁岭市西丰县东德线与辽开线交叉口东南方向1799米左右",
        "tel": "",
        "category": "基础设施:公共设施:公共厕所",
        "type": 0,
        "location": {
            "lat": 42.731045,
            "lng": 124.642276
        },
        "ad_info": {
            "adcode": 211223,
            "province": "辽宁省",
            "city": "铁岭市",
            "district": "西丰县"
        }
    },
    {
        "id": "2261929141705101420",
        "title": "公共厕所",
        "address": "辽宁省铁岭市昌图县人武巷与松山路交叉口正南方向123米左右",
        "tel": "",
        "category": "基础设施:公共设施:公共厕所",
        "type": 0,
        "location": {
            "lat": 42.787852,
            "lng": 124.110792
        },
        "ad_info": {
            "adcode": 211224,
            "province": "辽宁省",
            "city": "铁岭市",
            "district": "昌图县"
        }
    },
    {
        "id": "6725286868624747915",
        "title": "昌图服务区公共厕所",
        "address": "辽宁省铁岭市昌图县京哈高速附近",
        "tel": "",
        "category": "基础设施:公共设施:公共厕所",
        "type": 0,
        "location": {
            "lat": 42.728221,
            "lng": 124.077638
        },
        "ad_info": {
            "adcode": 211224,
            "province": "辽宁省",
            "city": "铁岭市",
            "district": "昌图县"
        }
    },
    {
        "id": "3265066137096442849",
        "title": "服务区公共厕所",
        "address": "辽宁省铁岭市开原市兴开街与小李台街西七巷交叉口正南方向201米左右",
        "tel": "",
        "category": "基础设施:公共设施:公共厕所",
        "type": 0,
        "location": {
            "lat": 42.53655,
            "lng": 124.010505
        },
        "ad_info": {
            "adcode": 211282,
            "province": "辽宁省",
            "city": "铁岭市",
            "district": "开原市"
        }
    },
    {
        "id": "15004821913939995306",
        "title": "开原服务区公共厕所",
        "address": "辽宁省铁岭市开原市西环路与铁西街交叉口正西方向1928米左右",
        "tel": "",
        "category": "基础设施:公共设施:公共厕所",
        "type": 0,
        "location": {
            "lat": 42.517902,
            "lng": 124.004776
        },
        "ad_info": {
            "adcode": 211282,
            "province": "辽宁省",
            "city": "铁岭市",
            "district": "开原市"
        }
    },
    {
        "id": "12215599639294669162",
        "title": "宝力服务区公共厕所",
        "address": "辽宁省铁岭市昌图县平康高速宝力服务区",
        "tel": "",
        "category": "基础设施:公共设施:公共厕所",
        "type": 0,
        "location": {
            "lat": 42.867909,
            "lng": 123.819314
        },
        "ad_info": {
            "adcode": 211224,
            "province": "辽宁省",
            "city": "铁岭市",
            "district": "昌图县"
        }
    },
    {
        "id": "16639066501272924915",
        "title": "西丰服务区第二公共厕所",
        "address": "辽宁省铁岭市西丰县东德线与辽开线交叉口东南方向1792米左右",
        "tel": "",
        "category": "基础设施:公共设施:公共厕所",
        "type": 0,
        "location": {
            "lat": 42.729595,
            "lng": 124.639716
        },
        "ad_info": {
            "adcode": 211223,
            "province": "辽宁省",
            "city": "铁岭市",
            "district": "西丰县"
        }
    },
    {
        "id": "14074784398710614579",
        "title": "卫生间",
        "address": "辽宁省铁岭市昌图县滨北街与滨河北路交叉口正南方向31米左右",
        "tel": "",
        "category": "基础设施:公共设施:公共厕所",
        "type": 0,
        "location": {
            "lat": 42.779719,
            "lng": 124.099287
        },
        "ad_info": {
            "adcode": 211224,
            "province": "辽宁省",
            "city": "铁岭市",
            "district": "昌图县"
        }
    },
    {
        "id": "4577319704970446345",
        "title": "7号水洗公共厕所",
        "address": "辽宁省铁岭市西丰县沈平线与解放路交叉口正南方向78米左右",
        "tel": "",
        "category": "基础设施:公共设施:公共厕所",
        "type": 0,
        "location": {
            "lat": 42.737812,
            "lng": 124.735331
        },
        "ad_info": {
            "adcode": 211223,
            "province": "辽宁省",
            "city": "铁岭市",
            "district": "西丰县"
        }
    },
    {
        "id": "15352940273427092496",
        "title": "宝力服务区公共厕所",
        "address": "辽宁省铁岭市昌图县平康高速宝力服务区",
        "tel": "",
        "category": "基础设施:公共设施:公共厕所",
        "type": 0,
        "location": {
            "lat": 42.870012,
            "lng": 123.817785
        },
        "ad_info": {
            "adcode": 211224,
            "province": "辽宁省",
            "city": "铁岭市",
            "district": "昌图县"
        }
    },
    {
        "id": "17453667555861665876",
        "title": "公共厕所",
        "address": "辽宁省铁岭市调兵山市沈环线",
        "tel": "",
        "category": "基础设施:公共设施:公共厕所",
        "type": 0,
        "location": {
            "lat": 42.440086,
            "lng": 123.613176
        },
        "ad_info": {
            "adcode": 211281,
            "province": "辽宁省",
            "city": "铁岭市",
            "district": "调兵山市"
        }
    },
    {
        "id": "10775205690404911083",
        "title": "公共厕所",
        "address": "辽宁省铁岭市银州区兴工街与南环路交叉口正东方向57米左右",
        "tel": "",
        "category": "基础设施:公共设施:公共厕所",
        "type": 0,
        "location": {
            "lat": 42.286492,
            "lng": 123.822573
        },
        "ad_info": {
            "adcode": 211202,
            "province": "辽宁省",
            "city": "铁岭市",
            "district": "银州区"
        }
    },
    {
        "id": "1581651513513755817",
        "title": "公共厕所",
        "address": "辽宁省铁岭市开原市303省道西50米",
        "tel": "",
        "category": "基础设施:公共设施:公共厕所",
        "type": 0,
        "location": {
            "lat": 42.565327,
            "lng": 123.806156
        },
        "ad_info": {
            "adcode": 211282,
            "province": "辽宁省",
            "city": "铁岭市",
            "district": "开原市"
        }
    },
    {
        "id": "2949165999696260858",
        "title": "公共厕所",
        "address": "辽宁省铁岭市昌图县G102与泉头大桥交叉口西南方向976米左右",
        "tel": "",
        "category": "基础设施:公共设施:公共厕所",
        "type": 0,
        "location": {
            "lat": 42.856566,
            "lng": 124.164633
        },
        "ad_info": {
            "adcode": 211224,
            "province": "辽宁省",
            "city": "铁岭市",
            "district": "昌图县"
        }
    },
    {
        "id": "3917626542058170905",
        "title": "公共厕所",
        "address": "辽宁省铁岭市昌图县站前大街与迎宾路交叉口正北方向750米左右",
        "tel": "",
        "category": "基础设施:公共设施:公共厕所",
        "type": 0,
        "location": {
            "lat": 42.803094,
            "lng": 124.11253
        },
        "ad_info": {
            "adcode": 211224,
            "province": "辽宁省",
            "city": "铁岭市",
            "district": "昌图县"
        }
    },
    {
        "id": "6074089493257444691",
        "title": "公共厕所",
        "address": "辽宁省铁岭市银州区三百后巷与三百后胡同交叉口正西方向54米左右",
        "tel": "",
        "category": "基础设施:公共设施:公共厕所",
        "type": 0,
        "location": {
            "lat": 42.29926,
            "lng": 123.845477
        },
        "ad_info": {
            "adcode": 211202,
            "province": "辽宁省",
            "city": "铁岭市",
            "district": "银州区"
        }
    },
    {
        "id": "12321868292563781440",
        "title": "公共厕所",
        "address": "辽宁省铁岭市西丰县G303与沈平线交叉口正东方向103米左右",
        "tel": "",
        "category": "基础设施:公共设施:公共厕所",
        "type": 0,
        "location": {
            "lat": 42.966404,
            "lng": 124.868436
        },
        "ad_info": {
            "adcode": 211223,
            "province": "辽宁省",
            "city": "铁岭市",
            "district": "西丰县"
        }
    },
    {
        "id": "17332689666145625116",
        "title": "公共厕所",
        "address": "辽宁省铁岭市铁岭县G102与建马线交叉口东北方向1441米左右",
        "tel": "",
        "category": "基础设施:公共设施:公共厕所",
        "type": 0,
        "location": {
            "lat": 42.355008,
            "lng": 123.914355
        },
        "ad_info": {
            "adcode": 211221,
            "province": "辽宁省",
            "city": "铁岭市",
            "district": "铁岭县"
        }
    },
    {
        "id": "6854870821768073850",
        "title": "公共厕所",
        "address": "辽宁省铁岭市铁岭县孤懿线与阿陈线交叉口西南方向86米左右",
        "tel": "",
        "category": "基础设施:公共设施:公共厕所",
        "type": 0,
        "location": {
            "lat": 42.250243,
            "lng": 123.545259
        },
        "ad_info": {
            "adcode": 211221,
            "province": "辽宁省",
            "city": "铁岭市",
            "district": "铁岭县"
        }
    },
    {
        "id": "3423611687735758411",
        "title": "公共厕所",
        "address": "辽宁省铁岭市银州区北市北巷与广裕街交叉口西南方向217米左右",
        "tel": "",
        "category": "基础设施:公共设施:公共厕所",
        "type": 0,
        "location": {
            "lat": 42.308545,
            "lng": 123.850678
        },
        "ad_info": {
            "adcode": 211202,
            "province": "辽宁省",
            "city": "铁岭市",
            "district": "银州区"
        }
    },
    {
        "id": "2416737559268759182",
        "title": "公共厕所",
        "address": "辽宁省铁岭市银州区银冈路银岗小区",
        "tel": "",
        "category": "基础设施:公共设施:公共厕所",
        "type": 0,
        "location": {
            "lat": 42.299325,
            "lng": 123.849385
        },
        "ad_info": {
            "adcode": 211202,
            "province": "辽宁省",
            "city": "铁岭市",
            "district": "银州区"
        }
    },
    {
        "id": "905492448158603396",
        "title": "公共厕所",
        "address": "辽宁省铁岭市昌图县X057大力加油站",
        "tel": "",
        "category": "基础设施:公共设施:公共厕所",
        "type": 0,
        "location": {
            "lat": 43.476199,
            "lng": 123.771983
        },
        "ad_info": {
            "adcode": 211224,
            "province": "辽宁省",
            "city": "铁岭市",
            "district": "昌图县"
        }
    },
    {
        "id": "7065201981196829156",
        "title": "毛家店服务区第二公共厕所",
        "address": "辽宁省铁岭市昌图县京哈高速毛家店服务区",
        "tel": "",
        "category": "基础设施:公共设施:公共厕所",
        "type": 0,
        "location": {
            "lat": 43.08948,
            "lng": 124.399628
        },
        "ad_info": {
            "adcode": 211224,
            "province": "辽宁省",
            "city": "铁岭市",
            "district": "昌图县"
        }
    },
    {
        "id": "15385794705092677697",
        "title": "公共厕所",
        "address": "辽宁省铁岭市昌图县城关街与政府大路交叉口正东方向307米左右",
        "tel": "",
        "category": "基础设施:公共设施:公共厕所",
        "type": 0,
        "location": {
            "lat": 42.787718,
            "lng": 124.12209
        },
        "ad_info": {
            "adcode": 211224,
            "province": "辽宁省",
            "city": "铁岭市",
            "district": "昌图县"
        }
    },
    {
        "id": "1660943015459919272",
        "title": "公共厕所",
        "address": "辽宁省铁岭市铁岭县小黄线与钟山北路交叉口正西方向770米左右",
        "tel": "",
        "category": "基础设施:公共设施:公共厕所",
        "type": 0,
        "location": {
            "lat": 42.272941,
            "lng": 123.757538
        },
        "ad_info": {
            "adcode": 211221,
            "province": "辽宁省",
            "city": "铁岭市",
            "district": "铁岭县"
        }
    },
    {
        "id": "2849398080006624759",
        "title": "公共厕所",
        "address": "辽宁省铁岭市开原市汽车客运站进站口内",
        "tel": "",
        "category": "基础设施:公共设施:公共厕所",
        "type": 0,
        "location": {
            "lat": 42.545776,
            "lng": 124.034376
        },
        "ad_info": {
            "adcode": 211282,
            "province": "辽宁省",
            "city": "铁岭市",
            "district": "开原市"
        }
    },
    {
        "id": "7038830208479971089",
        "title": "公共厕所",
        "address": "辽宁省铁岭市西丰县寇河湿地公园西侧50米",
        "tel": "",
        "category": "基础设施:公共设施:公共厕所",
        "type": 0,
        "location": {
            "lat": 42.730516,
            "lng": 124.708606
        },
        "ad_info": {
            "adcode": 211223,
            "province": "辽宁省",
            "city": "铁岭市",
            "district": "西丰县"
        }
    },
    {
        "id": "2500370904835297877",
        "title": "公共厕所",
        "address": "辽宁省铁岭市银州区市政家属楼西侧70米",
        "tel": "",
        "category": "基础设施:公共设施:公共厕所",
        "type": 0,
        "location": {
            "lat": 42.291324,
            "lng": 123.820828
        },
        "ad_info": {
            "adcode": 211202,
            "province": "辽宁省",
            "city": "铁岭市",
            "district": "银州区"
        }
    },
    {
        "id": "16348153007631309969",
        "title": "公共厕所",
        "address": "辽宁省铁岭市开原市北环路与铁东街交叉口正西方向388米左右",
        "tel": "",
        "category": "基础设施:公共设施:公共厕所",
        "type": 0,
        "location": {
            "lat": 42.553174,
            "lng": 124.029345
        },
        "ad_info": {
            "adcode": 211282,
            "province": "辽宁省",
            "city": "铁岭市",
            "district": "开原市"
        }
    },
    {
        "id": "11296653484817573037",
        "title": "李千户服务区公共厕所",
        "address": "辽宁省铁岭市铁岭县中国石化辽宁交投李千户服务区加油站西侧100米",
        "tel": "",
        "category": "基础设施:公共设施:公共厕所",
        "type": 0,
        "location": {
            "lat": 42.118895,
            "lng": 123.907788
        },
        "ad_info": {
            "adcode": 211221,
            "province": "辽宁省",
            "city": "铁岭市",
            "district": "铁岭县"
        }
    },
    {
        "id": "12432384054510386121",
        "title": "公共厕所",
        "address": "辽宁省铁岭市铁岭县凡河北路与长白山路交叉口正西方向574米左右",
        "tel": "",
        "category": "基础设施:公共设施:公共厕所",
        "type": 0,
        "location": {
            "lat": 42.214913,
            "lng": 123.725219
        },
        "ad_info": {
            "adcode": 211221,
            "province": "辽宁省",
            "city": "铁岭市",
            "district": "铁岭县"
        }
    },
    {
        "id": "13853486735455937775",
        "title": "昌图服务区公共厕所",
        "address": "辽宁省铁岭市昌图县G1京哈高速东150米附近",
        "tel": "",
        "category": "基础设施:公共设施:公共厕所",
        "type": 0,
        "location": {
            "lat": 42.726537,
            "lng": 124.080366
        },
        "ad_info": {
            "adcode": 211224,
            "province": "辽宁省",
            "city": "铁岭市",
            "district": "昌图县"
        }
    },
    {
        "id": "4928490913330376431",
        "title": "公共厕所",
        "address": "辽宁省铁岭市银州区北五路与汇工街交叉口西北方向227米左右",
        "tel": "",
        "category": "基础设施:公共设施:公共厕所",
        "type": 0,
        "location": {
            "lat": 42.309446,
            "lng": 123.836886
        },
        "ad_info": {
            "adcode": 211202,
            "province": "辽宁省",
            "city": "铁岭市",
            "district": "银州区"
        }
    },
    {
        "id": "4695897559563187246",
        "title": "公共厕所",
        "address": "辽宁省铁岭市调兵山市铁煤集团机械制造有限责任公司立新分厂西北侧210米",
        "tel": "",
        "category": "基础设施:公共设施:公共厕所",
        "type": 0,
        "location": {
            "lat": 42.525483,
            "lng": 123.6455
        },
        "ad_info": {
            "adcode": 211281,
            "province": "辽宁省",
            "city": "铁岭市",
            "district": "调兵山市"
        }
    },
    {
        "id": "15106396842414937575",
        "title": "公共厕所",
        "address": "辽宁省铁岭市铁岭县钟山北路与钟山路交叉口正北方向532米左右",
        "tel": "",
        "category": "基础设施:公共设施:公共厕所",
        "type": 0,
        "location": {
            "lat": 42.257964,
            "lng": 123.753519
        },
        "ad_info": {
            "adcode": 211221,
            "province": "辽宁省",
            "city": "铁岭市",
            "district": "铁岭县"
        }
    },
    {
        "id": "1413622091704903588",
        "title": "公共厕所",
        "address": "辽宁省铁岭市清河区清河路与清貂线交叉口正南方向591米左右",
        "tel": "",
        "category": "基础设施:公共设施:公共厕所",
        "type": 0,
        "location": {
            "lat": 42.538837,
            "lng": 124.13178
        },
        "ad_info": {
            "adcode": 211204,
            "province": "辽宁省",
            "city": "铁岭市",
            "district": "清河区"
        }
    },
    {
        "id": "4379564874617806554",
        "title": "公共厕所",
        "address": "辽宁省铁岭市昌图县G102与双大线交叉口东北方向60米左右",
        "tel": "",
        "category": "基础设施:公共设施:公共厕所",
        "type": 0,
        "location": {
            "lat": 42.946056,
            "lng": 124.215671
        },
        "ad_info": {
            "adcode": 211224,
            "province": "辽宁省",
            "city": "铁岭市",
            "district": "昌图县"
        }
    },
    {
        "id": "17413277511708305493",
        "title": "公共厕所",
        "address": "辽宁省铁岭市西丰县G303与沈平线交叉口东北方向73米左右",
        "tel": "",
        "category": "基础设施:公共设施:公共厕所",
        "type": 0,
        "location": {
            "lat": 42.967049,
            "lng": 124.868019
        },
        "ad_info": {
            "adcode": 211223,
            "province": "辽宁省",
            "city": "铁岭市",
            "district": "西丰县"
        }
    },
    {
        "id": "5108172569221438940",
        "title": "公共厕所",
        "address": "辽宁省铁岭市西丰县沈平线与辽开线交叉口东北方向470米左右",
        "tel": "",
        "category": "基础设施:公共设施:公共厕所",
        "type": 0,
        "location": {
            "lat": 42.742696,
            "lng": 124.740273
        },
        "ad_info": {
            "adcode": 211223,
            "province": "辽宁省",
            "city": "铁岭市",
            "district": "西丰县"
        }
    },
    {
        "id": "4263018049946745636",
        "title": "毛家店服务区公共厕所",
        "address": "辽宁省铁岭市昌图县毛家店服务区东南侧",
        "tel": "",
        "category": "基础设施:公共设施:公共厕所",
        "type": 0,
        "location": {
            "lat": 43.089852,
            "lng": 124.402292
        },
        "ad_info": {
            "adcode": 211224,
            "province": "辽宁省",
            "city": "铁岭市",
            "district": "昌图县"
        }
    },
    {
        "id": "685324773304006875",
        "title": "公共卫生间",
        "address": "辽宁省铁岭市昌图县北环路与影院大街交叉口正南方向39米左右",
        "tel": "",
        "category": "基础设施:公共设施:公共厕所",
        "type": 0,
        "location": {
            "lat": 42.789414,
            "lng": 124.108726
        },
        "ad_info": {
            "adcode": 211224,
            "province": "辽宁省",
            "city": "铁岭市",
            "district": "昌图县"
        }
    },
    {
        "id": "11069600005713966301",
        "title": "公共厕所",
        "address": "辽宁省铁岭市昌图县北环路与影院大街交叉口正北方向139米左右",
        "tel": "",
        "category": "基础设施:公共设施:公共厕所",
        "type": 0,
        "location": {
            "lat": 42.790985,
            "lng": 124.109224
        },
        "ad_info": {
            "adcode": 211224,
            "province": "辽宁省",
            "city": "铁岭市",
            "district": "昌图县"
        }
    },
    {
        "id": "832691493485266530",
        "title": "公共厕所",
        "address": "辽宁省铁岭市铁岭县G102与懿水线交叉口正北方向278米左右",
        "tel": "",
        "category": "基础设施:公共设施:公共厕所",
        "type": 0,
        "location": {
            "lat": 42.10289,
            "lng": 123.649818
        },
        "ad_info": {
            "adcode": 211221,
            "province": "辽宁省",
            "city": "铁岭市",
            "district": "铁岭县"
        }
    },
    {
        "id": "2126096129992778404",
        "title": "开原服务区公共厕所",
        "address": "辽宁省铁岭市开原市G1京哈高速西150米",
        "tel": "",
        "category": "基础设施:公共设施:公共厕所",
        "type": 0,
        "location": {
            "lat": 42.518144,
            "lng": 124.001176
        },
        "ad_info": {
            "adcode": 211282,
            "province": "辽宁省",
            "city": "铁岭市",
            "district": "开原市"
        }
    },
    {
        "id": "2615880530129514617",
        "title": "公共厕所",
        "address": "辽宁省铁岭市铁岭县孤懿线与沈环线交叉口正西方向39米左右",
        "tel": "",
        "category": "基础设施:公共设施:公共厕所",
        "type": 0,
        "location": {
            "lat": 42.395574,
            "lng": 123.707211
        },
        "ad_info": {
            "adcode": 211221,
            "province": "辽宁省",
            "city": "铁岭市",
            "district": "铁岭县"
        }
    },
    {
        "id": "4511340268912766093",
        "title": "公共厕所",
        "address": "辽宁省铁岭市银州区三铁门巷与汇工街交叉口正北方向155米左右",
        "tel": "",
        "category": "基础设施:公共设施:公共厕所",
        "type": 0,
        "location": {
            "lat": 42.311405,
            "lng": 123.840871
        },
        "ad_info": {
            "adcode": 211202,
            "province": "辽宁省",
            "city": "铁岭市",
            "district": "银州区"
        }
    },
    {
        "id": "4722671525831958911",
        "title": "公共厕所",
        "address": "辽宁省铁岭市开原市八一街与北环路交叉口正东方向290米左右",
        "tel": "",
        "category": "基础设施:公共设施:公共厕所",
        "type": 0,
        "location": {
            "lat": 42.55435,
            "lng": 124.042547
        },
        "ad_info": {
            "adcode": 211282,
            "province": "辽宁省",
            "city": "铁岭市",
            "district": "开原市"
        }
    },
    {
        "id": "10255304248580165950",
        "title": "公共厕所",
        "address": "辽宁省铁岭市铁岭县G203与天王北街交叉口西北方向650米左右",
        "tel": "",
        "category": "基础设施:公共设施:公共厕所",
        "type": 0,
        "location": {
            "lat": 42.192334,
            "lng": 123.484014
        },
        "ad_info": {
            "adcode": 211221,
            "province": "辽宁省",
            "city": "铁岭市",
            "district": "铁岭县"
        }
    },
    {
        "id": "17416209091240785327",
        "title": "公共厕所",
        "address": "辽宁省铁岭市银州区光荣街南段56号",
        "tel": "",
        "category": "基础设施:公共设施:公共厕所",
        "type": 0,
        "location": {
            "lat": 42.27554,
            "lng": 123.829838
        },
        "ad_info": {
            "adcode": 211202,
            "province": "辽宁省",
            "city": "铁岭市",
            "district": "银州区"
        }
    },
    {
        "id": "1244886375433627094",
        "title": "公共厕所",
        "address": "辽宁省铁岭市银州区三铁门巷与汇工街交叉口东北方向259米左右",
        "tel": "",
        "category": "基础设施:公共设施:公共厕所",
        "type": 0,
        "location": {
            "lat": 42.311054,
            "lng": 123.843704
        },
        "ad_info": {
            "adcode": 211202,
            "province": "辽宁省",
            "city": "铁岭市",
            "district": "银州区"
        }
    },
    {
        "id": "9723155009477933553",
        "title": "公共厕所",
        "address": "辽宁省铁岭市银州区兴工街与铁西路交叉口东南方向112米左右",
        "tel": "",
        "category": "基础设施:公共设施:公共厕所",
        "type": 0,
        "location": {
            "lat": 42.296601,
            "lng": 123.826765
        },
        "ad_info": {
            "adcode": 211202,
            "province": "辽宁省",
            "city": "铁岭市",
            "district": "银州区"
        }
    },
    {
        "id": "704345563393765169",
        "title": "公共厕所",
        "address": "辽宁省铁岭市开原市义和路与铁西街交叉口正北方向257米左右",
        "tel": "",
        "category": "基础设施:公共设施:公共厕所",
        "type": 0,
        "location": {
            "lat": 42.545471,
            "lng": 124.025542
        },
        "ad_info": {
            "adcode": 211282,
            "province": "辽宁省",
            "city": "铁岭市",
            "district": "开原市"
        }
    },
    {
        "id": "3397109754588515440",
        "title": "公共厕所",
        "address": "辽宁省铁岭市银州区南环路34号",
        "tel": "",
        "category": "基础设施:公共设施:公共厕所",
        "type": 0,
        "location": {
            "lat": 42.281068,
            "lng": 123.850098
        },
        "ad_info": {
            "adcode": 211202,
            "province": "辽宁省",
            "city": "铁岭市",
            "district": "银州区"
        }
    },
    {
        "id": "3135021955938753912",
        "title": "公共厕所",
        "address": "辽宁省铁岭市银州区G102与辽海北路交叉口正北方向79米左右",
        "tel": "",
        "category": "基础设施:公共设施:公共厕所",
        "type": 0,
        "location": {
            "lat": 42.236907,
            "lng": 123.793381
        },
        "ad_info": {
            "adcode": 211202,
            "province": "辽宁省",
            "city": "铁岭市",
            "district": "银州区"
        }
    },
    {
        "id": "3471942764123386817",
        "title": "公共厕所",
        "address": "辽宁省铁岭市银州区北三路与汇工街交叉口正西方向579米左右",
        "tel": "",
        "category": "基础设施:公共设施:公共厕所",
        "type": 0,
        "location": {
            "lat": 42.306159,
            "lng": 123.828336
        },
        "ad_info": {
            "adcode": 211202,
            "province": "辽宁省",
            "city": "铁岭市",
            "district": "银州区"
        }
    },
    {
        "id": "3275619813400391142",
        "title": "公共厕所",
        "address": "辽宁省铁岭市昌图县G303与X057交叉口正南方向1497米左右",
        "tel": "",
        "category": "基础设施:公共设施:公共厕所",
        "type": 0,
        "location": {
            "lat": 43.390985,
            "lng": 123.730695
        },
        "ad_info": {
            "adcode": 211224,
            "province": "辽宁省",
            "city": "铁岭市",
            "district": "昌图县"
        }
    },
    {
        "id": "11120072002636493794",
        "title": "公共厕所",
        "address": "辽宁省铁岭市开原市孙台路与开原大街交叉口正南方向67米左右",
        "tel": "",
        "category": "基础设施:公共设施:公共厕所",
        "type": 0,
        "location": {
            "lat": 42.538011,
            "lng": 124.035157
        },
        "ad_info": {
            "adcode": 211282,
            "province": "辽宁省",
            "city": "铁岭市",
            "district": "开原市"
        }
    },
    {
        "id": "7625782443834155777",
        "title": "公共厕所",
        "address": "辽宁省铁岭市西丰县沈平线与辽开线交叉口东北方向209米左右",
        "tel": "",
        "category": "基础设施:公共设施:公共厕所",
        "type": 0,
        "location": {
            "lat": 42.741423,
            "lng": 124.73754
        },
        "ad_info": {
            "adcode": 211223,
            "province": "辽宁省",
            "city": "铁岭市",
            "district": "西丰县"
        }
    },
    {
        "id": "1861722148565250139",
        "title": "铁岭服务区公共厕所",
        "address": "辽宁省铁岭市银州区卫校后巷与学府街交叉口正东方向748米左右",
        "tel": "",
        "category": "基础设施:公共设施:公共厕所",
        "type": 0,
        "location": {
            "lat": 42.282063,
            "lng": 123.880217
        },
        "ad_info": {
            "adcode": 211202,
            "province": "辽宁省",
            "city": "铁岭市",
            "district": "银州区"
        }
    },
    {
        "id": "12731314929252794923",
        "title": "公共厕所",
        "address": "辽宁省铁岭市清河区向阳街与繁荣路交叉口西南方向31米左右",
        "tel": "",
        "category": "基础设施:公共设施:公共厕所",
        "type": 0,
        "location": {
            "lat": 42.539649,
            "lng": 124.146975
        },
        "ad_info": {
            "adcode": 211204,
            "province": "辽宁省",
            "city": "铁岭市",
            "district": "清河区"
        }
    },
    {
        "id": "1957609041118367016",
        "title": "公共厕所",
        "address": "辽宁省铁岭市开原市甲兰线与中兰线交叉口正南方向529米",
        "tel": "",
        "category": "基础设施:公共设施:公共厕所",
        "type": 0,
        "location": {
            "lat": 42.258507,
            "lng": 124.273051
        },
        "ad_info": {
            "adcode": 211282,
            "province": "辽宁省",
            "city": "铁岭市",
            "district": "开原市"
        }
    },
    {
        "id": "15152447245160531842",
        "title": "松山雅境-公共厕所",
        "address": "辽宁省铁岭市昌图县北环路与影院大街交叉口东北方向173米左右",
        "tel": "",
        "category": "基础设施:公共设施:公共厕所",
        "type": 0,
        "location": {
            "lat": 42.790592,
            "lng": 124.110597
        },
        "ad_info": {
            "adcode": 211224,
            "province": "辽宁省",
            "city": "铁岭市",
            "district": "昌图县"
        }
    },
    {
        "id": "6806903929266646150",
        "title": "公共厕所",
        "address": "辽宁省铁岭市西丰县沈平线与辽开线交叉口东北方向692米左右",
        "tel": "",
        "category": "基础设施:公共设施:公共厕所",
        "type": 0,
        "location": {
            "lat": 42.745455,
            "lng": 124.739958
        },
        "ad_info": {
            "adcode": 211223,
            "province": "辽宁省",
            "city": "铁岭市",
            "district": "西丰县"
        }
    },
    {
        "id": "11164977274445123026",
        "title": "公共厕所",
        "address": "辽宁省铁岭市银州区京哈高速与铁岭互通交叉口正北方向187米左右",
        "tel": "",
        "category": "基础设施:公共设施:公共厕所",
        "type": 0,
        "location": {
            "lat": 42.244161,
            "lng": 123.805328
        },
        "ad_info": {
            "adcode": 211202,
            "province": "辽宁省",
            "city": "铁岭市",
            "district": "银州区"
        }
    },
    {
        "id": "13988035492122804168",
        "title": "公共厕所",
        "address": "辽宁省铁岭市昌图县S302中国石化加油站(老城殡仪馆西)",
        "tel": "",
        "category": "基础设施:公共设施:公共厕所",
        "type": 0,
        "location": {
            "lat": 42.785857,
            "lng": 124.020619
        },
        "ad_info": {
            "adcode": 211224,
            "province": "辽宁省",
            "city": "铁岭市",
            "district": "昌图县"
        }
    },
    {
        "id": "6136933983014502147",
        "title": "公共厕所",
        "address": "辽宁省铁岭市昌图县S302与十两线交叉口正东方向44米左右",
        "tel": "",
        "category": "基础设施:公共设施:公共厕所",
        "type": 0,
        "location": {
            "lat": 42.654908,
            "lng": 123.742446
        },
        "ad_info": {
            "adcode": 211224,
            "province": "辽宁省",
            "city": "铁岭市",
            "district": "昌图县"
        }
    },
    {
        "id": "6329347298911279413",
        "title": "公共厕所",
        "address": "辽宁省铁岭市西丰县小南路与菜市街交叉口东南200米",
        "tel": "",
        "category": "基础设施:公共设施:公共厕所",
        "type": 0,
        "location": {
            "lat": 42.733604,
            "lng": 124.729886
        },
        "ad_info": {
            "adcode": 211223,
            "province": "辽宁省",
            "city": "铁岭市",
            "district": "西丰县"
        }
    },
    {
        "id": "15053096209580947337",
        "title": "公共厕所",
        "address": "辽宁省铁岭市昌图县海花园东南侧160米",
        "tel": "",
        "category": "基础设施:公共设施:公共厕所",
        "type": 0,
        "location": {
            "lat": 42.784051,
            "lng": 124.004924
        },
        "ad_info": {
            "adcode": 211224,
            "province": "辽宁省",
            "city": "铁岭市",
            "district": "昌图县"
        }
    },
    {
        "id": "14023072673034579188",
        "title": "公共厕所",
        "address": "辽宁省铁岭市西丰县沈平线与辽开线交叉口正东方向1109米左右",
        "tel": "",
        "category": "基础设施:公共设施:公共厕所",
        "type": 0,
        "location": {
            "lat": 42.738207,
            "lng": 124.749149
        },
        "ad_info": {
            "adcode": 211223,
            "province": "辽宁省",
            "city": "铁岭市",
            "district": "西丰县"
        }
    },
    {
        "id": "9556867554705753257",
        "title": "公共厕所",
        "address": "辽宁省铁岭市银州区广裕街交通运输局旁",
        "tel": "",
        "category": "基础设施:公共设施:公共厕所",
        "type": 0,
        "location": {
            "lat": 42.285767,
            "lng": 123.844008
        },
        "ad_info": {
            "adcode": 211202,
            "province": "辽宁省",
            "city": "铁岭市",
            "district": "银州区"
        }
    },
    {
        "id": "17493585912185808518",
        "title": "公共厕所",
        "address": "辽宁省铁岭市西丰县红光街与顺城路交叉口正西方向576米左右",
        "tel": "",
        "category": "基础设施:公共设施:公共厕所",
        "type": 0,
        "location": {
            "lat": 42.741781,
            "lng": 124.702164
        },
        "ad_info": {
            "adcode": 211223,
            "province": "辽宁省",
            "city": "铁岭市",
            "district": "西丰县"
        }
    },
    {
        "id": "6388917577922103684",
        "title": "公共厕所",
        "address": "辽宁省铁岭市铁岭县G102与中利大道交叉口西南方向529米左右",
        "tel": "",
        "category": "基础设施:公共设施:公共厕所",
        "type": 0,
        "location": {
            "lat": 42.162475,
            "lng": 123.718954
        },
        "ad_info": {
            "adcode": 211221,
            "province": "辽宁省",
            "city": "铁岭市",
            "district": "铁岭县"
        }
    },
    {
        "id": "14905862431754613534",
        "title": "公共厕所",
        "address": "辽宁省铁岭市昌图县文化大街与迎宾路交叉口东南方向40米左右",
        "tel": "",
        "category": "基础设施:公共设施:公共厕所",
        "type": 0,
        "location": {
            "lat": 42.793292,
            "lng": 124.103223
        },
        "ad_info": {
            "adcode": 211224,
            "province": "辽宁省",
            "city": "铁岭市",
            "district": "昌图县"
        }
    },
    {
        "id": "4597743722838084911",
        "title": "李千户服务区公共厕所",
        "address": "辽宁省铁岭市铁岭县中国石化辽宁交投李千户服务区加油站东侧100米",
        "tel": "",
        "category": "基础设施:公共设施:公共厕所",
        "type": 0,
        "location": {
            "lat": 42.120848,
            "lng": 123.90913
        },
        "ad_info": {
            "adcode": 211221,
            "province": "辽宁省",
            "city": "铁岭市",
            "district": "铁岭县"
        }
    },
    {
        "id": "13315891149630045309",
        "title": "公共厕所",
        "address": "辽宁省铁岭市昌图县G102与XC07交叉口正西方向1212米左右",
        "tel": "",
        "category": "基础设施:公共设施:公共厕所",
        "type": 0,
        "location": {
            "lat": 42.788924,
            "lng": 124.134539
        },
        "ad_info": {
            "adcode": 211224,
            "province": "辽宁省",
            "city": "铁岭市",
            "district": "昌图县"
        }
    },
    {
        "id": "14986110364467243282",
        "title": "铁岭金城粤海国际酒店-洗手间",
        "address": "辽宁省铁岭市银州区广裕街与银州路交叉口西南方向136米左右",
        "tel": "",
        "category": "基础设施:公共设施:公共厕所",
        "type": 0,
        "location": {
            "lat": 42.290375,
            "lng": 123.84483
        },
        "ad_info": {
            "adcode": 211202,
            "province": "辽宁省",
            "city": "铁岭市",
            "district": "银州区"
        }
    },
    {
        "id": "8095142156692517871",
        "title": "公共厕所",
        "address": "辽宁省铁岭市银州区兴工街与北一路交叉口东北方向125米左右",
        "tel": "",
        "category": "基础设施:公共设施:公共厕所",
        "type": 0,
        "location": {
            "lat": 42.294039,
            "lng": 123.824784
        },
        "ad_info": {
            "adcode": 211202,
            "province": "辽宁省",
            "city": "铁岭市",
            "district": "银州区"
        }
    },
    {
        "id": "5242874980004946584",
        "title": "腰堡服务区公共厕所",
        "address": "辽宁省铁岭市铁岭县前进路与学苑街交叉口正北方向281米左右",
        "tel": "",
        "category": "基础设施:公共设施:公共厕所",
        "type": 0,
        "location": {
            "lat": 42.161958,
            "lng": 123.694431
        },
        "ad_info": {
            "adcode": 211221,
            "province": "辽宁省",
            "city": "铁岭市",
            "district": "铁岭县"
        }
    }
]