[
    {
        "id": "14515409923706180447",
        "title": "公共厕所",
        "address": "贵州省铜仁市碧江区清水大道与武陵山大道交叉口东南方向160米",
        "tel": "",
        "category": "基础设施:公共设施:公共厕所",
        "type": 0,
        "location": {
            "lat": 27.739655,
            "lng": 109.202808
        },
        "ad_info": {
            "adcode": 520602,
            "province": "贵州省",
            "city": "铜仁市",
            "district": "碧江区"
        }
    },
    {
        "id": "7563866102416029504",
        "title": "公共厕所",
        "address": "贵州省铜仁市碧江区铜江路与锦江东路交叉口东北方向59米左右",
        "tel": "",
        "category": "基础设施:公共设施:公共厕所",
        "type": 0,
        "location": {
            "lat": 27.711998,
            "lng": 109.191017
        },
        "ad_info": {
            "adcode": 520602,
            "province": "贵州省",
            "city": "铜仁市",
            "district": "碧江区"
        }
    },
    {
        "id": "12054176832411402041",
        "title": "公共厕所",
        "address": "贵州省铜仁市碧江区桐梓巷路与梵净山大道交叉口东南方向36米左右",
        "tel": "",
        "category": "基础设施:公共设施:公共厕所",
        "type": 0,
        "location": {
            "lat": 27.708225,
            "lng": 109.191712
        },
        "ad_info": {
            "adcode": 520602,
            "province": "贵州省",
            "city": "铜仁市",
            "district": "碧江区"
        }
    },
    {
        "id": "16331480696479814560",
        "title": "公共厕所",
        "address": "贵州省铜仁市碧江区桃源大道与诚信路交叉口西南方向61米左右",
        "tel": "",
        "category": "基础设施:公共设施:公共厕所",
        "type": 0,
        "location": {
            "lat": 27.792926,
            "lng": 109.224828
        },
        "ad_info": {
            "adcode": 520602,
            "province": "贵州省",
            "city": "铜仁市",
            "district": "碧江区"
        }
    },
    {
        "id": "16428404807894429437",
        "title": "公共厕所",
        "address": "贵州省铜仁市碧江区水巷路与赵家湾路交叉口西北方向114米左右",
        "tel": "",
        "category": "基础设施:公共设施:公共厕所",
        "type": 0,
        "location": {
            "lat": 27.723834,
            "lng": 109.189514
        },
        "ad_info": {
            "adcode": 520602,
            "province": "贵州省",
            "city": "铜仁市",
            "district": "碧江区"
        }
    },
    {
        "id": "4747330486873080366",
        "title": "公共厕所",
        "address": "贵州省铜仁市碧江区喜多多购物广场(环北路东)",
        "tel": "",
        "category": "基础设施:公共设施:公共厕所",
        "type": 0,
        "location": {
            "lat": 27.72211,
            "lng": 109.194031
        },
        "ad_info": {
            "adcode": 520602,
            "province": "贵州省",
            "city": "铜仁市",
            "district": "碧江区"
        }
    },
    {
        "id": "4032585683705048705",
        "title": "公共厕所",
        "address": "贵州省铜仁市碧江区民主路110号四季青农贸市场小十字菜市场",
        "tel": "",
        "category": "基础设施:公共设施:公共厕所",
        "type": 0,
        "location": {
            "lat": 27.719534,
            "lng": 109.194445
        },
        "ad_info": {
            "adcode": 520602,
            "province": "贵州省",
            "city": "铜仁市",
            "district": "碧江区"
        }
    },
    {
        "id": "3166743446443358790",
        "title": "公共厕所",
        "address": "贵州省铜仁市碧江区兴智西路与聚智南路交叉口东北方向238米左右",
        "tel": "",
        "category": "基础设施:公共设施:公共厕所",
        "type": 0,
        "location": {
            "lat": 27.839845,
            "lng": 109.263962
        },
        "ad_info": {
            "adcode": 520602,
            "province": "贵州省",
            "city": "铜仁市",
            "district": "碧江区"
        }
    },
    {
        "id": "5560317966939939013",
        "title": "公共厕所",
        "address": "贵州省铜仁市碧江区中华路与环北路交叉口西北方向30米左右",
        "tel": "",
        "category": "基础设施:公共设施:公共厕所",
        "type": 0,
        "location": {
            "lat": 27.720053,
            "lng": 109.192307
        },
        "ad_info": {
            "adcode": 520602,
            "province": "贵州省",
            "city": "铜仁市",
            "district": "碧江区"
        }
    },
    {
        "id": "12868636010293350734",
        "title": "公共厕所",
        "address": "贵州省铜仁市碧江区武陵山大道与河上田路交叉口正北方向26米左右",
        "tel": "",
        "category": "基础设施:公共设施:公共厕所",
        "type": 0,
        "location": {
            "lat": 27.744853,
            "lng": 109.204662
        },
        "ad_info": {
            "adcode": 520602,
            "province": "贵州省",
            "city": "铜仁市",
            "district": "碧江区"
        }
    },
    {
        "id": "4749098414801781402",
        "title": "公共厕所",
        "address": "贵州省铜仁市碧江区梵净山大道与香樟路交叉口正南方向76米左右",
        "tel": "",
        "category": "基础设施:公共设施:公共厕所",
        "type": 0,
        "location": {
            "lat": 27.690528,
            "lng": 109.187424
        },
        "ad_info": {
            "adcode": 520602,
            "province": "贵州省",
            "city": "铜仁市",
            "district": "碧江区"
        }
    },
    {
        "id": "5769189355624838697",
        "title": "公共厕所",
        "address": "贵州省铜仁市碧江区大庆路9号",
        "tel": "",
        "category": "基础设施:公共设施:公共厕所",
        "type": 0,
        "location": {
            "lat": 27.71549,
            "lng": 109.186185
        },
        "ad_info": {
            "adcode": 520602,
            "province": "贵州省",
            "city": "铜仁市",
            "district": "碧江区"
        }
    },
    {
        "id": "13480552435297315792",
        "title": "公共厕所",
        "address": "贵州省铜仁市碧江区南长城路金滩综合批发城",
        "tel": "",
        "category": "基础设施:公共设施:公共厕所",
        "type": 0,
        "location": {
            "lat": 27.732743,
            "lng": 109.194151
        },
        "ad_info": {
            "adcode": 520602,
            "province": "贵州省",
            "city": "铜仁市",
            "district": "碧江区"
        }
    },
    {
        "id": "18311431357502700130",
        "title": "公共厕所",
        "address": "贵州省铜仁市碧江区东太大道龙城御景旁(铜仁第二中学北)",
        "tel": "",
        "category": "基础设施:公共设施:公共厕所",
        "type": 0,
        "location": {
            "lat": 27.726928,
            "lng": 109.185521
        },
        "ad_info": {
            "adcode": 520602,
            "province": "贵州省",
            "city": "铜仁市",
            "district": "碧江区"
        }
    },
    {
        "id": "7842595960817563854",
        "title": "公共厕所",
        "address": "贵州省铜仁市碧江区西外环大道与鹭鸶岩路交叉口正北方向190米左右",
        "tel": "",
        "category": "基础设施:公共设施:公共厕所",
        "type": 0,
        "location": {
            "lat": 27.715982,
            "lng": 109.178361
        },
        "ad_info": {
            "adcode": 520602,
            "province": "贵州省",
            "city": "铜仁市",
            "district": "碧江区"
        }
    },
    {
        "id": "6125960364828319208",
        "title": "公共厕所",
        "address": "贵州省铜仁市碧江区梵净山大道与水晶路交叉口东北方向213米左右",
        "tel": "",
        "category": "基础设施:公共设施:公共厕所",
        "type": 0,
        "location": {
            "lat": 27.71054,
            "lng": 109.197412
        },
        "ad_info": {
            "adcode": 520602,
            "province": "贵州省",
            "city": "铜仁市",
            "district": "碧江区"
        }
    },
    {
        "id": "1053666438447765657",
        "title": "公共厕所",
        "address": "贵州省铜仁市碧江区花果山北路与花果山南路交叉口正北方向204米左右",
        "tel": "",
        "category": "基础设施:公共设施:公共厕所",
        "type": 0,
        "location": {
            "lat": 27.731002,
            "lng": 109.189924
        },
        "ad_info": {
            "adcode": 520602,
            "province": "贵州省",
            "city": "铜仁市",
            "district": "碧江区"
        }
    },
    {
        "id": "12024064263235714717",
        "title": "公共厕所",
        "address": "贵州省铜仁市碧江区沙龙路2号-附1-4号",
        "tel": "",
        "category": "基础设施:公共设施:公共厕所",
        "type": 0,
        "location": {
            "lat": 27.728388,
            "lng": 109.19984
        },
        "ad_info": {
            "adcode": 520602,
            "province": "贵州省",
            "city": "铜仁市",
            "district": "碧江区"
        }
    },
    {
        "id": "11590448264931951203",
        "title": "公共厕所",
        "address": "贵州省铜仁市碧江区桐梓巷路与解放路交叉口东南方向43米左右",
        "tel": "",
        "category": "基础设施:公共设施:公共厕所",
        "type": 0,
        "location": {
            "lat": 27.712928,
            "lng": 109.193453
        },
        "ad_info": {
            "adcode": 520602,
            "province": "贵州省",
            "city": "铜仁市",
            "district": "碧江区"
        }
    },
    {
        "id": "3044052678271553414",
        "title": "公共厕所",
        "address": "贵州省铜仁市碧江区曹园路与清水大道交叉口西北方向249米左右",
        "tel": "",
        "category": "基础设施:公共设施:公共厕所",
        "type": 0,
        "location": {
            "lat": 27.728208,
            "lng": 109.196719
        },
        "ad_info": {
            "adcode": 520602,
            "province": "贵州省",
            "city": "铜仁市",
            "district": "碧江区"
        }
    },
    {
        "id": "17555949237502950099",
        "title": "公共厕所",
        "address": "贵州省铜仁市碧江区天生桥景区西南侧300米",
        "tel": "",
        "category": "基础设施:公共设施:公共厕所",
        "type": 0,
        "location": {
            "lat": 27.824904,
            "lng": 109.219521
        },
        "ad_info": {
            "adcode": 520602,
            "province": "贵州省",
            "city": "铜仁市",
            "district": "碧江区"
        }
    },
    {
        "id": "15713891509117970895",
        "title": "公共厕所",
        "address": "贵州省铜仁市碧江区东太大道384号",
        "tel": "",
        "category": "基础设施:公共设施:公共厕所",
        "type": 0,
        "location": {
            "lat": 27.728333,
            "lng": 109.186716
        },
        "ad_info": {
            "adcode": 520602,
            "province": "贵州省",
            "city": "铜仁市",
            "district": "碧江区"
        }
    },
    {
        "id": "4186846036776368313",
        "title": "公共厕所",
        "address": "贵州省铜仁市碧江区环北街道市府路东太农副产品批发市场",
        "tel": "",
        "category": "基础设施:公共设施:公共厕所",
        "type": 0,
        "location": {
            "lat": 27.694082,
            "lng": 109.186477
        },
        "ad_info": {
            "adcode": 520602,
            "province": "贵州省",
            "city": "铜仁市",
            "district": "碧江区"
        }
    },
    {
        "id": "18160045473819560629",
        "title": "公共厕所",
        "address": "贵州省铜仁市碧江区金鳞大道与香樟路交叉口正东方向83米左右",
        "tel": "",
        "category": "基础设施:公共设施:公共厕所",
        "type": 0,
        "location": {
            "lat": 27.692454,
            "lng": 109.179746
        },
        "ad_info": {
            "adcode": 520602,
            "province": "贵州省",
            "city": "铜仁市",
            "district": "碧江区"
        }
    },
    {
        "id": "15428142898435763858",
        "title": "公共厕所",
        "address": "贵州省铜仁市碧江区启德路与自由路交叉口正西方向97米左右",
        "tel": "",
        "category": "基础设施:公共设施:公共厕所",
        "type": 0,
        "location": {
            "lat": 27.784012,
            "lng": 109.216789
        },
        "ad_info": {
            "adcode": 520602,
            "province": "贵州省",
            "city": "铜仁市",
            "district": "碧江区"
        }
    },
    {
        "id": "5848579689556795838",
        "title": "公共厕所",
        "address": "贵州省铜仁市碧江区G354与兴智西路交叉口东南方向27米左右",
        "tel": "",
        "category": "基础设施:公共设施:公共厕所",
        "type": 0,
        "location": {
            "lat": 27.839206,
            "lng": 109.259002
        },
        "ad_info": {
            "adcode": 520602,
            "province": "贵州省",
            "city": "铜仁市",
            "district": "碧江区"
        }
    },
    {
        "id": "5578832484890617497",
        "title": "公共厕所",
        "address": "贵州省铜仁市碧江区中华路与环北路交叉口西北方向171米左右",
        "tel": "",
        "category": "基础设施:公共设施:公共厕所",
        "type": 0,
        "location": {
            "lat": 27.72103,
            "lng": 109.191352
        },
        "ad_info": {
            "adcode": 520602,
            "province": "贵州省",
            "city": "铜仁市",
            "district": "碧江区"
        }
    },
    {
        "id": "395853103544080804",
        "title": "公共厕所",
        "address": "贵州省铜仁市松桃苗族自治县杨芳路与杨芳路商业休闲步行街交叉口正西方向88米左右",
        "tel": "",
        "category": "基础设施:公共设施:公共厕所",
        "type": 0,
        "location": {
            "lat": 28.164289,
            "lng": 109.201735
        },
        "ad_info": {
            "adcode": 520628,
            "province": "贵州省",
            "city": "铜仁市",
            "district": "松桃苗族自治县"
        }
    },
    {
        "id": "13936554555714999011",
        "title": "公共厕所",
        "address": "贵州省铜仁市碧江区宝顺汽车维修服务中心北侧",
        "tel": "",
        "category": "基础设施:公共设施:公共厕所",
        "type": 0,
        "location": {
            "lat": 27.723135,
            "lng": 109.138397
        },
        "ad_info": {
            "adcode": 520602,
            "province": "贵州省",
            "city": "铜仁市",
            "district": "碧江区"
        }
    },
    {
        "id": "6608943178919470434",
        "title": "公共厕所",
        "address": "贵州省铜仁市碧江区武陵山大道与河上田路交叉口正北方向510米左右",
        "tel": "",
        "category": "基础设施:公共设施:公共厕所",
        "type": 0,
        "location": {
            "lat": 27.749117,
            "lng": 109.20593
        },
        "ad_info": {
            "adcode": 520602,
            "province": "贵州省",
            "city": "铜仁市",
            "district": "碧江区"
        }
    },
    {
        "id": "14254310057229566946",
        "title": "公共厕所",
        "address": "贵州省铜仁市沿河土家族自治县团结大道与镜山路交叉口正东方向47米左右",
        "tel": "",
        "category": "基础设施:公共设施:公共厕所",
        "type": 0,
        "location": {
            "lat": 28.549329,
            "lng": 108.499091
        },
        "ad_info": {
            "adcode": 520627,
            "province": "贵州省",
            "city": "铜仁市",
            "district": "沿河土家族自治县"
        }
    },
    {
        "id": "28916930085007884",
        "title": "公共厕所",
        "address": "贵州省铜仁市玉屏侗族自治县中华路10号",
        "tel": "",
        "category": "基础设施:公共设施:公共厕所",
        "type": 0,
        "location": {
            "lat": 27.238211,
            "lng": 108.916486
        },
        "ad_info": {
            "adcode": 520622,
            "province": "贵州省",
            "city": "铜仁市",
            "district": "玉屏侗族自治县"
        }
    },
    {
        "id": "11640222918706115922",
        "title": "公共厕所",
        "address": "贵州省铜仁市印江土家族苗族自治县梵净山西路与西环路交叉口西南方向94米左右",
        "tel": "",
        "category": "基础设施:公共设施:公共厕所",
        "type": 0,
        "location": {
            "lat": 27.991717,
            "lng": 108.399129
        },
        "ad_info": {
            "adcode": 520625,
            "province": "贵州省",
            "city": "铜仁市",
            "district": "印江土家族苗族自治县"
        }
    },
    {
        "id": "16657824159167332597",
        "title": "公共厕所",
        "address": "贵州省铜仁市石阡县府署路与长征北路交叉口西南方向37米左右",
        "tel": "",
        "category": "基础设施:公共设施:公共厕所",
        "type": 0,
        "location": {
            "lat": 27.519255,
            "lng": 108.230427
        },
        "ad_info": {
            "adcode": 520623,
            "province": "贵州省",
            "city": "铜仁市",
            "district": "石阡县"
        }
    },
    {
        "id": "1028303474852621233",
        "title": "公共厕所",
        "address": "贵州省铜仁市沿河土家族自治县官山路与西环路交叉口正北方向50米左右",
        "tel": "",
        "category": "基础设施:公共设施:公共厕所",
        "type": 0,
        "location": {
            "lat": 28.560047,
            "lng": 108.49362
        },
        "ad_info": {
            "adcode": 520627,
            "province": "贵州省",
            "city": "铜仁市",
            "district": "沿河土家族自治县"
        }
    },
    {
        "id": "4655269269068163746",
        "title": "公共厕所",
        "address": "贵州省铜仁市德江县环东路与红旗南路交叉口正北方向47米左右",
        "tel": "",
        "category": "基础设施:公共设施:公共厕所",
        "type": 0,
        "location": {
            "lat": 28.268384,
            "lng": 108.120941
        },
        "ad_info": {
            "adcode": 520626,
            "province": "贵州省",
            "city": "铜仁市",
            "district": "德江县"
        }
    },
    {
        "id": "7572488038488600530",
        "title": "公共厕所",
        "address": "贵州省铜仁市德江县延安路人民公园(东南角)",
        "tel": "",
        "category": "基础设施:公共设施:公共厕所",
        "type": 0,
        "location": {
            "lat": 28.249304,
            "lng": 108.125928
        },
        "ad_info": {
            "adcode": 520626,
            "province": "贵州省",
            "city": "铜仁市",
            "district": "德江县"
        }
    },
    {
        "id": "14604010601440467805",
        "title": "免费公共厕所",
        "address": "贵州省铜仁市碧江区西外环路林城世家对面东南方向90米",
        "tel": "",
        "category": "基础设施:公共设施:公共厕所",
        "type": 0,
        "location": {
            "lat": 27.729819,
            "lng": 109.184707
        },
        "ad_info": {
            "adcode": 520602,
            "province": "贵州省",
            "city": "铜仁市",
            "district": "碧江区"
        }
    },
    {
        "id": "13994758367073516825",
        "title": "公共厕所",
        "address": "贵州省铜仁市沿河土家族自治县团结大道与麻阳河街交叉口正东方向76米左右",
        "tel": "",
        "category": "基础设施:公共设施:公共厕所",
        "type": 0,
        "location": {
            "lat": 28.561844,
            "lng": 108.50417
        },
        "ad_info": {
            "adcode": 520627,
            "province": "贵州省",
            "city": "铜仁市",
            "district": "沿河土家族自治县"
        }
    },
    {
        "id": "12509815519249387149",
        "title": "公共厕所",
        "address": "贵州省铜仁市松桃苗族自治县正大镇苗王城景区一号大门",
        "tel": "",
        "category": "基础设施:公共设施:公共厕所",
        "type": 0,
        "location": {
            "lat": 27.960256,
            "lng": 109.279796
        },
        "ad_info": {
            "adcode": 520628,
            "province": "贵州省",
            "city": "铜仁市",
            "district": "松桃苗族自治县"
        }
    },
    {
        "id": "11118514766780626876",
        "title": "公共厕所",
        "address": "贵州省铜仁市玉屏侗族自治县人民路与紫气路交叉口东北方向69米左右",
        "tel": "",
        "category": "基础设施:公共设施:公共厕所",
        "type": 0,
        "location": {
            "lat": 27.235654,
            "lng": 108.913646
        },
        "ad_info": {
            "adcode": 520622,
            "province": "贵州省",
            "city": "铜仁市",
            "district": "玉屏侗族自治县"
        }
    },
    {
        "id": "16471728980769230621",
        "title": "公共厕所",
        "address": "贵州省铜仁市石阡县富水路与观水巷交叉口东北方向365米左右",
        "tel": "",
        "category": "基础设施:公共设施:公共厕所",
        "type": 0,
        "location": {
            "lat": 27.507179,
            "lng": 108.224489
        },
        "ad_info": {
            "adcode": 520623,
            "province": "贵州省",
            "city": "铜仁市",
            "district": "石阡县"
        }
    },
    {
        "id": "8484693833837529623",
        "title": "公共厕所",
        "address": "贵州省铜仁市玉屏侗族自治县X065与腾龙大道交叉口东北方向816米左右",
        "tel": "",
        "category": "基础设施:公共设施:公共厕所",
        "type": 0,
        "location": {
            "lat": 27.284838,
            "lng": 109.033202
        },
        "ad_info": {
            "adcode": 520622,
            "province": "贵州省",
            "city": "铜仁市",
            "district": "玉屏侗族自治县"
        }
    },
    {
        "id": "7828792031634895156",
        "title": "公共厕所",
        "address": "贵州省铜仁市玉屏侗族自治县中华路与中山路交叉口西北方向143米左右",
        "tel": "",
        "category": "基础设施:公共设施:公共厕所",
        "type": 0,
        "location": {
            "lat": 27.239421,
            "lng": 108.914541
        },
        "ad_info": {
            "adcode": 520622,
            "province": "贵州省",
            "city": "铜仁市",
            "district": "玉屏侗族自治县"
        }
    },
    {
        "id": "6980977822259028106",
        "title": "公共厕所",
        "address": "贵州省铜仁市松桃苗族自治县G352与文昌大桥交叉口东南方向281米左右",
        "tel": "",
        "category": "基础设施:公共设施:公共厕所",
        "type": 0,
        "location": {
            "lat": 28.090194,
            "lng": 108.980806
        },
        "ad_info": {
            "adcode": 520628,
            "province": "贵州省",
            "city": "铜仁市",
            "district": "松桃苗族自治县"
        }
    },
    {
        "id": "4600457935910073311",
        "title": "公共厕所",
        "address": "贵州省铜仁市石阡县玄武楼巷与花桥路交叉口正东方向75米左右",
        "tel": "",
        "category": "基础设施:公共设施:公共厕所",
        "type": 0,
        "location": {
            "lat": 27.519657,
            "lng": 108.233935
        },
        "ad_info": {
            "adcode": 520623,
            "province": "贵州省",
            "city": "铜仁市",
            "district": "石阡县"
        }
    },
    {
        "id": "14509834937948604947",
        "title": "公共厕所",
        "address": "贵州省铜仁市石阡县佛顶山北路与龙井路交叉口东北方向55米左右",
        "tel": "",
        "category": "基础设施:公共设施:公共厕所",
        "type": 0,
        "location": {
            "lat": 27.528251,
            "lng": 108.230803
        },
        "ad_info": {
            "adcode": 520623,
            "province": "贵州省",
            "city": "铜仁市",
            "district": "石阡县"
        }
    },
    {
        "id": "7917962707281969412",
        "title": "公共厕所",
        "address": "贵州省铜仁市松桃苗族自治县老车站世纪华府对面",
        "tel": "",
        "category": "基础设施:公共设施:公共厕所",
        "type": 0,
        "location": {
            "lat": 28.170982,
            "lng": 109.197975
        },
        "ad_info": {
            "adcode": 520628,
            "province": "贵州省",
            "city": "铜仁市",
            "district": "松桃苗族自治县"
        }
    },
    {
        "id": "17077573444361673059",
        "title": "公共厕所",
        "address": "贵州省铜仁市德江县六角榨巷与思州路交叉口东南方向31米左右",
        "tel": "",
        "category": "基础设施:公共设施:公共厕所",
        "type": 0,
        "location": {
            "lat": 28.26127,
            "lng": 108.115819
        },
        "ad_info": {
            "adcode": 520626,
            "province": "贵州省",
            "city": "铜仁市",
            "district": "德江县"
        }
    },
    {
        "id": "442997531352520407",
        "title": "公共厕所",
        "address": "贵州省铜仁市沿河土家族自治县五台街与温泉大道交叉口东北方向112米左右",
        "tel": "",
        "category": "基础设施:公共设施:公共厕所",
        "type": 0,
        "location": {
            "lat": 28.556528,
            "lng": 108.494848
        },
        "ad_info": {
            "adcode": 520627,
            "province": "贵州省",
            "city": "铜仁市",
            "district": "沿河土家族自治县"
        }
    },
    {
        "id": "8902047902323506588",
        "title": "公共厕所",
        "address": "贵州省铜仁市松桃苗族自治县黔松新城1路与黔松新城2路交叉口正西方向114米左右",
        "tel": "",
        "category": "基础设施:公共设施:公共厕所",
        "type": 0,
        "location": {
            "lat": 28.147112,
            "lng": 109.193245
        },
        "ad_info": {
            "adcode": 520628,
            "province": "贵州省",
            "city": "铜仁市",
            "district": "松桃苗族自治县"
        }
    },
    {
        "id": "3862289168101265955",
        "title": "公共厕所",
        "address": "贵州省铜仁市沿河土家族自治县G326与沿河乌江二桥交叉口正东方向31米左右",
        "tel": "",
        "category": "基础设施:公共设施:公共厕所",
        "type": 0,
        "location": {
            "lat": 28.572709,
            "lng": 108.49926
        },
        "ad_info": {
            "adcode": 520627,
            "province": "贵州省",
            "city": "铜仁市",
            "district": "沿河土家族自治县"
        }
    },
    {
        "id": "3389274998149500609",
        "title": "公共厕所",
        "address": "贵州省铜仁市印江土家族苗族自治县昌园路与西环路交叉口正东方向84米左右",
        "tel": "",
        "category": "基础设施:公共设施:公共厕所",
        "type": 0,
        "location": {
            "lat": 28.000757,
            "lng": 108.406368
        },
        "ad_info": {
            "adcode": 520625,
            "province": "贵州省",
            "city": "铜仁市",
            "district": "印江土家族苗族自治县"
        }
    },
    {
        "id": "14568417465606072705",
        "title": "公共厕所",
        "address": "贵州省铜仁市沿河土家族自治县G326与张家港大道交叉口西南方向1498米左右",
        "tel": "",
        "category": "基础设施:公共设施:公共厕所",
        "type": 0,
        "location": {
            "lat": 28.549658,
            "lng": 108.542379
        },
        "ad_info": {
            "adcode": 520627,
            "province": "贵州省",
            "city": "铜仁市",
            "district": "沿河土家族自治县"
        }
    },
    {
        "id": "2351687072697068509",
        "title": "公共厕所",
        "address": "贵州省铜仁市松桃苗族自治县桃源西路与花鼓大道北路交叉口西北方向345米左右",
        "tel": "",
        "category": "基础设施:公共设施:公共厕所",
        "type": 0,
        "location": {
            "lat": 28.173216,
            "lng": 109.19053
        },
        "ad_info": {
            "adcode": 520628,
            "province": "贵州省",
            "city": "铜仁市",
            "district": "松桃苗族自治县"
        }
    },
    {
        "id": "18102652063897577399",
        "title": "公共厕所",
        "address": "贵州省铜仁市万山区恒信路与金鳞大道交叉口西北方向59米左右",
        "tel": "",
        "category": "基础设施:公共设施:公共厕所",
        "type": 0,
        "location": {
            "lat": 27.69042,
            "lng": 109.17766
        },
        "ad_info": {
            "adcode": 520603,
            "province": "贵州省",
            "city": "铜仁市",
            "district": "万山区"
        }
    },
    {
        "id": "10137186702382956266",
        "title": "公共厕所",
        "address": "贵州省铜仁市石阡县城北小区北路与青阳路交叉口正西方向49米左右",
        "tel": "",
        "category": "基础设施:公共设施:公共厕所",
        "type": 0,
        "location": {
            "lat": 27.524126,
            "lng": 108.231803
        },
        "ad_info": {
            "adcode": 520623,
            "province": "贵州省",
            "city": "铜仁市",
            "district": "石阡县"
        }
    },
    {
        "id": "8501584767498822307",
        "title": "文昌公园公共厕所",
        "address": "贵州省铜仁市印江土家族苗族自治县文昌街文昌公园内(南侧)",
        "tel": "",
        "category": "基础设施:公共设施:公共厕所",
        "type": 0,
        "location": {
            "lat": 27.998179,
            "lng": 108.400731
        },
        "ad_info": {
            "adcode": 520625,
            "province": "贵州省",
            "city": "铜仁市",
            "district": "印江土家族苗族自治县"
        }
    },
    {
        "id": "16007545723125630955",
        "title": "公共厕所",
        "address": "贵州省铜仁市万山区洪信路与莲花大道交叉口西北方向46米左右",
        "tel": "",
        "category": "基础设施:公共设施:公共厕所",
        "type": 0,
        "location": {
            "lat": 27.675692,
            "lng": 109.183765
        },
        "ad_info": {
            "adcode": 520603,
            "province": "贵州省",
            "city": "铜仁市",
            "district": "万山区"
        }
    },
    {
        "id": "16415796150624525649",
        "title": "公共厕所",
        "address": "贵州省铜仁市印江土家族苗族自治县",
        "tel": "",
        "category": "基础设施:公共设施:公共厕所",
        "type": 0,
        "location": {
            "lat": 28.043123,
            "lng": 108.39519
        },
        "ad_info": {
            "adcode": 520625,
            "province": "贵州省",
            "city": "铜仁市",
            "district": "印江土家族苗族自治县"
        }
    },
    {
        "id": "4839937164779024714",
        "title": "公共厕所",
        "address": "贵州省铜仁市松桃苗族自治县S304与X574交叉口正南方向469米左右",
        "tel": "",
        "category": "基础设施:公共设施:公共厕所",
        "type": 0,
        "location": {
            "lat": 28.443432,
            "lng": 109.182138
        },
        "ad_info": {
            "adcode": 520628,
            "province": "贵州省",
            "city": "铜仁市",
            "district": "松桃苗族自治县"
        }
    },
    {
        "id": "5171638575289153403",
        "title": "公共厕所",
        "address": "贵州省铜仁市玉屏侗族自治县冲龙路与平安大道交叉口东北方向294米左右",
        "tel": "",
        "category": "基础设施:公共设施:公共厕所",
        "type": 0,
        "location": {
            "lat": 27.242726,
            "lng": 108.940692
        },
        "ad_info": {
            "adcode": 520622,
            "province": "贵州省",
            "city": "铜仁市",
            "district": "玉屏侗族自治县"
        }
    },
    {
        "id": "8982705823293588358",
        "title": "公共厕所",
        "address": "贵州省铜仁市松桃苗族自治县G352与Y445交叉口正东方向1488米左右",
        "tel": "",
        "category": "基础设施:公共设施:公共厕所",
        "type": 0,
        "location": {
            "lat": 28.102963,
            "lng": 109.080895
        },
        "ad_info": {
            "adcode": 520628,
            "province": "贵州省",
            "city": "铜仁市",
            "district": "松桃苗族自治县"
        }
    },
    {
        "id": "6999383089297706499",
        "title": "公共厕所",
        "address": "贵州省铜仁市德江县东风街与玉溪路交叉口西北方向54米左右",
        "tel": "",
        "category": "基础设施:公共设施:公共厕所",
        "type": 0,
        "location": {
            "lat": 28.259297,
            "lng": 108.121412
        },
        "ad_info": {
            "adcode": 520626,
            "province": "贵州省",
            "city": "铜仁市",
            "district": "德江县"
        }
    },
    {
        "id": "7037022987727620290",
        "title": "公共厕所",
        "address": "贵州省铜仁市石阡县G354与X526交叉口正东方向226米左右",
        "tel": "",
        "category": "基础设施:公共设施:公共厕所",
        "type": 0,
        "location": {
            "lat": 27.544927,
            "lng": 107.94014
        },
        "ad_info": {
            "adcode": 520623,
            "province": "贵州省",
            "city": "铜仁市",
            "district": "石阡县"
        }
    },
    {
        "id": "7385235641632269419",
        "title": "公共厕所",
        "address": "贵州省铜仁市松桃苗族自治县迓大路与201省道交叉口东100米",
        "tel": "",
        "category": "基础设施:公共设施:公共厕所",
        "type": 0,
        "location": {
            "lat": 28.030784,
            "lng": 109.244052
        },
        "ad_info": {
            "adcode": 520628,
            "province": "贵州省",
            "city": "铜仁市",
            "district": "松桃苗族自治县"
        }
    },
    {
        "id": "1305384831749881076",
        "title": "公共厕所",
        "address": "贵州省铜仁市松桃苗族自治县G242与G354交叉口正北方向612米左右",
        "tel": "",
        "category": "基础设施:公共设施:公共厕所",
        "type": 0,
        "location": {
            "lat": 27.91444,
            "lng": 109.308816
        },
        "ad_info": {
            "adcode": 520628,
            "province": "贵州省",
            "city": "铜仁市",
            "district": "松桃苗族自治县"
        }
    },
    {
        "id": "9063484649271796652",
        "title": "公共厕所",
        "address": "贵州省铜仁市碧江区铜江西路与锦江西路交叉口西北方向43米左右",
        "tel": "",
        "category": "基础设施:公共设施:公共厕所",
        "type": 0,
        "location": {
            "lat": 27.708801,
            "lng": 109.186751
        },
        "ad_info": {
            "adcode": 520602,
            "province": "贵州省",
            "city": "铜仁市",
            "district": "碧江区"
        }
    },
    {
        "id": "5454510777182776861",
        "title": "公共厕所",
        "address": "贵州省铜仁市万山区九丰农业博览园东南侧120米",
        "tel": "",
        "category": "基础设施:公共设施:公共厕所",
        "type": 0,
        "location": {
            "lat": 27.471095,
            "lng": 109.167573
        },
        "ad_info": {
            "adcode": 520603,
            "province": "贵州省",
            "city": "铜仁市",
            "district": "万山区"
        }
    },
    {
        "id": "10197275766228863972",
        "title": "公共厕所",
        "address": "贵州省铜仁市玉屏侗族自治县茶花泉油茶园区西南侧240米",
        "tel": "",
        "category": "基础设施:公共设施:公共厕所",
        "type": 0,
        "location": {
            "lat": 27.292687,
            "lng": 108.912009
        },
        "ad_info": {
            "adcode": 520622,
            "province": "贵州省",
            "city": "铜仁市",
            "district": "玉屏侗族自治县"
        }
    },
    {
        "id": "60665431091986949",
        "title": "公共厕所",
        "address": "贵州省铜仁市万山区汞都大道与滨河路交叉口正南方向162米左右",
        "tel": "",
        "category": "基础设施:公共设施:公共厕所",
        "type": 0,
        "location": {
            "lat": 27.501146,
            "lng": 109.191399
        },
        "ad_info": {
            "adcode": 520603,
            "province": "贵州省",
            "city": "铜仁市",
            "district": "万山区"
        }
    },
    {
        "id": "6576509495164035023",
        "title": "公共厕所",
        "address": "贵州省铜仁市松桃苗族自治县G242与铜兴大道交叉口正南方向48米左右",
        "tel": "",
        "category": "基础设施:公共设施:公共厕所",
        "type": 0,
        "location": {
            "lat": 27.896958,
            "lng": 109.30295
        },
        "ad_info": {
            "adcode": 520628,
            "province": "贵州省",
            "city": "铜仁市",
            "district": "松桃苗族自治县"
        }
    },
    {
        "id": "14914604351017717203",
        "title": "公共厕所",
        "address": "贵州省铜仁市思南县新马路与铜遵路交叉口正西方向193米左右",
        "tel": "",
        "category": "基础设施:公共设施:公共厕所",
        "type": 0,
        "location": {
            "lat": 27.93999,
            "lng": 108.249169
        },
        "ad_info": {
            "adcode": 520624,
            "province": "贵州省",
            "city": "铜仁市",
            "district": "思南县"
        }
    },
    {
        "id": "4028251343472130329",
        "title": "公共厕所",
        "address": "贵州省铜仁市思南县S304与乌江大道交叉口西北方向829米左右",
        "tel": "",
        "category": "基础设施:公共设施:公共厕所",
        "type": 0,
        "location": {
            "lat": 27.954604,
            "lng": 108.255425
        },
        "ad_info": {
            "adcode": 520624,
            "province": "贵州省",
            "city": "铜仁市",
            "district": "思南县"
        }
    },
    {
        "id": "782087440537216003",
        "title": "公共厕所",
        "address": "贵州省铜仁市江口县佛光路与文化路交叉口正北方向134米左右",
        "tel": "",
        "category": "基础设施:公共设施:公共厕所",
        "type": 0,
        "location": {
            "lat": 27.693858,
            "lng": 108.84303
        },
        "ad_info": {
            "adcode": 520621,
            "province": "贵州省",
            "city": "铜仁市",
            "district": "江口县"
        }
    },
    {
        "id": "9240212528625322672",
        "title": "公共厕所",
        "address": "贵州省铜仁市思南县大同路与铜遵路交叉口正北方向153米左右",
        "tel": "",
        "category": "基础设施:公共设施:公共厕所",
        "type": 0,
        "location": {
            "lat": 27.947003,
            "lng": 108.254756
        },
        "ad_info": {
            "adcode": 520624,
            "province": "贵州省",
            "city": "铜仁市",
            "district": "思南县"
        }
    },
    {
        "id": "699281122399149025",
        "title": "公共厕所",
        "address": "贵州省铜仁市万山区和谐路与汞都大道交叉口正东方向33米左右",
        "tel": "",
        "category": "基础设施:公共设施:公共厕所",
        "type": 0,
        "location": {
            "lat": 27.513909,
            "lng": 109.202663
        },
        "ad_info": {
            "adcode": 520603,
            "province": "贵州省",
            "city": "铜仁市",
            "district": "万山区"
        }
    },
    {
        "id": "4606483071143010382",
        "title": "公共厕所",
        "address": "贵州省铜仁市万山区金鳞大道中国石化城区金鳞大道加油站",
        "tel": "",
        "category": "基础设施:公共设施:公共厕所",
        "type": 0,
        "location": {
            "lat": 27.690646,
            "lng": 109.177616
        },
        "ad_info": {
            "adcode": 520603,
            "province": "贵州省",
            "city": "铜仁市",
            "district": "万山区"
        }
    },
    {
        "id": "14353673991769888087",
        "title": "公共厕所",
        "address": "贵州省铜仁市思南县S304与乌江大道交叉口正东方向21米左右",
        "tel": "",
        "category": "基础设施:公共设施:公共厕所",
        "type": 0,
        "location": {
            "lat": 27.948925,
            "lng": 108.261153
        },
        "ad_info": {
            "adcode": 520624,
            "province": "贵州省",
            "city": "铜仁市",
            "district": "思南县"
        }
    },
    {
        "id": "7900059917799270164",
        "title": "公共厕所",
        "address": "贵州省铜仁市碧江区清水大道与黑松塘路交叉口东南方向105米左右",
        "tel": "",
        "category": "基础设施:公共设施:公共厕所",
        "type": 0,
        "location": {
            "lat": 27.725073,
            "lng": 109.19826
        },
        "ad_info": {
            "adcode": 520602,
            "province": "贵州省",
            "city": "铜仁市",
            "district": "碧江区"
        }
    },
    {
        "id": "12235766691727518667",
        "title": "公共厕所",
        "address": "贵州省铜仁市万山区C139与梵净山大道交叉口正北方向166米左右",
        "tel": "",
        "category": "基础设施:公共设施:公共厕所",
        "type": 0,
        "location": {
            "lat": 27.688988,
            "lng": 109.186462
        },
        "ad_info": {
            "adcode": 520603,
            "province": "贵州省",
            "city": "铜仁市",
            "district": "万山区"
        }
    },
    {
        "id": "15570966852764392376",
        "title": "铜仁服务区第一公共厕所",
        "address": "贵州省铜仁市碧江区G56杭瑞高速与铜仁服务区交叉口东160米",
        "tel": "",
        "category": "基础设施:公共设施:公共厕所",
        "type": 0,
        "location": {
            "lat": 27.807672,
            "lng": 109.253843
        },
        "ad_info": {
            "adcode": 520602,
            "province": "贵州省",
            "city": "铜仁市",
            "district": "碧江区"
        }
    },
    {
        "id": "13183704529323076058",
        "title": "公共洗手间",
        "address": "贵州省铜仁市沿河土家族自治县燎原街与鹤鸣路交叉口西北方向153米左右",
        "tel": "",
        "category": "基础设施:公共设施:公共厕所",
        "type": 0,
        "location": {
            "lat": 28.564777,
            "lng": 108.502497
        },
        "ad_info": {
            "adcode": 520627,
            "province": "贵州省",
            "city": "铜仁市",
            "district": "沿河土家族自治县"
        }
    },
    {
        "id": "15439483142194087122",
        "title": "公共厕所",
        "address": "贵州省铜仁市江口县凤凰路与回龙路交叉口西南方向33米左右",
        "tel": "",
        "category": "基础设施:公共设施:公共厕所",
        "type": 0,
        "location": {
            "lat": 27.693541,
            "lng": 108.840075
        },
        "ad_info": {
            "adcode": 520621,
            "province": "贵州省",
            "city": "铜仁市",
            "district": "江口县"
        }
    },
    {
        "id": "8794903060523500693",
        "title": "公共厕所",
        "address": "贵州省铜仁市江口县三星路与农贸路交叉口正东方向60米左右",
        "tel": "",
        "category": "基础设施:公共设施:公共厕所",
        "type": 0,
        "location": {
            "lat": 27.691182,
            "lng": 108.85028
        },
        "ad_info": {
            "adcode": 520621,
            "province": "贵州省",
            "city": "铜仁市",
            "district": "江口县"
        }
    },
    {
        "id": "9376371221152387935",
        "title": "公共厕所",
        "address": "贵州省铜仁市江口县梵净山生态旅游景区索道上站木栈道入口处",
        "tel": "",
        "category": "基础设施:公共设施:公共厕所",
        "type": 0,
        "location": {
            "lat": 27.907684,
            "lng": 108.701304
        },
        "ad_info": {
            "adcode": 520621,
            "province": "贵州省",
            "city": "铜仁市",
            "district": "江口县"
        }
    },
    {
        "id": "649530419601509069",
        "title": "公共厕所",
        "address": "贵州省铜仁市江口县太平河路与文化路交叉口正南方向115米左右",
        "tel": "",
        "category": "基础设施:公共设施:公共厕所",
        "type": 0,
        "location": {
            "lat": 27.694409,
            "lng": 108.852636
        },
        "ad_info": {
            "adcode": 520621,
            "province": "贵州省",
            "city": "铜仁市",
            "district": "江口县"
        }
    },
    {
        "id": "10588247615871490977",
        "title": "公共厕所",
        "address": "贵州省铜仁市江口县G354与三星路交叉口东北方向212米左右",
        "tel": "",
        "category": "基础设施:公共设施:公共厕所",
        "type": 0,
        "location": {
            "lat": 27.710599,
            "lng": 108.857388
        },
        "ad_info": {
            "adcode": 520621,
            "province": "贵州省",
            "city": "铜仁市",
            "district": "江口县"
        }
    },
    {
        "id": "8248060869998149111",
        "title": "公共厕所",
        "address": "贵州省铜仁市印江土家族苗族自治县一号步行街与官庄南路交叉口正东方向208米左右",
        "tel": "",
        "category": "基础设施:公共设施:公共厕所",
        "type": 0,
        "location": {
            "lat": 27.997447,
            "lng": 108.420398
        },
        "ad_info": {
            "adcode": 520625,
            "province": "贵州省",
            "city": "铜仁市",
            "district": "印江土家族苗族自治县"
        }
    },
    {
        "id": "7636018600333613328",
        "title": "南长城国际大酒店-洗手间",
        "address": "贵州省铜仁市碧江区清水大道与板桥北路交叉口西260米",
        "tel": "",
        "category": "基础设施:公共设施:公共厕所",
        "type": 0,
        "location": {
            "lat": 27.733089,
            "lng": 109.19741
        },
        "ad_info": {
            "adcode": 520602,
            "province": "贵州省",
            "city": "铜仁市",
            "district": "碧江区"
        }
    },
    {
        "id": "7456693735150543725",
        "title": "公共厕所",
        "address": "贵州省铜仁市思南县中山街与仁和巷交叉口正北方向56米左右",
        "tel": "",
        "category": "基础设施:公共设施:公共厕所",
        "type": 0,
        "location": {
            "lat": 27.934573,
            "lng": 108.252943
        },
        "ad_info": {
            "adcode": 520624,
            "province": "贵州省",
            "city": "铜仁市",
            "district": "思南县"
        }
    },
    {
        "id": "9964790653364487727",
        "title": "公共厕所",
        "address": "贵州省铜仁市江口县",
        "tel": "",
        "category": "基础设施:公共设施:公共厕所",
        "type": 0,
        "location": {
            "lat": 27.894827,
            "lng": 108.717161
        },
        "ad_info": {
            "adcode": 520621,
            "province": "贵州省",
            "city": "铜仁市",
            "district": "江口县"
        }
    },
    {
        "id": "16483706665202517749",
        "title": "旅游公共厕所",
        "address": "贵州省铜仁市松桃苗族自治县滨江花园B区第1小区西侧190米",
        "tel": "",
        "category": "基础设施:公共设施:公共厕所",
        "type": 0,
        "location": {
            "lat": 28.155989,
            "lng": 109.197674
        },
        "ad_info": {
            "adcode": 520628,
            "province": "贵州省",
            "city": "铜仁市",
            "district": "松桃苗族自治县"
        }
    },
    {
        "id": "7007219141475117057",
        "title": "游苑-公共厕所",
        "address": "贵州省铜仁市德江县明珠巷与枫香溪路交叉口西北方向113米左右",
        "tel": "",
        "category": "基础设施:公共设施:公共厕所",
        "type": 0,
        "location": {
            "lat": 28.254008,
            "lng": 108.121085
        },
        "ad_info": {
            "adcode": 520626,
            "province": "贵州省",
            "city": "铜仁市",
            "district": "德江县"
        }
    },
    {
        "id": "15003330783749438886",
        "title": "公共厕所",
        "address": "贵州省铜仁市印江土家族苗族自治县中心街与滨江北路交叉口东南方向43米左右",
        "tel": "",
        "category": "基础设施:公共设施:公共厕所",
        "type": 0,
        "location": {
            "lat": 27.994786,
            "lng": 108.406784
        },
        "ad_info": {
            "adcode": 520625,
            "province": "贵州省",
            "city": "铜仁市",
            "district": "印江土家族苗族自治县"
        }
    },
    {
        "id": "7193094114553318649",
        "title": "公共厕所",
        "address": "贵州省铜仁市沿河土家族自治县西环路与解放北路交叉口东南方向56米左右",
        "tel": "",
        "category": "基础设施:公共设施:公共厕所",
        "type": 0,
        "location": {
            "lat": 28.563015,
            "lng": 108.495378
        },
        "ad_info": {
            "adcode": 520627,
            "province": "贵州省",
            "city": "铜仁市",
            "district": "沿河土家族自治县"
        }
    },
    {
        "id": "3748261794219674982",
        "title": "乌江酒店-洗手间",
        "address": "贵州省铜仁市沿河土家族自治县官山路与西环路交叉口东北方向84米左右",
        "tel": "",
        "category": "基础设施:公共设施:公共厕所",
        "type": 0,
        "location": {
            "lat": 28.560132,
            "lng": 108.494345
        },
        "ad_info": {
            "adcode": 520627,
            "province": "贵州省",
            "city": "铜仁市",
            "district": "沿河土家族自治县"
        }
    },
    {
        "id": "12376568201952770189",
        "title": "铜仁服务区第三公共厕所",
        "address": "贵州省铜仁市碧江区中国石化铜仁服务区加油站东南侧170米",
        "tel": "",
        "category": "基础设施:公共设施:公共厕所",
        "type": 0,
        "location": {
            "lat": 27.808365,
            "lng": 109.257476
        },
        "ad_info": {
            "adcode": 520602,
            "province": "贵州省",
            "city": "铜仁市",
            "district": "碧江区"
        }
    },
    {
        "id": "12259603320259875279",
        "title": "铜仁波西塔诺酒店-洗手间",
        "address": "贵州省铜仁市碧江区共青路37号",
        "tel": "",
        "category": "基础设施:公共设施:公共厕所",
        "type": 0,
        "location": {
            "lat": 27.721737,
            "lng": 109.186116
        },
        "ad_info": {
            "adcode": 520602,
            "province": "贵州省",
            "city": "铜仁市",
            "district": "碧江区"
        }
    },
    {
        "id": "4991769226835739821",
        "title": "玉铜加油站公共厕所",
        "address": "贵州省铜仁市玉屏侗族自治县中国石油玉铜加油站(320国道北)",
        "tel": "",
        "category": "基础设施:公共设施:公共厕所",
        "type": 0,
        "location": {
            "lat": 27.256507,
            "lng": 108.970588
        },
        "ad_info": {
            "adcode": 520622,
            "province": "贵州省",
            "city": "铜仁市",
            "district": "玉屏侗族自治县"
        }
    },
    {
        "id": "4793413909245115119",
        "title": "华夏旅游公共厕所",
        "address": "贵州省铜仁市石阡县佛顶山南路与大关路交叉口正东方向143米左右",
        "tel": "",
        "category": "基础设施:公共设施:公共厕所",
        "type": 0,
        "location": {
            "lat": 27.507094,
            "lng": 108.221559
        },
        "ad_info": {
            "adcode": 520623,
            "province": "贵州省",
            "city": "铜仁市",
            "district": "石阡县"
        }
    },
    {
        "id": "5936824700355138312",
        "title": "花桥服务区公共厕所",
        "address": "贵州省铜仁市石阡县易民新街与金桥街交叉口东南方向316米左右",
        "tel": "",
        "category": "基础设施:公共设施:公共厕所",
        "type": 0,
        "location": {
            "lat": 27.528668,
            "lng": 108.340814
        },
        "ad_info": {
            "adcode": 520623,
            "province": "贵州省",
            "city": "铜仁市",
            "district": "石阡县"
        }
    },
    {
        "id": "1901829305193405031",
        "title": "复兴服务区公共厕所",
        "address": "贵州省铜仁市德江县G326与东泉路交叉口东北方向560米左右",
        "tel": "",
        "category": "基础设施:公共设施:公共厕所",
        "type": 0,
        "location": {
            "lat": 28.089778,
            "lng": 107.903287
        },
        "ad_info": {
            "adcode": 520626,
            "province": "贵州省",
            "city": "铜仁市",
            "district": "德江县"
        }
    },
    {
        "id": "7238080356723627717",
        "title": "梵净山游客中心-公共厕所",
        "address": "贵州省铜仁市江口县X508与X585交叉口西南方向612米左右",
        "tel": "",
        "category": "基础设施:公共设施:公共厕所",
        "type": 0,
        "location": {
            "lat": 27.841088,
            "lng": 108.774987
        },
        "ad_info": {
            "adcode": 520621,
            "province": "贵州省",
            "city": "铜仁市",
            "district": "江口县"
        }
    },
    {
        "id": "1939370052682406522",
        "title": "官舟服务区公共厕所",
        "address": "贵州省铜仁市沿河土家族自治县S25沿榕高速与官舟服务区交叉口西南260米",
        "tel": "",
        "category": "基础设施:公共设施:公共厕所",
        "type": 0,
        "location": {
            "lat": 28.52791,
            "lng": 108.314608
        },
        "ad_info": {
            "adcode": 520627,
            "province": "贵州省",
            "city": "铜仁市",
            "district": "沿河土家族自治县"
        }
    },
    {
        "id": "5547207359642683876",
        "title": "官舟服务区公共厕所",
        "address": "贵州省铜仁市沿河土家族自治县S25沿榕高速与官舟服务区交叉口西260米",
        "tel": "",
        "category": "基础设施:公共设施:公共厕所",
        "type": 0,
        "location": {
            "lat": 28.529105,
            "lng": 108.313698
        },
        "ad_info": {
            "adcode": 520627,
            "province": "贵州省",
            "city": "铜仁市",
            "district": "沿河土家族自治县"
        }
    },
    {
        "id": "2673757568033383137",
        "title": "复兴服务区第二公共厕所",
        "address": "贵州省铜仁市德江县G326与东泉路交叉口正东方向676米左右",
        "tel": "",
        "category": "基础设施:公共设施:公共厕所",
        "type": 0,
        "location": {
            "lat": 28.089236,
            "lng": 107.904894
        },
        "ad_info": {
            "adcode": 520626,
            "province": "贵州省",
            "city": "铜仁市",
            "district": "德江县"
        }
    },
    {
        "id": "2490835815769197000",
        "title": "花桥服务区第二公共厕所",
        "address": "贵州省铜仁市石阡县花桥服务区与S30江黔高速交叉口西南180米",
        "tel": "",
        "category": "基础设施:公共设施:公共厕所",
        "type": 0,
        "location": {
            "lat": 27.527436,
            "lng": 108.342039
        },
        "ad_info": {
            "adcode": 520623,
            "province": "贵州省",
            "city": "铜仁市",
            "district": "石阡县"
        }
    },
    {
        "id": "10494344013777268195",
        "title": "花桥服务区第二公共厕所",
        "address": "贵州省铜仁市石阡县S30江黔高速与花桥服务区交叉口西南320米",
        "tel": "",
        "category": "基础设施:公共设施:公共厕所",
        "type": 0,
        "location": {
            "lat": 27.527503,
            "lng": 108.33993
        },
        "ad_info": {
            "adcode": 520623,
            "province": "贵州省",
            "city": "铜仁市",
            "district": "石阡县"
        }
    },
    {
        "id": "16800751585920457893",
        "title": "茶店服务区第二公共厕所",
        "address": "贵州省铜仁市万山区茶店服务区与S15铜大高速交叉口东南80米",
        "tel": "",
        "category": "基础设施:公共设施:公共厕所",
        "type": 0,
        "location": {
            "lat": 27.594035,
            "lng": 109.140155
        },
        "ad_info": {
            "adcode": 520603,
            "province": "贵州省",
            "city": "铜仁市",
            "district": "万山区"
        }
    },
    {
        "id": "6049423459775975770",
        "title": "大沙坝服务区第二公共厕所",
        "address": "贵州省铜仁市石阡县大沙坝服务区与S25沿榕高速交叉口东南80米",
        "tel": "",
        "category": "基础设施:公共设施:公共厕所",
        "type": 0,
        "location": {
            "lat": 27.669335,
            "lng": 108.214264
        },
        "ad_info": {
            "adcode": 520623,
            "province": "贵州省",
            "city": "铜仁市",
            "district": "石阡县"
        }
    },
    {
        "id": "14049202759566509565",
        "title": "思南服务区公共厕所",
        "address": "贵州省铜仁市思南县G56杭瑞高速与思南服务区交叉口西南180米",
        "tel": "",
        "category": "基础设施:公共设施:公共厕所",
        "type": 0,
        "location": {
            "lat": 28.00449,
            "lng": 108.202017
        },
        "ad_info": {
            "adcode": 520624,
            "province": "贵州省",
            "city": "铜仁市",
            "district": "思南县"
        }
    },
    {
        "id": "284333205355728596",
        "title": "向阳服务区公共厕所",
        "address": "贵州省铜仁市江口县向阳服务区",
        "tel": "",
        "category": "基础设施:公共设施:公共厕所",
        "type": 0,
        "location": {
            "lat": 27.723688,
            "lng": 108.901546
        },
        "ad_info": {
            "adcode": 520621,
            "province": "贵州省",
            "city": "铜仁市",
            "district": "江口县"
        }
    },
    {
        "id": "16395740070884460072",
        "title": "茶店服务区公共厕所",
        "address": "贵州省铜仁市万山区联谊路与长榕路交叉口正北方向1096米左右",
        "tel": "",
        "category": "基础设施:公共设施:公共厕所",
        "type": 0,
        "location": {
            "lat": 27.594597,
            "lng": 109.1382
        },
        "ad_info": {
            "adcode": 520603,
            "province": "贵州省",
            "city": "铜仁市",
            "district": "万山区"
        }
    },
    {
        "id": "14098990956728448578",
        "title": "复兴服务区公共厕所",
        "address": "贵州省铜仁市德江县复兴服务区与G56杭瑞高速入口交叉口南100米",
        "tel": "",
        "category": "基础设施:公共设施:公共厕所",
        "type": 0,
        "location": {
            "lat": 28.08819,
            "lng": 107.90448
        },
        "ad_info": {
            "adcode": 520626,
            "province": "贵州省",
            "city": "铜仁市",
            "district": "德江县"
        }
    },
    {
        "id": "5234803868364165336",
        "title": "思南服务区公共厕所",
        "address": "贵州省铜仁市思南县G56杭瑞高速与思南服务区交叉口东南140米",
        "tel": "",
        "category": "基础设施:公共设施:公共厕所",
        "type": 0,
        "location": {
            "lat": 28.004286,
            "lng": 108.204
        },
        "ad_info": {
            "adcode": 520624,
            "province": "贵州省",
            "city": "铜仁市",
            "district": "思南县"
        }
    },
    {
        "id": "285630369695489923",
        "title": "无障碍公共厕所",
        "address": "贵州省铜仁市思南县新马路与铜遵路交叉口东北方向35米左右",
        "tel": "",
        "category": "基础设施:公共设施:公共厕所",
        "type": 0,
        "location": {
            "lat": 27.940391,
            "lng": 108.251438
        },
        "ad_info": {
            "adcode": 520624,
            "province": "贵州省",
            "city": "铜仁市",
            "district": "思南县"
        }
    },
    {
        "id": "18179157793008155716",
        "title": "德旺服务区公共厕所",
        "address": "贵州省铜仁市江口县G56杭瑞高速与德旺服务区交叉口北200米",
        "tel": "",
        "category": "基础设施:公共设施:公共厕所",
        "type": 0,
        "location": {
            "lat": 27.8213,
            "lng": 108.57202
        },
        "ad_info": {
            "adcode": 520621,
            "province": "贵州省",
            "city": "铜仁市",
            "district": "江口县"
        }
    },
    {
        "id": "13149159532066659632",
        "title": "德旺服务区公共厕所",
        "address": "贵州省铜仁市江口县杨柳杭瑞高速公路德旺服务区",
        "tel": "",
        "category": "基础设施:公共设施:公共厕所",
        "type": 0,
        "location": {
            "lat": 27.820722,
            "lng": 108.570019
        },
        "ad_info": {
            "adcode": 520621,
            "province": "贵州省",
            "city": "铜仁市",
            "district": "江口县"
        }
    },
    {
        "id": "14719954942247482740",
        "title": "德旺服务区第二公共厕所",
        "address": "贵州省铜仁市江口县杭瑞高速",
        "tel": "",
        "category": "基础设施:公共设施:公共厕所",
        "type": 0,
        "location": {
            "lat": 27.822274,
            "lng": 108.571522
        },
        "ad_info": {
            "adcode": 520621,
            "province": "贵州省",
            "city": "铜仁市",
            "district": "江口县"
        }
    },
    {
        "id": "17575131120739010248",
        "title": "大沙坝服务区第一公共厕所",
        "address": "贵州省铜仁市石阡县S25沿榕高速与大沙坝服务区交叉口南180米",
        "tel": "",
        "category": "基础设施:公共设施:公共厕所",
        "type": 0,
        "location": {
            "lat": 27.66837,
            "lng": 108.213705
        },
        "ad_info": {
            "adcode": 520623,
            "province": "贵州省",
            "city": "铜仁市",
            "district": "石阡县"
        }
    },
    {
        "id": "14384356012429978307",
        "title": "碧江服务区公共厕所",
        "address": "贵州省铜仁市碧江区S71铜怀高速与碧江服务区交叉口西420米",
        "tel": "",
        "category": "基础设施:公共设施:公共厕所",
        "type": 0,
        "location": {
            "lat": 27.759975,
            "lng": 109.232562
        },
        "ad_info": {
            "adcode": 520602,
            "province": "贵州省",
            "city": "铜仁市",
            "district": "碧江区"
        }
    },
    {
        "id": "4456767988148888894",
        "title": "公共厕所",
        "address": "贵州省铜仁市玉屏侗族自治县平安大道与惠民路交叉口东北方向177米左右",
        "tel": "",
        "category": "基础设施:公共设施:公共厕所",
        "type": 0,
        "location": {
            "lat": 27.239374,
            "lng": 108.933483
        },
        "ad_info": {
            "adcode": 520622,
            "province": "贵州省",
            "city": "铜仁市",
            "district": "玉屏侗族自治县"
        }
    },
    {
        "id": "5558995486519756063",
        "title": "公共厕所",
        "address": "贵州省铜仁市碧江区花果山北路与锦江北路交叉口东南方向75米左右",
        "tel": "",
        "category": "基础设施:公共设施:公共厕所",
        "type": 0,
        "location": {
            "lat": 27.726946,
            "lng": 109.19107
        },
        "ad_info": {
            "adcode": 520602,
            "province": "贵州省",
            "city": "铜仁市",
            "district": "碧江区"
        }
    },
    {
        "id": "12357609819723678595",
        "title": "无障碍公共厕所",
        "address": "贵州省铜仁市印江土家族苗族自治县西园路与西环路交叉口西北方向88米左右",
        "tel": "",
        "category": "基础设施:公共设施:公共厕所",
        "type": 0,
        "location": {
            "lat": 28.000593,
            "lng": 108.404122
        },
        "ad_info": {
            "adcode": 520625,
            "province": "贵州省",
            "city": "铜仁市",
            "district": "印江土家族苗族自治县"
        }
    },
    {
        "id": "2909358874804048697",
        "title": "公共厕所",
        "address": "贵州省铜仁市思南县S304与许青路交叉口西南方向238米左右",
        "tel": "",
        "category": "基础设施:公共设施:公共厕所",
        "type": 0,
        "location": {
            "lat": 27.841151,
            "lng": 107.984353
        },
        "ad_info": {
            "adcode": 520624,
            "province": "贵州省",
            "city": "铜仁市",
            "district": "思南县"
        }
    },
    {
        "id": "15258822235904473216",
        "title": "公共厕所",
        "address": "贵州省铜仁市江口县承恩寺东侧",
        "tel": "",
        "category": "基础设施:公共设施:公共厕所",
        "type": 0,
        "location": {
            "lat": 27.906862,
            "lng": 108.697374
        },
        "ad_info": {
            "adcode": 520621,
            "province": "贵州省",
            "city": "铜仁市",
            "district": "江口县"
        }
    },
    {
        "id": "3896989022647595249",
        "title": "公共厕所",
        "address": "贵州省铜仁市万山区复兴路与明德路交叉口东南方向193米左右",
        "tel": "",
        "category": "基础设施:公共设施:公共厕所",
        "type": 0,
        "location": {
            "lat": 27.550774,
            "lng": 108.960862
        },
        "ad_info": {
            "adcode": 520603,
            "province": "贵州省",
            "city": "铜仁市",
            "district": "万山区"
        }
    },
    {
        "id": "9603398312903790118",
        "title": "公共厕所",
        "address": "贵州省铜仁市印江土家族苗族自治县G352与东环路交叉口正西方向226米左右",
        "tel": "",
        "category": "基础设施:公共设施:公共厕所",
        "type": 0,
        "location": {
            "lat": 28.001708,
            "lng": 108.416159
        },
        "ad_info": {
            "adcode": 520625,
            "province": "贵州省",
            "city": "铜仁市",
            "district": "印江土家族苗族自治县"
        }
    },
    {
        "id": "3355520276835405425",
        "title": "公共厕所",
        "address": "贵州省铜仁市石阡县佛顶山南路与盐井沟路交叉口西北方向41米左右",
        "tel": "",
        "category": "基础设施:公共设施:公共厕所",
        "type": 0,
        "location": {
            "lat": 27.512745,
            "lng": 108.22371
        },
        "ad_info": {
            "adcode": 520623,
            "province": "贵州省",
            "city": "铜仁市",
            "district": "石阡县"
        }
    },
    {
        "id": "9005770065471855821",
        "title": "公共厕所",
        "address": "贵州省铜仁市万山区张家湾路与解放街路交叉口西北方向503米左右",
        "tel": "",
        "category": "基础设施:公共设施:公共厕所",
        "type": 0,
        "location": {
            "lat": 27.51909,
            "lng": 109.218634
        },
        "ad_info": {
            "adcode": 520603,
            "province": "贵州省",
            "city": "铜仁市",
            "district": "万山区"
        }
    },
    {
        "id": "18140397399025359622",
        "title": "村庄公共厕所",
        "address": "贵州省铜仁市碧江区X605与Y003交叉口正北方向554米左右",
        "tel": "",
        "category": "基础设施:公共设施:公共厕所",
        "type": 0,
        "location": {
            "lat": 27.673754,
            "lng": 109.117159
        },
        "ad_info": {
            "adcode": 520602,
            "province": "贵州省",
            "city": "铜仁市",
            "district": "碧江区"
        }
    },
    {
        "id": "11572060915194517427",
        "title": "公共厕所",
        "address": "贵州省铜仁市玉屏侗族自治县七鳌路与五福路交叉口西南方向78米左右",
        "tel": "",
        "category": "基础设施:公共设施:公共厕所",
        "type": 0,
        "location": {
            "lat": 27.237657,
            "lng": 108.906467
        },
        "ad_info": {
            "adcode": 520622,
            "province": "贵州省",
            "city": "铜仁市",
            "district": "玉屏侗族自治县"
        }
    },
    {
        "id": "17155318361749114253",
        "title": "公共厕所",
        "address": "贵州省铜仁市碧江区东太大道与澎水井路交叉口正西方向100米左右",
        "tel": "",
        "category": "基础设施:公共设施:公共厕所",
        "type": 0,
        "location": {
            "lat": 27.735869,
            "lng": 109.18795
        },
        "ad_info": {
            "adcode": 520602,
            "province": "贵州省",
            "city": "铜仁市",
            "district": "碧江区"
        }
    },
    {
        "id": "8536374484118009219",
        "title": "公共厕所",
        "address": "贵州省铜仁市思南县南门巷与安化街交叉口正北方向172米左右",
        "tel": "",
        "category": "基础设施:公共设施:公共厕所",
        "type": 0,
        "location": {
            "lat": 27.936552,
            "lng": 108.254603
        },
        "ad_info": {
            "adcode": 520624,
            "province": "贵州省",
            "city": "铜仁市",
            "district": "思南县"
        }
    },
    {
        "id": "10664153125530667560",
        "title": "公共厕所",
        "address": "贵州省铜仁市思南县G211与S203交叉口西南方向99米左右",
        "tel": "",
        "category": "基础设施:公共设施:公共厕所",
        "type": 0,
        "location": {
            "lat": 27.899508,
            "lng": 108.253791
        },
        "ad_info": {
            "adcode": 520624,
            "province": "贵州省",
            "city": "铜仁市",
            "district": "思南县"
        }
    },
    {
        "id": "15498195503319064351",
        "title": "公共厕所",
        "address": "贵州省铜仁市江口县卓山路与回龙路交叉口东南方向227米左右",
        "tel": "",
        "category": "基础设施:公共设施:公共厕所",
        "type": 0,
        "location": {
            "lat": 27.697144,
            "lng": 108.849938
        },
        "ad_info": {
            "adcode": 520621,
            "province": "贵州省",
            "city": "铜仁市",
            "district": "江口县"
        }
    },
    {
        "id": "18352029909466625638",
        "title": "公共厕所",
        "address": "贵州省铜仁市碧江区花果山北路与花果山南路交叉口正东方向348米左右",
        "tel": "",
        "category": "基础设施:公共设施:公共厕所",
        "type": 0,
        "location": {
            "lat": 27.730069,
            "lng": 109.193438
        },
        "ad_info": {
            "adcode": 520602,
            "province": "贵州省",
            "city": "铜仁市",
            "district": "碧江区"
        }
    },
    {
        "id": "1518526596144829340",
        "title": "河西村生态体育公园公厕",
        "address": "贵州省铜仁市印江土家族苗族自治县G352",
        "tel": "",
        "category": "基础设施:公共设施:公共厕所",
        "type": 0,
        "location": {
            "lat": 28.006571,
            "lng": 108.474697
        },
        "ad_info": {
            "adcode": 520625,
            "province": "贵州省",
            "city": "铜仁市",
            "district": "印江土家族苗族自治县"
        }
    },
    {
        "id": "15002737760075629692",
        "title": "公共厕所",
        "address": "贵州省铜仁市万山区X582与Y450交叉口东北方向701米左右",
        "tel": "",
        "category": "基础设施:公共设施:公共厕所",
        "type": 0,
        "location": {
            "lat": 27.493411,
            "lng": 109.187479
        },
        "ad_info": {
            "adcode": 520603,
            "province": "贵州省",
            "city": "铜仁市",
            "district": "万山区"
        }
    },
    {
        "id": "13951232710644829798",
        "title": "晓景停车区公共厕所",
        "address": "贵州省铜仁市沿河土家族自治县晓景停车区东侧",
        "tel": "",
        "category": "基础设施:公共设施:公共厕所",
        "type": 0,
        "location": {
            "lat": 28.368615,
            "lng": 108.575167
        },
        "ad_info": {
            "adcode": 520627,
            "province": "贵州省",
            "city": "铜仁市",
            "district": "沿河土家族自治县"
        }
    },
    {
        "id": "16506347660993780678",
        "title": "石头溪乌江停车区公共厕所",
        "address": "贵州省铜仁市石阡县石头溪乌江停车区与S29德余高速交叉口东320米",
        "tel": "",
        "category": "基础设施:公共设施:公共厕所",
        "type": 0,
        "location": {
            "lat": 27.599032,
            "lng": 107.92294
        },
        "ad_info": {
            "adcode": 520623,
            "province": "贵州省",
            "city": "铜仁市",
            "district": "石阡县"
        }
    },
    {
        "id": "8652579191170934279",
        "title": "聚凤停车区公共厕所",
        "address": "贵州省铜仁市石阡县聚凤停车区北(安江高速公路北)",
        "tel": "",
        "category": "基础设施:公共设施:公共厕所",
        "type": 0,
        "location": {
            "lat": 27.320364,
            "lng": 107.978884
        },
        "ad_info": {
            "adcode": 520623,
            "province": "贵州省",
            "city": "铜仁市",
            "district": "石阡县"
        }
    },
    {
        "id": "1391106820035260377",
        "title": "公共厕所",
        "address": "贵州省铜仁市思南县大同路与铜遵路交叉口正北方向291米左右",
        "tel": "",
        "category": "基础设施:公共设施:公共厕所",
        "type": 0,
        "location": {
            "lat": 27.948318,
            "lng": 108.254113
        },
        "ad_info": {
            "adcode": 520624,
            "province": "贵州省",
            "city": "铜仁市",
            "district": "思南县"
        }
    },
    {
        "id": "7047440592439222650",
        "title": "玉铜加油站公共厕所",
        "address": "贵州省铜仁市玉屏侗族自治县玉铜加油站与G60沪昆高速交叉口西北40米",
        "tel": "",
        "category": "基础设施:公共设施:公共厕所",
        "type": 0,
        "location": {
            "lat": 27.257312,
            "lng": 108.971141
        },
        "ad_info": {
            "adcode": 520622,
            "province": "贵州省",
            "city": "铜仁市",
            "district": "玉屏侗族自治县"
        }
    },
    {
        "id": "8091488104781103695",
        "title": "松桃停车区公共厕所",
        "address": "贵州省铜仁市松桃苗族自治县松桃停车区小吃西南侧",
        "tel": "",
        "category": "基础设施:公共设施:公共厕所",
        "type": 0,
        "location": {
            "lat": 28.139627,
            "lng": 109.161805
        },
        "ad_info": {
            "adcode": 520628,
            "province": "贵州省",
            "city": "铜仁市",
            "district": "松桃苗族自治县"
        }
    },
    {
        "id": "3801262575079544107",
        "title": "大路停车区公共厕所",
        "address": "贵州省铜仁市松桃苗族自治县S12松道高速与大路停车区交叉口西300米",
        "tel": "",
        "category": "基础设施:公共设施:公共厕所",
        "type": 0,
        "location": {
            "lat": 28.140119,
            "lng": 109.001122
        },
        "ad_info": {
            "adcode": 520628,
            "province": "贵州省",
            "city": "铜仁市",
            "district": "松桃苗族自治县"
        }
    },
    {
        "id": "8281822319159196327",
        "title": "洗手间",
        "address": "贵州省铜仁市思南县大同路与铜遵路交叉口正北方向227米左右",
        "tel": "",
        "category": "基础设施:公共设施:公共厕所",
        "type": 0,
        "location": {
            "lat": 27.947648,
            "lng": 108.254967
        },
        "ad_info": {
            "adcode": 520624,
            "province": "贵州省",
            "city": "铜仁市",
            "district": "思南县"
        }
    },
    {
        "id": "15378878208761203957",
        "title": "坪山停车区公共厕所",
        "address": "贵州省铜仁市石阡县S25沿榕高速附近",
        "tel": "",
        "category": "基础设施:公共设施:公共厕所",
        "type": 0,
        "location": {
            "lat": 27.388863,
            "lng": 108.230089
        },
        "ad_info": {
            "adcode": 520623,
            "province": "贵州省",
            "city": "铜仁市",
            "district": "石阡县"
        }
    },
    {
        "id": "6810837196292271919",
        "title": "公共厕所",
        "address": "贵州省铜仁市江口县轩轩纯粮酒坊(湖南酒坊)西北侧",
        "tel": "",
        "category": "基础设施:公共设施:公共厕所",
        "type": 0,
        "location": {
            "lat": 27.683248,
            "lng": 108.819856
        },
        "ad_info": {
            "adcode": 520621,
            "province": "贵州省",
            "city": "铜仁市",
            "district": "江口县"
        }
    },
    {
        "id": "9291542695020570837",
        "title": "公共厕所",
        "address": "贵州省铜仁市德江县深圳路与高尔坪路交叉口西北方向73米左右",
        "tel": "",
        "category": "基础设施:公共设施:公共厕所",
        "type": 0,
        "location": {
            "lat": 28.28159,
            "lng": 108.11775
        },
        "ad_info": {
            "adcode": 520626,
            "province": "贵州省",
            "city": "铜仁市",
            "district": "德江县"
        }
    },
    {
        "id": "4789763271339479970",
        "title": "公共厕所",
        "address": "贵州省铜仁市松桃苗族自治县G352与松阳路交叉口正西方向168米左右",
        "tel": "",
        "category": "基础设施:公共设施:公共厕所",
        "type": 0,
        "location": {
            "lat": 28.084425,
            "lng": 108.789727
        },
        "ad_info": {
            "adcode": 520628,
            "province": "贵州省",
            "city": "铜仁市",
            "district": "松桃苗族自治县"
        }
    },
    {
        "id": "17374951200057077649",
        "title": "公共厕所",
        "address": "贵州省铜仁市碧江区中山路125号",
        "tel": "",
        "category": "基础设施:公共设施:公共厕所",
        "type": 0,
        "location": {
            "lat": 27.71512,
            "lng": 109.191456
        },
        "ad_info": {
            "adcode": 520602,
            "province": "贵州省",
            "city": "铜仁市",
            "district": "碧江区"
        }
    },
    {
        "id": "11784024619924252393",
        "title": "公共厕所",
        "address": "贵州省铜仁市松桃苗族自治县九龙西路与兴松大道北路交叉口东北方向142米左右",
        "tel": "",
        "category": "基础设施:公共设施:公共厕所",
        "type": 0,
        "location": {
            "lat": 28.178499,
            "lng": 109.201789
        },
        "ad_info": {
            "adcode": 520628,
            "province": "贵州省",
            "city": "铜仁市",
            "district": "松桃苗族自治县"
        }
    },
    {
        "id": "16878390867122788021",
        "title": "公共厕所",
        "address": "贵州省铜仁市万山区正信路水园停车场",
        "tel": "",
        "category": "基础设施:公共设施:公共厕所",
        "type": 0,
        "location": {
            "lat": 27.665654,
            "lng": 109.158995
        },
        "ad_info": {
            "adcode": 520603,
            "province": "贵州省",
            "city": "铜仁市",
            "district": "万山区"
        }
    },
    {
        "id": "7372533740276758340",
        "title": "木黄会师服务区卫生间",
        "address": "贵州省铜仁市印江土家族苗族自治县G352与松阳路交叉口正南方向269米左右",
        "tel": "",
        "category": "基础设施:公共设施:公共厕所",
        "type": 0,
        "location": {
            "lat": 28.100498,
            "lng": 108.745677
        },
        "ad_info": {
            "adcode": 520625,
            "province": "贵州省",
            "city": "铜仁市",
            "district": "印江土家族苗族自治县"
        }
    },
    {
        "id": "3460137135067891384",
        "title": "公共厕所",
        "address": "贵州省铜仁市碧江区铜仁树蛙部落东北侧约120米",
        "tel": "",
        "category": "基础设施:公共设施:公共厕所",
        "type": 0,
        "location": {
            "lat": 27.797078,
            "lng": 109.19277
        },
        "ad_info": {
            "adcode": 520602,
            "province": "贵州省",
            "city": "铜仁市",
            "district": "碧江区"
        }
    },
    {
        "id": "14125972852336310805",
        "title": "亭子坝停车区公共厕所",
        "address": "贵州省铜仁市思南县亭子坝停车区与S29德余高速交叉口南400米",
        "tel": "",
        "category": "基础设施:公共设施:公共厕所",
        "type": 0,
        "location": {
            "lat": 27.968625,
            "lng": 107.970599
        },
        "ad_info": {
            "adcode": 520624,
            "province": "贵州省",
            "city": "铜仁市",
            "district": "思南县"
        }
    },
    {
        "id": "17226541206781043752",
        "title": "公共厕所",
        "address": "贵州省铜仁市江口县X508与江梵复线公路交叉口西南方向1266米左右",
        "tel": "",
        "category": "基础设施:公共设施:公共厕所",
        "type": 0,
        "location": {
            "lat": 27.810322,
            "lng": 108.759726
        },
        "ad_info": {
            "adcode": 520621,
            "province": "贵州省",
            "city": "铜仁市",
            "district": "江口县"
        }
    },
    {
        "id": "18343243126642795586",
        "title": "公共厕所",
        "address": "贵州省铜仁市碧江区中山路中南门历史文化旅游区",
        "tel": "",
        "category": "基础设施:公共设施:公共厕所",
        "type": 0,
        "location": {
            "lat": 27.712483,
            "lng": 109.188206
        },
        "ad_info": {
            "adcode": 520602,
            "province": "贵州省",
            "city": "铜仁市",
            "district": "碧江区"
        }
    },
    {
        "id": "13149437063848693073",
        "title": "新合朋停车区公共厕所",
        "address": "贵州省铜仁市德江县新合朋停车区新合朋停车区",
        "tel": "",
        "category": "基础设施:公共设施:公共厕所",
        "type": 0,
        "location": {
            "lat": 28.16815,
            "lng": 108.094769
        },
        "ad_info": {
            "adcode": 520626,
            "province": "贵州省",
            "city": "铜仁市",
            "district": "德江县"
        }
    },
    {
        "id": "18012816835867665915",
        "title": "杉树镇永靖村公厕",
        "address": "贵州省铜仁市印江土家族苗族自治县G211",
        "tel": "",
        "category": "基础设施:公共设施:公共厕所",
        "type": 0,
        "location": {
            "lat": 28.101787,
            "lng": 108.415515
        },
        "ad_info": {
            "adcode": 520625,
            "province": "贵州省",
            "city": "铜仁市",
            "district": "印江土家族苗族自治县"
        }
    },
    {
        "id": "17972785191245236208",
        "title": "大路停车区公共厕所",
        "address": "贵州省铜仁市松桃苗族自治县S12松道高速与大路停车区交叉口西南340米",
        "tel": "",
        "category": "基础设施:公共设施:公共厕所",
        "type": 0,
        "location": {
            "lat": 28.138536,
            "lng": 109.001211
        },
        "ad_info": {
            "adcode": 520628,
            "province": "贵州省",
            "city": "铜仁市",
            "district": "松桃苗族自治县"
        }
    },
    {
        "id": "2280770404625473631",
        "title": "公共厕所",
        "address": "贵州省铜仁市碧江区中山路中南门历史文化旅游区",
        "tel": "",
        "category": "基础设施:公共设施:公共厕所",
        "type": 0,
        "location": {
            "lat": 27.71481,
            "lng": 109.19007
        },
        "ad_info": {
            "adcode": 520602,
            "province": "贵州省",
            "city": "铜仁市",
            "district": "碧江区"
        }
    },
    {
        "id": "2588505924623681447",
        "title": "洪安停车区第二公共厕所",
        "address": "贵州省铜仁市松桃苗族自治县G242与厦成线交叉口东北方向619米左右",
        "tel": "",
        "category": "基础设施:公共设施:公共厕所",
        "type": 0,
        "location": {
            "lat": 28.471894,
            "lng": 109.19422
        },
        "ad_info": {
            "adcode": 520628,
            "province": "贵州省",
            "city": "铜仁市",
            "district": "松桃苗族自治县"
        }
    },
    {
        "id": "3291107540026244467",
        "title": "公共厕所",
        "address": "贵州省铜仁市碧江区汽超路与铜兴大道交叉口正北方向573米左右",
        "tel": "",
        "category": "基础设施:公共设施:公共厕所",
        "type": 0,
        "location": {
            "lat": 27.747937,
            "lng": 109.24146
        },
        "ad_info": {
            "adcode": 520602,
            "province": "贵州省",
            "city": "铜仁市",
            "district": "碧江区"
        }
    },
    {
        "id": "16876291490132864725",
        "title": "公共厕所",
        "address": "贵州省铜仁市思南县乌江大道与江滨大道交叉口正北方向313米左右",
        "tel": "",
        "category": "基础设施:公共设施:公共厕所",
        "type": 0,
        "location": {
            "lat": 27.945521,
            "lng": 108.261077
        },
        "ad_info": {
            "adcode": 520624,
            "province": "贵州省",
            "city": "铜仁市",
            "district": "思南县"
        }
    },
    {
        "id": "10716245662475690687",
        "title": "公共厕所",
        "address": "贵州省铜仁市碧江区万家巷与中山路交叉口西北方向135米左右",
        "tel": "",
        "category": "基础设施:公共设施:公共厕所",
        "type": 0,
        "location": {
            "lat": 27.71629,
            "lng": 109.19019
        },
        "ad_info": {
            "adcode": 520602,
            "province": "贵州省",
            "city": "铜仁市",
            "district": "碧江区"
        }
    },
    {
        "id": "2895535746452497011",
        "title": "公共厕所",
        "address": "贵州省铜仁市碧江区Y004与水晶路交叉口西北方向415米左右",
        "tel": "",
        "category": "基础设施:公共设施:公共厕所",
        "type": 0,
        "location": {
            "lat": 27.714262,
            "lng": 109.21303
        },
        "ad_info": {
            "adcode": 520602,
            "province": "贵州省",
            "city": "铜仁市",
            "district": "碧江区"
        }
    },
    {
        "id": "1089939622765897885",
        "title": "甘溪停车区公共厕所",
        "address": "贵州省铜仁市石阡县S30江黔高速与甘溪停车区交叉口东南80米",
        "tel": "",
        "category": "基础设施:公共设施:公共厕所",
        "type": 0,
        "location": {
            "lat": 27.41826,
            "lng": 108.149172
        },
        "ad_info": {
            "adcode": 520623,
            "province": "贵州省",
            "city": "铜仁市",
            "district": "石阡县"
        }
    },
    {
        "id": "10457021559594190442",
        "title": "公共厕所",
        "address": "贵州省铜仁市德江县职工公寓西北侧60米",
        "tel": "",
        "category": "基础设施:公共设施:公共厕所",
        "type": 0,
        "location": {
            "lat": 28.325933,
            "lng": 108.269994
        },
        "ad_info": {
            "adcode": 520626,
            "province": "贵州省",
            "city": "铜仁市",
            "district": "德江县"
        }
    },
    {
        "id": "15998990755000448339",
        "title": "无障碍公共厕所",
        "address": "贵州省铜仁市印江土家族苗族自治县中心街与滨江北路交叉口西北方向106米左右",
        "tel": "",
        "category": "基础设施:公共设施:公共厕所",
        "type": 0,
        "location": {
            "lat": 27.995785,
            "lng": 108.405762
        },
        "ad_info": {
            "adcode": 520625,
            "province": "贵州省",
            "city": "铜仁市",
            "district": "印江土家族苗族自治县"
        }
    },
    {
        "id": "14119717592495386615",
        "title": "旅游公共厕所",
        "address": "贵州省铜仁市碧江区山河墅苑营销中心西北侧120米",
        "tel": "",
        "category": "基础设施:公共设施:公共厕所",
        "type": 0,
        "location": {
            "lat": 27.788979,
            "lng": 109.176008
        },
        "ad_info": {
            "adcode": 520602,
            "province": "贵州省",
            "city": "铜仁市",
            "district": "碧江区"
        }
    },
    {
        "id": "17053716227771731943",
        "title": "公共厕所",
        "address": "贵州省铜仁市石阡县佛顶山南路与龙凤路交叉口东北方向474米左右",
        "tel": "",
        "category": "基础设施:公共设施:公共厕所",
        "type": 0,
        "location": {
            "lat": 27.491619,
            "lng": 108.226434
        },
        "ad_info": {
            "adcode": 520623,
            "province": "贵州省",
            "city": "铜仁市",
            "district": "石阡县"
        }
    },
    {
        "id": "8217368042082981581",
        "title": "公共厕所",
        "address": "贵州省铜仁市石阡县佛顶山北路与冷龙路交叉口正西方向41米左右",
        "tel": "",
        "category": "基础设施:公共设施:公共厕所",
        "type": 0,
        "location": {
            "lat": 27.541476,
            "lng": 108.230035
        },
        "ad_info": {
            "adcode": 520623,
            "province": "贵州省",
            "city": "铜仁市",
            "district": "石阡县"
        }
    },
    {
        "id": "1888903081597202066",
        "title": "公共厕所",
        "address": "贵州省铜仁市石阡县佛顶山南路与悦水路交叉口正西方向20米左右",
        "tel": "",
        "category": "基础设施:公共设施:公共厕所",
        "type": 0,
        "location": {
            "lat": 27.503083,
            "lng": 108.21788
        },
        "ad_info": {
            "adcode": 520623,
            "province": "贵州省",
            "city": "铜仁市",
            "district": "石阡县"
        }
    },
    {
        "id": "14429536167161394166",
        "title": "公共厕所",
        "address": "贵州省铜仁市碧江区桃源大道与铜兴大道交叉口正西方向974米左右",
        "tel": "",
        "category": "基础设施:公共设施:公共厕所",
        "type": 0,
        "location": {
            "lat": 27.785959,
            "lng": 109.241156
        },
        "ad_info": {
            "adcode": 520602,
            "province": "贵州省",
            "city": "铜仁市",
            "district": "碧江区"
        }
    },
    {
        "id": "10643050312393552190",
        "title": "花桥服务区公共厕所",
        "address": "贵州省铜仁市石阡县S30江黔高速与花桥服务区交叉口西240米",
        "tel": "",
        "category": "基础设施:公共设施:公共厕所",
        "type": 0,
        "location": {
            "lat": 27.528394,
            "lng": 108.34046
        },
        "ad_info": {
            "adcode": 520623,
            "province": "贵州省",
            "city": "铜仁市",
            "district": "石阡县"
        }
    },
    {
        "id": "5602529545802007641",
        "title": "公共厕所",
        "address": "贵州省铜仁市碧江区启德路与自由路交叉口西北方向26米左右",
        "tel": "",
        "category": "基础设施:公共设施:公共厕所",
        "type": 0,
        "location": {
            "lat": 27.783899,
            "lng": 109.217584
        },
        "ad_info": {
            "adcode": 520602,
            "province": "贵州省",
            "city": "铜仁市",
            "district": "碧江区"
        }
    },
    {
        "id": "6178396041615118706",
        "title": "亭子坝停车区公共厕所",
        "address": "贵州省铜仁市思南县亭子坝停车区与S29德余高速交叉口南420米",
        "tel": "",
        "category": "基础设施:公共设施:公共厕所",
        "type": 0,
        "location": {
            "lat": 27.968398,
            "lng": 107.970545
        },
        "ad_info": {
            "adcode": 520624,
            "province": "贵州省",
            "city": "铜仁市",
            "district": "思南县"
        }
    },
    {
        "id": "1329732977559143013",
        "title": "公共厕所",
        "address": "贵州省铜仁市碧江区南岳路与清水塘环路交叉口正北方向1047米左右",
        "tel": "",
        "category": "基础设施:公共设施:公共厕所",
        "type": 0,
        "location": {
            "lat": 27.755069,
            "lng": 109.202813
        },
        "ad_info": {
            "adcode": 520602,
            "province": "贵州省",
            "city": "铜仁市",
            "district": "碧江区"
        }
    },
    {
        "id": "277345987916586723",
        "title": "公共厕所",
        "address": "贵州省铜仁市碧江区清水大道52号",
        "tel": "",
        "category": "基础设施:公共设施:公共厕所",
        "type": 0,
        "location": {
            "lat": 27.725411,
            "lng": 109.197446
        },
        "ad_info": {
            "adcode": 520602,
            "province": "贵州省",
            "city": "铜仁市",
            "district": "碧江区"
        }
    },
    {
        "id": "2704102745942748772",
        "title": "公共厕所",
        "address": "贵州省铜仁市万山区X582与Y450交叉口正东方向268米左右",
        "tel": "",
        "category": "基础设施:公共设施:公共厕所",
        "type": 0,
        "location": {
            "lat": 27.489797,
            "lng": 109.184987
        },
        "ad_info": {
            "adcode": 520603,
            "province": "贵州省",
            "city": "铜仁市",
            "district": "万山区"
        }
    },
    {
        "id": "15154043337742937697",
        "title": "公共厕所",
        "address": "贵州省铜仁市思南县S304与乌江大道交叉口西北方向818米左右",
        "tel": "",
        "category": "基础设施:公共设施:公共厕所",
        "type": 0,
        "location": {
            "lat": 27.954736,
            "lng": 108.255786
        },
        "ad_info": {
            "adcode": 520624,
            "province": "贵州省",
            "city": "铜仁市",
            "district": "思南县"
        }
    },
    {
        "id": "15113569664317646841",
        "title": "公共厕所",
        "address": "贵州省铜仁市碧江区沙龙路与铜兴大道交叉口西南方向646米左右",
        "tel": "",
        "category": "基础设施:公共设施:公共厕所",
        "type": 0,
        "location": {
            "lat": 27.723955,
            "lng": 109.230631
        },
        "ad_info": {
            "adcode": 520602,
            "province": "贵州省",
            "city": "铜仁市",
            "district": "碧江区"
        }
    },
    {
        "id": "943601416075121523",
        "title": "石固停车区公共厕所",
        "address": "贵州省铜仁市石阡县安江高速南50米",
        "tel": "",
        "category": "基础设施:公共设施:公共厕所",
        "type": 0,
        "location": {
            "lat": 27.576412,
            "lng": 108.473915
        },
        "ad_info": {
            "adcode": 520623,
            "province": "贵州省",
            "city": "铜仁市",
            "district": "石阡县"
        }
    },
    {
        "id": "8193658977081532630",
        "title": "刀坝服务区公共厕所",
        "address": "贵州省铜仁市印江土家族苗族自治县S12松道高速与刀坝服务区交叉口西140米",
        "tel": "",
        "category": "基础设施:公共设施:公共厕所",
        "type": 0,
        "location": {
            "lat": 28.1958,
            "lng": 108.569851
        },
        "ad_info": {
            "adcode": 520625,
            "province": "贵州省",
            "city": "铜仁市",
            "district": "印江土家族苗族自治县"
        }
    },
    {
        "id": "8104132863746911428",
        "title": "公共厕所",
        "address": "贵州省铜仁市万山区棕榈路与正信路交叉口东南方向205米左右",
        "tel": "",
        "category": "基础设施:公共设施:公共厕所",
        "type": 0,
        "location": {
            "lat": 27.684343,
            "lng": 109.183391
        },
        "ad_info": {
            "adcode": 520603,
            "province": "贵州省",
            "city": "铜仁市",
            "district": "万山区"
        }
    },
    {
        "id": "16630900161528903163",
        "title": "邵家桥停车区公共厕所",
        "address": "贵州省铜仁市思南县S25沿榕高速与邵家桥停车区交叉口西南120米",
        "tel": "",
        "category": "基础设施:公共设施:公共厕所",
        "type": 0,
        "location": {
            "lat": 27.827402,
            "lng": 108.270901
        },
        "ad_info": {
            "adcode": 520624,
            "province": "贵州省",
            "city": "铜仁市",
            "district": "思南县"
        }
    },
    {
        "id": "13656957804062699676",
        "title": "花桥服务区第一公共厕所",
        "address": "贵州省铜仁市石阡县S30江黔高速与花桥服务区交叉口西南320米",
        "tel": "",
        "category": "基础设施:公共设施:公共厕所",
        "type": 0,
        "location": {
            "lat": 27.526316,
            "lng": 108.341153
        },
        "ad_info": {
            "adcode": 520623,
            "province": "贵州省",
            "city": "铜仁市",
            "district": "石阡县"
        }
    },
    {
        "id": "9444612487820039457",
        "title": "公共厕所(体育公园)",
        "address": "贵州省铜仁市德江县与遵义路交叉口东北方向250米左右",
        "tel": "",
        "category": "基础设施:公共设施:公共厕所",
        "type": 0,
        "location": {
            "lat": 28.250265,
            "lng": 108.133376
        },
        "ad_info": {
            "adcode": 520626,
            "province": "贵州省",
            "city": "铜仁市",
            "district": "德江县"
        }
    },
    {
        "id": "6606644291065089395",
        "title": "茶花泉服务区公共厕所",
        "address": "贵州省铜仁市玉屏侗族自治县S19江玉高速与茶花泉服务区交叉口西380米",
        "tel": "",
        "category": "基础设施:公共设施:公共厕所",
        "type": 0,
        "location": {
            "lat": 27.366817,
            "lng": 108.972794
        },
        "ad_info": {
            "adcode": 520622,
            "province": "贵州省",
            "city": "铜仁市",
            "district": "玉屏侗族自治县"
        }
    },
    {
        "id": "4515709164216426024",
        "title": "公共场所",
        "address": "贵州省铜仁市沿河土家族自治县河东农贸市场东门",
        "tel": "",
        "category": "基础设施:公共设施:公共厕所",
        "type": 0,
        "location": {
            "lat": 28.558481,
            "lng": 108.503848
        },
        "ad_info": {
            "adcode": 520627,
            "province": "贵州省",
            "city": "铜仁市",
            "district": "沿河土家族自治县"
        }
    },
    {
        "id": "5718075149960277298",
        "title": "公共厕所(红董油茶园)",
        "address": "贵州省铜仁市碧江区坝黄镇木弄村红董油茶园",
        "tel": "",
        "category": "基础设施:公共设施:公共厕所",
        "type": 0,
        "location": {
            "lat": 27.724844,
            "lng": 109.067611
        },
        "ad_info": {
            "adcode": 520602,
            "province": "贵州省",
            "city": "铜仁市",
            "district": "碧江区"
        }
    },
    {
        "id": "15877093843224941803",
        "title": "茶花泉服务区公共厕所",
        "address": "贵州省铜仁市玉屏侗族自治县S19江玉高速与茶花泉服务区交叉口西南420米",
        "tel": "",
        "category": "基础设施:公共设施:公共厕所",
        "type": 0,
        "location": {
            "lat": 27.36439,
            "lng": 108.973503
        },
        "ad_info": {
            "adcode": 520622,
            "province": "贵州省",
            "city": "铜仁市",
            "district": "玉屏侗族自治县"
        }
    },
    {
        "id": "14957976835930322279",
        "title": "公共厕所(苗王城景区迎龙大道)",
        "address": "贵州省铜仁市松桃苗族自治县正大镇薅菜村迎龙大道旁",
        "tel": "",
        "category": "基础设施:公共设施:公共厕所",
        "type": 0,
        "location": {
            "lat": 27.95774,
            "lng": 109.245732
        },
        "ad_info": {
            "adcode": 520628,
            "province": "贵州省",
            "city": "铜仁市",
            "district": "松桃苗族自治县"
        }
    },
    {
        "id": "5170160514253849551",
        "title": "坝黄停车区公共厕所",
        "address": "贵州省铜仁市碧江区坝黄停车区北50米",
        "tel": "",
        "category": "基础设施:公共设施:公共厕所",
        "type": 0,
        "location": {
            "lat": 27.722256,
            "lng": 109.068944
        },
        "ad_info": {
            "adcode": 520602,
            "province": "贵州省",
            "city": "铜仁市",
            "district": "碧江区"
        }
    },
    {
        "id": "18278433982099381374",
        "title": "公共厕所",
        "address": "贵州省铜仁市沿河土家族自治县西环路与解放南路交叉口东北方向201米左右",
        "tel": "",
        "category": "基础设施:公共设施:公共厕所",
        "type": 0,
        "location": {
            "lat": 28.552646,
            "lng": 108.491877
        },
        "ad_info": {
            "adcode": 520627,
            "province": "贵州省",
            "city": "铜仁市",
            "district": "沿河土家族自治县"
        }
    },
    {
        "id": "8306968393938649856",
        "title": "石固停车区公共厕所",
        "address": "贵州省铜仁市石阡县305省道南150米",
        "tel": "",
        "category": "基础设施:公共设施:公共厕所",
        "type": 0,
        "location": {
            "lat": 27.57681,
            "lng": 108.472503
        },
        "ad_info": {
            "adcode": 520623,
            "province": "贵州省",
            "city": "铜仁市",
            "district": "石阡县"
        }
    },
    {
        "id": "666206220982675670",
        "title": "朗溪镇五个一公厕",
        "address": "贵州省铜仁市印江土家族苗族自治县土司路",
        "tel": "",
        "category": "基础设施:公共设施:公共厕所",
        "type": 0,
        "location": {
            "lat": 28.010757,
            "lng": 108.484981
        },
        "ad_info": {
            "adcode": 520625,
            "province": "贵州省",
            "city": "铜仁市",
            "district": "印江土家族苗族自治县"
        }
    },
    {
        "id": "1329732977559143013",
        "title": "公共厕所",
        "address": "贵州省铜仁市碧江区南岳路与清水塘环路交叉口正北方向1047米左右",
        "tel": "",
        "category": "基础设施:公共设施:公共厕所",
        "type": 0,
        "location": {
            "lat": 27.755069,
            "lng": 109.202813
        },
        "ad_info": {
            "adcode": 520602,
            "province": "贵州省",
            "city": "铜仁市",
            "district": "碧江区"
        }
    },
    {
        "id": "277345987916586723",
        "title": "公共厕所",
        "address": "贵州省铜仁市碧江区清水大道52号",
        "tel": "",
        "category": "基础设施:公共设施:公共厕所",
        "type": 0,
        "location": {
            "lat": 27.725411,
            "lng": 109.197446
        },
        "ad_info": {
            "adcode": 520602,
            "province": "贵州省",
            "city": "铜仁市",
            "district": "碧江区"
        }
    },
    {
        "id": "2704102745942748772",
        "title": "公共厕所",
        "address": "贵州省铜仁市万山区X582与Y450交叉口正东方向268米左右",
        "tel": "",
        "category": "基础设施:公共设施:公共厕所",
        "type": 0,
        "location": {
            "lat": 27.489797,
            "lng": 109.184987
        },
        "ad_info": {
            "adcode": 520603,
            "province": "贵州省",
            "city": "铜仁市",
            "district": "万山区"
        }
    },
    {
        "id": "15154043337742937697",
        "title": "公共厕所",
        "address": "贵州省铜仁市思南县S304与乌江大道交叉口西北方向818米左右",
        "tel": "",
        "category": "基础设施:公共设施:公共厕所",
        "type": 0,
        "location": {
            "lat": 27.954736,
            "lng": 108.255786
        },
        "ad_info": {
            "adcode": 520624,
            "province": "贵州省",
            "city": "铜仁市",
            "district": "思南县"
        }
    },
    {
        "id": "15113569664317646841",
        "title": "公共厕所",
        "address": "贵州省铜仁市碧江区沙龙路与铜兴大道交叉口西南方向646米左右",
        "tel": "",
        "category": "基础设施:公共设施:公共厕所",
        "type": 0,
        "location": {
            "lat": 27.723955,
            "lng": 109.230631
        },
        "ad_info": {
            "adcode": 520602,
            "province": "贵州省",
            "city": "铜仁市",
            "district": "碧江区"
        }
    },
    {
        "id": "943601416075121523",
        "title": "石固停车区公共厕所",
        "address": "贵州省铜仁市石阡县安江高速南50米",
        "tel": "",
        "category": "基础设施:公共设施:公共厕所",
        "type": 0,
        "location": {
            "lat": 27.576412,
            "lng": 108.473915
        },
        "ad_info": {
            "adcode": 520623,
            "province": "贵州省",
            "city": "铜仁市",
            "district": "石阡县"
        }
    },
    {
        "id": "8193658977081532630",
        "title": "刀坝服务区公共厕所",
        "address": "贵州省铜仁市印江土家族苗族自治县S12松道高速与刀坝服务区交叉口西140米",
        "tel": "",
        "category": "基础设施:公共设施:公共厕所",
        "type": 0,
        "location": {
            "lat": 28.1958,
            "lng": 108.569851
        },
        "ad_info": {
            "adcode": 520625,
            "province": "贵州省",
            "city": "铜仁市",
            "district": "印江土家族苗族自治县"
        }
    },
    {
        "id": "8104132863746911428",
        "title": "公共厕所",
        "address": "贵州省铜仁市万山区棕榈路与正信路交叉口东南方向205米左右",
        "tel": "",
        "category": "基础设施:公共设施:公共厕所",
        "type": 0,
        "location": {
            "lat": 27.684343,
            "lng": 109.183391
        },
        "ad_info": {
            "adcode": 520603,
            "province": "贵州省",
            "city": "铜仁市",
            "district": "万山区"
        }
    },
    {
        "id": "16630900161528903163",
        "title": "邵家桥停车区公共厕所",
        "address": "贵州省铜仁市思南县S25沿榕高速与邵家桥停车区交叉口西南120米",
        "tel": "",
        "category": "基础设施:公共设施:公共厕所",
        "type": 0,
        "location": {
            "lat": 27.827402,
            "lng": 108.270901
        },
        "ad_info": {
            "adcode": 520624,
            "province": "贵州省",
            "city": "铜仁市",
            "district": "思南县"
        }
    },
    {
        "id": "13656957804062699676",
        "title": "花桥服务区第一公共厕所",
        "address": "贵州省铜仁市石阡县S30江黔高速与花桥服务区交叉口西南320米",
        "tel": "",
        "category": "基础设施:公共设施:公共厕所",
        "type": 0,
        "location": {
            "lat": 27.526316,
            "lng": 108.341153
        },
        "ad_info": {
            "adcode": 520623,
            "province": "贵州省",
            "city": "铜仁市",
            "district": "石阡县"
        }
    },
    {
        "id": "9444612487820039457",
        "title": "公共厕所(体育公园)",
        "address": "贵州省铜仁市德江县与遵义路交叉口东北方向250米左右",
        "tel": "",
        "category": "基础设施:公共设施:公共厕所",
        "type": 0,
        "location": {
            "lat": 28.250265,
            "lng": 108.133376
        },
        "ad_info": {
            "adcode": 520626,
            "province": "贵州省",
            "city": "铜仁市",
            "district": "德江县"
        }
    },
    {
        "id": "6606644291065089395",
        "title": "茶花泉服务区公共厕所",
        "address": "贵州省铜仁市玉屏侗族自治县S19江玉高速与茶花泉服务区交叉口西380米",
        "tel": "",
        "category": "基础设施:公共设施:公共厕所",
        "type": 0,
        "location": {
            "lat": 27.366817,
            "lng": 108.972794
        },
        "ad_info": {
            "adcode": 520622,
            "province": "贵州省",
            "city": "铜仁市",
            "district": "玉屏侗族自治县"
        }
    },
    {
        "id": "4515709164216426024",
        "title": "公共场所",
        "address": "贵州省铜仁市沿河土家族自治县河东农贸市场东门",
        "tel": "",
        "category": "基础设施:公共设施:公共厕所",
        "type": 0,
        "location": {
            "lat": 28.558481,
            "lng": 108.503848
        },
        "ad_info": {
            "adcode": 520627,
            "province": "贵州省",
            "city": "铜仁市",
            "district": "沿河土家族自治县"
        }
    },
    {
        "id": "5718075149960277298",
        "title": "公共厕所(红董油茶园)",
        "address": "贵州省铜仁市碧江区坝黄镇木弄村红董油茶园",
        "tel": "",
        "category": "基础设施:公共设施:公共厕所",
        "type": 0,
        "location": {
            "lat": 27.724844,
            "lng": 109.067611
        },
        "ad_info": {
            "adcode": 520602,
            "province": "贵州省",
            "city": "铜仁市",
            "district": "碧江区"
        }
    },
    {
        "id": "15877093843224941803",
        "title": "茶花泉服务区公共厕所",
        "address": "贵州省铜仁市玉屏侗族自治县S19江玉高速与茶花泉服务区交叉口西南420米",
        "tel": "",
        "category": "基础设施:公共设施:公共厕所",
        "type": 0,
        "location": {
            "lat": 27.36439,
            "lng": 108.973503
        },
        "ad_info": {
            "adcode": 520622,
            "province": "贵州省",
            "city": "铜仁市",
            "district": "玉屏侗族自治县"
        }
    },
    {
        "id": "14957976835930322279",
        "title": "公共厕所(苗王城景区迎龙大道)",
        "address": "贵州省铜仁市松桃苗族自治县正大镇薅菜村迎龙大道旁",
        "tel": "",
        "category": "基础设施:公共设施:公共厕所",
        "type": 0,
        "location": {
            "lat": 27.95774,
            "lng": 109.245732
        },
        "ad_info": {
            "adcode": 520628,
            "province": "贵州省",
            "city": "铜仁市",
            "district": "松桃苗族自治县"
        }
    },
    {
        "id": "5170160514253849551",
        "title": "坝黄停车区公共厕所",
        "address": "贵州省铜仁市碧江区坝黄停车区北50米",
        "tel": "",
        "category": "基础设施:公共设施:公共厕所",
        "type": 0,
        "location": {
            "lat": 27.722256,
            "lng": 109.068944
        },
        "ad_info": {
            "adcode": 520602,
            "province": "贵州省",
            "city": "铜仁市",
            "district": "碧江区"
        }
    },
    {
        "id": "18278433982099381374",
        "title": "公共厕所",
        "address": "贵州省铜仁市沿河土家族自治县西环路与解放南路交叉口东北方向201米左右",
        "tel": "",
        "category": "基础设施:公共设施:公共厕所",
        "type": 0,
        "location": {
            "lat": 28.552646,
            "lng": 108.491877
        },
        "ad_info": {
            "adcode": 520627,
            "province": "贵州省",
            "city": "铜仁市",
            "district": "沿河土家族自治县"
        }
    },
    {
        "id": "8306968393938649856",
        "title": "石固停车区公共厕所",
        "address": "贵州省铜仁市石阡县305省道南150米",
        "tel": "",
        "category": "基础设施:公共设施:公共厕所",
        "type": 0,
        "location": {
            "lat": 27.57681,
            "lng": 108.472503
        },
        "ad_info": {
            "adcode": 520623,
            "province": "贵州省",
            "city": "铜仁市",
            "district": "石阡县"
        }
    },
    {
        "id": "666206220982675670",
        "title": "朗溪镇五个一公厕",
        "address": "贵州省铜仁市印江土家族苗族自治县土司路",
        "tel": "",
        "category": "基础设施:公共设施:公共厕所",
        "type": 0,
        "location": {
            "lat": 28.010757,
            "lng": 108.484981
        },
        "ad_info": {
            "adcode": 520625,
            "province": "贵州省",
            "city": "铜仁市",
            "district": "印江土家族苗族自治县"
        }
    },
    {
        "id": "1329732977559143013",
        "title": "公共厕所",
        "address": "贵州省铜仁市碧江区南岳路与清水塘环路交叉口正北方向1047米左右",
        "tel": "",
        "category": "基础设施:公共设施:公共厕所",
        "type": 0,
        "location": {
            "lat": 27.755069,
            "lng": 109.202813
        },
        "ad_info": {
            "adcode": 520602,
            "province": "贵州省",
            "city": "铜仁市",
            "district": "碧江区"
        }
    },
    {
        "id": "277345987916586723",
        "title": "公共厕所",
        "address": "贵州省铜仁市碧江区清水大道52号",
        "tel": "",
        "category": "基础设施:公共设施:公共厕所",
        "type": 0,
        "location": {
            "lat": 27.725411,
            "lng": 109.197446
        },
        "ad_info": {
            "adcode": 520602,
            "province": "贵州省",
            "city": "铜仁市",
            "district": "碧江区"
        }
    },
    {
        "id": "2704102745942748772",
        "title": "公共厕所",
        "address": "贵州省铜仁市万山区X582与Y450交叉口正东方向268米左右",
        "tel": "",
        "category": "基础设施:公共设施:公共厕所",
        "type": 0,
        "location": {
            "lat": 27.489797,
            "lng": 109.184987
        },
        "ad_info": {
            "adcode": 520603,
            "province": "贵州省",
            "city": "铜仁市",
            "district": "万山区"
        }
    },
    {
        "id": "15154043337742937697",
        "title": "公共厕所",
        "address": "贵州省铜仁市思南县S304与乌江大道交叉口西北方向818米左右",
        "tel": "",
        "category": "基础设施:公共设施:公共厕所",
        "type": 0,
        "location": {
            "lat": 27.954736,
            "lng": 108.255786
        },
        "ad_info": {
            "adcode": 520624,
            "province": "贵州省",
            "city": "铜仁市",
            "district": "思南县"
        }
    },
    {
        "id": "15113569664317646841",
        "title": "公共厕所",
        "address": "贵州省铜仁市碧江区沙龙路与铜兴大道交叉口西南方向646米左右",
        "tel": "",
        "category": "基础设施:公共设施:公共厕所",
        "type": 0,
        "location": {
            "lat": 27.723955,
            "lng": 109.230631
        },
        "ad_info": {
            "adcode": 520602,
            "province": "贵州省",
            "city": "铜仁市",
            "district": "碧江区"
        }
    },
    {
        "id": "943601416075121523",
        "title": "石固停车区公共厕所",
        "address": "贵州省铜仁市石阡县安江高速南50米",
        "tel": "",
        "category": "基础设施:公共设施:公共厕所",
        "type": 0,
        "location": {
            "lat": 27.576412,
            "lng": 108.473915
        },
        "ad_info": {
            "adcode": 520623,
            "province": "贵州省",
            "city": "铜仁市",
            "district": "石阡县"
        }
    },
    {
        "id": "8193658977081532630",
        "title": "刀坝服务区公共厕所",
        "address": "贵州省铜仁市印江土家族苗族自治县S12松道高速与刀坝服务区交叉口西140米",
        "tel": "",
        "category": "基础设施:公共设施:公共厕所",
        "type": 0,
        "location": {
            "lat": 28.1958,
            "lng": 108.569851
        },
        "ad_info": {
            "adcode": 520625,
            "province": "贵州省",
            "city": "铜仁市",
            "district": "印江土家族苗族自治县"
        }
    },
    {
        "id": "8104132863746911428",
        "title": "公共厕所",
        "address": "贵州省铜仁市万山区棕榈路与正信路交叉口东南方向205米左右",
        "tel": "",
        "category": "基础设施:公共设施:公共厕所",
        "type": 0,
        "location": {
            "lat": 27.684343,
            "lng": 109.183391
        },
        "ad_info": {
            "adcode": 520603,
            "province": "贵州省",
            "city": "铜仁市",
            "district": "万山区"
        }
    },
    {
        "id": "16630900161528903163",
        "title": "邵家桥停车区公共厕所",
        "address": "贵州省铜仁市思南县S25沿榕高速与邵家桥停车区交叉口西南120米",
        "tel": "",
        "category": "基础设施:公共设施:公共厕所",
        "type": 0,
        "location": {
            "lat": 27.827402,
            "lng": 108.270901
        },
        "ad_info": {
            "adcode": 520624,
            "province": "贵州省",
            "city": "铜仁市",
            "district": "思南县"
        }
    },
    {
        "id": "13656957804062699676",
        "title": "花桥服务区第一公共厕所",
        "address": "贵州省铜仁市石阡县S30江黔高速与花桥服务区交叉口西南320米",
        "tel": "",
        "category": "基础设施:公共设施:公共厕所",
        "type": 0,
        "location": {
            "lat": 27.526316,
            "lng": 108.341153
        },
        "ad_info": {
            "adcode": 520623,
            "province": "贵州省",
            "city": "铜仁市",
            "district": "石阡县"
        }
    },
    {
        "id": "9444612487820039457",
        "title": "公共厕所(体育公园)",
        "address": "贵州省铜仁市德江县与遵义路交叉口东北方向250米左右",
        "tel": "",
        "category": "基础设施:公共设施:公共厕所",
        "type": 0,
        "location": {
            "lat": 28.250265,
            "lng": 108.133376
        },
        "ad_info": {
            "adcode": 520626,
            "province": "贵州省",
            "city": "铜仁市",
            "district": "德江县"
        }
    },
    {
        "id": "6606644291065089395",
        "title": "茶花泉服务区公共厕所",
        "address": "贵州省铜仁市玉屏侗族自治县S19江玉高速与茶花泉服务区交叉口西380米",
        "tel": "",
        "category": "基础设施:公共设施:公共厕所",
        "type": 0,
        "location": {
            "lat": 27.366817,
            "lng": 108.972794
        },
        "ad_info": {
            "adcode": 520622,
            "province": "贵州省",
            "city": "铜仁市",
            "district": "玉屏侗族自治县"
        }
    },
    {
        "id": "4515709164216426024",
        "title": "公共场所",
        "address": "贵州省铜仁市沿河土家族自治县河东农贸市场东门",
        "tel": "",
        "category": "基础设施:公共设施:公共厕所",
        "type": 0,
        "location": {
            "lat": 28.558481,
            "lng": 108.503848
        },
        "ad_info": {
            "adcode": 520627,
            "province": "贵州省",
            "city": "铜仁市",
            "district": "沿河土家族自治县"
        }
    },
    {
        "id": "5718075149960277298",
        "title": "公共厕所(红董油茶园)",
        "address": "贵州省铜仁市碧江区坝黄镇木弄村红董油茶园",
        "tel": "",
        "category": "基础设施:公共设施:公共厕所",
        "type": 0,
        "location": {
            "lat": 27.724844,
            "lng": 109.067611
        },
        "ad_info": {
            "adcode": 520602,
            "province": "贵州省",
            "city": "铜仁市",
            "district": "碧江区"
        }
    },
    {
        "id": "15877093843224941803",
        "title": "茶花泉服务区公共厕所",
        "address": "贵州省铜仁市玉屏侗族自治县S19江玉高速与茶花泉服务区交叉口西南420米",
        "tel": "",
        "category": "基础设施:公共设施:公共厕所",
        "type": 0,
        "location": {
            "lat": 27.36439,
            "lng": 108.973503
        },
        "ad_info": {
            "adcode": 520622,
            "province": "贵州省",
            "city": "铜仁市",
            "district": "玉屏侗族自治县"
        }
    },
    {
        "id": "14957976835930322279",
        "title": "公共厕所(苗王城景区迎龙大道)",
        "address": "贵州省铜仁市松桃苗族自治县正大镇薅菜村迎龙大道旁",
        "tel": "",
        "category": "基础设施:公共设施:公共厕所",
        "type": 0,
        "location": {
            "lat": 27.95774,
            "lng": 109.245732
        },
        "ad_info": {
            "adcode": 520628,
            "province": "贵州省",
            "city": "铜仁市",
            "district": "松桃苗族自治县"
        }
    },
    {
        "id": "5170160514253849551",
        "title": "坝黄停车区公共厕所",
        "address": "贵州省铜仁市碧江区坝黄停车区北50米",
        "tel": "",
        "category": "基础设施:公共设施:公共厕所",
        "type": 0,
        "location": {
            "lat": 27.722256,
            "lng": 109.068944
        },
        "ad_info": {
            "adcode": 520602,
            "province": "贵州省",
            "city": "铜仁市",
            "district": "碧江区"
        }
    },
    {
        "id": "18278433982099381374",
        "title": "公共厕所",
        "address": "贵州省铜仁市沿河土家族自治县西环路与解放南路交叉口东北方向201米左右",
        "tel": "",
        "category": "基础设施:公共设施:公共厕所",
        "type": 0,
        "location": {
            "lat": 28.552646,
            "lng": 108.491877
        },
        "ad_info": {
            "adcode": 520627,
            "province": "贵州省",
            "city": "铜仁市",
            "district": "沿河土家族自治县"
        }
    },
    {
        "id": "8306968393938649856",
        "title": "石固停车区公共厕所",
        "address": "贵州省铜仁市石阡县305省道南150米",
        "tel": "",
        "category": "基础设施:公共设施:公共厕所",
        "type": 0,
        "location": {
            "lat": 27.57681,
            "lng": 108.472503
        },
        "ad_info": {
            "adcode": 520623,
            "province": "贵州省",
            "city": "铜仁市",
            "district": "石阡县"
        }
    },
    {
        "id": "666206220982675670",
        "title": "朗溪镇五个一公厕",
        "address": "贵州省铜仁市印江土家族苗族自治县土司路",
        "tel": "",
        "category": "基础设施:公共设施:公共厕所",
        "type": 0,
        "location": {
            "lat": 28.010757,
            "lng": 108.484981
        },
        "ad_info": {
            "adcode": 520625,
            "province": "贵州省",
            "city": "铜仁市",
            "district": "印江土家族苗族自治县"
        }
    },
    {
        "id": "1329732977559143013",
        "title": "公共厕所",
        "address": "贵州省铜仁市碧江区南岳路与清水塘环路交叉口正北方向1047米左右",
        "tel": "",
        "category": "基础设施:公共设施:公共厕所",
        "type": 0,
        "location": {
            "lat": 27.755069,
            "lng": 109.202813
        },
        "ad_info": {
            "adcode": 520602,
            "province": "贵州省",
            "city": "铜仁市",
            "district": "碧江区"
        }
    },
    {
        "id": "277345987916586723",
        "title": "公共厕所",
        "address": "贵州省铜仁市碧江区清水大道52号",
        "tel": "",
        "category": "基础设施:公共设施:公共厕所",
        "type": 0,
        "location": {
            "lat": 27.725411,
            "lng": 109.197446
        },
        "ad_info": {
            "adcode": 520602,
            "province": "贵州省",
            "city": "铜仁市",
            "district": "碧江区"
        }
    },
    {
        "id": "2704102745942748772",
        "title": "公共厕所",
        "address": "贵州省铜仁市万山区X582与Y450交叉口正东方向268米左右",
        "tel": "",
        "category": "基础设施:公共设施:公共厕所",
        "type": 0,
        "location": {
            "lat": 27.489797,
            "lng": 109.184987
        },
        "ad_info": {
            "adcode": 520603,
            "province": "贵州省",
            "city": "铜仁市",
            "district": "万山区"
        }
    },
    {
        "id": "15154043337742937697",
        "title": "公共厕所",
        "address": "贵州省铜仁市思南县S304与乌江大道交叉口西北方向818米左右",
        "tel": "",
        "category": "基础设施:公共设施:公共厕所",
        "type": 0,
        "location": {
            "lat": 27.954736,
            "lng": 108.255786
        },
        "ad_info": {
            "adcode": 520624,
            "province": "贵州省",
            "city": "铜仁市",
            "district": "思南县"
        }
    },
    {
        "id": "15113569664317646841",
        "title": "公共厕所",
        "address": "贵州省铜仁市碧江区沙龙路与铜兴大道交叉口西南方向646米左右",
        "tel": "",
        "category": "基础设施:公共设施:公共厕所",
        "type": 0,
        "location": {
            "lat": 27.723955,
            "lng": 109.230631
        },
        "ad_info": {
            "adcode": 520602,
            "province": "贵州省",
            "city": "铜仁市",
            "district": "碧江区"
        }
    },
    {
        "id": "943601416075121523",
        "title": "石固停车区公共厕所",
        "address": "贵州省铜仁市石阡县安江高速南50米",
        "tel": "",
        "category": "基础设施:公共设施:公共厕所",
        "type": 0,
        "location": {
            "lat": 27.576412,
            "lng": 108.473915
        },
        "ad_info": {
            "adcode": 520623,
            "province": "贵州省",
            "city": "铜仁市",
            "district": "石阡县"
        }
    },
    {
        "id": "8193658977081532630",
        "title": "刀坝服务区公共厕所",
        "address": "贵州省铜仁市印江土家族苗族自治县S12松道高速与刀坝服务区交叉口西140米",
        "tel": "",
        "category": "基础设施:公共设施:公共厕所",
        "type": 0,
        "location": {
            "lat": 28.1958,
            "lng": 108.569851
        },
        "ad_info": {
            "adcode": 520625,
            "province": "贵州省",
            "city": "铜仁市",
            "district": "印江土家族苗族自治县"
        }
    },
    {
        "id": "8104132863746911428",
        "title": "公共厕所",
        "address": "贵州省铜仁市万山区棕榈路与正信路交叉口东南方向205米左右",
        "tel": "",
        "category": "基础设施:公共设施:公共厕所",
        "type": 0,
        "location": {
            "lat": 27.684343,
            "lng": 109.183391
        },
        "ad_info": {
            "adcode": 520603,
            "province": "贵州省",
            "city": "铜仁市",
            "district": "万山区"
        }
    },
    {
        "id": "16630900161528903163",
        "title": "邵家桥停车区公共厕所",
        "address": "贵州省铜仁市思南县S25沿榕高速与邵家桥停车区交叉口西南120米",
        "tel": "",
        "category": "基础设施:公共设施:公共厕所",
        "type": 0,
        "location": {
            "lat": 27.827402,
            "lng": 108.270901
        },
        "ad_info": {
            "adcode": 520624,
            "province": "贵州省",
            "city": "铜仁市",
            "district": "思南县"
        }
    },
    {
        "id": "13656957804062699676",
        "title": "花桥服务区第一公共厕所",
        "address": "贵州省铜仁市石阡县S30江黔高速与花桥服务区交叉口西南320米",
        "tel": "",
        "category": "基础设施:公共设施:公共厕所",
        "type": 0,
        "location": {
            "lat": 27.526316,
            "lng": 108.341153
        },
        "ad_info": {
            "adcode": 520623,
            "province": "贵州省",
            "city": "铜仁市",
            "district": "石阡县"
        }
    },
    {
        "id": "9444612487820039457",
        "title": "公共厕所(体育公园)",
        "address": "贵州省铜仁市德江县与遵义路交叉口东北方向250米左右",
        "tel": "",
        "category": "基础设施:公共设施:公共厕所",
        "type": 0,
        "location": {
            "lat": 28.250265,
            "lng": 108.133376
        },
        "ad_info": {
            "adcode": 520626,
            "province": "贵州省",
            "city": "铜仁市",
            "district": "德江县"
        }
    },
    {
        "id": "6606644291065089395",
        "title": "茶花泉服务区公共厕所",
        "address": "贵州省铜仁市玉屏侗族自治县S19江玉高速与茶花泉服务区交叉口西380米",
        "tel": "",
        "category": "基础设施:公共设施:公共厕所",
        "type": 0,
        "location": {
            "lat": 27.366817,
            "lng": 108.972794
        },
        "ad_info": {
            "adcode": 520622,
            "province": "贵州省",
            "city": "铜仁市",
            "district": "玉屏侗族自治县"
        }
    },
    {
        "id": "4515709164216426024",
        "title": "公共场所",
        "address": "贵州省铜仁市沿河土家族自治县河东农贸市场东门",
        "tel": "",
        "category": "基础设施:公共设施:公共厕所",
        "type": 0,
        "location": {
            "lat": 28.558481,
            "lng": 108.503848
        },
        "ad_info": {
            "adcode": 520627,
            "province": "贵州省",
            "city": "铜仁市",
            "district": "沿河土家族自治县"
        }
    },
    {
        "id": "5718075149960277298",
        "title": "公共厕所(红董油茶园)",
        "address": "贵州省铜仁市碧江区坝黄镇木弄村红董油茶园",
        "tel": "",
        "category": "基础设施:公共设施:公共厕所",
        "type": 0,
        "location": {
            "lat": 27.724844,
            "lng": 109.067611
        },
        "ad_info": {
            "adcode": 520602,
            "province": "贵州省",
            "city": "铜仁市",
            "district": "碧江区"
        }
    },
    {
        "id": "15877093843224941803",
        "title": "茶花泉服务区公共厕所",
        "address": "贵州省铜仁市玉屏侗族自治县S19江玉高速与茶花泉服务区交叉口西南420米",
        "tel": "",
        "category": "基础设施:公共设施:公共厕所",
        "type": 0,
        "location": {
            "lat": 27.36439,
            "lng": 108.973503
        },
        "ad_info": {
            "adcode": 520622,
            "province": "贵州省",
            "city": "铜仁市",
            "district": "玉屏侗族自治县"
        }
    },
    {
        "id": "14957976835930322279",
        "title": "公共厕所(苗王城景区迎龙大道)",
        "address": "贵州省铜仁市松桃苗族自治县正大镇薅菜村迎龙大道旁",
        "tel": "",
        "category": "基础设施:公共设施:公共厕所",
        "type": 0,
        "location": {
            "lat": 27.95774,
            "lng": 109.245732
        },
        "ad_info": {
            "adcode": 520628,
            "province": "贵州省",
            "city": "铜仁市",
            "district": "松桃苗族自治县"
        }
    },
    {
        "id": "5170160514253849551",
        "title": "坝黄停车区公共厕所",
        "address": "贵州省铜仁市碧江区坝黄停车区北50米",
        "tel": "",
        "category": "基础设施:公共设施:公共厕所",
        "type": 0,
        "location": {
            "lat": 27.722256,
            "lng": 109.068944
        },
        "ad_info": {
            "adcode": 520602,
            "province": "贵州省",
            "city": "铜仁市",
            "district": "碧江区"
        }
    },
    {
        "id": "18278433982099381374",
        "title": "公共厕所",
        "address": "贵州省铜仁市沿河土家族自治县西环路与解放南路交叉口东北方向201米左右",
        "tel": "",
        "category": "基础设施:公共设施:公共厕所",
        "type": 0,
        "location": {
            "lat": 28.552646,
            "lng": 108.491877
        },
        "ad_info": {
            "adcode": 520627,
            "province": "贵州省",
            "city": "铜仁市",
            "district": "沿河土家族自治县"
        }
    },
    {
        "id": "8306968393938649856",
        "title": "石固停车区公共厕所",
        "address": "贵州省铜仁市石阡县305省道南150米",
        "tel": "",
        "category": "基础设施:公共设施:公共厕所",
        "type": 0,
        "location": {
            "lat": 27.57681,
            "lng": 108.472503
        },
        "ad_info": {
            "adcode": 520623,
            "province": "贵州省",
            "city": "铜仁市",
            "district": "石阡县"
        }
    },
    {
        "id": "666206220982675670",
        "title": "朗溪镇五个一公厕",
        "address": "贵州省铜仁市印江土家族苗族自治县土司路",
        "tel": "",
        "category": "基础设施:公共设施:公共厕所",
        "type": 0,
        "location": {
            "lat": 28.010757,
            "lng": 108.484981
        },
        "ad_info": {
            "adcode": 520625,
            "province": "贵州省",
            "city": "铜仁市",
            "district": "印江土家族苗族自治县"
        }
    },
    {
        "id": "1329732977559143013",
        "title": "公共厕所",
        "address": "贵州省铜仁市碧江区南岳路与清水塘环路交叉口正北方向1047米左右",
        "tel": "",
        "category": "基础设施:公共设施:公共厕所",
        "type": 0,
        "location": {
            "lat": 27.755069,
            "lng": 109.202813
        },
        "ad_info": {
            "adcode": 520602,
            "province": "贵州省",
            "city": "铜仁市",
            "district": "碧江区"
        }
    },
    {
        "id": "277345987916586723",
        "title": "公共厕所",
        "address": "贵州省铜仁市碧江区清水大道52号",
        "tel": "",
        "category": "基础设施:公共设施:公共厕所",
        "type": 0,
        "location": {
            "lat": 27.725411,
            "lng": 109.197446
        },
        "ad_info": {
            "adcode": 520602,
            "province": "贵州省",
            "city": "铜仁市",
            "district": "碧江区"
        }
    },
    {
        "id": "2704102745942748772",
        "title": "公共厕所",
        "address": "贵州省铜仁市万山区X582与Y450交叉口正东方向268米左右",
        "tel": "",
        "category": "基础设施:公共设施:公共厕所",
        "type": 0,
        "location": {
            "lat": 27.489797,
            "lng": 109.184987
        },
        "ad_info": {
            "adcode": 520603,
            "province": "贵州省",
            "city": "铜仁市",
            "district": "万山区"
        }
    },
    {
        "id": "15154043337742937697",
        "title": "公共厕所",
        "address": "贵州省铜仁市思南县S304与乌江大道交叉口西北方向818米左右",
        "tel": "",
        "category": "基础设施:公共设施:公共厕所",
        "type": 0,
        "location": {
            "lat": 27.954736,
            "lng": 108.255786
        },
        "ad_info": {
            "adcode": 520624,
            "province": "贵州省",
            "city": "铜仁市",
            "district": "思南县"
        }
    },
    {
        "id": "15113569664317646841",
        "title": "公共厕所",
        "address": "贵州省铜仁市碧江区沙龙路与铜兴大道交叉口西南方向646米左右",
        "tel": "",
        "category": "基础设施:公共设施:公共厕所",
        "type": 0,
        "location": {
            "lat": 27.723955,
            "lng": 109.230631
        },
        "ad_info": {
            "adcode": 520602,
            "province": "贵州省",
            "city": "铜仁市",
            "district": "碧江区"
        }
    },
    {
        "id": "943601416075121523",
        "title": "石固停车区公共厕所",
        "address": "贵州省铜仁市石阡县安江高速南50米",
        "tel": "",
        "category": "基础设施:公共设施:公共厕所",
        "type": 0,
        "location": {
            "lat": 27.576412,
            "lng": 108.473915
        },
        "ad_info": {
            "adcode": 520623,
            "province": "贵州省",
            "city": "铜仁市",
            "district": "石阡县"
        }
    },
    {
        "id": "8193658977081532630",
        "title": "刀坝服务区公共厕所",
        "address": "贵州省铜仁市印江土家族苗族自治县S12松道高速与刀坝服务区交叉口西140米",
        "tel": "",
        "category": "基础设施:公共设施:公共厕所",
        "type": 0,
        "location": {
            "lat": 28.1958,
            "lng": 108.569851
        },
        "ad_info": {
            "adcode": 520625,
            "province": "贵州省",
            "city": "铜仁市",
            "district": "印江土家族苗族自治县"
        }
    },
    {
        "id": "8104132863746911428",
        "title": "公共厕所",
        "address": "贵州省铜仁市万山区棕榈路与正信路交叉口东南方向205米左右",
        "tel": "",
        "category": "基础设施:公共设施:公共厕所",
        "type": 0,
        "location": {
            "lat": 27.684343,
            "lng": 109.183391
        },
        "ad_info": {
            "adcode": 520603,
            "province": "贵州省",
            "city": "铜仁市",
            "district": "万山区"
        }
    },
    {
        "id": "16630900161528903163",
        "title": "邵家桥停车区公共厕所",
        "address": "贵州省铜仁市思南县S25沿榕高速与邵家桥停车区交叉口西南120米",
        "tel": "",
        "category": "基础设施:公共设施:公共厕所",
        "type": 0,
        "location": {
            "lat": 27.827402,
            "lng": 108.270901
        },
        "ad_info": {
            "adcode": 520624,
            "province": "贵州省",
            "city": "铜仁市",
            "district": "思南县"
        }
    },
    {
        "id": "13656957804062699676",
        "title": "花桥服务区第一公共厕所",
        "address": "贵州省铜仁市石阡县S30江黔高速与花桥服务区交叉口西南320米",
        "tel": "",
        "category": "基础设施:公共设施:公共厕所",
        "type": 0,
        "location": {
            "lat": 27.526316,
            "lng": 108.341153
        },
        "ad_info": {
            "adcode": 520623,
            "province": "贵州省",
            "city": "铜仁市",
            "district": "石阡县"
        }
    },
    {
        "id": "9444612487820039457",
        "title": "公共厕所(体育公园)",
        "address": "贵州省铜仁市德江县与遵义路交叉口东北方向250米左右",
        "tel": "",
        "category": "基础设施:公共设施:公共厕所",
        "type": 0,
        "location": {
            "lat": 28.250265,
            "lng": 108.133376
        },
        "ad_info": {
            "adcode": 520626,
            "province": "贵州省",
            "city": "铜仁市",
            "district": "德江县"
        }
    },
    {
        "id": "6606644291065089395",
        "title": "茶花泉服务区公共厕所",
        "address": "贵州省铜仁市玉屏侗族自治县S19江玉高速与茶花泉服务区交叉口西380米",
        "tel": "",
        "category": "基础设施:公共设施:公共厕所",
        "type": 0,
        "location": {
            "lat": 27.366817,
            "lng": 108.972794
        },
        "ad_info": {
            "adcode": 520622,
            "province": "贵州省",
            "city": "铜仁市",
            "district": "玉屏侗族自治县"
        }
    },
    {
        "id": "4515709164216426024",
        "title": "公共场所",
        "address": "贵州省铜仁市沿河土家族自治县河东农贸市场东门",
        "tel": "",
        "category": "基础设施:公共设施:公共厕所",
        "type": 0,
        "location": {
            "lat": 28.558481,
            "lng": 108.503848
        },
        "ad_info": {
            "adcode": 520627,
            "province": "贵州省",
            "city": "铜仁市",
            "district": "沿河土家族自治县"
        }
    },
    {
        "id": "5718075149960277298",
        "title": "公共厕所(红董油茶园)",
        "address": "贵州省铜仁市碧江区坝黄镇木弄村红董油茶园",
        "tel": "",
        "category": "基础设施:公共设施:公共厕所",
        "type": 0,
        "location": {
            "lat": 27.724844,
            "lng": 109.067611
        },
        "ad_info": {
            "adcode": 520602,
            "province": "贵州省",
            "city": "铜仁市",
            "district": "碧江区"
        }
    },
    {
        "id": "15877093843224941803",
        "title": "茶花泉服务区公共厕所",
        "address": "贵州省铜仁市玉屏侗族自治县S19江玉高速与茶花泉服务区交叉口西南420米",
        "tel": "",
        "category": "基础设施:公共设施:公共厕所",
        "type": 0,
        "location": {
            "lat": 27.36439,
            "lng": 108.973503
        },
        "ad_info": {
            "adcode": 520622,
            "province": "贵州省",
            "city": "铜仁市",
            "district": "玉屏侗族自治县"
        }
    },
    {
        "id": "14957976835930322279",
        "title": "公共厕所(苗王城景区迎龙大道)",
        "address": "贵州省铜仁市松桃苗族自治县正大镇薅菜村迎龙大道旁",
        "tel": "",
        "category": "基础设施:公共设施:公共厕所",
        "type": 0,
        "location": {
            "lat": 27.95774,
            "lng": 109.245732
        },
        "ad_info": {
            "adcode": 520628,
            "province": "贵州省",
            "city": "铜仁市",
            "district": "松桃苗族自治县"
        }
    },
    {
        "id": "5170160514253849551",
        "title": "坝黄停车区公共厕所",
        "address": "贵州省铜仁市碧江区坝黄停车区北50米",
        "tel": "",
        "category": "基础设施:公共设施:公共厕所",
        "type": 0,
        "location": {
            "lat": 27.722256,
            "lng": 109.068944
        },
        "ad_info": {
            "adcode": 520602,
            "province": "贵州省",
            "city": "铜仁市",
            "district": "碧江区"
        }
    },
    {
        "id": "18278433982099381374",
        "title": "公共厕所",
        "address": "贵州省铜仁市沿河土家族自治县西环路与解放南路交叉口东北方向201米左右",
        "tel": "",
        "category": "基础设施:公共设施:公共厕所",
        "type": 0,
        "location": {
            "lat": 28.552646,
            "lng": 108.491877
        },
        "ad_info": {
            "adcode": 520627,
            "province": "贵州省",
            "city": "铜仁市",
            "district": "沿河土家族自治县"
        }
    },
    {
        "id": "8306968393938649856",
        "title": "石固停车区公共厕所",
        "address": "贵州省铜仁市石阡县305省道南150米",
        "tel": "",
        "category": "基础设施:公共设施:公共厕所",
        "type": 0,
        "location": {
            "lat": 27.57681,
            "lng": 108.472503
        },
        "ad_info": {
            "adcode": 520623,
            "province": "贵州省",
            "city": "铜仁市",
            "district": "石阡县"
        }
    },
    {
        "id": "666206220982675670",
        "title": "朗溪镇五个一公厕",
        "address": "贵州省铜仁市印江土家族苗族自治县土司路",
        "tel": "",
        "category": "基础设施:公共设施:公共厕所",
        "type": 0,
        "location": {
            "lat": 28.010757,
            "lng": 108.484981
        },
        "ad_info": {
            "adcode": 520625,
            "province": "贵州省",
            "city": "铜仁市",
            "district": "印江土家族苗族自治县"
        }
    },
    {
        "id": "1329732977559143013",
        "title": "公共厕所",
        "address": "贵州省铜仁市碧江区南岳路与清水塘环路交叉口正北方向1047米左右",
        "tel": "",
        "category": "基础设施:公共设施:公共厕所",
        "type": 0,
        "location": {
            "lat": 27.755069,
            "lng": 109.202813
        },
        "ad_info": {
            "adcode": 520602,
            "province": "贵州省",
            "city": "铜仁市",
            "district": "碧江区"
        }
    },
    {
        "id": "277345987916586723",
        "title": "公共厕所",
        "address": "贵州省铜仁市碧江区清水大道52号",
        "tel": "",
        "category": "基础设施:公共设施:公共厕所",
        "type": 0,
        "location": {
            "lat": 27.725411,
            "lng": 109.197446
        },
        "ad_info": {
            "adcode": 520602,
            "province": "贵州省",
            "city": "铜仁市",
            "district": "碧江区"
        }
    },
    {
        "id": "2704102745942748772",
        "title": "公共厕所",
        "address": "贵州省铜仁市万山区X582与Y450交叉口正东方向268米左右",
        "tel": "",
        "category": "基础设施:公共设施:公共厕所",
        "type": 0,
        "location": {
            "lat": 27.489797,
            "lng": 109.184987
        },
        "ad_info": {
            "adcode": 520603,
            "province": "贵州省",
            "city": "铜仁市",
            "district": "万山区"
        }
    },
    {
        "id": "15154043337742937697",
        "title": "公共厕所",
        "address": "贵州省铜仁市思南县S304与乌江大道交叉口西北方向818米左右",
        "tel": "",
        "category": "基础设施:公共设施:公共厕所",
        "type": 0,
        "location": {
            "lat": 27.954736,
            "lng": 108.255786
        },
        "ad_info": {
            "adcode": 520624,
            "province": "贵州省",
            "city": "铜仁市",
            "district": "思南县"
        }
    },
    {
        "id": "15113569664317646841",
        "title": "公共厕所",
        "address": "贵州省铜仁市碧江区沙龙路与铜兴大道交叉口西南方向646米左右",
        "tel": "",
        "category": "基础设施:公共设施:公共厕所",
        "type": 0,
        "location": {
            "lat": 27.723955,
            "lng": 109.230631
        },
        "ad_info": {
            "adcode": 520602,
            "province": "贵州省",
            "city": "铜仁市",
            "district": "碧江区"
        }
    },
    {
        "id": "943601416075121523",
        "title": "石固停车区公共厕所",
        "address": "贵州省铜仁市石阡县安江高速南50米",
        "tel": "",
        "category": "基础设施:公共设施:公共厕所",
        "type": 0,
        "location": {
            "lat": 27.576412,
            "lng": 108.473915
        },
        "ad_info": {
            "adcode": 520623,
            "province": "贵州省",
            "city": "铜仁市",
            "district": "石阡县"
        }
    },
    {
        "id": "8193658977081532630",
        "title": "刀坝服务区公共厕所",
        "address": "贵州省铜仁市印江土家族苗族自治县S12松道高速与刀坝服务区交叉口西140米",
        "tel": "",
        "category": "基础设施:公共设施:公共厕所",
        "type": 0,
        "location": {
            "lat": 28.1958,
            "lng": 108.569851
        },
        "ad_info": {
            "adcode": 520625,
            "province": "贵州省",
            "city": "铜仁市",
            "district": "印江土家族苗族自治县"
        }
    },
    {
        "id": "8104132863746911428",
        "title": "公共厕所",
        "address": "贵州省铜仁市万山区棕榈路与正信路交叉口东南方向205米左右",
        "tel": "",
        "category": "基础设施:公共设施:公共厕所",
        "type": 0,
        "location": {
            "lat": 27.684343,
            "lng": 109.183391
        },
        "ad_info": {
            "adcode": 520603,
            "province": "贵州省",
            "city": "铜仁市",
            "district": "万山区"
        }
    },
    {
        "id": "16630900161528903163",
        "title": "邵家桥停车区公共厕所",
        "address": "贵州省铜仁市思南县S25沿榕高速与邵家桥停车区交叉口西南120米",
        "tel": "",
        "category": "基础设施:公共设施:公共厕所",
        "type": 0,
        "location": {
            "lat": 27.827402,
            "lng": 108.270901
        },
        "ad_info": {
            "adcode": 520624,
            "province": "贵州省",
            "city": "铜仁市",
            "district": "思南县"
        }
    },
    {
        "id": "13656957804062699676",
        "title": "花桥服务区第一公共厕所",
        "address": "贵州省铜仁市石阡县S30江黔高速与花桥服务区交叉口西南320米",
        "tel": "",
        "category": "基础设施:公共设施:公共厕所",
        "type": 0,
        "location": {
            "lat": 27.526316,
            "lng": 108.341153
        },
        "ad_info": {
            "adcode": 520623,
            "province": "贵州省",
            "city": "铜仁市",
            "district": "石阡县"
        }
    },
    {
        "id": "9444612487820039457",
        "title": "公共厕所(体育公园)",
        "address": "贵州省铜仁市德江县与遵义路交叉口东北方向250米左右",
        "tel": "",
        "category": "基础设施:公共设施:公共厕所",
        "type": 0,
        "location": {
            "lat": 28.250265,
            "lng": 108.133376
        },
        "ad_info": {
            "adcode": 520626,
            "province": "贵州省",
            "city": "铜仁市",
            "district": "德江县"
        }
    },
    {
        "id": "6606644291065089395",
        "title": "茶花泉服务区公共厕所",
        "address": "贵州省铜仁市玉屏侗族自治县S19江玉高速与茶花泉服务区交叉口西380米",
        "tel": "",
        "category": "基础设施:公共设施:公共厕所",
        "type": 0,
        "location": {
            "lat": 27.366817,
            "lng": 108.972794
        },
        "ad_info": {
            "adcode": 520622,
            "province": "贵州省",
            "city": "铜仁市",
            "district": "玉屏侗族自治县"
        }
    },
    {
        "id": "4515709164216426024",
        "title": "公共场所",
        "address": "贵州省铜仁市沿河土家族自治县河东农贸市场东门",
        "tel": "",
        "category": "基础设施:公共设施:公共厕所",
        "type": 0,
        "location": {
            "lat": 28.558481,
            "lng": 108.503848
        },
        "ad_info": {
            "adcode": 520627,
            "province": "贵州省",
            "city": "铜仁市",
            "district": "沿河土家族自治县"
        }
    },
    {
        "id": "5718075149960277298",
        "title": "公共厕所(红董油茶园)",
        "address": "贵州省铜仁市碧江区坝黄镇木弄村红董油茶园",
        "tel": "",
        "category": "基础设施:公共设施:公共厕所",
        "type": 0,
        "location": {
            "lat": 27.724844,
            "lng": 109.067611
        },
        "ad_info": {
            "adcode": 520602,
            "province": "贵州省",
            "city": "铜仁市",
            "district": "碧江区"
        }
    },
    {
        "id": "15877093843224941803",
        "title": "茶花泉服务区公共厕所",
        "address": "贵州省铜仁市玉屏侗族自治县S19江玉高速与茶花泉服务区交叉口西南420米",
        "tel": "",
        "category": "基础设施:公共设施:公共厕所",
        "type": 0,
        "location": {
            "lat": 27.36439,
            "lng": 108.973503
        },
        "ad_info": {
            "adcode": 520622,
            "province": "贵州省",
            "city": "铜仁市",
            "district": "玉屏侗族自治县"
        }
    },
    {
        "id": "14957976835930322279",
        "title": "公共厕所(苗王城景区迎龙大道)",
        "address": "贵州省铜仁市松桃苗族自治县正大镇薅菜村迎龙大道旁",
        "tel": "",
        "category": "基础设施:公共设施:公共厕所",
        "type": 0,
        "location": {
            "lat": 27.95774,
            "lng": 109.245732
        },
        "ad_info": {
            "adcode": 520628,
            "province": "贵州省",
            "city": "铜仁市",
            "district": "松桃苗族自治县"
        }
    },
    {
        "id": "5170160514253849551",
        "title": "坝黄停车区公共厕所",
        "address": "贵州省铜仁市碧江区坝黄停车区北50米",
        "tel": "",
        "category": "基础设施:公共设施:公共厕所",
        "type": 0,
        "location": {
            "lat": 27.722256,
            "lng": 109.068944
        },
        "ad_info": {
            "adcode": 520602,
            "province": "贵州省",
            "city": "铜仁市",
            "district": "碧江区"
        }
    },
    {
        "id": "18278433982099381374",
        "title": "公共厕所",
        "address": "贵州省铜仁市沿河土家族自治县西环路与解放南路交叉口东北方向201米左右",
        "tel": "",
        "category": "基础设施:公共设施:公共厕所",
        "type": 0,
        "location": {
            "lat": 28.552646,
            "lng": 108.491877
        },
        "ad_info": {
            "adcode": 520627,
            "province": "贵州省",
            "city": "铜仁市",
            "district": "沿河土家族自治县"
        }
    },
    {
        "id": "8306968393938649856",
        "title": "石固停车区公共厕所",
        "address": "贵州省铜仁市石阡县305省道南150米",
        "tel": "",
        "category": "基础设施:公共设施:公共厕所",
        "type": 0,
        "location": {
            "lat": 27.57681,
            "lng": 108.472503
        },
        "ad_info": {
            "adcode": 520623,
            "province": "贵州省",
            "city": "铜仁市",
            "district": "石阡县"
        }
    },
    {
        "id": "666206220982675670",
        "title": "朗溪镇五个一公厕",
        "address": "贵州省铜仁市印江土家族苗族自治县土司路",
        "tel": "",
        "category": "基础设施:公共设施:公共厕所",
        "type": 0,
        "location": {
            "lat": 28.010757,
            "lng": 108.484981
        },
        "ad_info": {
            "adcode": 520625,
            "province": "贵州省",
            "city": "铜仁市",
            "district": "印江土家族苗族自治县"
        }
    },
    {
        "id": "1329732977559143013",
        "title": "公共厕所",
        "address": "贵州省铜仁市碧江区南岳路与清水塘环路交叉口正北方向1047米左右",
        "tel": "",
        "category": "基础设施:公共设施:公共厕所",
        "type": 0,
        "location": {
            "lat": 27.755069,
            "lng": 109.202813
        },
        "ad_info": {
            "adcode": 520602,
            "province": "贵州省",
            "city": "铜仁市",
            "district": "碧江区"
        }
    },
    {
        "id": "277345987916586723",
        "title": "公共厕所",
        "address": "贵州省铜仁市碧江区清水大道52号",
        "tel": "",
        "category": "基础设施:公共设施:公共厕所",
        "type": 0,
        "location": {
            "lat": 27.725411,
            "lng": 109.197446
        },
        "ad_info": {
            "adcode": 520602,
            "province": "贵州省",
            "city": "铜仁市",
            "district": "碧江区"
        }
    },
    {
        "id": "2704102745942748772",
        "title": "公共厕所",
        "address": "贵州省铜仁市万山区X582与Y450交叉口正东方向268米左右",
        "tel": "",
        "category": "基础设施:公共设施:公共厕所",
        "type": 0,
        "location": {
            "lat": 27.489797,
            "lng": 109.184987
        },
        "ad_info": {
            "adcode": 520603,
            "province": "贵州省",
            "city": "铜仁市",
            "district": "万山区"
        }
    },
    {
        "id": "15154043337742937697",
        "title": "公共厕所",
        "address": "贵州省铜仁市思南县S304与乌江大道交叉口西北方向818米左右",
        "tel": "",
        "category": "基础设施:公共设施:公共厕所",
        "type": 0,
        "location": {
            "lat": 27.954736,
            "lng": 108.255786
        },
        "ad_info": {
            "adcode": 520624,
            "province": "贵州省",
            "city": "铜仁市",
            "district": "思南县"
        }
    },
    {
        "id": "15113569664317646841",
        "title": "公共厕所",
        "address": "贵州省铜仁市碧江区沙龙路与铜兴大道交叉口西南方向646米左右",
        "tel": "",
        "category": "基础设施:公共设施:公共厕所",
        "type": 0,
        "location": {
            "lat": 27.723955,
            "lng": 109.230631
        },
        "ad_info": {
            "adcode": 520602,
            "province": "贵州省",
            "city": "铜仁市",
            "district": "碧江区"
        }
    },
    {
        "id": "943601416075121523",
        "title": "石固停车区公共厕所",
        "address": "贵州省铜仁市石阡县安江高速南50米",
        "tel": "",
        "category": "基础设施:公共设施:公共厕所",
        "type": 0,
        "location": {
            "lat": 27.576412,
            "lng": 108.473915
        },
        "ad_info": {
            "adcode": 520623,
            "province": "贵州省",
            "city": "铜仁市",
            "district": "石阡县"
        }
    },
    {
        "id": "8193658977081532630",
        "title": "刀坝服务区公共厕所",
        "address": "贵州省铜仁市印江土家族苗族自治县S12松道高速与刀坝服务区交叉口西140米",
        "tel": "",
        "category": "基础设施:公共设施:公共厕所",
        "type": 0,
        "location": {
            "lat": 28.1958,
            "lng": 108.569851
        },
        "ad_info": {
            "adcode": 520625,
            "province": "贵州省",
            "city": "铜仁市",
            "district": "印江土家族苗族自治县"
        }
    },
    {
        "id": "8104132863746911428",
        "title": "公共厕所",
        "address": "贵州省铜仁市万山区棕榈路与正信路交叉口东南方向205米左右",
        "tel": "",
        "category": "基础设施:公共设施:公共厕所",
        "type": 0,
        "location": {
            "lat": 27.684343,
            "lng": 109.183391
        },
        "ad_info": {
            "adcode": 520603,
            "province": "贵州省",
            "city": "铜仁市",
            "district": "万山区"
        }
    },
    {
        "id": "16630900161528903163",
        "title": "邵家桥停车区公共厕所",
        "address": "贵州省铜仁市思南县S25沿榕高速与邵家桥停车区交叉口西南120米",
        "tel": "",
        "category": "基础设施:公共设施:公共厕所",
        "type": 0,
        "location": {
            "lat": 27.827402,
            "lng": 108.270901
        },
        "ad_info": {
            "adcode": 520624,
            "province": "贵州省",
            "city": "铜仁市",
            "district": "思南县"
        }
    },
    {
        "id": "13656957804062699676",
        "title": "花桥服务区第一公共厕所",
        "address": "贵州省铜仁市石阡县S30江黔高速与花桥服务区交叉口西南320米",
        "tel": "",
        "category": "基础设施:公共设施:公共厕所",
        "type": 0,
        "location": {
            "lat": 27.526316,
            "lng": 108.341153
        },
        "ad_info": {
            "adcode": 520623,
            "province": "贵州省",
            "city": "铜仁市",
            "district": "石阡县"
        }
    },
    {
        "id": "9444612487820039457",
        "title": "公共厕所(体育公园)",
        "address": "贵州省铜仁市德江县与遵义路交叉口东北方向250米左右",
        "tel": "",
        "category": "基础设施:公共设施:公共厕所",
        "type": 0,
        "location": {
            "lat": 28.250265,
            "lng": 108.133376
        },
        "ad_info": {
            "adcode": 520626,
            "province": "贵州省",
            "city": "铜仁市",
            "district": "德江县"
        }
    },
    {
        "id": "6606644291065089395",
        "title": "茶花泉服务区公共厕所",
        "address": "贵州省铜仁市玉屏侗族自治县S19江玉高速与茶花泉服务区交叉口西380米",
        "tel": "",
        "category": "基础设施:公共设施:公共厕所",
        "type": 0,
        "location": {
            "lat": 27.366817,
            "lng": 108.972794
        },
        "ad_info": {
            "adcode": 520622,
            "province": "贵州省",
            "city": "铜仁市",
            "district": "玉屏侗族自治县"
        }
    },
    {
        "id": "4515709164216426024",
        "title": "公共场所",
        "address": "贵州省铜仁市沿河土家族自治县河东农贸市场东门",
        "tel": "",
        "category": "基础设施:公共设施:公共厕所",
        "type": 0,
        "location": {
            "lat": 28.558481,
            "lng": 108.503848
        },
        "ad_info": {
            "adcode": 520627,
            "province": "贵州省",
            "city": "铜仁市",
            "district": "沿河土家族自治县"
        }
    },
    {
        "id": "5718075149960277298",
        "title": "公共厕所(红董油茶园)",
        "address": "贵州省铜仁市碧江区坝黄镇木弄村红董油茶园",
        "tel": "",
        "category": "基础设施:公共设施:公共厕所",
        "type": 0,
        "location": {
            "lat": 27.724844,
            "lng": 109.067611
        },
        "ad_info": {
            "adcode": 520602,
            "province": "贵州省",
            "city": "铜仁市",
            "district": "碧江区"
        }
    },
    {
        "id": "15877093843224941803",
        "title": "茶花泉服务区公共厕所",
        "address": "贵州省铜仁市玉屏侗族自治县S19江玉高速与茶花泉服务区交叉口西南420米",
        "tel": "",
        "category": "基础设施:公共设施:公共厕所",
        "type": 0,
        "location": {
            "lat": 27.36439,
            "lng": 108.973503
        },
        "ad_info": {
            "adcode": 520622,
            "province": "贵州省",
            "city": "铜仁市",
            "district": "玉屏侗族自治县"
        }
    },
    {
        "id": "14957976835930322279",
        "title": "公共厕所(苗王城景区迎龙大道)",
        "address": "贵州省铜仁市松桃苗族自治县正大镇薅菜村迎龙大道旁",
        "tel": "",
        "category": "基础设施:公共设施:公共厕所",
        "type": 0,
        "location": {
            "lat": 27.95774,
            "lng": 109.245732
        },
        "ad_info": {
            "adcode": 520628,
            "province": "贵州省",
            "city": "铜仁市",
            "district": "松桃苗族自治县"
        }
    },
    {
        "id": "5170160514253849551",
        "title": "坝黄停车区公共厕所",
        "address": "贵州省铜仁市碧江区坝黄停车区北50米",
        "tel": "",
        "category": "基础设施:公共设施:公共厕所",
        "type": 0,
        "location": {
            "lat": 27.722256,
            "lng": 109.068944
        },
        "ad_info": {
            "adcode": 520602,
            "province": "贵州省",
            "city": "铜仁市",
            "district": "碧江区"
        }
    },
    {
        "id": "18278433982099381374",
        "title": "公共厕所",
        "address": "贵州省铜仁市沿河土家族自治县西环路与解放南路交叉口东北方向201米左右",
        "tel": "",
        "category": "基础设施:公共设施:公共厕所",
        "type": 0,
        "location": {
            "lat": 28.552646,
            "lng": 108.491877
        },
        "ad_info": {
            "adcode": 520627,
            "province": "贵州省",
            "city": "铜仁市",
            "district": "沿河土家族自治县"
        }
    },
    {
        "id": "8306968393938649856",
        "title": "石固停车区公共厕所",
        "address": "贵州省铜仁市石阡县305省道南150米",
        "tel": "",
        "category": "基础设施:公共设施:公共厕所",
        "type": 0,
        "location": {
            "lat": 27.57681,
            "lng": 108.472503
        },
        "ad_info": {
            "adcode": 520623,
            "province": "贵州省",
            "city": "铜仁市",
            "district": "石阡县"
        }
    },
    {
        "id": "666206220982675670",
        "title": "朗溪镇五个一公厕",
        "address": "贵州省铜仁市印江土家族苗族自治县土司路",
        "tel": "",
        "category": "基础设施:公共设施:公共厕所",
        "type": 0,
        "location": {
            "lat": 28.010757,
            "lng": 108.484981
        },
        "ad_info": {
            "adcode": 520625,
            "province": "贵州省",
            "city": "铜仁市",
            "district": "印江土家族苗族自治县"
        }
    },
    {
        "id": "1329732977559143013",
        "title": "公共厕所",
        "address": "贵州省铜仁市碧江区南岳路与清水塘环路交叉口正北方向1047米左右",
        "tel": "",
        "category": "基础设施:公共设施:公共厕所",
        "type": 0,
        "location": {
            "lat": 27.755069,
            "lng": 109.202813
        },
        "ad_info": {
            "adcode": 520602,
            "province": "贵州省",
            "city": "铜仁市",
            "district": "碧江区"
        }
    },
    {
        "id": "277345987916586723",
        "title": "公共厕所",
        "address": "贵州省铜仁市碧江区清水大道52号",
        "tel": "",
        "category": "基础设施:公共设施:公共厕所",
        "type": 0,
        "location": {
            "lat": 27.725411,
            "lng": 109.197446
        },
        "ad_info": {
            "adcode": 520602,
            "province": "贵州省",
            "city": "铜仁市",
            "district": "碧江区"
        }
    },
    {
        "id": "2704102745942748772",
        "title": "公共厕所",
        "address": "贵州省铜仁市万山区X582与Y450交叉口正东方向268米左右",
        "tel": "",
        "category": "基础设施:公共设施:公共厕所",
        "type": 0,
        "location": {
            "lat": 27.489797,
            "lng": 109.184987
        },
        "ad_info": {
            "adcode": 520603,
            "province": "贵州省",
            "city": "铜仁市",
            "district": "万山区"
        }
    },
    {
        "id": "15154043337742937697",
        "title": "公共厕所",
        "address": "贵州省铜仁市思南县S304与乌江大道交叉口西北方向818米左右",
        "tel": "",
        "category": "基础设施:公共设施:公共厕所",
        "type": 0,
        "location": {
            "lat": 27.954736,
            "lng": 108.255786
        },
        "ad_info": {
            "adcode": 520624,
            "province": "贵州省",
            "city": "铜仁市",
            "district": "思南县"
        }
    },
    {
        "id": "15113569664317646841",
        "title": "公共厕所",
        "address": "贵州省铜仁市碧江区沙龙路与铜兴大道交叉口西南方向646米左右",
        "tel": "",
        "category": "基础设施:公共设施:公共厕所",
        "type": 0,
        "location": {
            "lat": 27.723955,
            "lng": 109.230631
        },
        "ad_info": {
            "adcode": 520602,
            "province": "贵州省",
            "city": "铜仁市",
            "district": "碧江区"
        }
    },
    {
        "id": "943601416075121523",
        "title": "石固停车区公共厕所",
        "address": "贵州省铜仁市石阡县安江高速南50米",
        "tel": "",
        "category": "基础设施:公共设施:公共厕所",
        "type": 0,
        "location": {
            "lat": 27.576412,
            "lng": 108.473915
        },
        "ad_info": {
            "adcode": 520623,
            "province": "贵州省",
            "city": "铜仁市",
            "district": "石阡县"
        }
    },
    {
        "id": "8193658977081532630",
        "title": "刀坝服务区公共厕所",
        "address": "贵州省铜仁市印江土家族苗族自治县S12松道高速与刀坝服务区交叉口西140米",
        "tel": "",
        "category": "基础设施:公共设施:公共厕所",
        "type": 0,
        "location": {
            "lat": 28.1958,
            "lng": 108.569851
        },
        "ad_info": {
            "adcode": 520625,
            "province": "贵州省",
            "city": "铜仁市",
            "district": "印江土家族苗族自治县"
        }
    },
    {
        "id": "8104132863746911428",
        "title": "公共厕所",
        "address": "贵州省铜仁市万山区棕榈路与正信路交叉口东南方向205米左右",
        "tel": "",
        "category": "基础设施:公共设施:公共厕所",
        "type": 0,
        "location": {
            "lat": 27.684343,
            "lng": 109.183391
        },
        "ad_info": {
            "adcode": 520603,
            "province": "贵州省",
            "city": "铜仁市",
            "district": "万山区"
        }
    },
    {
        "id": "16630900161528903163",
        "title": "邵家桥停车区公共厕所",
        "address": "贵州省铜仁市思南县S25沿榕高速与邵家桥停车区交叉口西南120米",
        "tel": "",
        "category": "基础设施:公共设施:公共厕所",
        "type": 0,
        "location": {
            "lat": 27.827402,
            "lng": 108.270901
        },
        "ad_info": {
            "adcode": 520624,
            "province": "贵州省",
            "city": "铜仁市",
            "district": "思南县"
        }
    },
    {
        "id": "13656957804062699676",
        "title": "花桥服务区第一公共厕所",
        "address": "贵州省铜仁市石阡县S30江黔高速与花桥服务区交叉口西南320米",
        "tel": "",
        "category": "基础设施:公共设施:公共厕所",
        "type": 0,
        "location": {
            "lat": 27.526316,
            "lng": 108.341153
        },
        "ad_info": {
            "adcode": 520623,
            "province": "贵州省",
            "city": "铜仁市",
            "district": "石阡县"
        }
    },
    {
        "id": "9444612487820039457",
        "title": "公共厕所(体育公园)",
        "address": "贵州省铜仁市德江县与遵义路交叉口东北方向250米左右",
        "tel": "",
        "category": "基础设施:公共设施:公共厕所",
        "type": 0,
        "location": {
            "lat": 28.250265,
            "lng": 108.133376
        },
        "ad_info": {
            "adcode": 520626,
            "province": "贵州省",
            "city": "铜仁市",
            "district": "德江县"
        }
    },
    {
        "id": "6606644291065089395",
        "title": "茶花泉服务区公共厕所",
        "address": "贵州省铜仁市玉屏侗族自治县S19江玉高速与茶花泉服务区交叉口西380米",
        "tel": "",
        "category": "基础设施:公共设施:公共厕所",
        "type": 0,
        "location": {
            "lat": 27.366817,
            "lng": 108.972794
        },
        "ad_info": {
            "adcode": 520622,
            "province": "贵州省",
            "city": "铜仁市",
            "district": "玉屏侗族自治县"
        }
    },
    {
        "id": "4515709164216426024",
        "title": "公共场所",
        "address": "贵州省铜仁市沿河土家族自治县河东农贸市场东门",
        "tel": "",
        "category": "基础设施:公共设施:公共厕所",
        "type": 0,
        "location": {
            "lat": 28.558481,
            "lng": 108.503848
        },
        "ad_info": {
            "adcode": 520627,
            "province": "贵州省",
            "city": "铜仁市",
            "district": "沿河土家族自治县"
        }
    },
    {
        "id": "5718075149960277298",
        "title": "公共厕所(红董油茶园)",
        "address": "贵州省铜仁市碧江区坝黄镇木弄村红董油茶园",
        "tel": "",
        "category": "基础设施:公共设施:公共厕所",
        "type": 0,
        "location": {
            "lat": 27.724844,
            "lng": 109.067611
        },
        "ad_info": {
            "adcode": 520602,
            "province": "贵州省",
            "city": "铜仁市",
            "district": "碧江区"
        }
    },
    {
        "id": "15877093843224941803",
        "title": "茶花泉服务区公共厕所",
        "address": "贵州省铜仁市玉屏侗族自治县S19江玉高速与茶花泉服务区交叉口西南420米",
        "tel": "",
        "category": "基础设施:公共设施:公共厕所",
        "type": 0,
        "location": {
            "lat": 27.36439,
            "lng": 108.973503
        },
        "ad_info": {
            "adcode": 520622,
            "province": "贵州省",
            "city": "铜仁市",
            "district": "玉屏侗族自治县"
        }
    },
    {
        "id": "14957976835930322279",
        "title": "公共厕所(苗王城景区迎龙大道)",
        "address": "贵州省铜仁市松桃苗族自治县正大镇薅菜村迎龙大道旁",
        "tel": "",
        "category": "基础设施:公共设施:公共厕所",
        "type": 0,
        "location": {
            "lat": 27.95774,
            "lng": 109.245732
        },
        "ad_info": {
            "adcode": 520628,
            "province": "贵州省",
            "city": "铜仁市",
            "district": "松桃苗族自治县"
        }
    },
    {
        "id": "5170160514253849551",
        "title": "坝黄停车区公共厕所",
        "address": "贵州省铜仁市碧江区坝黄停车区北50米",
        "tel": "",
        "category": "基础设施:公共设施:公共厕所",
        "type": 0,
        "location": {
            "lat": 27.722256,
            "lng": 109.068944
        },
        "ad_info": {
            "adcode": 520602,
            "province": "贵州省",
            "city": "铜仁市",
            "district": "碧江区"
        }
    },
    {
        "id": "18278433982099381374",
        "title": "公共厕所",
        "address": "贵州省铜仁市沿河土家族自治县西环路与解放南路交叉口东北方向201米左右",
        "tel": "",
        "category": "基础设施:公共设施:公共厕所",
        "type": 0,
        "location": {
            "lat": 28.552646,
            "lng": 108.491877
        },
        "ad_info": {
            "adcode": 520627,
            "province": "贵州省",
            "city": "铜仁市",
            "district": "沿河土家族自治县"
        }
    },
    {
        "id": "8306968393938649856",
        "title": "石固停车区公共厕所",
        "address": "贵州省铜仁市石阡县305省道南150米",
        "tel": "",
        "category": "基础设施:公共设施:公共厕所",
        "type": 0,
        "location": {
            "lat": 27.57681,
            "lng": 108.472503
        },
        "ad_info": {
            "adcode": 520623,
            "province": "贵州省",
            "city": "铜仁市",
            "district": "石阡县"
        }
    },
    {
        "id": "666206220982675670",
        "title": "朗溪镇五个一公厕",
        "address": "贵州省铜仁市印江土家族苗族自治县土司路",
        "tel": "",
        "category": "基础设施:公共设施:公共厕所",
        "type": 0,
        "location": {
            "lat": 28.010757,
            "lng": 108.484981
        },
        "ad_info": {
            "adcode": 520625,
            "province": "贵州省",
            "city": "铜仁市",
            "district": "印江土家族苗族自治县"
        }
    }
]