[
    {
        "id": "16613056928188111895",
        "title": "公共卫生间",
        "address": "陕西省铜川市王益区川口路与建工路交叉口正北方向151米左右",
        "tel": "",
        "category": "基础设施:公共设施:公共厕所",
        "type": 0,
        "location": {
            "lat": 35.062952,
            "lng": 109.060353
        },
        "ad_info": {
            "adcode": 610202,
            "province": "陕西省",
            "city": "铜川市",
            "district": "王益区"
        }
    },
    {
        "id": "16764772876622838166",
        "title": "公共厕所",
        "address": "陕西省铜川市宜君县兴宜路与宜阳街交叉口东北方向130米左右",
        "tel": "",
        "category": "基础设施:公共设施:公共厕所",
        "type": 0,
        "location": {
            "lat": 35.397728,
            "lng": 109.117896
        },
        "ad_info": {
            "adcode": 610222,
            "province": "陕西省",
            "city": "铜川市",
            "district": "宜君县"
        }
    },
    {
        "id": "6157886909052053573",
        "title": "公共厕所",
        "address": "陕西省铜川市印台区芳草中巷与芳草堤交叉口东北方向118米左右",
        "tel": "",
        "category": "基础设施:公共设施:公共厕所",
        "type": 0,
        "location": {
            "lat": 35.088926,
            "lng": 109.104559
        },
        "ad_info": {
            "adcode": 610203,
            "province": "陕西省",
            "city": "铜川市",
            "district": "印台区"
        }
    },
    {
        "id": "4970104940527311693",
        "title": "公共厕所",
        "address": "陕西省铜川市王益区七一路与二场巷交叉口正东方向153米左右",
        "tel": "",
        "category": "基础设施:公共设施:公共厕所",
        "type": 0,
        "location": {
            "lat": 35.07366,
            "lng": 109.08943
        },
        "ad_info": {
            "adcode": 610202,
            "province": "陕西省",
            "city": "铜川市",
            "district": "王益区"
        }
    },
    {
        "id": "15921812315956245096",
        "title": "公共厕所",
        "address": "陕西省铜川市印台区G342欧景台小区",
        "tel": "",
        "category": "基础设施:公共设施:公共厕所",
        "type": 0,
        "location": {
            "lat": 35.11583,
            "lng": 109.10405
        },
        "ad_info": {
            "adcode": 610203,
            "province": "陕西省",
            "city": "铜川市",
            "district": "印台区"
        }
    },
    {
        "id": "3506450385404104029",
        "title": "公共厕所",
        "address": "陕西省铜川市王益区川口路与红旗街交叉口东南方向38米左右",
        "tel": "",
        "category": "基础设施:公共设施:公共厕所",
        "type": 0,
        "location": {
            "lat": 35.061286,
            "lng": 109.060837
        },
        "ad_info": {
            "adcode": 610202,
            "province": "陕西省",
            "city": "铜川市",
            "district": "王益区"
        }
    },
    {
        "id": "6290593475452773150",
        "title": "公共厕所",
        "address": "陕西省铜川市王益区新建巷与红旗街交叉口正北方向51米左右",
        "tel": "",
        "category": "基础设施:公共设施:公共厕所",
        "type": 0,
        "location": {
            "lat": 35.068796,
            "lng": 109.075125
        },
        "ad_info": {
            "adcode": 610202,
            "province": "陕西省",
            "city": "铜川市",
            "district": "王益区"
        }
    },
    {
        "id": "13310974823744106008",
        "title": "公共厕所",
        "address": "陕西省铜川市印台区305省道与G65W延西高速出口交叉口东150米",
        "tel": "",
        "category": "基础设施:公共设施:公共厕所",
        "type": 0,
        "location": {
            "lat": 35.265065,
            "lng": 108.986024
        },
        "ad_info": {
            "adcode": 610203,
            "province": "陕西省",
            "city": "铜川市",
            "district": "印台区"
        }
    },
    {
        "id": "4473173543547126338",
        "title": "公共厕所",
        "address": "陕西省铜川市王益区育才路与苗圃路交叉口东北方向352米左右",
        "tel": "",
        "category": "基础设施:公共设施:公共厕所",
        "type": 0,
        "location": {
            "lat": 35.07386,
            "lng": 109.078614
        },
        "ad_info": {
            "adcode": 610202,
            "province": "陕西省",
            "city": "铜川市",
            "district": "王益区"
        }
    },
    {
        "id": "10947985043885610287",
        "title": "公共厕所",
        "address": "陕西省铜川市王益区云梦堤与健康路交叉口西南方向335米左右",
        "tel": "",
        "category": "基础设施:公共设施:公共厕所",
        "type": 0,
        "location": {
            "lat": 35.070289,
            "lng": 109.090773
        },
        "ad_info": {
            "adcode": 610202,
            "province": "陕西省",
            "city": "铜川市",
            "district": "王益区"
        }
    },
    {
        "id": "9757721402126593844",
        "title": "公共厕所",
        "address": "陕西省铜川市王益区当代装饰艺术东北侧190米",
        "tel": "",
        "category": "基础设施:公共设施:公共厕所",
        "type": 0,
        "location": {
            "lat": 35.089233,
            "lng": 109.110249
        },
        "ad_info": {
            "adcode": 610202,
            "province": "陕西省",
            "city": "铜川市",
            "district": "王益区"
        }
    },
    {
        "id": "9542855066692253726",
        "title": "公共厕所",
        "address": "陕西省铜川市印台区尚勤四巷与尚勤堤交叉口正南方向175米左右",
        "tel": "",
        "category": "基础设施:公共设施:公共厕所",
        "type": 0,
        "location": {
            "lat": 35.100802,
            "lng": 109.102335
        },
        "ad_info": {
            "adcode": 610203,
            "province": "陕西省",
            "city": "铜川市",
            "district": "印台区"
        }
    },
    {
        "id": "16105261918484586245",
        "title": "公共厕所",
        "address": "陕西省铜川市王益区包茂高速公路黄堡镇五星小学东南",
        "tel": "",
        "category": "基础设施:公共设施:公共厕所",
        "type": 0,
        "location": {
            "lat": 35.002914,
            "lng": 109.03109
        },
        "ad_info": {
            "adcode": 610202,
            "province": "陕西省",
            "city": "铜川市",
            "district": "王益区"
        }
    },
    {
        "id": "17880839234670237084",
        "title": "公共厕所",
        "address": "陕西省铜川市宜君县G210与宜阳北街交叉口东南方向28米左右",
        "tel": "",
        "category": "基础设施:公共设施:公共厕所",
        "type": 0,
        "location": {
            "lat": 35.412485,
            "lng": 109.130519
        },
        "ad_info": {
            "adcode": 610222,
            "province": "陕西省",
            "city": "铜川市",
            "district": "宜君县"
        }
    },
    {
        "id": "15893598568613360478",
        "title": "公共厕所",
        "address": "陕西省铜川市王益区新裕巷与育才路交叉口西南方向230米左右",
        "tel": "",
        "category": "基础设施:公共设施:公共厕所",
        "type": 0,
        "location": {
            "lat": 35.065175,
            "lng": 109.067518
        },
        "ad_info": {
            "adcode": 610202,
            "province": "陕西省",
            "city": "铜川市",
            "district": "王益区"
        }
    },
    {
        "id": "5863083352136302568",
        "title": "公共厕所",
        "address": "陕西省铜川市王益区河滨路与金华路交叉口西南方向314米左右",
        "tel": "",
        "category": "基础设施:公共设施:公共厕所",
        "type": 0,
        "location": {
            "lat": 35.077683,
            "lng": 109.097595
        },
        "ad_info": {
            "adcode": 610202,
            "province": "陕西省",
            "city": "铜川市",
            "district": "王益区"
        }
    },
    {
        "id": "17193374141319272702",
        "title": "公共厕所",
        "address": "陕西省铜川市印台区305省道郗家塬村文化广场附近",
        "tel": "",
        "category": "基础设施:公共设施:公共厕所",
        "type": 0,
        "location": {
            "lat": 35.142761,
            "lng": 109.393315
        },
        "ad_info": {
            "adcode": 610203,
            "province": "陕西省",
            "city": "铜川市",
            "district": "印台区"
        }
    },
    {
        "id": "5083690833653656185",
        "title": "公共厕所",
        "address": "陕西省铜川市印台区上河路与重兴北路交叉口正西方向77米左右",
        "tel": "",
        "category": "基础设施:公共设施:公共厕所",
        "type": 0,
        "location": {
            "lat": 35.11105,
            "lng": 109.101486
        },
        "ad_info": {
            "adcode": 610203,
            "province": "陕西省",
            "city": "铜川市",
            "district": "印台区"
        }
    },
    {
        "id": "5144172570474082972",
        "title": "公共厕所",
        "address": "陕西省铜川市宜君县宜阳街宜君县第一中学",
        "tel": "",
        "category": "基础设施:公共设施:公共厕所",
        "type": 0,
        "location": {
            "lat": 35.403221,
            "lng": 109.119886
        },
        "ad_info": {
            "adcode": 610222,
            "province": "陕西省",
            "city": "铜川市",
            "district": "宜君县"
        }
    },
    {
        "id": "3711190212924687372",
        "title": "公共厕所",
        "address": "陕西省铜川市宜君县友谊东路与宜阳南街交叉口东北方向18米左右",
        "tel": "",
        "category": "基础设施:公共设施:公共厕所",
        "type": 0,
        "location": {
            "lat": 35.392346,
            "lng": 109.114966
        },
        "ad_info": {
            "adcode": 610222,
            "province": "陕西省",
            "city": "铜川市",
            "district": "宜君县"
        }
    },
    {
        "id": "17788835000606544946",
        "title": "公共厕所",
        "address": "陕西省铜川市王益区云梦堤与大同路交叉口正北方向93米左右",
        "tel": "",
        "category": "基础设施:公共设施:公共厕所",
        "type": 0,
        "location": {
            "lat": 35.076038,
            "lng": 109.094728
        },
        "ad_info": {
            "adcode": 610202,
            "province": "陕西省",
            "city": "铜川市",
            "district": "王益区"
        }
    },
    {
        "id": "6906546679568511585",
        "title": "公共厕所",
        "address": "陕西省铜川市王益区G210与宜园路交叉口西北方向69米左右",
        "tel": "",
        "category": "基础设施:公共设施:公共厕所",
        "type": 0,
        "location": {
            "lat": 35.056661,
            "lng": 109.062399
        },
        "ad_info": {
            "adcode": 610202,
            "province": "陕西省",
            "city": "铜川市",
            "district": "王益区"
        }
    },
    {
        "id": "5394981920584064560",
        "title": "公共厕所",
        "address": "陕西省铜川市印台区重兴路122号附近正东方向50米",
        "tel": "",
        "category": "基础设施:公共设施:公共厕所",
        "type": 0,
        "location": {
            "lat": 35.098739,
            "lng": 109.103933
        },
        "ad_info": {
            "adcode": 610203,
            "province": "陕西省",
            "city": "铜川市",
            "district": "印台区"
        }
    },
    {
        "id": "14846332641041334320",
        "title": "公共厕所",
        "address": "陕西省铜川市王益区宜上路与宜园路交叉口西南方向317米左右",
        "tel": "",
        "category": "基础设施:公共设施:公共厕所",
        "type": 0,
        "location": {
            "lat": 35.056972,
            "lng": 109.068287
        },
        "ad_info": {
            "adcode": 610202,
            "province": "陕西省",
            "city": "铜川市",
            "district": "王益区"
        }
    },
    {
        "id": "14783158628676924613",
        "title": "公共厕所",
        "address": "陕西省铜川市宜君县尧生邮政所东侧90米",
        "tel": "",
        "category": "基础设施:公共设施:公共厕所",
        "type": 0,
        "location": {
            "lat": 35.429584,
            "lng": 109.352908
        },
        "ad_info": {
            "adcode": 610222,
            "province": "陕西省",
            "city": "铜川市",
            "district": "宜君县"
        }
    },
    {
        "id": "13195245668455547506",
        "title": "公共厕所",
        "address": "陕西省铜川市王益区G6522延西高速出口与川口路交叉口西400米",
        "tel": "",
        "category": "基础设施:公共设施:公共厕所",
        "type": 0,
        "location": {
            "lat": 35.059277,
            "lng": 109.055321
        },
        "ad_info": {
            "adcode": 610202,
            "province": "陕西省",
            "city": "铜川市",
            "district": "王益区"
        }
    },
    {
        "id": "9761604040744001337",
        "title": "公共厕所",
        "address": "陕西省铜川市王益区七一路与翠溪路交叉口东180米",
        "tel": "",
        "category": "基础设施:公共设施:公共厕所",
        "type": 0,
        "location": {
            "lat": 35.070913,
            "lng": 109.080002
        },
        "ad_info": {
            "adcode": 610202,
            "province": "陕西省",
            "city": "铜川市",
            "district": "王益区"
        }
    },
    {
        "id": "79426609931014405",
        "title": "公共厕所",
        "address": "陕西省铜川市王益区青少年校外活动中心东侧200米",
        "tel": "",
        "category": "基础设施:公共设施:公共厕所",
        "type": 0,
        "location": {
            "lat": 35.081034,
            "lng": 109.103827
        },
        "ad_info": {
            "adcode": 610202,
            "province": "陕西省",
            "city": "铜川市",
            "district": "王益区"
        }
    },
    {
        "id": "13261135095673787828",
        "title": "公共厕所",
        "address": "陕西省铜川市王益区健康路14号",
        "tel": "",
        "category": "基础设施:公共设施:公共厕所",
        "type": 0,
        "location": {
            "lat": 35.07184,
            "lng": 109.093786
        },
        "ad_info": {
            "adcode": 610202,
            "province": "陕西省",
            "city": "铜川市",
            "district": "王益区"
        }
    },
    {
        "id": "1740879082916584908",
        "title": "公共厕所",
        "address": "陕西省铜川市王益区川口路与红旗街交叉口正东方向325米左右",
        "tel": "",
        "category": "基础设施:公共设施:公共厕所",
        "type": 0,
        "location": {
            "lat": 35.061768,
            "lng": 109.064037
        },
        "ad_info": {
            "adcode": 610202,
            "province": "陕西省",
            "city": "铜川市",
            "district": "王益区"
        }
    },
    {
        "id": "1596335641498315296",
        "title": "公共厕所",
        "address": "陕西省铜川市王益区王医路与王家河北路交叉口西北方向427米左右",
        "tel": "",
        "category": "基础设施:公共设施:公共厕所",
        "type": 0,
        "location": {
            "lat": 35.100833,
            "lng": 109.036739
        },
        "ad_info": {
            "adcode": 610202,
            "province": "陕西省",
            "city": "铜川市",
            "district": "王益区"
        }
    },
    {
        "id": "917937737998188450",
        "title": "公共厕所",
        "address": "陕西省铜川市耀州区安楼路与旬耀路交叉口西南方向1158米左右",
        "tel": "",
        "category": "基础设施:公共设施:公共厕所",
        "type": 0,
        "location": {
            "lat": 34.852784,
            "lng": 108.865944
        },
        "ad_info": {
            "adcode": 610204,
            "province": "陕西省",
            "city": "铜川市",
            "district": "耀州区"
        }
    },
    {
        "id": "15898972090655058750",
        "title": "公共厕所",
        "address": "陕西省铜川市印台区南街与方泉路交叉口正东方向70米左右",
        "tel": "",
        "category": "基础设施:公共设施:公共厕所",
        "type": 0,
        "location": {
            "lat": 35.107032,
            "lng": 109.100168
        },
        "ad_info": {
            "adcode": 610203,
            "province": "陕西省",
            "city": "铜川市",
            "district": "印台区"
        }
    },
    {
        "id": "10544870796180139943",
        "title": "公共厕所",
        "address": "陕西省铜川市印台区G342与棋周路交叉口西北方向77米左右",
        "tel": "",
        "category": "基础设施:公共设施:公共厕所",
        "type": 0,
        "location": {
            "lat": 35.121913,
            "lng": 109.168076
        },
        "ad_info": {
            "adcode": 610203,
            "province": "陕西省",
            "city": "铜川市",
            "district": "印台区"
        }
    },
    {
        "id": "6245704095765639268",
        "title": "公共厕所",
        "address": "陕西省铜川市印台区G65包茂高速与铜川北立交交叉口东480米",
        "tel": "",
        "category": "基础设施:公共设施:公共厕所",
        "type": 0,
        "location": {
            "lat": 35.260731,
            "lng": 108.992109
        },
        "ad_info": {
            "adcode": 610203,
            "province": "陕西省",
            "city": "铜川市",
            "district": "印台区"
        }
    },
    {
        "id": "9209552201341568449",
        "title": "公共厕所",
        "address": "陕西省铜川市宜君县人民东路与宜阳街交叉口正南方向150米左右",
        "tel": "",
        "category": "基础设施:公共设施:公共厕所",
        "type": 0,
        "location": {
            "lat": 35.395242,
            "lng": 109.116107
        },
        "ad_info": {
            "adcode": 610222,
            "province": "陕西省",
            "city": "铜川市",
            "district": "宜君县"
        }
    },
    {
        "id": "4374933910532772174",
        "title": "公共厕所",
        "address": "陕西省铜川市王益区王京路与王家河北路交叉口东南方向434米左右",
        "tel": "",
        "category": "基础设施:公共设施:公共厕所",
        "type": 0,
        "location": {
            "lat": 35.090999,
            "lng": 109.042437
        },
        "ad_info": {
            "adcode": 610202,
            "province": "陕西省",
            "city": "铜川市",
            "district": "王益区"
        }
    },
    {
        "id": "12603823967146891317",
        "title": "公共厕所",
        "address": "陕西省铜川市印台区同官路与姜女堤交叉口东北方向141米左右",
        "tel": "",
        "category": "基础设施:公共设施:公共厕所",
        "type": 0,
        "location": {
            "lat": 35.121683,
            "lng": 109.100622
        },
        "ad_info": {
            "adcode": 610203,
            "province": "陕西省",
            "city": "铜川市",
            "district": "印台区"
        }
    },
    {
        "id": "8665841753105782797",
        "title": "公共厕所",
        "address": "陕西省铜川市王益区华海小区东北侧80米",
        "tel": "",
        "category": "基础设施:公共设施:公共厕所",
        "type": 0,
        "location": {
            "lat": 35.087302,
            "lng": 109.042015
        },
        "ad_info": {
            "adcode": 610202,
            "province": "陕西省",
            "city": "铜川市",
            "district": "王益区"
        }
    },
    {
        "id": "3824465973207383714",
        "title": "公共厕所",
        "address": "陕西省铜川市王益区G6522延西高速出口与川口路交叉口西260米",
        "tel": "",
        "category": "基础设施:公共设施:公共厕所",
        "type": 0,
        "location": {
            "lat": 35.058451,
            "lng": 109.056696
        },
        "ad_info": {
            "adcode": 610202,
            "province": "陕西省",
            "city": "铜川市",
            "district": "王益区"
        }
    },
    {
        "id": "2436097891338492381",
        "title": "公共厕所",
        "address": "陕西省铜川市王益区尚勤堤与芳草北巷交叉口正东方向492米左右",
        "tel": "",
        "category": "基础设施:公共设施:公共厕所",
        "type": 0,
        "location": {
            "lat": 35.089845,
            "lng": 109.109315
        },
        "ad_info": {
            "adcode": 610202,
            "province": "陕西省",
            "city": "铜川市",
            "district": "王益区"
        }
    },
    {
        "id": "5959479246930660588",
        "title": "公共厕所",
        "address": "陕西省铜川市王益区育才路与苗圃路交叉口正北方向791米左右",
        "tel": "",
        "category": "基础设施:公共设施:公共厕所",
        "type": 0,
        "location": {
            "lat": 35.078211,
            "lng": 109.078517
        },
        "ad_info": {
            "adcode": 610202,
            "province": "陕西省",
            "city": "铜川市",
            "district": "王益区"
        }
    },
    {
        "id": "443019483479922008",
        "title": "公共厕所",
        "address": "陕西省铜川市王益区G210与宜园路交叉口正北方向104米左右",
        "tel": "",
        "category": "基础设施:公共设施:公共厕所",
        "type": 0,
        "location": {
            "lat": 35.047255,
            "lng": 109.058332
        },
        "ad_info": {
            "adcode": 610202,
            "province": "陕西省",
            "city": "铜川市",
            "district": "王益区"
        }
    },
    {
        "id": "5169001334787802768",
        "title": "公共厕所",
        "address": "陕西省铜川市王益区体育路与集贤堤交叉口正东方向377米左右",
        "tel": "",
        "category": "基础设施:公共设施:公共厕所",
        "type": 0,
        "location": {
            "lat": 35.066198,
            "lng": 109.081507
        },
        "ad_info": {
            "adcode": 610202,
            "province": "陕西省",
            "city": "铜川市",
            "district": "王益区"
        }
    },
    {
        "id": "12304111700162309997",
        "title": "公共厕所",
        "address": "陕西省铜川市王益区铜川农百鲜农业开发有限公司东南侧",
        "tel": "",
        "category": "基础设施:公共设施:公共厕所",
        "type": 0,
        "location": {
            "lat": 35.111299,
            "lng": 109.039766
        },
        "ad_info": {
            "adcode": 610202,
            "province": "陕西省",
            "city": "铜川市",
            "district": "王益区"
        }
    },
    {
        "id": "7061341916687303029",
        "title": "公共厕所",
        "address": "陕西省铜川市王益区育才路与苗圃路交叉口东北方向366米左右",
        "tel": "",
        "category": "基础设施:公共设施:公共厕所",
        "type": 0,
        "location": {
            "lat": 35.074081,
            "lng": 109.078487
        },
        "ad_info": {
            "adcode": 610202,
            "province": "陕西省",
            "city": "铜川市",
            "district": "王益区"
        }
    },
    {
        "id": "2638585881231835306",
        "title": "公共厕所",
        "address": "陕西省铜川市王益区昌丰路与莲湖大街交叉口正东方向127米左右",
        "tel": "",
        "category": "基础设施:公共设施:公共厕所",
        "type": 0,
        "location": {
            "lat": 35.005483,
            "lng": 109.032345
        },
        "ad_info": {
            "adcode": 610202,
            "province": "陕西省",
            "city": "铜川市",
            "district": "王益区"
        }
    },
    {
        "id": "13248295955961723981",
        "title": "公共厕所",
        "address": "陕西省铜川市王益区王京路与王家河北路交叉口正南方向1336米左右",
        "tel": "",
        "category": "基础设施:公共设施:公共厕所",
        "type": 0,
        "location": {
            "lat": 35.082369,
            "lng": 109.04163
        },
        "ad_info": {
            "adcode": 610202,
            "province": "陕西省",
            "city": "铜川市",
            "district": "王益区"
        }
    },
    {
        "id": "6743253256478971814",
        "title": "公共厕所",
        "address": "陕西省铜川市耀州区华夏南道与鸿基西路交叉口正南方向82米左右",
        "tel": "",
        "category": "基础设施:公共设施:公共厕所",
        "type": 0,
        "location": {
            "lat": 34.885438,
            "lng": 108.944729
        },
        "ad_info": {
            "adcode": 610204,
            "province": "陕西省",
            "city": "铜川市",
            "district": "耀州区"
        }
    },
    {
        "id": "1437174201887758950",
        "title": "公共厕所",
        "address": "陕西省铜川市耀州区华夏南道与鸿基西路交叉口西南方向190米左右",
        "tel": "",
        "category": "基础设施:公共设施:公共厕所",
        "type": 0,
        "location": {
            "lat": 34.885419,
            "lng": 108.942717
        },
        "ad_info": {
            "adcode": 610204,
            "province": "陕西省",
            "city": "铜川市",
            "district": "耀州区"
        }
    },
    {
        "id": "14876157679572876646",
        "title": "公共厕所",
        "address": "陕西省铜川市耀州区柳公路与锦阳路交叉口东北方向54米左右",
        "tel": "",
        "category": "基础设施:公共设施:公共厕所",
        "type": 0,
        "location": {
            "lat": 34.918,
            "lng": 108.97205
        },
        "ad_info": {
            "adcode": 610204,
            "province": "陕西省",
            "city": "铜川市",
            "district": "耀州区"
        }
    },
    {
        "id": "10898431664135956311",
        "title": "银川市公共厕所",
        "address": "陕西省铜川市王益区红旗街31号-副1号",
        "tel": "",
        "category": "基础设施:公共设施:公共厕所",
        "type": 0,
        "location": {
            "lat": 35.063791,
            "lng": 109.069032
        },
        "ad_info": {
            "adcode": 610202,
            "province": "陕西省",
            "city": "铜川市",
            "district": "王益区"
        }
    },
    {
        "id": "1370253687595176688",
        "title": "铜川市公共厕所",
        "address": "陕西省铜川市王益区体育路与集贤堤交叉口东北方向106米左右",
        "tel": "",
        "category": "基础设施:公共设施:公共厕所",
        "type": 0,
        "location": {
            "lat": 35.067632,
            "lng": 109.078142
        },
        "ad_info": {
            "adcode": 610202,
            "province": "陕西省",
            "city": "铜川市",
            "district": "王益区"
        }
    },
    {
        "id": "12857725359533347661",
        "title": "公共厕所",
        "address": "陕西省铜川市耀州区文营西路与永安南路交叉口正西方向113米左右",
        "tel": "",
        "category": "基础设施:公共设施:公共厕所",
        "type": 0,
        "location": {
            "lat": 34.908743,
            "lng": 108.979479
        },
        "ad_info": {
            "adcode": 610204,
            "province": "陕西省",
            "city": "铜川市",
            "district": "耀州区"
        }
    },
    {
        "id": "12481813807340787068",
        "title": "铜川市公共卫生间",
        "address": "陕西省铜川市王益区七一路与二场巷交叉口正北方向62米左右",
        "tel": "",
        "category": "基础设施:公共设施:公共厕所",
        "type": 0,
        "location": {
            "lat": 35.074458,
            "lng": 109.087559
        },
        "ad_info": {
            "adcode": 610202,
            "province": "陕西省",
            "city": "铜川市",
            "district": "王益区"
        }
    },
    {
        "id": "5633599745026672046",
        "title": "公共厕所",
        "address": "陕西省铜川市耀州区包茂高速与铜川立交交叉口东北方向658米左右",
        "tel": "",
        "category": "基础设施:公共设施:公共厕所",
        "type": 0,
        "location": {
            "lat": 34.884378,
            "lng": 108.916009
        },
        "ad_info": {
            "adcode": 610204,
            "province": "陕西省",
            "city": "铜川市",
            "district": "耀州区"
        }
    },
    {
        "id": "18275518766718142727",
        "title": "公共厕所",
        "address": "陕西省铜川市印台区同兴路与同官路交叉口西北方向30米左右",
        "tel": "",
        "category": "基础设施:公共设施:公共厕所",
        "type": 0,
        "location": {
            "lat": 35.104713,
            "lng": 109.101333
        },
        "ad_info": {
            "adcode": 610203,
            "province": "陕西省",
            "city": "铜川市",
            "district": "印台区"
        }
    },
    {
        "id": "12303948011911146976",
        "title": "公共厕所",
        "address": "陕西省铜川市耀州区云辉东路与锦园路交叉口西南方向121米左右",
        "tel": "",
        "category": "基础设施:公共设施:公共厕所",
        "type": 0,
        "location": {
            "lat": 34.918257,
            "lng": 108.933308
        },
        "ad_info": {
            "adcode": 610204,
            "province": "陕西省",
            "city": "铜川市",
            "district": "耀州区"
        }
    },
    {
        "id": "17214429947347011337",
        "title": "公共厕所",
        "address": "陕西省铜川市王益区永乐堤与青年路小街交叉口正西方向111米左右",
        "tel": "",
        "category": "基础设施:公共设施:公共厕所",
        "type": 0,
        "location": {
            "lat": 35.08343,
            "lng": 109.09904
        },
        "ad_info": {
            "adcode": 610202,
            "province": "陕西省",
            "city": "铜川市",
            "district": "王益区"
        }
    },
    {
        "id": "11750838399599891138",
        "title": "公共厕所",
        "address": "陕西省铜川市耀州区丹阳路与华夏北道交叉口西南方向311米左右",
        "tel": "",
        "category": "基础设施:公共设施:公共厕所",
        "type": 0,
        "location": {
            "lat": 34.900128,
            "lng": 108.92855
        },
        "ad_info": {
            "adcode": 610204,
            "province": "陕西省",
            "city": "铜川市",
            "district": "耀州区"
        }
    },
    {
        "id": "11689348813265585453",
        "title": "公共厕所",
        "address": "陕西省铜川市耀州区丹阳路辅路与咸丰东路交叉口正东方向209米左右",
        "tel": "",
        "category": "基础设施:公共设施:公共厕所",
        "type": 0,
        "location": {
            "lat": 34.902185,
            "lng": 108.934173
        },
        "ad_info": {
            "adcode": 610204,
            "province": "陕西省",
            "city": "铜川市",
            "district": "耀州区"
        }
    },
    {
        "id": "16455221125424490136",
        "title": "铜川市公共厕所",
        "address": "陕西省铜川市印台区延安路与甘泉一巷交叉口正南方向39米左右",
        "tel": "",
        "category": "基础设施:公共设施:公共厕所",
        "type": 0,
        "location": {
            "lat": 35.09303,
            "lng": 109.100961
        },
        "ad_info": {
            "adcode": 610203,
            "province": "陕西省",
            "city": "铜川市",
            "district": "印台区"
        }
    },
    {
        "id": "3285481758920304548",
        "title": "公共厕所",
        "address": "陕西省铜川市耀州区丹阳路与华夏北道交叉口西南方向342米左右",
        "tel": "",
        "category": "基础设施:公共设施:公共厕所",
        "type": 0,
        "location": {
            "lat": 34.900111,
            "lng": 108.928118
        },
        "ad_info": {
            "adcode": 610204,
            "province": "陕西省",
            "city": "铜川市",
            "district": "耀州区"
        }
    },
    {
        "id": "14111571297683231539",
        "title": "公共厕所",
        "address": "陕西省铜川市印台区东街与北街交叉口西南方向101米左右",
        "tel": "",
        "category": "基础设施:公共设施:公共厕所",
        "type": 0,
        "location": {
            "lat": 35.109177,
            "lng": 109.098745
        },
        "ad_info": {
            "adcode": 610203,
            "province": "陕西省",
            "city": "铜川市",
            "district": "印台区"
        }
    },
    {
        "id": "18117605849993007758",
        "title": "公共厕所",
        "address": "陕西省铜川市耀州区东环路与正阳路交叉口正南方向78米左右",
        "tel": "",
        "category": "基础设施:公共设施:公共厕所",
        "type": 0,
        "location": {
            "lat": 34.904223,
            "lng": 108.960584
        },
        "ad_info": {
            "adcode": 610204,
            "province": "陕西省",
            "city": "铜川市",
            "district": "耀州区"
        }
    },
    {
        "id": "6575013410283651164",
        "title": "公共厕所",
        "address": "陕西省铜川市耀州区宝鉴路与文营东路交叉口正南方向172米左右",
        "tel": "",
        "category": "基础设施:公共设施:公共厕所",
        "type": 0,
        "location": {
            "lat": 34.910043,
            "lng": 108.989291
        },
        "ad_info": {
            "adcode": 610204,
            "province": "陕西省",
            "city": "铜川市",
            "district": "耀州区"
        }
    },
    {
        "id": "4182773009856820281",
        "title": "公共厕所",
        "address": "陕西省铜川市耀州区新时代商业广场内",
        "tel": "",
        "category": "基础设施:公共设施:公共厕所",
        "type": 0,
        "location": {
            "lat": 34.895576,
            "lng": 108.949477
        },
        "ad_info": {
            "adcode": 610204,
            "province": "陕西省",
            "city": "铜川市",
            "district": "耀州区"
        }
    },
    {
        "id": "12813107643981065009",
        "title": "公共厕所",
        "address": "陕西省铜川市王益区协泰巷与育才路交叉口东北方向22米左右",
        "tel": "",
        "category": "基础设施:公共设施:公共厕所",
        "type": 0,
        "location": {
            "lat": 35.071361,
            "lng": 109.074782
        },
        "ad_info": {
            "adcode": 610202,
            "province": "陕西省",
            "city": "铜川市",
            "district": "王益区"
        }
    },
    {
        "id": "12630910626378923899",
        "title": "公共厕所",
        "address": "陕西省铜川市耀州区裕丰园",
        "tel": "",
        "category": "基础设施:公共设施:公共厕所",
        "type": 0,
        "location": {
            "lat": 34.914165,
            "lng": 108.942354
        },
        "ad_info": {
            "adcode": 610204,
            "province": "陕西省",
            "city": "铜川市",
            "district": "耀州区"
        }
    },
    {
        "id": "11392683038738116095",
        "title": "铜川市公共厕所",
        "address": "陕西省铜川市印台区三里洞路与尚勤堤交叉口西北方向179米左右",
        "tel": "",
        "category": "基础设施:公共设施:公共厕所",
        "type": 0,
        "location": {
            "lat": 35.095617,
            "lng": 109.103242
        },
        "ad_info": {
            "adcode": 610203,
            "province": "陕西省",
            "city": "铜川市",
            "district": "印台区"
        }
    },
    {
        "id": "14064979555909882387",
        "title": "公共厕所",
        "address": "陕西省铜川市耀州区南街村幼儿园西南(永安南路西)",
        "tel": "",
        "category": "基础设施:公共设施:公共厕所",
        "type": 0,
        "location": {
            "lat": 34.903524,
            "lng": 108.98188
        },
        "ad_info": {
            "adcode": 610204,
            "province": "陕西省",
            "city": "铜川市",
            "district": "耀州区"
        }
    },
    {
        "id": "18444966589962756883",
        "title": "黄陵服务区公共厕所",
        "address": "陕西省铜川市宜君县延西高速与杜村立交交叉口东北方向1592米左右",
        "tel": "",
        "category": "基础设施:公共设施:公共厕所",
        "type": 0,
        "location": {
            "lat": 35.565194,
            "lng": 109.209795
        },
        "ad_info": {
            "adcode": 610222,
            "province": "陕西省",
            "city": "铜川市",
            "district": "宜君县"
        }
    },
    {
        "id": "751681071820327102",
        "title": "公共厕所",
        "address": "陕西省铜川市耀州区宝鉴路与文营东路交叉口正西方向186米左右",
        "tel": "",
        "category": "基础设施:公共设施:公共厕所",
        "type": 0,
        "location": {
            "lat": 34.911711,
            "lng": 108.987147
        },
        "ad_info": {
            "adcode": 610204,
            "province": "陕西省",
            "city": "铜川市",
            "district": "耀州区"
        }
    },
    {
        "id": "9299609999763972820",
        "title": "宜君服务区公共厕所",
        "address": "陕西省铜川市宜君县宜君服务区与G6522延西高速交叉口东北260米",
        "tel": "",
        "category": "基础设施:公共设施:公共厕所",
        "type": 0,
        "location": {
            "lat": 35.360352,
            "lng": 109.079683
        },
        "ad_info": {
            "adcode": 610222,
            "province": "陕西省",
            "city": "铜川市",
            "district": "宜君县"
        }
    },
    {
        "id": "10867465441856389294",
        "title": "公共厕所",
        "address": "陕西省铜川市耀州区正阳路与铁诺南路交叉口东北方向112米左右",
        "tel": "",
        "category": "基础设施:公共设施:公共厕所",
        "type": 0,
        "location": {
            "lat": 34.900203,
            "lng": 108.952204
        },
        "ad_info": {
            "adcode": 610204,
            "province": "陕西省",
            "city": "铜川市",
            "district": "耀州区"
        }
    },
    {
        "id": "11665501997857967280",
        "title": "公共厕所",
        "address": "陕西省铜川市耀州区斯正街与长虹南路交叉口正西方向112米左右",
        "tel": "",
        "category": "基础设施:公共设施:公共厕所",
        "type": 0,
        "location": {
            "lat": 34.89912,
            "lng": 108.944159
        },
        "ad_info": {
            "adcode": 610204,
            "province": "陕西省",
            "city": "铜川市",
            "district": "耀州区"
        }
    },
    {
        "id": "2109400133724064303",
        "title": "宜古村公厕",
        "address": "陕西省铜川市王益区宜上路",
        "tel": "",
        "category": "基础设施:公共设施:公共厕所",
        "type": 0,
        "location": {
            "lat": 35.051937,
            "lng": 109.074603
        },
        "ad_info": {
            "adcode": 610202,
            "province": "陕西省",
            "city": "铜川市",
            "district": "王益区"
        }
    },
    {
        "id": "13218210921118232295",
        "title": "公共厕所",
        "address": "陕西省铜川市耀州区正阳路与经纬路交叉口正南方向68米左右",
        "tel": "",
        "category": "基础设施:公共设施:公共厕所",
        "type": 0,
        "location": {
            "lat": 34.892701,
            "lng": 108.941305
        },
        "ad_info": {
            "adcode": 610204,
            "province": "陕西省",
            "city": "铜川市",
            "district": "耀州区"
        }
    },
    {
        "id": "5602989616634345804",
        "title": "公共厕所",
        "address": "陕西省铜川市耀州区金鼎路与长丰南路交叉口正北方向48米左右",
        "tel": "",
        "category": "基础设施:公共设施:公共厕所",
        "type": 0,
        "location": {
            "lat": 34.903946,
            "lng": 108.95114
        },
        "ad_info": {
            "adcode": 610204,
            "province": "陕西省",
            "city": "铜川市",
            "district": "耀州区"
        }
    },
    {
        "id": "2801928715283213108",
        "title": "铜川市公共厕所",
        "address": "陕西省铜川市印台区延安路与芳草南巷交叉口东南方向74米左右",
        "tel": "",
        "category": "基础设施:公共设施:公共厕所",
        "type": 0,
        "location": {
            "lat": 35.087709,
            "lng": 109.10066
        },
        "ad_info": {
            "adcode": 610203,
            "province": "陕西省",
            "city": "铜川市",
            "district": "印台区"
        }
    },
    {
        "id": "11268201425826565993",
        "title": "公共厕所",
        "address": "陕西省铜川市耀州区G210与莲湖大街交叉口正北方向1019米左右",
        "tel": "",
        "category": "基础设施:公共设施:公共厕所",
        "type": 0,
        "location": {
            "lat": 34.95266,
            "lng": 108.997996
        },
        "ad_info": {
            "adcode": 610204,
            "province": "陕西省",
            "city": "铜川市",
            "district": "耀州区"
        }
    },
    {
        "id": "12378627349861711088",
        "title": "公共厕所",
        "address": "陕西省铜川市耀州区华原路与天宝路交叉口正北方向99米左右",
        "tel": "",
        "category": "基础设施:公共设施:公共厕所",
        "type": 0,
        "location": {
            "lat": 34.921118,
            "lng": 108.973289
        },
        "ad_info": {
            "adcode": 610204,
            "province": "陕西省",
            "city": "铜川市",
            "district": "耀州区"
        }
    },
    {
        "id": "1469420655031432574",
        "title": "公共厕所",
        "address": "陕西省铜川市耀州区S310与华原五路交叉口正东方向916米左右",
        "tel": "",
        "category": "基础设施:公共设施:公共厕所",
        "type": 0,
        "location": {
            "lat": 34.857354,
            "lng": 108.9081
        },
        "ad_info": {
            "adcode": 610204,
            "province": "陕西省",
            "city": "铜川市",
            "district": "耀州区"
        }
    },
    {
        "id": "2754091949235594332",
        "title": "公共厕所",
        "address": "陕西省铜川市耀州区文营西路与锦阳南路交叉口东南方向114米左右",
        "tel": "",
        "category": "基础设施:公共设施:公共厕所",
        "type": 0,
        "location": {
            "lat": 34.906371,
            "lng": 108.974945
        },
        "ad_info": {
            "adcode": 610204,
            "province": "陕西省",
            "city": "铜川市",
            "district": "耀州区"
        }
    },
    {
        "id": "13949886197831311062",
        "title": "公共厕所",
        "address": "陕西省铜川市耀州区长丰北路裕丰园",
        "tel": "",
        "category": "基础设施:公共设施:公共厕所",
        "type": 0,
        "location": {
            "lat": 34.91622,
            "lng": 108.940461
        },
        "ad_info": {
            "adcode": 610204,
            "province": "陕西省",
            "city": "铜川市",
            "district": "耀州区"
        }
    },
    {
        "id": "5401329983400062121",
        "title": "公共厕所",
        "address": "陕西省铜川市耀州区锦阳湖立交与防汛路交叉口西南方向1602米左右",
        "tel": "",
        "category": "基础设施:公共设施:公共厕所",
        "type": 0,
        "location": {
            "lat": 34.990095,
            "lng": 108.920041
        },
        "ad_info": {
            "adcode": 610204,
            "province": "陕西省",
            "city": "铜川市",
            "district": "耀州区"
        }
    },
    {
        "id": "6564132359589901245",
        "title": "公共厕所",
        "address": "陕西省铜川市耀州区雅居芙蓉里北侧200米",
        "tel": "",
        "category": "基础设施:公共设施:公共厕所",
        "type": 0,
        "location": {
            "lat": 34.909783,
            "lng": 108.965001
        },
        "ad_info": {
            "adcode": 610204,
            "province": "陕西省",
            "city": "铜川市",
            "district": "耀州区"
        }
    },
    {
        "id": "1867659039780102362",
        "title": "公共厕所(SX-TC-0294)",
        "address": "陕西省铜川市印台区富红路",
        "tel": "",
        "category": "基础设施:公共设施:公共厕所",
        "type": 0,
        "location": {
            "lat": 35.170488,
            "lng": 109.314412
        },
        "ad_info": {
            "adcode": 610203,
            "province": "陕西省",
            "city": "铜川市",
            "district": "印台区"
        }
    },
    {
        "id": "13045296775611384510",
        "title": "公共厕所",
        "address": "陕西省铜川市耀州区华原东道与长丰南路交叉口东南方向100米左右",
        "tel": "",
        "category": "基础设施:公共设施:公共厕所",
        "type": 0,
        "location": {
            "lat": 34.906096,
            "lng": 108.951078
        },
        "ad_info": {
            "adcode": 610204,
            "province": "陕西省",
            "city": "铜川市",
            "district": "耀州区"
        }
    },
    {
        "id": "16564311225185390539",
        "title": "公共厕所",
        "address": "陕西省铜川市耀州区G210与东环路交叉口西北方向109米左右",
        "tel": "",
        "category": "基础设施:公共设施:公共厕所",
        "type": 0,
        "location": {
            "lat": 34.881229,
            "lng": 108.972043
        },
        "ad_info": {
            "adcode": 610204,
            "province": "陕西省",
            "city": "铜川市",
            "district": "耀州区"
        }
    },
    {
        "id": "6033071043837440065",
        "title": "公共厕所",
        "address": "陕西省铜川市耀州区华原路与药王路交叉口西南方向335米左右",
        "tel": "",
        "category": "基础设施:公共设施:公共厕所",
        "type": 0,
        "location": {
            "lat": 34.914041,
            "lng": 108.960463
        },
        "ad_info": {
            "adcode": 610204,
            "province": "陕西省",
            "city": "铜川市",
            "district": "耀州区"
        }
    },
    {
        "id": "14707419019433826375",
        "title": "公共厕所",
        "address": "陕西省铜川市耀州区莲湖大街与董桃路交叉口正北方向731米左右",
        "tel": "",
        "category": "基础设施:公共设施:公共厕所",
        "type": 0,
        "location": {
            "lat": 34.974993,
            "lng": 109.008366
        },
        "ad_info": {
            "adcode": 610204,
            "province": "陕西省",
            "city": "铜川市",
            "district": "耀州区"
        }
    },
    {
        "id": "17789538045128586459",
        "title": "公共厕所",
        "address": "陕西省铜川市耀州区Y320与涧沟大桥交叉口西北方向1036米左右",
        "tel": "",
        "category": "基础设施:公共设施:公共厕所",
        "type": 0,
        "location": {
            "lat": 34.943923,
            "lng": 109.028989
        },
        "ad_info": {
            "adcode": 610204,
            "province": "陕西省",
            "city": "铜川市",
            "district": "耀州区"
        }
    },
    {
        "id": "7108516305078158647",
        "title": "玉华宫服务区公共厕所",
        "address": "陕西省铜川市宜君县包茂高速玉华宫服务区",
        "tel": "",
        "category": "基础设施:公共设施:公共厕所",
        "type": 0,
        "location": {
            "lat": 35.373116,
            "lng": 108.999301
        },
        "ad_info": {
            "adcode": 610222,
            "province": "陕西省",
            "city": "铜川市",
            "district": "宜君县"
        }
    },
    {
        "id": "10615939704895052627",
        "title": "铜川市公共厕所",
        "address": "陕西省铜川市王益区利民路与育才路交叉口西北方向183米左右",
        "tel": "",
        "category": "基础设施:公共设施:公共厕所",
        "type": 0,
        "location": {
            "lat": 35.069083,
            "lng": 109.070252
        },
        "ad_info": {
            "adcode": 610202,
            "province": "陕西省",
            "city": "铜川市",
            "district": "王益区"
        }
    },
    {
        "id": "18050755456325915617",
        "title": "公共厕所",
        "address": "陕西省铜川市耀州区孙塬镇",
        "tel": "",
        "category": "基础设施:公共设施:公共厕所",
        "type": 0,
        "location": {
            "lat": 34.942108,
            "lng": 109.029385
        },
        "ad_info": {
            "adcode": 610204,
            "province": "陕西省",
            "city": "铜川市",
            "district": "耀州区"
        }
    },
    {
        "id": "15354933312956323956",
        "title": "公共厕所",
        "address": "陕西省铜川市耀州区G6522延西高速入口与G6522延西高速交叉口西200米",
        "tel": "",
        "category": "基础设施:公共设施:公共厕所",
        "type": 0,
        "location": {
            "lat": 34.986436,
            "lng": 109.009703
        },
        "ad_info": {
            "adcode": 610204,
            "province": "陕西省",
            "city": "铜川市",
            "district": "耀州区"
        }
    },
    {
        "id": "17156745077555769190",
        "title": "黄陵服务区第二公共厕所",
        "address": "陕西省铜川市宜君县黄陵服务区与G6522延西高速交叉口西南300米",
        "tel": "",
        "category": "基础设施:公共设施:公共厕所",
        "type": 0,
        "location": {
            "lat": 35.566098,
            "lng": 109.210779
        },
        "ad_info": {
            "adcode": 610222,
            "province": "陕西省",
            "city": "铜川市",
            "district": "宜君县"
        }
    },
    {
        "id": "10453603337625929883",
        "title": "铜川北服务区公共厕所",
        "address": "陕西省铜川市印台区G210与延西高速交叉口正南方向1873米左右",
        "tel": "",
        "category": "基础设施:公共设施:公共厕所",
        "type": 0,
        "location": {
            "lat": 35.176686,
            "lng": 109.079431
        },
        "ad_info": {
            "adcode": 610203,
            "province": "陕西省",
            "city": "铜川市",
            "district": "印台区"
        }
    },
    {
        "id": "12828361867261923758",
        "title": "铜川北服务区第二公共厕所",
        "address": "陕西省铜川市印台区延西高速",
        "tel": "",
        "category": "基础设施:公共设施:公共厕所",
        "type": 0,
        "location": {
            "lat": 35.174748,
            "lng": 109.080797
        },
        "ad_info": {
            "adcode": 610203,
            "province": "陕西省",
            "city": "铜川市",
            "district": "印台区"
        }
    },
    {
        "id": "4768098552849819246",
        "title": "玉华宫服务区第二公共厕所",
        "address": "陕西省铜川市宜君县玉华宫服务区与G65包茂高速交叉口北160米",
        "tel": "",
        "category": "基础设施:公共设施:公共厕所",
        "type": 0,
        "location": {
            "lat": 35.371738,
            "lng": 108.995647
        },
        "ad_info": {
            "adcode": 610222,
            "province": "陕西省",
            "city": "铜川市",
            "district": "宜君县"
        }
    },
    {
        "id": "14078983640547052501",
        "title": "公共厕所",
        "address": "陕西省铜川市耀州区华原东道与铁诺北路交叉口正北方向167米左右",
        "tel": "",
        "category": "基础设施:公共设施:公共厕所",
        "type": 0,
        "location": {
            "lat": 34.905161,
            "lng": 108.945297
        },
        "ad_info": {
            "adcode": 610204,
            "province": "陕西省",
            "city": "铜川市",
            "district": "耀州区"
        }
    },
    {
        "id": "11919421190004303593",
        "title": "阳光广场公共厕所",
        "address": "陕西省铜川市耀州区正阳路与长虹南路交叉路口西南侧(阳光广场)",
        "tel": "",
        "category": "基础设施:公共设施:公共厕所",
        "type": 0,
        "location": {
            "lat": 34.894334,
            "lng": 108.943698
        },
        "ad_info": {
            "adcode": 610204,
            "province": "陕西省",
            "city": "铜川市",
            "district": "耀州区"
        }
    },
    {
        "id": "16358903049362143807",
        "title": "公共厕所",
        "address": "陕西省铜川市耀州区长丰南路与齐庆路交叉口西南方向166米左右",
        "tel": "",
        "category": "基础设施:公共设施:公共厕所",
        "type": 0,
        "location": {
            "lat": 34.897222,
            "lng": 108.955171
        },
        "ad_info": {
            "adcode": 610204,
            "province": "陕西省",
            "city": "铜川市",
            "district": "耀州区"
        }
    },
    {
        "id": "2942263519271077429",
        "title": "铜川市公共厕所",
        "address": "陕西省铜川市王益区康宁诊所东侧80米",
        "tel": "",
        "category": "基础设施:公共设施:公共厕所",
        "type": 0,
        "location": {
            "lat": 35.072982,
            "lng": 109.079231
        },
        "ad_info": {
            "adcode": 610202,
            "province": "陕西省",
            "city": "铜川市",
            "district": "王益区"
        }
    },
    {
        "id": "11468033592952797024",
        "title": "铜川市公共厕所",
        "address": "陕西省铜川市王益区新裕巷与育才路交叉口正西方向317米左右",
        "tel": "",
        "category": "基础设施:公共设施:公共厕所",
        "type": 0,
        "location": {
            "lat": 35.066124,
            "lng": 109.066345
        },
        "ad_info": {
            "adcode": 610202,
            "province": "陕西省",
            "city": "铜川市",
            "district": "王益区"
        }
    },
    {
        "id": "3501685057906279008",
        "title": "铜川市公共厕所",
        "address": "陕西省铜川市耀州区城隍庙巷与文营东路交叉口正东方向196米左右",
        "tel": "",
        "category": "基础设施:公共设施:公共厕所",
        "type": 0,
        "location": {
            "lat": 34.90948,
            "lng": 108.984804
        },
        "ad_info": {
            "adcode": 610204,
            "province": "陕西省",
            "city": "铜川市",
            "district": "耀州区"
        }
    },
    {
        "id": "6747239965134161106",
        "title": "铜川市公共厕所",
        "address": "陕西省铜川市耀州区东环路与金达路交叉口正西方向52米左右",
        "tel": "",
        "category": "基础设施:公共设施:公共厕所",
        "type": 0,
        "location": {
            "lat": 34.917635,
            "lng": 108.947746
        },
        "ad_info": {
            "adcode": 610204,
            "province": "陕西省",
            "city": "铜川市",
            "district": "耀州区"
        }
    },
    {
        "id": "17260254031106320907",
        "title": "铜川市公共厕所",
        "address": "陕西省铜川市耀州区耀州路果蔬市场南200米",
        "tel": "",
        "category": "基础设施:公共设施:公共厕所",
        "type": 0,
        "location": {
            "lat": 34.916968,
            "lng": 108.971558
        },
        "ad_info": {
            "adcode": 610204,
            "province": "陕西省",
            "city": "铜川市",
            "district": "耀州区"
        }
    },
    {
        "id": "12154102365297022840",
        "title": "宜君服务区公共厕所",
        "address": "陕西省铜川市宜君县宜君服务区与G6522延西高速交叉口北260米",
        "tel": "",
        "category": "基础设施:公共设施:公共厕所",
        "type": 0,
        "location": {
            "lat": 35.36059,
            "lng": 109.078393
        },
        "ad_info": {
            "adcode": 610222,
            "province": "陕西省",
            "city": "铜川市",
            "district": "宜君县"
        }
    },
    {
        "id": "1415887259233371480",
        "title": "重兴公园公共厕所",
        "address": "陕西省铜川市印台区同官路11号-副3号",
        "tel": "",
        "category": "基础设施:公共设施:公共厕所",
        "type": 0,
        "location": {
            "lat": 35.117547,
            "lng": 109.099514
        },
        "ad_info": {
            "adcode": 610203,
            "province": "陕西省",
            "city": "铜川市",
            "district": "印台区"
        }
    },
    {
        "id": "16676944494005777025",
        "title": "照金服务区公共厕所",
        "address": "陕西省铜川市耀州区G3511菏宝高速附近",
        "tel": "",
        "category": "基础设施:公共设施:公共厕所",
        "type": 0,
        "location": {
            "lat": 35.038814,
            "lng": 108.609012
        },
        "ad_info": {
            "adcode": 610204,
            "province": "陕西省",
            "city": "铜川市",
            "district": "耀州区"
        }
    },
    {
        "id": "3540576411558789479",
        "title": "铜川市公共厕所",
        "address": "陕西省铜川市耀州区G210与生产路交叉口东北方向220米左右",
        "tel": "",
        "category": "基础设施:公共设施:公共厕所",
        "type": 0,
        "location": {
            "lat": 34.903467,
            "lng": 108.984711
        },
        "ad_info": {
            "adcode": 610204,
            "province": "陕西省",
            "city": "铜川市",
            "district": "耀州区"
        }
    },
    {
        "id": "9557008094320328319",
        "title": "铜川市公共厕所",
        "address": "陕西省铜川市耀州区华兴北路与锦阳路辅路交叉口东北方向29米左右",
        "tel": "",
        "category": "基础设施:公共设施:公共厕所",
        "type": 0,
        "location": {
            "lat": 34.909967,
            "lng": 108.974121
        },
        "ad_info": {
            "adcode": 610204,
            "province": "陕西省",
            "city": "铜川市",
            "district": "耀州区"
        }
    },
    {
        "id": "12428286444121987270",
        "title": "正阳国际酒店-洗手间",
        "address": "陕西省铜川市耀州区正阳路16号",
        "tel": "",
        "category": "基础设施:公共设施:公共厕所",
        "type": 0,
        "location": {
            "lat": 34.899358,
            "lng": 108.95272
        },
        "ad_info": {
            "adcode": 610204,
            "province": "陕西省",
            "city": "铜川市",
            "district": "耀州区"
        }
    },
    {
        "id": "17078204336769690773",
        "title": "铜川市公共厕所",
        "address": "陕西省铜川市耀州区金鼎路与铁诺南路交叉口正东方向39米左右",
        "tel": "",
        "category": "基础设施:公共设施:公共厕所",
        "type": 0,
        "location": {
            "lat": 34.901581,
            "lng": 108.948616
        },
        "ad_info": {
            "adcode": 610204,
            "province": "陕西省",
            "city": "铜川市",
            "district": "耀州区"
        }
    },
    {
        "id": "9156021786451416142",
        "title": "照金服务区公共厕所",
        "address": "陕西省铜川市耀州区照金服务区南侧",
        "tel": "",
        "category": "基础设施:公共设施:公共厕所",
        "type": 0,
        "location": {
            "lat": 35.038461,
            "lng": 108.603803
        },
        "ad_info": {
            "adcode": 610204,
            "province": "陕西省",
            "city": "铜川市",
            "district": "耀州区"
        }
    },
    {
        "id": "8842674944653353101",
        "title": "铜川市公共厕所",
        "address": "陕西省铜川市耀州区学古路与锦阳路交叉口正东方向156米左右",
        "tel": "",
        "category": "基础设施:公共设施:公共厕所",
        "type": 0,
        "location": {
            "lat": 34.911213,
            "lng": 108.975124
        },
        "ad_info": {
            "adcode": 610204,
            "province": "陕西省",
            "city": "铜川市",
            "district": "耀州区"
        }
    },
    {
        "id": "4055219052500492321",
        "title": "耀州服务区公共厕所",
        "address": "陕西省铜川市耀州区包茂高速耀州服务区",
        "tel": "",
        "category": "基础设施:公共设施:公共厕所",
        "type": 0,
        "location": {
            "lat": 35.043081,
            "lng": 108.957724
        },
        "ad_info": {
            "adcode": 610204,
            "province": "陕西省",
            "city": "铜川市",
            "district": "耀州区"
        }
    },
    {
        "id": "2064261792514926479",
        "title": "公共厕所",
        "address": "陕西省铜川市耀州区长丰南路与鸿基路交叉口西北方向80米左右",
        "tel": "",
        "category": "基础设施:公共设施:公共厕所",
        "type": 0,
        "location": {
            "lat": 34.896951,
            "lng": 108.957214
        },
        "ad_info": {
            "adcode": 610204,
            "province": "陕西省",
            "city": "铜川市",
            "district": "耀州区"
        }
    },
    {
        "id": "15243595964468896709",
        "title": "公共厕所",
        "address": "陕西省铜川市印台区G342与S305交叉口西南方向533米左右",
        "tel": "",
        "category": "基础设施:公共设施:公共厕所",
        "type": 0,
        "location": {
            "lat": 35.149318,
            "lng": 109.433233
        },
        "ad_info": {
            "adcode": 610203,
            "province": "陕西省",
            "city": "铜川市",
            "district": "印台区"
        }
    },
    {
        "id": "13479567343389296150",
        "title": "公共卫生间",
        "address": "陕西省铜川市印台区G210与同官路交叉口西南方向151米左右",
        "tel": "",
        "category": "基础设施:公共设施:公共厕所",
        "type": 0,
        "location": {
            "lat": 35.121914,
            "lng": 109.097218
        },
        "ad_info": {
            "adcode": 610203,
            "province": "陕西省",
            "city": "铜川市",
            "district": "印台区"
        }
    },
    {
        "id": "13851969124801690113",
        "title": "公共厕所",
        "address": "陕西省铜川市耀州区斯正街1号",
        "tel": "",
        "category": "基础设施:公共设施:公共厕所",
        "type": 0,
        "location": {
            "lat": 34.895992,
            "lng": 108.941103
        },
        "ad_info": {
            "adcode": 610204,
            "province": "陕西省",
            "city": "铜川市",
            "district": "耀州区"
        }
    },
    {
        "id": "456764047509730872",
        "title": "公共厕所",
        "address": "陕西省铜川市印台区鸭口社区文化广场西侧170米",
        "tel": "",
        "category": "基础设施:公共设施:公共厕所",
        "type": 0,
        "location": {
            "lat": 35.125544,
            "lng": 109.334807
        },
        "ad_info": {
            "adcode": 610203,
            "province": "陕西省",
            "city": "铜川市",
            "district": "印台区"
        }
    },
    {
        "id": "12138540655096823514",
        "title": "公共厕所",
        "address": "陕西省铜川市耀州区金谟路与长丰北路交叉口东北方向136米左右",
        "tel": "",
        "category": "基础设施:公共设施:公共厕所",
        "type": 0,
        "location": {
            "lat": 34.910193,
            "lng": 108.947163
        },
        "ad_info": {
            "adcode": 610204,
            "province": "陕西省",
            "city": "铜川市",
            "district": "耀州区"
        }
    },
    {
        "id": "9340966561927405463",
        "title": "公共厕所",
        "address": "陕西省铜川市印台区王石凹中小学东南侧190米",
        "tel": "",
        "category": "基础设施:公共设施:公共厕所",
        "type": 0,
        "location": {
            "lat": 35.106894,
            "lng": 109.19867
        },
        "ad_info": {
            "adcode": 610203,
            "province": "陕西省",
            "city": "铜川市",
            "district": "印台区"
        }
    },
    {
        "id": "18277365794786579802",
        "title": "公共厕所",
        "address": "陕西省铜川市耀州区演池枢纽与王京路交叉口正东方向69米左右",
        "tel": "",
        "category": "基础设施:公共设施:公共厕所",
        "type": 0,
        "location": {
            "lat": 35.093592,
            "lng": 108.995761
        },
        "ad_info": {
            "adcode": 610204,
            "province": "陕西省",
            "city": "铜川市",
            "district": "耀州区"
        }
    },
    {
        "id": "5392908045357951422",
        "title": "山岔停车区公共厕所",
        "address": "陕西省铜川市宜君县",
        "tel": "",
        "category": "基础设施:公共设施:公共厕所",
        "type": 0,
        "location": {
            "lat": 35.541113,
            "lng": 109.129996
        },
        "ad_info": {
            "adcode": 610222,
            "province": "陕西省",
            "city": "铜川市",
            "district": "宜君县"
        }
    },
    {
        "id": "11837401121978010116",
        "title": "铜煤二号公共厕所",
        "address": "陕西省铜川市耀州区咸丰西路7-12号",
        "tel": "",
        "category": "基础设施:公共设施:公共厕所",
        "type": 0,
        "location": {
            "lat": 34.909094,
            "lng": 108.927099
        },
        "ad_info": {
            "adcode": 610204,
            "province": "陕西省",
            "city": "铜川市",
            "district": "耀州区"
        }
    },
    {
        "id": "17326104573950412029",
        "title": "公共厕所",
        "address": "陕西省铜川市宜君县福地湖景区县总工会爱心驿站西南侧230米",
        "tel": "",
        "category": "基础设施:公共设施:公共厕所",
        "type": 0,
        "location": {
            "lat": 35.390352,
            "lng": 109.233739
        },
        "ad_info": {
            "adcode": 610222,
            "province": "陕西省",
            "city": "铜川市",
            "district": "宜君县"
        }
    },
    {
        "id": "4277030401164636995",
        "title": "关庄停车区公共厕所",
        "address": "陕西省铜川市耀州区G65包茂高速与关庄停车区交叉口北340米",
        "tel": "",
        "category": "基础设施:公共设施:公共厕所",
        "type": 0,
        "location": {
            "lat": 34.940705,
            "lng": 108.885207
        },
        "ad_info": {
            "adcode": 610204,
            "province": "陕西省",
            "city": "铜川市",
            "district": "耀州区"
        }
    },
    {
        "id": "5753297922360458020",
        "title": "公共厕所",
        "address": "陕西省铜川市耀州区华原路与锦阳路交叉口西北方向257米左右",
        "tel": "",
        "category": "基础设施:公共设施:公共厕所",
        "type": 0,
        "location": {
            "lat": 34.921365,
            "lng": 108.968951
        },
        "ad_info": {
            "adcode": 610204,
            "province": "陕西省",
            "city": "铜川市",
            "district": "耀州区"
        }
    },
    {
        "id": "216939465299408945",
        "title": "公共厕所",
        "address": "陕西省铜川市耀州区华原路与药王路交叉口正西方向342米左右",
        "tel": "",
        "category": "基础设施:公共设施:公共厕所",
        "type": 0,
        "location": {
            "lat": 34.914277,
            "lng": 108.960271
        },
        "ad_info": {
            "adcode": 610204,
            "province": "陕西省",
            "city": "铜川市",
            "district": "耀州区"
        }
    },
    {
        "id": "14429375347695042127",
        "title": "关庄停车区公共厕所",
        "address": "陕西省铜川市耀州区G65包茂高速与关庄停车区交叉口西北260米",
        "tel": "",
        "category": "基础设施:公共设施:公共厕所",
        "type": 0,
        "location": {
            "lat": 34.939747,
            "lng": 108.884157
        },
        "ad_info": {
            "adcode": 610204,
            "province": "陕西省",
            "city": "铜川市",
            "district": "耀州区"
        }
    },
    {
        "id": "8065437669863726228",
        "title": "旅游厕所",
        "address": "陕西省铜川市印台区S305",
        "tel": "",
        "category": "基础设施:公共设施:公共厕所",
        "type": 0,
        "location": {
            "lat": 35.141622,
            "lng": 109.255705
        },
        "ad_info": {
            "adcode": 610203,
            "province": "陕西省",
            "city": "铜川市",
            "district": "印台区"
        }
    },
    {
        "id": "14465192091293328712",
        "title": "山岔停车区公共厕所",
        "address": "陕西省铜川市宜君县山岔停车区",
        "tel": "",
        "category": "基础设施:公共设施:公共厕所",
        "type": 0,
        "location": {
            "lat": 35.538118,
            "lng": 109.125662
        },
        "ad_info": {
            "adcode": 610222,
            "province": "陕西省",
            "city": "铜川市",
            "district": "宜君县"
        }
    },
    {
        "id": "2108319106223984227",
        "title": "公共厕所",
        "address": "陕西省铜川市印台区210国道东50米",
        "tel": "",
        "category": "基础设施:公共设施:公共厕所",
        "type": 0,
        "location": {
            "lat": 35.173176,
            "lng": 109.085693
        },
        "ad_info": {
            "adcode": 610203,
            "province": "陕西省",
            "city": "铜川市",
            "district": "印台区"
        }
    },
    {
        "id": "5430732037632948928",
        "title": "公共厕所",
        "address": "陕西省铜川市耀州区晓宏车辆维修部西北侧80米",
        "tel": "",
        "category": "基础设施:公共设施:公共厕所",
        "type": 0,
        "location": {
            "lat": 35.019996,
            "lng": 108.827695
        },
        "ad_info": {
            "adcode": 610204,
            "province": "陕西省",
            "city": "铜川市",
            "district": "耀州区"
        }
    },
    {
        "id": "1431086524715695628",
        "title": "公共厕所",
        "address": "陕西省铜川市耀州区宝鉴路与文营东路交叉口正东方向46米左右",
        "tel": "",
        "category": "基础设施:公共设施:公共厕所",
        "type": 0,
        "location": {
            "lat": 34.911463,
            "lng": 108.989663
        },
        "ad_info": {
            "adcode": 610204,
            "province": "陕西省",
            "city": "铜川市",
            "district": "耀州区"
        }
    },
    {
        "id": "14987704175713230410",
        "title": "公共厕所",
        "address": "陕西省铜川市王益区东风路与川口路交叉口西南方向218米左右",
        "tel": "",
        "category": "基础设施:公共设施:公共厕所",
        "type": 0,
        "location": {
            "lat": 35.062293,
            "lng": 109.056337
        },
        "ad_info": {
            "adcode": 610202,
            "province": "陕西省",
            "city": "铜川市",
            "district": "王益区"
        }
    },
    {
        "id": "4022303685943223077",
        "title": "公共厕所",
        "address": "陕西省铜川市耀州区南环路与长虹南路交叉口西北方向459米左右",
        "tel": "",
        "category": "基础设施:公共设施:公共厕所",
        "type": 0,
        "location": {
            "lat": 34.882319,
            "lng": 108.961497
        },
        "ad_info": {
            "adcode": 610204,
            "province": "陕西省",
            "city": "铜川市",
            "district": "耀州区"
        }
    },
    {
        "id": "6024447336158932628",
        "title": "公共厕所",
        "address": "陕西省铜川市印台区尚勤二巷与尚勤堤交叉口正西方向20米左右",
        "tel": "",
        "category": "基础设施:公共设施:公共厕所",
        "type": 0,
        "location": {
            "lat": 35.098726,
            "lng": 109.102239
        },
        "ad_info": {
            "adcode": 610203,
            "province": "陕西省",
            "city": "铜川市",
            "district": "印台区"
        }
    },
    {
        "id": "13120112884941078233",
        "title": "公共厕所",
        "address": "陕西省铜川市耀州区滨河路与锦阳南路交叉口正东方向245米左右",
        "tel": "",
        "category": "基础设施:公共设施:公共厕所",
        "type": 0,
        "location": {
            "lat": 34.901276,
            "lng": 108.977913
        },
        "ad_info": {
            "adcode": 610204,
            "province": "陕西省",
            "city": "铜川市",
            "district": "耀州区"
        }
    },
    {
        "id": "1269409593812870283",
        "title": "公共厕所",
        "address": "陕西省铜川市耀州区长虹南路华阳春光苑",
        "tel": "",
        "category": "基础设施:公共设施:公共厕所",
        "type": 0,
        "location": {
            "lat": 34.898387,
            "lng": 108.946299
        },
        "ad_info": {
            "adcode": 610204,
            "province": "陕西省",
            "city": "铜川市",
            "district": "耀州区"
        }
    },
    {
        "id": "12396327824233962436",
        "title": "公共厕所",
        "address": "陕西省铜川市耀州区S310与旬耀路交叉口西北方向155米左右",
        "tel": "",
        "category": "基础设施:公共设施:公共厕所",
        "type": 0,
        "location": {
            "lat": 34.901979,
            "lng": 108.785573
        },
        "ad_info": {
            "adcode": 610204,
            "province": "陕西省",
            "city": "铜川市",
            "district": "耀州区"
        }
    },
    {
        "id": "15541862418157278556",
        "title": "公共厕所",
        "address": "陕西省铜川市耀州区G210与耀瑶路交叉口正东方向207米左右",
        "tel": "",
        "category": "基础设施:公共设施:公共厕所",
        "type": 0,
        "location": {
            "lat": 34.936351,
            "lng": 108.975927
        },
        "ad_info": {
            "adcode": 610204,
            "province": "陕西省",
            "city": "铜川市",
            "district": "耀州区"
        }
    },
    {
        "id": "12687646223559204223",
        "title": "公共厕所",
        "address": "陕西省铜川市耀州区丹阳路与金谟路交叉口正西方向136米左右",
        "tel": "",
        "category": "基础设施:公共设施:公共厕所",
        "type": 0,
        "location": {
            "lat": 34.900359,
            "lng": 108.932301
        },
        "ad_info": {
            "adcode": 610204,
            "province": "陕西省",
            "city": "铜川市",
            "district": "耀州区"
        }
    },
    {
        "id": "8013936316447361692",
        "title": "公共厕所",
        "address": "陕西省铜川市王益区重兴南路与金华路交叉口正东方向47米左右",
        "tel": "",
        "category": "基础设施:公共设施:公共厕所",
        "type": 0,
        "location": {
            "lat": 35.082412,
            "lng": 109.104394
        },
        "ad_info": {
            "adcode": 610202,
            "province": "陕西省",
            "city": "铜川市",
            "district": "王益区"
        }
    },
    {
        "id": "6076513329075182207",
        "title": "公共厕所",
        "address": "陕西省铜川市耀州区花儿映像高端儿童摄影西北侧",
        "tel": "",
        "category": "基础设施:公共设施:公共厕所",
        "type": 0,
        "location": {
            "lat": 34.909928,
            "lng": 108.967047
        },
        "ad_info": {
            "adcode": 610204,
            "province": "陕西省",
            "city": "铜川市",
            "district": "耀州区"
        }
    },
    {
        "id": "10991027573964974653",
        "title": "铜川北服务区公共厕所",
        "address": "陕西省铜川市印台区G6522延西高速与铜川北服务区交叉口西120米",
        "tel": "",
        "category": "基础设施:公共设施:公共厕所",
        "type": 0,
        "location": {
            "lat": 35.175417,
            "lng": 109.079417
        },
        "ad_info": {
            "adcode": 610203,
            "province": "陕西省",
            "city": "铜川市",
            "district": "印台区"
        }
    },
    {
        "id": "14207480983478095312",
        "title": "黄陵服务区公共厕所",
        "address": "陕西省铜川市宜君县延西高速与杜村立交交叉口东北方向1789米左右",
        "tel": "",
        "category": "基础设施:公共设施:公共厕所",
        "type": 0,
        "location": {
            "lat": 35.567582,
            "lng": 109.209822
        },
        "ad_info": {
            "adcode": 610222,
            "province": "陕西省",
            "city": "铜川市",
            "district": "宜君县"
        }
    },
    {
        "id": "18147150630464770119",
        "title": "公共厕所",
        "address": "陕西省铜川市王益区体育路与公园路交叉口西南方向215米左右",
        "tel": "",
        "category": "基础设施:公共设施:公共厕所",
        "type": 0,
        "location": {
            "lat": 35.070293,
            "lng": 109.083533
        },
        "ad_info": {
            "adcode": 610202,
            "province": "陕西省",
            "city": "铜川市",
            "district": "王益区"
        }
    },
    {
        "id": "3966782122860028699",
        "title": "公共厕所",
        "address": "陕西省铜川市耀州区正阳路与金鼎路交叉口西北方向395米左右",
        "tel": "",
        "category": "基础设施:公共设施:公共厕所",
        "type": 0,
        "location": {
            "lat": 34.905958,
            "lng": 108.955132
        },
        "ad_info": {
            "adcode": 610204,
            "province": "陕西省",
            "city": "铜川市",
            "district": "耀州区"
        }
    },
    {
        "id": "4156527072766117408",
        "title": "公共厕所",
        "address": "陕西省铜川市印台区健康巷与汇丰堤交叉口西北方向12米左右",
        "tel": "",
        "category": "基础设施:公共设施:公共厕所",
        "type": 0,
        "location": {
            "lat": 35.118656,
            "lng": 109.101376
        },
        "ad_info": {
            "adcode": 610203,
            "province": "陕西省",
            "city": "铜川市",
            "district": "印台区"
        }
    },
    {
        "id": "4717365975056176102",
        "title": "公共厕所",
        "address": "陕西省铜川市宜君县G210与友谊东路交叉口正北方向217米左右",
        "tel": "",
        "category": "基础设施:公共设施:公共厕所",
        "type": 0,
        "location": {
            "lat": 35.393878,
            "lng": 109.116644
        },
        "ad_info": {
            "adcode": 610222,
            "province": "陕西省",
            "city": "铜川市",
            "district": "宜君县"
        }
    },
    {
        "id": "4102271883527274665",
        "title": "公共厕所",
        "address": "陕西省铜川市王益区七一路92号",
        "tel": "",
        "category": "基础设施:公共设施:公共厕所",
        "type": 0,
        "location": {
            "lat": 35.070848,
            "lng": 109.083657
        },
        "ad_info": {
            "adcode": 610202,
            "province": "陕西省",
            "city": "铜川市",
            "district": "王益区"
        }
    },
    {
        "id": "1025670453145547049",
        "title": "公共厕所",
        "address": "陕西省铜川市耀州区瑶曲镇附近",
        "tel": "",
        "category": "基础设施:公共设施:公共厕所",
        "type": 0,
        "location": {
            "lat": 35.217203,
            "lng": 108.875317
        },
        "ad_info": {
            "adcode": 610204,
            "province": "陕西省",
            "city": "铜川市",
            "district": "耀州区"
        }
    },
    {
        "id": "8521852358061123383",
        "title": "公共厕所",
        "address": "陕西省铜川市耀州区华原路",
        "tel": "",
        "category": "基础设施:公共设施:公共厕所",
        "type": 0,
        "location": {
            "lat": 34.92057,
            "lng": 108.976462
        },
        "ad_info": {
            "adcode": 610204,
            "province": "陕西省",
            "city": "铜川市",
            "district": "耀州区"
        }
    },
    {
        "id": "11426529807643420130",
        "title": "铜川市公共厕所",
        "address": "陕西省铜川市王益区S309与川口路交叉口西北方向268米左右",
        "tel": "",
        "category": "基础设施:公共设施:公共厕所",
        "type": 0,
        "location": {
            "lat": 35.05913,
            "lng": 109.056974
        },
        "ad_info": {
            "adcode": 610202,
            "province": "陕西省",
            "city": "铜川市",
            "district": "王益区"
        }
    },
    {
        "id": "11899573216223108575",
        "title": "公共厕所",
        "address": "陕西省铜川市印台区延安路与甘泉一巷交叉口正西方向76米左右",
        "tel": "",
        "category": "基础设施:公共设施:公共厕所",
        "type": 0,
        "location": {
            "lat": 35.093566,
            "lng": 109.100175
        },
        "ad_info": {
            "adcode": 610203,
            "province": "陕西省",
            "city": "铜川市",
            "district": "印台区"
        }
    },
    {
        "id": "14781342670796360729",
        "title": "铜川市公共厕所",
        "address": "陕西省铜川市王益区七一路与五一路交叉口西北方向77米左右",
        "tel": "",
        "category": "基础设施:公共设施:公共厕所",
        "type": 0,
        "location": {
            "lat": 35.076124,
            "lng": 109.091706
        },
        "ad_info": {
            "adcode": 610202,
            "province": "陕西省",
            "city": "铜川市",
            "district": "王益区"
        }
    },
    {
        "id": "858707442809510912",
        "title": "公共厕所",
        "address": "陕西省铜川市耀州区北新巷与永安北路交叉口东北方向164米左右",
        "tel": "",
        "category": "基础设施:公共设施:公共厕所",
        "type": 0,
        "location": {
            "lat": 34.915159,
            "lng": 108.980762
        },
        "ad_info": {
            "adcode": 610204,
            "province": "陕西省",
            "city": "铜川市",
            "district": "耀州区"
        }
    },
    {
        "id": "3857618913519151454",
        "title": "耀州服务区公共厕所",
        "address": "陕西省铜川市耀州区包茂高速耀州服务区",
        "tel": "",
        "category": "基础设施:公共设施:公共厕所",
        "type": 0,
        "location": {
            "lat": 35.047674,
            "lng": 108.959755
        },
        "ad_info": {
            "adcode": 610204,
            "province": "陕西省",
            "city": "铜川市",
            "district": "耀州区"
        }
    },
    {
        "id": "5401689408773634622",
        "title": "公共厕所",
        "address": "陕西省铜川市宜君县G210与兴宜路交叉口东北方向42米左右",
        "tel": "",
        "category": "基础设施:公共设施:公共厕所",
        "type": 0,
        "location": {
            "lat": 35.399199,
            "lng": 109.120433
        },
        "ad_info": {
            "adcode": 610222,
            "province": "陕西省",
            "city": "铜川市",
            "district": "宜君县"
        }
    },
    {
        "id": "5199959936760895136",
        "title": "公共厕所",
        "address": "陕西省铜川市王益区王医路与王家河北路交叉口东北方向44米左右",
        "tel": "",
        "category": "基础设施:公共设施:公共厕所",
        "type": 0,
        "location": {
            "lat": 35.097649,
            "lng": 109.039259
        },
        "ad_info": {
            "adcode": 610202,
            "province": "陕西省",
            "city": "铜川市",
            "district": "王益区"
        }
    },
    {
        "id": "6032608801599692503",
        "title": "铜川市公共厕所",
        "address": "陕西省铜川市印台区同官路与平康路交叉口正东方向96米左右",
        "tel": "",
        "category": "基础设施:公共设施:公共厕所",
        "type": 0,
        "location": {
            "lat": 35.116424,
            "lng": 109.100728
        },
        "ad_info": {
            "adcode": 610203,
            "province": "陕西省",
            "city": "铜川市",
            "district": "印台区"
        }
    },
    {
        "id": "14747845122654801378",
        "title": "公共厕所",
        "address": "陕西省铜川市宜君县宜阳街与文化东路交叉口东北方向133米左右",
        "tel": "",
        "category": "基础设施:公共设施:公共厕所",
        "type": 0,
        "location": {
            "lat": 35.40651,
            "lng": 109.123067
        },
        "ad_info": {
            "adcode": 610222,
            "province": "陕西省",
            "city": "铜川市",
            "district": "宜君县"
        }
    },
    {
        "id": "6714952748575854608",
        "title": "公共厕所",
        "address": "陕西省铜川市王益区七一路与公园路交叉口西北方向431米左右",
        "tel": "",
        "category": "基础设施:公共设施:公共厕所",
        "type": 0,
        "location": {
            "lat": 35.074946,
            "lng": 109.080572
        },
        "ad_info": {
            "adcode": 610202,
            "province": "陕西省",
            "city": "铜川市",
            "district": "王益区"
        }
    },
    {
        "id": "12084260324839499593",
        "title": "公共厕所",
        "address": "陕西省铜川市宜君县万寿路与宜君老街交叉口正西方向115米左右",
        "tel": "",
        "category": "基础设施:公共设施:公共厕所",
        "type": 0,
        "location": {
            "lat": 35.399078,
            "lng": 109.11547
        },
        "ad_info": {
            "adcode": 610222,
            "province": "陕西省",
            "city": "铜川市",
            "district": "宜君县"
        }
    },
    {
        "id": "6722426247856563668",
        "title": "公共厕所",
        "address": "陕西省铜川市印台区",
        "tel": "",
        "category": "基础设施:公共设施:公共厕所",
        "type": 0,
        "location": {
            "lat": 35.125289,
            "lng": 109.334866
        },
        "ad_info": {
            "adcode": 610203,
            "province": "陕西省",
            "city": "铜川市",
            "district": "印台区"
        }
    },
    {
        "id": "13907974304892387025",
        "title": "公共厕所",
        "address": "陕西省铜川市王益区七一路与二场巷交叉口西北方向25米左右",
        "tel": "",
        "category": "基础设施:公共设施:公共厕所",
        "type": 0,
        "location": {
            "lat": 35.074076,
            "lng": 109.087562
        },
        "ad_info": {
            "adcode": 610202,
            "province": "陕西省",
            "city": "铜川市",
            "district": "王益区"
        }
    },
    {
        "id": "1423031530327286926",
        "title": "公共厕所",
        "address": "陕西省铜川市耀州区华原东道与铁诺北路交叉口西北方向194米左右",
        "tel": "",
        "category": "基础设施:公共设施:公共厕所",
        "type": 0,
        "location": {
            "lat": 34.905046,
            "lng": 108.943133
        },
        "ad_info": {
            "adcode": 610204,
            "province": "陕西省",
            "city": "铜川市",
            "district": "耀州区"
        }
    },
    {
        "id": "1481592042854633730",
        "title": "公共厕所",
        "address": "陕西省铜川市王益区红旗街兴业小区",
        "tel": "",
        "category": "基础设施:公共设施:公共厕所",
        "type": 0,
        "location": {
            "lat": 35.061995,
            "lng": 109.062198
        },
        "ad_info": {
            "adcode": 610202,
            "province": "陕西省",
            "city": "铜川市",
            "district": "王益区"
        }
    }
]