[
    {
        "id": "5334496200493749279",
        "title": "公共厕所",
        "address": "安徽省铜陵市郊区铜港路与铜都大道中段交叉口西北方向551米左右",
        "tel": "",
        "category": "基础设施:公共设施:公共厕所",
        "type": 0,
        "location": {
            "lat": 30.883068,
            "lng": 117.774923
        },
        "ad_info": {
            "adcode": 340711,
            "province": "安徽省",
            "city": "铜陵市",
            "district": "郊区"
        }
    },
    {
        "id": "10838664554594845311",
        "title": "公共厕所",
        "address": "安徽省铜陵市枞阳县东湖路与银塘东路交叉口正东方向258米左右",
        "tel": "",
        "category": "基础设施:公共设施:公共厕所",
        "type": 0,
        "location": {
            "lat": 30.703976,
            "lng": 117.257356
        },
        "ad_info": {
            "adcode": 340722,
            "province": "安徽省",
            "city": "铜陵市",
            "district": "枞阳县"
        }
    },
    {
        "id": "16586517576140188702",
        "title": "公共厕所",
        "address": "安徽省铜陵市枞阳县体育场路汇金广场",
        "tel": "",
        "category": "基础设施:公共设施:公共厕所",
        "type": 0,
        "location": {
            "lat": 30.702494,
            "lng": 117.22006
        },
        "ad_info": {
            "adcode": 340722,
            "province": "安徽省",
            "city": "铜陵市",
            "district": "枞阳县"
        }
    },
    {
        "id": "6646381712399922737",
        "title": "公共厕所",
        "address": "安徽省铜陵市枞阳县体育场路与渡江路交叉口正南方向115米左右",
        "tel": "",
        "category": "基础设施:公共设施:公共厕所",
        "type": 0,
        "location": {
            "lat": 30.700418,
            "lng": 117.217679
        },
        "ad_info": {
            "adcode": 340722,
            "province": "安徽省",
            "city": "铜陵市",
            "district": "枞阳县"
        }
    },
    {
        "id": "4323510864072056673",
        "title": "公共厕所",
        "address": "安徽省铜陵市枞阳县G237与S233交叉口西北方向1570米左右",
        "tel": "",
        "category": "基础设施:公共设施:公共厕所",
        "type": 0,
        "location": {
            "lat": 30.90874,
            "lng": 117.186904
        },
        "ad_info": {
            "adcode": 340722,
            "province": "安徽省",
            "city": "铜陵市",
            "district": "枞阳县"
        }
    },
    {
        "id": "11432968887715973208",
        "title": "公共厕所",
        "address": "安徽省铜陵市枞阳县347国道与银塘东路交叉口东南460米",
        "tel": "",
        "category": "基础设施:公共设施:公共厕所",
        "type": 0,
        "location": {
            "lat": 30.710366,
            "lng": 117.314568
        },
        "ad_info": {
            "adcode": 340722,
            "province": "安徽省",
            "city": "铜陵市",
            "district": "枞阳县"
        }
    },
    {
        "id": "8375311967534641690",
        "title": "公共厕所",
        "address": "安徽省铜陵市枞阳县康苑山庄北侧270米",
        "tel": "",
        "category": "基础设施:公共设施:公共厕所",
        "type": 0,
        "location": {
            "lat": 30.898354,
            "lng": 117.50172
        },
        "ad_info": {
            "adcode": 340722,
            "province": "安徽省",
            "city": "铜陵市",
            "district": "枞阳县"
        }
    },
    {
        "id": "15912815545595333308",
        "title": "公共厕所",
        "address": "安徽省铜陵市枞阳县",
        "tel": "",
        "category": "基础设施:公共设施:公共厕所",
        "type": 0,
        "location": {
            "lat": 30.724816,
            "lng": 117.245707
        },
        "ad_info": {
            "adcode": 340722,
            "province": "安徽省",
            "city": "铜陵市",
            "district": "枞阳县"
        }
    },
    {
        "id": "11484666006468905006",
        "title": "公共厕所",
        "address": "安徽省铜陵市枞阳县景发路与金山大道交叉口西北方向635米左右",
        "tel": "",
        "category": "基础设施:公共设施:公共厕所",
        "type": 0,
        "location": {
            "lat": 30.713473,
            "lng": 117.220249
        },
        "ad_info": {
            "adcode": 340722,
            "province": "安徽省",
            "city": "铜陵市",
            "district": "枞阳县"
        }
    },
    {
        "id": "1630073699077620525",
        "title": "公共厕所",
        "address": "安徽省铜陵市枞阳县凤凰山路与正大街交叉口正东方向54米左右",
        "tel": "",
        "category": "基础设施:公共设施:公共厕所",
        "type": 0,
        "location": {
            "lat": 30.693973,
            "lng": 117.209654
        },
        "ad_info": {
            "adcode": 340722,
            "province": "安徽省",
            "city": "铜陵市",
            "district": "枞阳县"
        }
    },
    {
        "id": "18040395891141823533",
        "title": "公共厕所",
        "address": "安徽省铜陵市郊区G330与五洲路交叉口正东方向401米左右",
        "tel": "",
        "category": "基础设施:公共设施:公共厕所",
        "type": 0,
        "location": {
            "lat": 30.857822,
            "lng": 117.716062
        },
        "ad_info": {
            "adcode": 340711,
            "province": "安徽省",
            "city": "铜陵市",
            "district": "郊区"
        }
    },
    {
        "id": "7785323160386689303",
        "title": "公共厕所",
        "address": "安徽省铜陵市枞阳县渡江路与白云南路交叉口西南方向189米左右",
        "tel": "",
        "category": "基础设施:公共设施:公共厕所",
        "type": 0,
        "location": {
            "lat": 30.71314,
            "lng": 117.232391
        },
        "ad_info": {
            "adcode": 340722,
            "province": "安徽省",
            "city": "铜陵市",
            "district": "枞阳县"
        }
    },
    {
        "id": "9632395782731175818",
        "title": "公共厕所",
        "address": "安徽省铜陵市枞阳县凤凰山路与湖滨路交叉口西南方向155米左右",
        "tel": "",
        "category": "基础设施:公共设施:公共厕所",
        "type": 0,
        "location": {
            "lat": 30.695282,
            "lng": 117.212917
        },
        "ad_info": {
            "adcode": 340722,
            "province": "安徽省",
            "city": "铜陵市",
            "district": "枞阳县"
        }
    },
    {
        "id": "13082381810646262571",
        "title": "公共厕所",
        "address": "安徽省铜陵市铜官区翠湖一路与鹊江路交叉口东北方向118米左右",
        "tel": "",
        "category": "基础设施:公共设施:公共厕所",
        "type": 0,
        "location": {
            "lat": 30.948784,
            "lng": 117.847094
        },
        "ad_info": {
            "adcode": 340705,
            "province": "安徽省",
            "city": "铜陵市",
            "district": "铜官区"
        }
    },
    {
        "id": "12438118404271388324",
        "title": "公共厕所",
        "address": "安徽省铜陵市枞阳县凤凰山路与正大街交叉口正南方向49米左右",
        "tel": "",
        "category": "基础设施:公共设施:公共厕所",
        "type": 0,
        "location": {
            "lat": 30.693529,
            "lng": 117.208919
        },
        "ad_info": {
            "adcode": 340722,
            "province": "安徽省",
            "city": "铜陵市",
            "district": "枞阳县"
        }
    },
    {
        "id": "10169986067158189534",
        "title": "公共厕所",
        "address": "安徽省铜陵市枞阳县横埠镇横山村",
        "tel": "",
        "category": "基础设施:公共设施:公共厕所",
        "type": 0,
        "location": {
            "lat": 30.858315,
            "lng": 117.55066
        },
        "ad_info": {
            "adcode": 340722,
            "province": "安徽省",
            "city": "铜陵市",
            "district": "枞阳县"
        }
    },
    {
        "id": "17686624493341450968",
        "title": "公共厕所",
        "address": "安徽省铜陵市枞阳县光明路与连城西路交叉口正东方向91米左右",
        "tel": "",
        "category": "基础设施:公共设施:公共厕所",
        "type": 0,
        "location": {
            "lat": 30.704025,
            "lng": 117.215582
        },
        "ad_info": {
            "adcode": 340722,
            "province": "安徽省",
            "city": "铜陵市",
            "district": "枞阳县"
        }
    },
    {
        "id": "10426649124412434928",
        "title": "公共厕所",
        "address": "安徽省铜陵市枞阳县S228与S229交叉口正南方向562米左右",
        "tel": "",
        "category": "基础设施:公共设施:公共厕所",
        "type": 0,
        "location": {
            "lat": 30.792072,
            "lng": 117.491789
        },
        "ad_info": {
            "adcode": 340722,
            "province": "安徽省",
            "city": "铜陵市",
            "district": "枞阳县"
        }
    },
    {
        "id": "9680020331162728561",
        "title": "公共厕所",
        "address": "安徽省铜陵市枞阳县G0321德上高速与浮山服务区交叉口西北440米",
        "tel": "",
        "category": "基础设施:公共设施:公共厕所",
        "type": 0,
        "location": {
            "lat": 30.944672,
            "lng": 117.199364
        },
        "ad_info": {
            "adcode": 340722,
            "province": "安徽省",
            "city": "铜陵市",
            "district": "枞阳县"
        }
    },
    {
        "id": "6809172826202535766",
        "title": "公共厕所",
        "address": "安徽省铜陵市铜官区长江西路与铜官大道中段交叉口西80米",
        "tel": "",
        "category": "基础设施:公共设施:公共厕所",
        "type": 0,
        "location": {
            "lat": 30.934079,
            "lng": 117.804006
        },
        "ad_info": {
            "adcode": 340705,
            "province": "安徽省",
            "city": "铜陵市",
            "district": "铜官区"
        }
    },
    {
        "id": "406710553745552651",
        "title": "公共厕所",
        "address": "安徽省铜陵市铜官区华亭路与长江中路交叉口正南方向112米左右",
        "tel": "",
        "category": "基础设施:公共设施:公共厕所",
        "type": 0,
        "location": {
            "lat": 30.928566,
            "lng": 117.812919
        },
        "ad_info": {
            "adcode": 340705,
            "province": "安徽省",
            "city": "铜陵市",
            "district": "铜官区"
        }
    },
    {
        "id": "12618936172898116668",
        "title": "洗手间",
        "address": "安徽省铜陵市铜官区石城大道与石城大道中段交叉口正北方向200米左右",
        "tel": "",
        "category": "基础设施:公共设施:公共厕所",
        "type": 0,
        "location": {
            "lat": 30.950362,
            "lng": 117.83361
        },
        "ad_info": {
            "adcode": 340705,
            "province": "安徽省",
            "city": "铜陵市",
            "district": "铜官区"
        }
    },
    {
        "id": "11811252267308045558",
        "title": "公共厕所",
        "address": "安徽省铜陵市枞阳县G330与滨河大道交叉口东南方向319米左右",
        "tel": "",
        "category": "基础设施:公共设施:公共厕所",
        "type": 0,
        "location": {
            "lat": 30.906298,
            "lng": 117.497931
        },
        "ad_info": {
            "adcode": 340722,
            "province": "安徽省",
            "city": "铜陵市",
            "district": "枞阳县"
        }
    },
    {
        "id": "12762660643586374248",
        "title": "公共厕所",
        "address": "安徽省铜陵市郊区铜官大道南段与铜港路交叉口正东方向648米左右",
        "tel": "",
        "category": "基础设施:公共设施:公共厕所",
        "type": 0,
        "location": {
            "lat": 30.884543,
            "lng": 117.76392
        },
        "ad_info": {
            "adcode": 340711,
            "province": "安徽省",
            "city": "铜陵市",
            "district": "郊区"
        }
    },
    {
        "id": "4403306651493388720",
        "title": "公共厕所",
        "address": "安徽省铜陵市枞阳县正大街与湖滨路交叉口东北方向129米左右",
        "tel": "",
        "category": "基础设施:公共设施:公共厕所",
        "type": 0,
        "location": {
            "lat": 30.69506,
            "lng": 117.217049
        },
        "ad_info": {
            "adcode": 340722,
            "province": "安徽省",
            "city": "铜陵市",
            "district": "枞阳县"
        }
    },
    {
        "id": "6401784063268944608",
        "title": "公共厕所",
        "address": "安徽省铜陵市枞阳县凤凰山路与正大街交叉口东南方向156米左右",
        "tel": "",
        "category": "基础设施:公共设施:公共厕所",
        "type": 0,
        "location": {
            "lat": 30.693238,
            "lng": 117.2105
        },
        "ad_info": {
            "adcode": 340722,
            "province": "安徽省",
            "city": "铜陵市",
            "district": "枞阳县"
        }
    },
    {
        "id": "9282671588749588720",
        "title": "公共厕所",
        "address": "安徽省铜陵市枞阳县凤凰山路与湖滨路交叉口西南方向81米左右",
        "tel": "",
        "category": "基础设施:公共设施:公共厕所",
        "type": 0,
        "location": {
            "lat": 30.695353,
            "lng": 117.213799
        },
        "ad_info": {
            "adcode": 340722,
            "province": "安徽省",
            "city": "铜陵市",
            "district": "枞阳县"
        }
    },
    {
        "id": "7652874475598516646",
        "title": "公共厕所",
        "address": "安徽省铜陵市铜官区翠湖一路与谢垄路交叉口西南方向116米左右",
        "tel": "",
        "category": "基础设施:公共设施:公共厕所",
        "type": 0,
        "location": {
            "lat": 30.946969,
            "lng": 117.837435
        },
        "ad_info": {
            "adcode": 340705,
            "province": "安徽省",
            "city": "铜陵市",
            "district": "铜官区"
        }
    },
    {
        "id": "467793300956081952",
        "title": "公共厕所",
        "address": "安徽省铜陵市铜官区石城大道中段与学院路交叉口西北300米",
        "tel": "",
        "category": "基础设施:公共设施:公共厕所",
        "type": 0,
        "location": {
            "lat": 30.938696,
            "lng": 117.824978
        },
        "ad_info": {
            "adcode": 340705,
            "province": "安徽省",
            "city": "铜陵市",
            "district": "铜官区"
        }
    },
    {
        "id": "11560739336274868314",
        "title": "公共厕所",
        "address": "安徽省铜陵市铜官区铜都大道",
        "tel": "",
        "category": "基础设施:公共设施:公共厕所",
        "type": 0,
        "location": {
            "lat": 30.93758,
            "lng": 117.8899
        },
        "ad_info": {
            "adcode": 340705,
            "province": "安徽省",
            "city": "铜陵市",
            "district": "铜官区"
        }
    },
    {
        "id": "2566250229268174966",
        "title": "公共厕所",
        "address": "安徽省铜陵市铜官区北门楼步行街与长江中路交叉口西南方向211米左右",
        "tel": "",
        "category": "基础设施:公共设施:公共厕所",
        "type": 0,
        "location": {
            "lat": 30.926301,
            "lng": 117.814132
        },
        "ad_info": {
            "adcode": 340705,
            "province": "安徽省",
            "city": "铜陵市",
            "district": "铜官区"
        }
    },
    {
        "id": "17566493523899611194",
        "title": "公共厕所",
        "address": "安徽省铜陵市铜官区宝山路99号",
        "tel": "",
        "category": "基础设施:公共设施:公共厕所",
        "type": 0,
        "location": {
            "lat": 30.919019,
            "lng": 117.808383
        },
        "ad_info": {
            "adcode": 340705,
            "province": "安徽省",
            "city": "铜陵市",
            "district": "铜官区"
        }
    },
    {
        "id": "11192013061526673201",
        "title": "公共厕所",
        "address": "安徽省铜陵市铜官区泰山大道与翠湖六路交叉口正西方向98米左右",
        "tel": "",
        "category": "基础设施:公共设施:公共厕所",
        "type": 0,
        "location": {
            "lat": 30.976562,
            "lng": 117.832036
        },
        "ad_info": {
            "adcode": 340705,
            "province": "安徽省",
            "city": "铜陵市",
            "district": "铜官区"
        }
    },
    {
        "id": "7340336665887606296",
        "title": "公共厕所",
        "address": "安徽省铜陵市铜官区长江东路与陵江中道交叉口东南方向789米左右",
        "tel": "",
        "category": "基础设施:公共设施:公共厕所",
        "type": 0,
        "location": {
            "lat": 30.898995,
            "lng": 117.862402
        },
        "ad_info": {
            "adcode": 340705,
            "province": "安徽省",
            "city": "铜陵市",
            "district": "铜官区"
        }
    },
    {
        "id": "17401225034893089579",
        "title": "公共厕所",
        "address": "安徽省铜陵市铜官区北京西路辅路与政府北路交叉口西北方向189米左右",
        "tel": "",
        "category": "基础设施:公共设施:公共厕所",
        "type": 0,
        "location": {
            "lat": 30.950552,
            "lng": 117.814272
        },
        "ad_info": {
            "adcode": 340705,
            "province": "安徽省",
            "city": "铜陵市",
            "district": "铜官区"
        }
    },
    {
        "id": "171775643305399722",
        "title": "公共厕所",
        "address": "安徽省铜陵市铜官区滨江大道中段与金山西路交叉口西南方向720米左右",
        "tel": "",
        "category": "基础设施:公共设施:公共厕所",
        "type": 0,
        "location": {
            "lat": 30.923388,
            "lng": 117.769095
        },
        "ad_info": {
            "adcode": 340705,
            "province": "安徽省",
            "city": "铜陵市",
            "district": "铜官区"
        }
    },
    {
        "id": "16649075125500473583",
        "title": "公共厕所",
        "address": "安徽省铜陵市铜官区义安大道南段与长江二路交叉口正西方向138米左右",
        "tel": "",
        "category": "基础设施:公共设施:公共厕所",
        "type": 0,
        "location": {
            "lat": 30.925372,
            "lng": 117.8155
        },
        "ad_info": {
            "adcode": 340705,
            "province": "安徽省",
            "city": "铜陵市",
            "district": "铜官区"
        }
    },
    {
        "id": "13965403457560655951",
        "title": "公共厕所",
        "address": "安徽省铜陵市铜官区北京中路与育林路交叉口正北方向74米左右",
        "tel": "",
        "category": "基础设施:公共设施:公共厕所",
        "type": 0,
        "location": {
            "lat": 30.929886,
            "lng": 117.828255
        },
        "ad_info": {
            "adcode": 340705,
            "province": "安徽省",
            "city": "铜陵市",
            "district": "铜官区"
        }
    },
    {
        "id": "1241516254533179074",
        "title": "公共厕所",
        "address": "安徽省铜陵市义安区X010与X011交叉口西北方向1907米左右",
        "tel": "",
        "category": "基础设施:公共设施:公共厕所",
        "type": 0,
        "location": {
            "lat": 31.031521,
            "lng": 117.889114
        },
        "ad_info": {
            "adcode": 340706,
            "province": "安徽省",
            "city": "铜陵市",
            "district": "义安区"
        }
    },
    {
        "id": "12374139138408736388",
        "title": "公共厕所",
        "address": "安徽省铜陵市义安区X003与铜都大道北段交叉口正东方向298米左右",
        "tel": "",
        "category": "基础设施:公共设施:公共厕所",
        "type": 0,
        "location": {
            "lat": 30.952758,
            "lng": 117.925654
        },
        "ad_info": {
            "adcode": 340706,
            "province": "安徽省",
            "city": "铜陵市",
            "district": "义安区"
        }
    },
    {
        "id": "12508065063931071676",
        "title": "公共厕所",
        "address": "安徽省铜陵市铜官区翠湖一路中国石油",
        "tel": "",
        "category": "基础设施:公共设施:公共厕所",
        "type": 0,
        "location": {
            "lat": 30.949831,
            "lng": 117.828977
        },
        "ad_info": {
            "adcode": 340705,
            "province": "安徽省",
            "city": "铜陵市",
            "district": "铜官区"
        }
    },
    {
        "id": "17975028102383646711",
        "title": "公共厕所",
        "address": "安徽省铜陵市铜官区义安大道北段与人民三路交叉口正西方向96米左右",
        "tel": "",
        "category": "基础设施:公共设施:公共厕所",
        "type": 0,
        "location": {
            "lat": 30.932533,
            "lng": 117.816089
        },
        "ad_info": {
            "adcode": 340705,
            "province": "安徽省",
            "city": "铜陵市",
            "district": "铜官区"
        }
    },
    {
        "id": "9497524787260229029",
        "title": "公共厕所",
        "address": "安徽省铜陵市铜官区湖东路辅路与翠湖一路辅路交叉口正东方向113米左右",
        "tel": "",
        "category": "基础设施:公共设施:公共厕所",
        "type": 0,
        "location": {
            "lat": 30.952255,
            "lng": 117.810653
        },
        "ad_info": {
            "adcode": 340705,
            "province": "安徽省",
            "city": "铜陵市",
            "district": "铜官区"
        }
    },
    {
        "id": "17340761502004684187",
        "title": "公共厕所",
        "address": "安徽省铜陵市铜官区木鱼山大道与铜井路交叉口西南方向239米左右",
        "tel": "",
        "category": "基础设施:公共设施:公共厕所",
        "type": 0,
        "location": {
            "lat": 30.934474,
            "lng": 117.852133
        },
        "ad_info": {
            "adcode": 340705,
            "province": "安徽省",
            "city": "铜陵市",
            "district": "铜官区"
        }
    },
    {
        "id": "15851601738309254652",
        "title": "公共厕所",
        "address": "安徽省铜陵市义安区X010与X011交叉口正北方向1500米左右",
        "tel": "",
        "category": "基础设施:公共设施:公共厕所",
        "type": 0,
        "location": {
            "lat": 31.029762,
            "lng": 117.894815
        },
        "ad_info": {
            "adcode": 340706,
            "province": "安徽省",
            "city": "铜陵市",
            "district": "义安区"
        }
    },
    {
        "id": "12471088338315893097",
        "title": "公共厕所",
        "address": "安徽省铜陵市义安区天门镇卫生院西南侧280米",
        "tel": "",
        "category": "基础设施:公共设施:公共厕所",
        "type": 0,
        "location": {
            "lat": 30.884974,
            "lng": 117.91677
        },
        "ad_info": {
            "adcode": 340706,
            "province": "安徽省",
            "city": "铜陵市",
            "district": "义安区"
        }
    },
    {
        "id": "3433904075826963567",
        "title": "公共厕所",
        "address": "安徽省铜陵市义安区犁桥村卫生室东北侧",
        "tel": "",
        "category": "基础设施:公共设施:公共厕所",
        "type": 0,
        "location": {
            "lat": 31.025929,
            "lng": 117.896302
        },
        "ad_info": {
            "adcode": 340706,
            "province": "安徽省",
            "city": "铜陵市",
            "district": "义安区"
        }
    },
    {
        "id": "10968329258754020934",
        "title": "公共厕所",
        "address": "安徽省铜陵市铜官区华庭路与石城大道南段交叉口东南方向103米左右",
        "tel": "",
        "category": "基础设施:公共设施:公共厕所",
        "type": 0,
        "location": {
            "lat": 30.930007,
            "lng": 117.81939
        },
        "ad_info": {
            "adcode": 340705,
            "province": "安徽省",
            "city": "铜陵市",
            "district": "铜官区"
        }
    },
    {
        "id": "14011000809863594628",
        "title": "公共厕所",
        "address": "安徽省铜陵市铜官区北京东路与沿新大道交叉口正东方向250米左右",
        "tel": "",
        "category": "基础设施:公共设施:公共厕所",
        "type": 0,
        "location": {
            "lat": 30.919074,
            "lng": 117.861382
        },
        "ad_info": {
            "adcode": 340705,
            "province": "安徽省",
            "city": "铜陵市",
            "district": "铜官区"
        }
    },
    {
        "id": "5928495578361679161",
        "title": "公共厕所",
        "address": "安徽省铜陵市铜官区向阳路与杨小路交叉口东南方向29米左右",
        "tel": "",
        "category": "基础设施:公共设施:公共厕所",
        "type": 0,
        "location": {
            "lat": 30.921569,
            "lng": 117.809402
        },
        "ad_info": {
            "adcode": 340705,
            "province": "安徽省",
            "city": "铜陵市",
            "district": "铜官区"
        }
    },
    {
        "id": "12025329908763050200",
        "title": "公共厕所",
        "address": "安徽省铜陵市铜官区康复路与长江东路交叉口正南方向36米左右",
        "tel": "",
        "category": "基础设施:公共设施:公共厕所",
        "type": 0,
        "location": {
            "lat": 30.920044,
            "lng": 117.824776
        },
        "ad_info": {
            "adcode": 340705,
            "province": "安徽省",
            "city": "铜陵市",
            "district": "铜官区"
        }
    },
    {
        "id": "13672749098160680028",
        "title": "公共厕所",
        "address": "安徽省铜陵市铜官区义安大道北段与铜官大道北段交叉口正西方向159米左右",
        "tel": "",
        "category": "基础设施:公共设施:公共厕所",
        "type": 0,
        "location": {
            "lat": 30.939482,
            "lng": 117.813691
        },
        "ad_info": {
            "adcode": 340705,
            "province": "安徽省",
            "city": "铜陵市",
            "district": "铜官区"
        }
    },
    {
        "id": "12257586367758758236",
        "title": "公共厕所",
        "address": "安徽省铜陵市铜官区长东支路与长江中路交叉口正北方向70米左右",
        "tel": "",
        "category": "基础设施:公共设施:公共厕所",
        "type": 0,
        "location": {
            "lat": 30.924655,
            "lng": 117.819548
        },
        "ad_info": {
            "adcode": 340705,
            "province": "安徽省",
            "city": "铜陵市",
            "district": "铜官区"
        }
    },
    {
        "id": "17591396000559518096",
        "title": "公共卫生间",
        "address": "安徽省铜陵市铜官区铜都大道中段691号",
        "tel": "",
        "category": "基础设施:公共设施:公共厕所",
        "type": 0,
        "location": {
            "lat": 30.925743,
            "lng": 117.82517
        },
        "ad_info": {
            "adcode": 340705,
            "province": "安徽省",
            "city": "铜陵市",
            "district": "铜官区"
        }
    },
    {
        "id": "340230593725975615",
        "title": "公共厕所",
        "address": "安徽省铜陵市铜官区飞越文化广场",
        "tel": "",
        "category": "基础设施:公共设施:公共厕所",
        "type": 0,
        "location": {
            "lat": 30.940693,
            "lng": 117.838656
        },
        "ad_info": {
            "adcode": 340705,
            "province": "安徽省",
            "city": "铜陵市",
            "district": "铜官区"
        }
    },
    {
        "id": "18263644443389264492",
        "title": "公共厕所",
        "address": "安徽省铜陵市铜官区石城路61号",
        "tel": "",
        "category": "基础设施:公共设施:公共厕所",
        "type": 0,
        "location": {
            "lat": 30.932632,
            "lng": 117.821276
        },
        "ad_info": {
            "adcode": 340705,
            "province": "安徽省",
            "city": "铜陵市",
            "district": "铜官区"
        }
    },
    {
        "id": "6554749939983760714",
        "title": "公共厕所",
        "address": "安徽省铜陵市铜官区北京西路与翠竹园路交叉口西南方向35米左右",
        "tel": "",
        "category": "基础设施:公共设施:公共厕所",
        "type": 0,
        "location": {
            "lat": 30.93589,
            "lng": 117.822984
        },
        "ad_info": {
            "adcode": 340705,
            "province": "安徽省",
            "city": "铜陵市",
            "district": "铜官区"
        }
    },
    {
        "id": "16899062717003114994",
        "title": "公共厕所",
        "address": "安徽省铜陵市铜官区泰山大道与花园西路交叉口东南方向241米左右",
        "tel": "",
        "category": "基础设施:公共设施:公共厕所",
        "type": 0,
        "location": {
            "lat": 30.954067,
            "lng": 117.819263
        },
        "ad_info": {
            "adcode": 340705,
            "province": "安徽省",
            "city": "铜陵市",
            "district": "铜官区"
        }
    },
    {
        "id": "14755140010094842132",
        "title": "公共厕所",
        "address": "安徽省铜陵市铜官区长江东路858号",
        "tel": "",
        "category": "基础设施:公共设施:公共厕所",
        "type": 0,
        "location": {
            "lat": 30.918043,
            "lng": 117.827096
        },
        "ad_info": {
            "adcode": 340705,
            "province": "安徽省",
            "city": "铜陵市",
            "district": "铜官区"
        }
    },
    {
        "id": "258535466550443752",
        "title": "公共厕所",
        "address": "安徽省铜陵市铜官区爱国路与金山东路交叉口正南方向156米左右",
        "tel": "",
        "category": "基础设施:公共设施:公共厕所",
        "type": 0,
        "location": {
            "lat": 30.918223,
            "lng": 117.811821
        },
        "ad_info": {
            "adcode": 340705,
            "province": "安徽省",
            "city": "铜陵市",
            "district": "铜官区"
        }
    },
    {
        "id": "8019090096794916767",
        "title": "公共厕所",
        "address": "安徽省铜陵市铜官区井湖路与白云路交叉口正南方向121米左右",
        "tel": "",
        "category": "基础设施:公共设施:公共厕所",
        "type": 0,
        "location": {
            "lat": 30.936357,
            "lng": 117.797726
        },
        "ad_info": {
            "adcode": 340705,
            "province": "安徽省",
            "city": "铜陵市",
            "district": "铜官区"
        }
    },
    {
        "id": "12623577828413581918",
        "title": "公共厕所",
        "address": "安徽省铜陵市义安区北湖街与铜胥路交叉口正北方向77米左右",
        "tel": "",
        "category": "基础设施:公共设施:公共厕所",
        "type": 0,
        "location": {
            "lat": 30.961709,
            "lng": 117.80027
        },
        "ad_info": {
            "adcode": 340706,
            "province": "安徽省",
            "city": "铜陵市",
            "district": "义安区"
        }
    },
    {
        "id": "5156930328368513174",
        "title": "公共厕所",
        "address": "安徽省铜陵市铜官区天山大道1572号",
        "tel": "",
        "category": "基础设施:公共设施:公共厕所",
        "type": 0,
        "location": {
            "lat": 30.933561,
            "lng": 117.837819
        },
        "ad_info": {
            "adcode": 340705,
            "province": "安徽省",
            "city": "铜陵市",
            "district": "铜官区"
        }
    },
    {
        "id": "553207615088533536",
        "title": "公共厕所",
        "address": "安徽省铜陵市义安区天门镇朱村",
        "tel": "",
        "category": "基础设施:公共设施:公共厕所",
        "type": 0,
        "location": {
            "lat": 30.890816,
            "lng": 117.914279
        },
        "ad_info": {
            "adcode": 340706,
            "province": "安徽省",
            "city": "铜陵市",
            "district": "义安区"
        }
    },
    {
        "id": "7126273574100515978",
        "title": "公共卫生间",
        "address": "安徽省铜陵市铜官区义安大道南段与杨家山路交叉口东南方向70米左右",
        "tel": "",
        "category": "基础设施:公共设施:公共厕所",
        "type": 0,
        "location": {
            "lat": 30.923313,
            "lng": 117.815963
        },
        "ad_info": {
            "adcode": 340705,
            "province": "安徽省",
            "city": "铜陵市",
            "district": "铜官区"
        }
    },
    {
        "id": "12339811973325603304",
        "title": "公共厕所",
        "address": "安徽省铜陵市义安区天门镇朱村",
        "tel": "",
        "category": "基础设施:公共设施:公共厕所",
        "type": 0,
        "location": {
            "lat": 30.891476,
            "lng": 117.915715
        },
        "ad_info": {
            "adcode": 340706,
            "province": "安徽省",
            "city": "铜陵市",
            "district": "义安区"
        }
    },
    {
        "id": "4937383723174623970",
        "title": "公共厕所",
        "address": "安徽省铜陵市铜官区长东支路与长江中路交叉口东北方向180米左右",
        "tel": "",
        "category": "基础设施:公共设施:公共厕所",
        "type": 0,
        "location": {
            "lat": 30.925501,
            "lng": 117.820615
        },
        "ad_info": {
            "adcode": 340705,
            "province": "安徽省",
            "city": "铜陵市",
            "district": "铜官区"
        }
    },
    {
        "id": "10508914883328177011",
        "title": "公共厕所",
        "address": "安徽省铜陵市铜官区金岭道与金川路交叉口正北方向302米左右",
        "tel": "",
        "category": "基础设施:公共设施:公共厕所",
        "type": 0,
        "location": {
            "lat": 30.91876,
            "lng": 117.79213
        },
        "ad_info": {
            "adcode": 340705,
            "province": "安徽省",
            "city": "铜陵市",
            "district": "铜官区"
        }
    },
    {
        "id": "14965975190826469969",
        "title": "公共厕所",
        "address": "安徽省铜陵市义安区顺安镇凤凰山",
        "tel": "",
        "category": "基础设施:公共设施:公共厕所",
        "type": 0,
        "location": {
            "lat": 30.875006,
            "lng": 118.028031
        },
        "ad_info": {
            "adcode": 340706,
            "province": "安徽省",
            "city": "铜陵市",
            "district": "义安区"
        }
    },
    {
        "id": "14407041808039547812",
        "title": "公共厕所",
        "address": "安徽省铜陵市铜官区长东支路与长江中路交叉口正北方向108米左右",
        "tel": "",
        "category": "基础设施:公共设施:公共厕所",
        "type": 0,
        "location": {
            "lat": 30.924981,
            "lng": 117.820101
        },
        "ad_info": {
            "adcode": 340705,
            "province": "安徽省",
            "city": "铜陵市",
            "district": "铜官区"
        }
    },
    {
        "id": "15934364013600437050",
        "title": "公共厕所",
        "address": "安徽省铜陵市义安区G236与金盛路交叉口东南方向1536米左右",
        "tel": "",
        "category": "基础设施:公共设施:公共厕所",
        "type": 0,
        "location": {
            "lat": 30.962189,
            "lng": 118.024923
        },
        "ad_info": {
            "adcode": 340706,
            "province": "安徽省",
            "city": "铜陵市",
            "district": "义安区"
        }
    },
    {
        "id": "1282994892942707635",
        "title": "公共厕所",
        "address": "安徽省铜陵市义安区滨江大道北段与滨湖支路交叉口正南方向50米左右",
        "tel": "",
        "category": "基础设施:公共设施:公共厕所",
        "type": 0,
        "location": {
            "lat": 30.94483,
            "lng": 117.782977
        },
        "ad_info": {
            "adcode": 340706,
            "province": "安徽省",
            "city": "铜陵市",
            "district": "义安区"
        }
    },
    {
        "id": "13770064678346093038",
        "title": "公共厕所",
        "address": "安徽省铜陵市义安区滨江大道与滨江大道北段交叉口正北方向255米左右",
        "tel": "",
        "category": "基础设施:公共设施:公共厕所",
        "type": 0,
        "location": {
            "lat": 30.95993,
            "lng": 117.781257
        },
        "ad_info": {
            "adcode": 340706,
            "province": "安徽省",
            "city": "铜陵市",
            "district": "义安区"
        }
    },
    {
        "id": "17405537629251931642",
        "title": "公共厕所",
        "address": "安徽省铜陵市铜官区长江东路与陵江中道交叉口西南方向120米左右",
        "tel": "",
        "category": "基础设施:公共设施:公共厕所",
        "type": 0,
        "location": {
            "lat": 30.901951,
            "lng": 117.854451
        },
        "ad_info": {
            "adcode": 340705,
            "province": "安徽省",
            "city": "铜陵市",
            "district": "铜官区"
        }
    },
    {
        "id": "10093653121840692620",
        "title": "公共厕所",
        "address": "安徽省铜陵市铜官区木鱼山大道与铜井路交叉口西南方向299米左右",
        "tel": "",
        "category": "基础设施:公共设施:公共厕所",
        "type": 0,
        "location": {
            "lat": 30.933881,
            "lng": 117.852017
        },
        "ad_info": {
            "adcode": 340705,
            "province": "安徽省",
            "city": "铜陵市",
            "district": "铜官区"
        }
    },
    {
        "id": "8707767839877960869",
        "title": "公共厕所",
        "address": "安徽省铜陵市义安区和谐路与正兴街交叉口正东方向40米左右",
        "tel": "",
        "category": "基础设施:公共设施:公共厕所",
        "type": 0,
        "location": {
            "lat": 30.949441,
            "lng": 117.938659
        },
        "ad_info": {
            "adcode": 340706,
            "province": "安徽省",
            "city": "铜陵市",
            "district": "义安区"
        }
    },
    {
        "id": "13492180618123003185",
        "title": "公共厕所",
        "address": "安徽省铜陵市义安区老洲乡光辉村史馆",
        "tel": "",
        "category": "基础设施:公共设施:公共厕所",
        "type": 0,
        "location": {
            "lat": 30.945047,
            "lng": 117.753551
        },
        "ad_info": {
            "adcode": 340706,
            "province": "安徽省",
            "city": "铜陵市",
            "district": "义安区"
        }
    },
    {
        "id": "17142021865561671031",
        "title": "公共厕所",
        "address": "安徽省铜陵市义安区S460与Y024交叉口西南方向1464米左右",
        "tel": "",
        "category": "基础设施:公共设施:公共厕所",
        "type": 0,
        "location": {
            "lat": 30.94076,
            "lng": 118.149013
        },
        "ad_info": {
            "adcode": 340706,
            "province": "安徽省",
            "city": "铜陵市",
            "district": "义安区"
        }
    },
    {
        "id": "13455201459988921252",
        "title": "公共厕所",
        "address": "安徽省铜陵市铜官区华亭路与长江二路交叉口正北方向79米左右",
        "tel": "",
        "category": "基础设施:公共设施:公共厕所",
        "type": 0,
        "location": {
            "lat": 30.927526,
            "lng": 117.810974
        },
        "ad_info": {
            "adcode": 340705,
            "province": "安徽省",
            "city": "铜陵市",
            "district": "铜官区"
        }
    },
    {
        "id": "9151453060937554",
        "title": "老洲镇服务区阳光公共厕所",
        "address": "安徽省铜陵市郊区阳光服务区与G3京台高速出口交叉口西200米",
        "tel": "",
        "category": "基础设施:公共设施:公共厕所",
        "type": 0,
        "location": {
            "lat": 30.856626,
            "lng": 117.715533
        },
        "ad_info": {
            "adcode": 340711,
            "province": "安徽省",
            "city": "铜陵市",
            "district": "郊区"
        }
    },
    {
        "id": "12683889646306194813",
        "title": "无障碍公共厕所",
        "address": "安徽省铜陵市铜官区东海路与天山大道交叉口正南方向167米左右",
        "tel": "",
        "category": "基础设施:公共设施:公共厕所",
        "type": 0,
        "location": {
            "lat": 30.954842,
            "lng": 117.848385
        },
        "ad_info": {
            "adcode": 340705,
            "province": "安徽省",
            "city": "铜陵市",
            "district": "铜官区"
        }
    },
    {
        "id": "3798833691891799455",
        "title": "公共厕所",
        "address": "安徽省铜陵市铜官区幸福路与晨光路交叉口正北方向117米左右",
        "tel": "",
        "category": "基础设施:公共设施:公共厕所",
        "type": 0,
        "location": {
            "lat": 30.936017,
            "lng": 117.820523
        },
        "ad_info": {
            "adcode": 340705,
            "province": "安徽省",
            "city": "铜陵市",
            "district": "铜官区"
        }
    },
    {
        "id": "13175210429643399285",
        "title": "公共厕所",
        "address": "安徽省铜陵市铜官区北京西路辅路与杨京路交叉口东北方向75米左右",
        "tel": "",
        "category": "基础设施:公共设施:公共厕所",
        "type": 0,
        "location": {
            "lat": 30.941111,
            "lng": 117.819972
        },
        "ad_info": {
            "adcode": 340705,
            "province": "安徽省",
            "city": "铜陵市",
            "district": "铜官区"
        }
    },
    {
        "id": "3322079104332666252",
        "title": "公共卫生间",
        "address": "安徽省铜陵市义安区顺安停车区",
        "tel": "",
        "category": "基础设施:公共设施:公共厕所",
        "type": 0,
        "location": {
            "lat": 30.926495,
            "lng": 117.966141
        },
        "ad_info": {
            "adcode": 340706,
            "province": "安徽省",
            "city": "铜陵市",
            "district": "义安区"
        }
    },
    {
        "id": "7644849735626436373",
        "title": "桥南服务区公共厕所",
        "address": "安徽省铜陵市郊区S221与古圣湖桥交叉口正东方向507米左右",
        "tel": "",
        "category": "基础设施:公共设施:公共厕所",
        "type": 0,
        "location": {
            "lat": 30.847251,
            "lng": 117.748645
        },
        "ad_info": {
            "adcode": 340711,
            "province": "安徽省",
            "city": "铜陵市",
            "district": "郊区"
        }
    },
    {
        "id": "13509634556167509017",
        "title": "公共厕所",
        "address": "安徽省铜陵市铜官区官塘二路188号东南方向140米",
        "tel": "",
        "category": "基础设施:公共设施:公共厕所",
        "type": 0,
        "location": {
            "lat": 30.930955,
            "lng": 117.823609
        },
        "ad_info": {
            "adcode": 340705,
            "province": "安徽省",
            "city": "铜陵市",
            "district": "铜官区"
        }
    },
    {
        "id": "7263195696823594802",
        "title": "无障碍洗手间",
        "address": "安徽省铜陵市铜官区铜都大道北段与鹊江路交叉口东北方向216米左右",
        "tel": "",
        "category": "基础设施:公共设施:公共厕所",
        "type": 0,
        "location": {
            "lat": 30.945037,
            "lng": 117.856863
        },
        "ad_info": {
            "adcode": 340705,
            "province": "安徽省",
            "city": "铜陵市",
            "district": "铜官区"
        }
    },
    {
        "id": "12843827716643727449",
        "title": "周潭服务区公共厕所",
        "address": "安徽省铜陵市郊区G330与Y009交叉口正东方向843米左右",
        "tel": "",
        "category": "基础设施:公共设施:公共厕所",
        "type": 0,
        "location": {
            "lat": 30.881037,
            "lng": 117.555268
        },
        "ad_info": {
            "adcode": 340711,
            "province": "安徽省",
            "city": "铜陵市",
            "district": "郊区"
        }
    },
    {
        "id": "17804348028241005102",
        "title": "翠湖公园公共厕所",
        "address": "安徽省铜陵市铜官区石城大道翠湖公园(东南角)",
        "tel": "",
        "category": "基础设施:公共设施:公共厕所",
        "type": 0,
        "location": {
            "lat": 30.957793,
            "lng": 117.834668
        },
        "ad_info": {
            "adcode": 340705,
            "province": "安徽省",
            "city": "铜陵市",
            "district": "铜官区"
        }
    },
    {
        "id": "15907719108678171333",
        "title": "公共厕所",
        "address": "安徽省铜陵市铜官区铜官大道北段中国石化加油站(铜陵义安南路站)",
        "tel": "",
        "category": "基础设施:公共设施:公共厕所",
        "type": 0,
        "location": {
            "lat": 30.93743,
            "lng": 117.811125
        },
        "ad_info": {
            "adcode": 340705,
            "province": "安徽省",
            "city": "铜陵市",
            "district": "铜官区"
        }
    },
    {
        "id": "5203768888392350490",
        "title": "免费厕所",
        "address": "安徽省铜陵市义安区公安街与天王巷交叉口正南方向96米左右",
        "tel": "",
        "category": "基础设施:公共设施:公共厕所",
        "type": 0,
        "location": {
            "lat": 30.95385,
            "lng": 117.79082
        },
        "ad_info": {
            "adcode": 340706,
            "province": "安徽省",
            "city": "铜陵市",
            "district": "义安区"
        }
    },
    {
        "id": "8879057755086565200",
        "title": "公共厕所",
        "address": "安徽省铜陵市铜官区淮河大道金苑小区东门东北侧约80米",
        "tel": "",
        "category": "基础设施:公共设施:公共厕所",
        "type": 0,
        "location": {
            "lat": 30.914597,
            "lng": 117.798228
        },
        "ad_info": {
            "adcode": 340705,
            "province": "安徽省",
            "city": "铜陵市",
            "district": "铜官区"
        }
    },
    {
        "id": "11430399872254874402",
        "title": "公共厕所",
        "address": "安徽省铜陵市铜官区爱国路123号",
        "tel": "",
        "category": "基础设施:公共设施:公共厕所",
        "type": 0,
        "location": {
            "lat": 30.922159,
            "lng": 117.81165
        },
        "ad_info": {
            "adcode": 340705,
            "province": "安徽省",
            "city": "铜陵市",
            "district": "铜官区"
        }
    },
    {
        "id": "10927186927749141398",
        "title": "公共厕所",
        "address": "安徽省铜陵市铜官区五松道与长江西路交叉口东北方向146米左右",
        "tel": "",
        "category": "基础设施:公共设施:公共厕所",
        "type": 0,
        "location": {
            "lat": 30.934177,
            "lng": 117.806878
        },
        "ad_info": {
            "adcode": 340705,
            "province": "安徽省",
            "city": "铜陵市",
            "district": "铜官区"
        }
    },
    {
        "id": "15678357367785240384",
        "title": "旅游厕所(天门镇董店街道)",
        "address": "安徽省铜陵市义安区X001",
        "tel": "",
        "category": "基础设施:公共设施:公共厕所",
        "type": 0,
        "location": {
            "lat": 30.82763,
            "lng": 117.838242
        },
        "ad_info": {
            "adcode": 340706,
            "province": "安徽省",
            "city": "铜陵市",
            "district": "义安区"
        }
    },
    {
        "id": "8491772912748256573",
        "title": "长江新村公共厕所",
        "address": "安徽省铜陵市铜官区义安大道南段与杨家山路交叉口西北方向201米左右",
        "tel": "",
        "category": "基础设施:公共设施:公共厕所",
        "type": 0,
        "location": {
            "lat": 30.92531,
            "lng": 117.814327
        },
        "ad_info": {
            "adcode": 340705,
            "province": "安徽省",
            "city": "铜陵市",
            "district": "铜官区"
        }
    },
    {
        "id": "5105185464515754408",
        "title": "周潭服务区第二公共厕所",
        "address": "安徽省铜陵市郊区G330与Y009交叉口东北方向837米左右",
        "tel": "",
        "category": "基础设施:公共设施:公共厕所",
        "type": 0,
        "location": {
            "lat": 30.882903,
            "lng": 117.554265
        },
        "ad_info": {
            "adcode": 340711,
            "province": "安徽省",
            "city": "铜陵市",
            "district": "郊区"
        }
    },
    {
        "id": "4458288946028025738",
        "title": "周潭服务区第二公共厕所",
        "address": "安徽省铜陵市郊区G330与Y009交叉口正东方向889米左右",
        "tel": "",
        "category": "基础设施:公共设施:公共厕所",
        "type": 0,
        "location": {
            "lat": 30.881049,
            "lng": 117.555756
        },
        "ad_info": {
            "adcode": 340711,
            "province": "安徽省",
            "city": "铜陵市",
            "district": "郊区"
        }
    },
    {
        "id": "5198880617868549249",
        "title": "旅游公共厕所",
        "address": "安徽省铜陵市义安区铜陵梧桐花谷景区东侧60米",
        "tel": "",
        "category": "基础设施:公共设施:公共厕所",
        "type": 0,
        "location": {
            "lat": 30.945967,
            "lng": 118.14961
        },
        "ad_info": {
            "adcode": 340706,
            "province": "安徽省",
            "city": "铜陵市",
            "district": "义安区"
        }
    },
    {
        "id": "11003068249245781561",
        "title": "旅游公共厕所",
        "address": "安徽省铜陵市义安区X010与X011交叉口西北方向1858米左右",
        "tel": "",
        "category": "基础设施:公共设施:公共厕所",
        "type": 0,
        "location": {
            "lat": 31.031614,
            "lng": 117.890323
        },
        "ad_info": {
            "adcode": 340706,
            "province": "安徽省",
            "city": "铜陵市",
            "district": "义安区"
        }
    },
    {
        "id": "14779409806580721086",
        "title": "无障碍公共厕所",
        "address": "安徽省铜陵市铜官区长江西路274号",
        "tel": "",
        "category": "基础设施:公共设施:公共厕所",
        "type": 0,
        "location": {
            "lat": 30.935898,
            "lng": 117.801186
        },
        "ad_info": {
            "adcode": 340705,
            "province": "安徽省",
            "city": "铜陵市",
            "district": "铜官区"
        }
    },
    {
        "id": "589827542394488481",
        "title": "旅游公共厕所",
        "address": "安徽省铜陵市义安区X015与Y034交叉口正西方向87米左右",
        "tel": "",
        "category": "基础设施:公共设施:公共厕所",
        "type": 0,
        "location": {
            "lat": 30.969735,
            "lng": 117.753912
        },
        "ad_info": {
            "adcode": 340706,
            "province": "安徽省",
            "city": "铜陵市",
            "district": "义安区"
        }
    },
    {
        "id": "4571204264043434466",
        "title": "观兴村公厕",
        "address": "安徽省铜陵市义安区X002",
        "tel": "",
        "category": "基础设施:公共设施:公共厕所",
        "type": 0,
        "location": {
            "lat": 31.075028,
            "lng": 117.83862
        },
        "ad_info": {
            "adcode": 340706,
            "province": "安徽省",
            "city": "铜陵市",
            "district": "义安区"
        }
    },
    {
        "id": "5969253848986493700",
        "title": "观兴村公共厕所",
        "address": "安徽省铜陵市义安区",
        "tel": "",
        "category": "基础设施:公共设施:公共厕所",
        "type": 0,
        "location": {
            "lat": 31.071868,
            "lng": 117.845276
        },
        "ad_info": {
            "adcode": 340706,
            "province": "安徽省",
            "city": "铜陵市",
            "district": "义安区"
        }
    },
    {
        "id": "17081133094204240099",
        "title": "北埂村公厕",
        "address": "安徽省铜陵市义安区铜陵江堤西",
        "tel": "",
        "category": "基础设施:公共设施:公共厕所",
        "type": 0,
        "location": {
            "lat": 31.054723,
            "lng": 117.921015
        },
        "ad_info": {
            "adcode": 340706,
            "province": "安徽省",
            "city": "铜陵市",
            "district": "义安区"
        }
    },
    {
        "id": "15392387960729475258",
        "title": "棋杆村旅游公厕",
        "address": "安徽省铜陵市义安区",
        "tel": "",
        "category": "基础设施:公共设施:公共厕所",
        "type": 0,
        "location": {
            "lat": 31.026558,
            "lng": 117.907131
        },
        "ad_info": {
            "adcode": 340706,
            "province": "安徽省",
            "city": "铜陵市",
            "district": "义安区"
        }
    },
    {
        "id": "18241193124957401018",
        "title": "天门服务区第一公共厕所",
        "address": "安徽省铜陵市义安区天门镇沪渝高速公路天门服务区",
        "tel": "",
        "category": "基础设施:公共设施:公共厕所",
        "type": 0,
        "location": {
            "lat": 30.826826,
            "lng": 117.818792
        },
        "ad_info": {
            "adcode": 340706,
            "province": "安徽省",
            "city": "铜陵市",
            "district": "义安区"
        }
    },
    {
        "id": "7037036935850997788",
        "title": "公共厕所",
        "address": "安徽省铜陵市义安区X011",
        "tel": "",
        "category": "基础设施:公共设施:公共厕所",
        "type": 0,
        "location": {
            "lat": 31.036314,
            "lng": 117.862873
        },
        "ad_info": {
            "adcode": 340706,
            "province": "安徽省",
            "city": "铜陵市",
            "district": "义安区"
        }
    },
    {
        "id": "10809748768252222908",
        "title": "天门服务区第一公共厕所",
        "address": "安徽省铜陵市义安区天门服务区",
        "tel": "",
        "category": "基础设施:公共设施:公共厕所",
        "type": 0,
        "location": {
            "lat": 30.829476,
            "lng": 117.818208
        },
        "ad_info": {
            "adcode": 340706,
            "province": "安徽省",
            "city": "铜陵市",
            "district": "义安区"
        }
    },
    {
        "id": "14003780976218826948",
        "title": "天门服务区第二公共厕所",
        "address": "安徽省铜陵市义安区G50沪渝高速附近",
        "tel": "",
        "category": "基础设施:公共设施:公共厕所",
        "type": 0,
        "location": {
            "lat": 30.829241,
            "lng": 117.817461
        },
        "ad_info": {
            "adcode": 340706,
            "province": "安徽省",
            "city": "铜陵市",
            "district": "义安区"
        }
    },
    {
        "id": "8571345004227491580",
        "title": "钟鸣镇改厕办公室",
        "address": "安徽省铜陵市义安区马中路与龙泉路交叉口西北方向112米左右",
        "tel": "",
        "category": "基础设施:公共设施:公共厕所",
        "type": 0,
        "location": {
            "lat": 30.979321,
            "lng": 118.057227
        },
        "ad_info": {
            "adcode": 340706,
            "province": "安徽省",
            "city": "铜陵市",
            "district": "义安区"
        }
    },
    {
        "id": "6127974163375024747",
        "title": "男洗手间",
        "address": "安徽省铜陵市铜官区长江中路917号雨润中央购物广场F4",
        "tel": "",
        "category": "基础设施:公共设施:男洗手间",
        "type": 0,
        "location": {
            "lat": 30.925701,
            "lng": 117.819141
        },
        "ad_info": {
            "adcode": 340705,
            "province": "安徽省",
            "city": "铜陵市",
            "district": "铜官区"
        }
    },
    {
        "id": "824554441559544938",
        "title": "残障-洗手间",
        "address": "安徽省铜陵市铜官区长江中路917号雨润中央购物广场F3",
        "tel": "",
        "category": "基础设施:公共设施:无障碍洗手间",
        "type": 0,
        "location": {
            "lat": 30.925733,
            "lng": 117.819037
        },
        "ad_info": {
            "adcode": 340705,
            "province": "安徽省",
            "city": "铜陵市",
            "district": "铜官区"
        }
    },
    {
        "id": "14353806342281925272",
        "title": "女洗手间",
        "address": "安徽省铜陵市铜官区长江中路917号雨润中央购物广场F4",
        "tel": "",
        "category": "基础设施:公共设施:女洗手间",
        "type": 0,
        "location": {
            "lat": 30.925741,
            "lng": 117.819065
        },
        "ad_info": {
            "adcode": 340705,
            "province": "安徽省",
            "city": "铜陵市",
            "district": "铜官区"
        }
    },
    {
        "id": "13461522634713945983",
        "title": "男洗手间",
        "address": "安徽省铜陵市铜官区长江中路917号雨润中央购物广场F2",
        "tel": "",
        "category": "基础设施:公共设施:男洗手间",
        "type": 0,
        "location": {
            "lat": 30.926137,
            "lng": 117.818865
        },
        "ad_info": {
            "adcode": 340705,
            "province": "安徽省",
            "city": "铜陵市",
            "district": "铜官区"
        }
    },
    {
        "id": "9279208095674686469",
        "title": "女洗手间",
        "address": "安徽省铜陵市铜官区长江中路917号雨润中央购物广场F2",
        "tel": "",
        "category": "基础设施:公共设施:女洗手间",
        "type": 0,
        "location": {
            "lat": 30.926181,
            "lng": 117.81885
        },
        "ad_info": {
            "adcode": 340705,
            "province": "安徽省",
            "city": "铜陵市",
            "district": "铜官区"
        }
    },
    {
        "id": "1923639316374402553",
        "title": "男洗手间",
        "address": "安徽省铜陵市铜官区长江中路917号雨润中央购物广场F4",
        "tel": "",
        "category": "基础设施:公共设施:男洗手间",
        "type": 0,
        "location": {
            "lat": 30.926141,
            "lng": 117.818867
        },
        "ad_info": {
            "adcode": 340705,
            "province": "安徽省",
            "city": "铜陵市",
            "district": "铜官区"
        }
    },
    {
        "id": "11815622771608747295",
        "title": "男洗手间",
        "address": "安徽省铜陵市铜官区长江中路917号雨润中央购物广场F3",
        "tel": "",
        "category": "基础设施:公共设施:男洗手间",
        "type": 0,
        "location": {
            "lat": 30.926121,
            "lng": 117.818853
        },
        "ad_info": {
            "adcode": 340705,
            "province": "安徽省",
            "city": "铜陵市",
            "district": "铜官区"
        }
    },
    {
        "id": "15206076069900769013",
        "title": "男洗手间",
        "address": "安徽省铜陵市铜官区长江中路917号雨润中央购物广场F6",
        "tel": "",
        "category": "基础设施:公共设施:男洗手间",
        "type": 0,
        "location": {
            "lat": 30.9257,
            "lng": 117.819139
        },
        "ad_info": {
            "adcode": 340705,
            "province": "安徽省",
            "city": "铜陵市",
            "district": "铜官区"
        }
    },
    {
        "id": "5487717894467497343",
        "title": "中央商场(铜陵店)-女洗手间",
        "address": "安徽省铜陵市铜官区长江中路917号雨润中央购物广场F3",
        "tel": "",
        "category": "基础设施:公共设施:女洗手间",
        "type": 0,
        "location": {
            "lat": 30.926162,
            "lng": 117.818831
        },
        "ad_info": {
            "adcode": 340705,
            "province": "安徽省",
            "city": "铜陵市",
            "district": "铜官区"
        }
    },
    {
        "id": "11950565837777263854",
        "title": "公共厕所",
        "address": "安徽省铜陵市枞阳县连城东路与金山大道交叉口正东方向291米左右",
        "tel": "",
        "category": "基础设施:公共设施:公共厕所",
        "type": 0,
        "location": {
            "lat": 30.7063,
            "lng": 117.233235
        },
        "ad_info": {
            "adcode": 340722,
            "province": "安徽省",
            "city": "铜陵市",
            "district": "枞阳县"
        }
    },
    {
        "id": "6823821407717718568",
        "title": "女洗手间",
        "address": "安徽省铜陵市铜官区长江中路917号雨润中央购物广场F3",
        "tel": "",
        "category": "基础设施:公共设施:女洗手间",
        "type": 0,
        "location": {
            "lat": 30.925763,
            "lng": 117.819056
        },
        "ad_info": {
            "adcode": 340705,
            "province": "安徽省",
            "city": "铜陵市",
            "district": "铜官区"
        }
    },
    {
        "id": "4372318392848141227",
        "title": "天门服务区第二公共厕所",
        "address": "安徽省铜陵市义安区中国石化天门南加油站南侧70米",
        "tel": "",
        "category": "基础设施:公共设施:公共厕所",
        "type": 0,
        "location": {
            "lat": 30.827036,
            "lng": 117.81948
        },
        "ad_info": {
            "adcode": 340706,
            "province": "安徽省",
            "city": "铜陵市",
            "district": "义安区"
        }
    },
    {
        "id": "17409831561162481645",
        "title": "姚滩中心村旅游公厕",
        "address": "安徽省铜陵市义安区X011",
        "tel": "",
        "category": "基础设施:公共设施:公共厕所",
        "type": 0,
        "location": {
            "lat": 31.042046,
            "lng": 117.863495
        },
        "ad_info": {
            "adcode": 340706,
            "province": "安徽省",
            "city": "铜陵市",
            "district": "义安区"
        }
    },
    {
        "id": "2660435348831425203",
        "title": "男洗手间",
        "address": "安徽省铜陵市铜官区长江中路917号雨润中央购物广场F8",
        "tel": "",
        "category": "基础设施:公共设施:男洗手间",
        "type": 0,
        "location": {
            "lat": 30.926142,
            "lng": 117.818868
        },
        "ad_info": {
            "adcode": 340705,
            "province": "安徽省",
            "city": "铜陵市",
            "district": "铜官区"
        }
    },
    {
        "id": "17847402198258046022",
        "title": "沿船沟村公厕",
        "address": "安徽省铜陵市义安区铜陵江堤西",
        "tel": "",
        "category": "基础设施:公共设施:公共厕所",
        "type": 0,
        "location": {
            "lat": 31.043635,
            "lng": 117.883475
        },
        "ad_info": {
            "adcode": 340706,
            "province": "安徽省",
            "city": "铜陵市",
            "district": "义安区"
        }
    },
    {
        "id": "2052239486067341287",
        "title": "男洗手间",
        "address": "安徽省铜陵市铜官区长江中路917号雨润中央购物广场F3",
        "tel": "",
        "category": "基础设施:公共设施:男洗手间",
        "type": 0,
        "location": {
            "lat": 30.925733,
            "lng": 117.819113
        },
        "ad_info": {
            "adcode": 340705,
            "province": "安徽省",
            "city": "铜陵市",
            "district": "铜官区"
        }
    },
    {
        "id": "10626734848363931861",
        "title": "周潭服务区公共厕所",
        "address": "安徽省铜陵市郊区京台高速周潭服务区",
        "tel": "",
        "category": "基础设施:公共设施:公共厕所",
        "type": 0,
        "location": {
            "lat": 30.882563,
            "lng": 117.55628
        },
        "ad_info": {
            "adcode": 340711,
            "province": "安徽省",
            "city": "铜陵市",
            "district": "郊区"
        }
    },
    {
        "id": "16504229395030861133",
        "title": "公共厕所",
        "address": "安徽省铜陵市铜官区杨村路与翠湖一路交叉口正北方向278米左右",
        "tel": "",
        "category": "基础设施:公共设施:公共厕所",
        "type": 0,
        "location": {
            "lat": 30.951887,
            "lng": 117.829124
        },
        "ad_info": {
            "adcode": 340705,
            "province": "安徽省",
            "city": "铜陵市",
            "district": "铜官区"
        }
    },
    {
        "id": "554778191992256947",
        "title": "公共厕所",
        "address": "安徽省铜陵市铜官区北斗西路与政府北路交叉口正南方向193米左右",
        "tel": "",
        "category": "基础设施:公共设施:公共厕所",
        "type": 0,
        "location": {
            "lat": 30.946795,
            "lng": 117.813138
        },
        "ad_info": {
            "adcode": 340705,
            "province": "安徽省",
            "city": "铜陵市",
            "district": "铜官区"
        }
    },
    {
        "id": "15023484440376608911",
        "title": "公共厕所",
        "address": "安徽省铜陵市铜官区五松山大道与置业路交叉口正东方向179米左右",
        "tel": "",
        "category": "基础设施:公共设施:公共厕所",
        "type": 0,
        "location": {
            "lat": 30.984854,
            "lng": 117.81724
        },
        "ad_info": {
            "adcode": 340705,
            "province": "安徽省",
            "city": "铜陵市",
            "district": "铜官区"
        }
    },
    {
        "id": "16481981764883246913",
        "title": "服务区公共厕所",
        "address": "安徽省铜陵市郊区滨江大道南段与铜都大道南段交叉口正西方向707米左右",
        "tel": "",
        "category": "基础设施:公共设施:公共厕所",
        "type": 0,
        "location": {
            "lat": 30.847953,
            "lng": 117.751162
        },
        "ad_info": {
            "adcode": 340711,
            "province": "安徽省",
            "city": "铜陵市",
            "district": "郊区"
        }
    },
    {
        "id": "9569795181524094068",
        "title": "女洗手间",
        "address": "安徽省铜陵市铜官区长江中路917号雨润中央购物广场F7",
        "tel": "",
        "category": "基础设施:公共设施:女洗手间",
        "type": 0,
        "location": {
            "lat": 30.925743,
            "lng": 117.819059
        },
        "ad_info": {
            "adcode": 340705,
            "province": "安徽省",
            "city": "铜陵市",
            "district": "铜官区"
        }
    },
    {
        "id": "17315681609653762530",
        "title": "公共厕所",
        "address": "安徽省铜陵市义安区和平中心学校南侧270米",
        "tel": "",
        "category": "基础设施:公共设施:公共厕所",
        "type": 0,
        "location": {
            "lat": 31.03004,
            "lng": 117.887903
        },
        "ad_info": {
            "adcode": 340706,
            "province": "安徽省",
            "city": "铜陵市",
            "district": "义安区"
        }
    },
    {
        "id": "4048784328072337759",
        "title": "公共厕所",
        "address": "安徽省铜陵市铜官区五松道与新光路交叉口东北方向180米左右",
        "tel": "",
        "category": "基础设施:公共设施:公共厕所",
        "type": 0,
        "location": {
            "lat": 30.929882,
            "lng": 117.802958
        },
        "ad_info": {
            "adcode": 340705,
            "province": "安徽省",
            "city": "铜陵市",
            "district": "铜官区"
        }
    },
    {
        "id": "4958718694762404718",
        "title": "公共厕所",
        "address": "安徽省铜陵市义安区天门镇卫生院西南侧90米",
        "tel": "",
        "category": "基础设施:公共设施:公共厕所",
        "type": 0,
        "location": {
            "lat": 30.886157,
            "lng": 117.918138
        },
        "ad_info": {
            "adcode": 340706,
            "province": "安徽省",
            "city": "铜陵市",
            "district": "义安区"
        }
    },
    {
        "id": "6444752859742202354",
        "title": "公共厕所",
        "address": "安徽省铜陵市铜官区园林路与白云路交叉口西南方向224米左右",
        "tel": "",
        "category": "基础设施:公共设施:公共厕所",
        "type": 0,
        "location": {
            "lat": 30.932297,
            "lng": 117.791666
        },
        "ad_info": {
            "adcode": 340705,
            "province": "安徽省",
            "city": "铜陵市",
            "district": "铜官区"
        }
    },
    {
        "id": "18013295623524391177",
        "title": "公共厕所",
        "address": "安徽省铜陵市义安区丹凤路与锦绣路交叉口正北方向119米左右",
        "tel": "",
        "category": "基础设施:公共设施:公共厕所",
        "type": 0,
        "location": {
            "lat": 30.949608,
            "lng": 117.952992
        },
        "ad_info": {
            "adcode": 340706,
            "province": "安徽省",
            "city": "铜陵市",
            "district": "义安区"
        }
    },
    {
        "id": "16979114130569071283",
        "title": "公共厕所",
        "address": "安徽省铜陵市郊区Y039与黑马路交叉口正南方向360米左右",
        "tel": "",
        "category": "基础设施:公共设施:公共厕所",
        "type": 0,
        "location": {
            "lat": 30.638448,
            "lng": 116.939455
        },
        "ad_info": {
            "adcode": 340711,
            "province": "安徽省",
            "city": "铜陵市",
            "district": "郊区"
        }
    },
    {
        "id": "6459956446866047151",
        "title": "老洲镇农村厕所管护服务站",
        "address": "安徽省铜陵市郊区中皇石化(老洲站)西南侧50米",
        "tel": "",
        "category": "基础设施:公共设施:公共厕所",
        "type": 0,
        "location": {
            "lat": 30.790266,
            "lng": 117.593884
        },
        "ad_info": {
            "adcode": 340711,
            "province": "安徽省",
            "city": "铜陵市",
            "district": "郊区"
        }
    },
    {
        "id": "11240596242142733114",
        "title": "公共厕所",
        "address": "安徽省铜陵市义安区X011",
        "tel": "",
        "category": "基础设施:公共设施:公共厕所",
        "type": 0,
        "location": {
            "lat": 31.021378,
            "lng": 117.837742
        },
        "ad_info": {
            "adcode": 340706,
            "province": "安徽省",
            "city": "铜陵市",
            "district": "义安区"
        }
    },
    {
        "id": "15741356637163245160",
        "title": "公共厕所",
        "address": "安徽省铜陵市义安区X011",
        "tel": "",
        "category": "基础设施:公共设施:公共厕所",
        "type": 0,
        "location": {
            "lat": 31.022918,
            "lng": 117.832755
        },
        "ad_info": {
            "adcode": 340706,
            "province": "安徽省",
            "city": "铜陵市",
            "district": "义安区"
        }
    },
    {
        "id": "8394652012567569967",
        "title": "官上村旅游公共厕所",
        "address": "安徽省铜陵市义安区",
        "tel": "",
        "category": "基础设施:公共设施:公共厕所",
        "type": 0,
        "location": {
            "lat": 31.021918,
            "lng": 117.846646
        },
        "ad_info": {
            "adcode": 340706,
            "province": "安徽省",
            "city": "铜陵市",
            "district": "义安区"
        }
    },
    {
        "id": "2515716701128740877",
        "title": "公共厕所",
        "address": "安徽省铜陵市枞阳县",
        "tel": "",
        "category": "基础设施:公共设施:公共厕所",
        "type": 0,
        "location": {
            "lat": 30.988383,
            "lng": 117.307964
        },
        "ad_info": {
            "adcode": 340722,
            "province": "安徽省",
            "city": "铜陵市",
            "district": "枞阳县"
        }
    },
    {
        "id": "6291431289712369646",
        "title": "观兴村公共厕所",
        "address": "安徽省铜陵市义安区",
        "tel": "",
        "category": "基础设施:公共设施:公共厕所",
        "type": 0,
        "location": {
            "lat": 31.067977,
            "lng": 117.844693
        },
        "ad_info": {
            "adcode": 340706,
            "province": "安徽省",
            "city": "铜陵市",
            "district": "义安区"
        }
    },
    {
        "id": "15717612359352471904",
        "title": "旅游公共厕所",
        "address": "安徽省铜陵市义安区X015与铜老路交叉口西北方向282米左右",
        "tel": "",
        "category": "基础设施:公共设施:公共厕所",
        "type": 0,
        "location": {
            "lat": 30.962989,
            "lng": 117.763148
        },
        "ad_info": {
            "adcode": 340706,
            "province": "安徽省",
            "city": "铜陵市",
            "district": "义安区"
        }
    },
    {
        "id": "8299430866857148289",
        "title": "女洗手间",
        "address": "安徽省铜陵市铜官区长江中路917号雨润中央购物广场F1",
        "tel": "",
        "category": "基础设施:公共设施:女洗手间",
        "type": 0,
        "location": {
            "lat": 30.926186,
            "lng": 117.818844
        },
        "ad_info": {
            "adcode": 340705,
            "province": "安徽省",
            "city": "铜陵市",
            "district": "铜官区"
        }
    },
    {
        "id": "13894531616213948199",
        "title": "顺安停车区公共厕所",
        "address": "安徽省铜陵市义安区顺安停车区",
        "tel": "",
        "category": "基础设施:公共设施:公共厕所",
        "type": 0,
        "location": {
            "lat": 30.928487,
            "lng": 117.964785
        },
        "ad_info": {
            "adcode": 340706,
            "province": "安徽省",
            "city": "铜陵市",
            "district": "义安区"
        }
    },
    {
        "id": "11770081609236760738",
        "title": "公共厕所",
        "address": "安徽省铜陵市铜官区宇业路与美瑞路交叉口西南方向93米左右",
        "tel": "",
        "category": "基础设施:公共设施:公共厕所",
        "type": 0,
        "location": {
            "lat": 30.997494,
            "lng": 117.838779
        },
        "ad_info": {
            "adcode": 340705,
            "province": "安徽省",
            "city": "铜陵市",
            "district": "铜官区"
        }
    },
    {
        "id": "3930807900505550850",
        "title": "公共厕所",
        "address": "安徽省铜陵市义安区G236与金盛路交叉口东南方向1558米左右",
        "tel": "",
        "category": "基础设施:公共设施:公共厕所",
        "type": 0,
        "location": {
            "lat": 30.961754,
            "lng": 118.024886
        },
        "ad_info": {
            "adcode": 340706,
            "province": "安徽省",
            "city": "铜陵市",
            "district": "义安区"
        }
    },
    {
        "id": "2536116944032845039",
        "title": "男洗手间",
        "address": "安徽省铜陵市铜官区长江中路917号雨润中央购物广场F7",
        "tel": "",
        "category": "基础设施:公共设施:男洗手间",
        "type": 0,
        "location": {
            "lat": 30.9257,
            "lng": 117.819135
        },
        "ad_info": {
            "adcode": 340705,
            "province": "安徽省",
            "city": "铜陵市",
            "district": "铜官区"
        }
    },
    {
        "id": "15696266635088782099",
        "title": "公共厕所",
        "address": "安徽省铜陵市义安区X003与丰泉东路交叉口西北方向438米左右",
        "tel": "",
        "category": "基础设施:公共设施:公共厕所",
        "type": 0,
        "location": {
            "lat": 30.987066,
            "lng": 118.055993
        },
        "ad_info": {
            "adcode": 340706,
            "province": "安徽省",
            "city": "铜陵市",
            "district": "义安区"
        }
    },
    {
        "id": "18375616761235298333",
        "title": "公共厕所",
        "address": "安徽省铜陵市铜官区淮河大道南段与金川路交叉口西北方向218米左右",
        "tel": "",
        "category": "基础设施:公共设施:公共厕所",
        "type": 0,
        "location": {
            "lat": 30.915448,
            "lng": 117.796544
        },
        "ad_info": {
            "adcode": 340705,
            "province": "安徽省",
            "city": "铜陵市",
            "district": "铜官区"
        }
    },
    {
        "id": "14700248856951423827",
        "title": "公共厕所",
        "address": "安徽省铜陵市铜官区铜官大道中段与铜官大道北段交叉口正西方向93米左右",
        "tel": "",
        "category": "基础设施:公共设施:公共厕所",
        "type": 0,
        "location": {
            "lat": 30.93392,
            "lng": 117.804282
        },
        "ad_info": {
            "adcode": 340705,
            "province": "安徽省",
            "city": "铜陵市",
            "district": "铜官区"
        }
    },
    {
        "id": "3830238172313044704",
        "title": "公共厕所",
        "address": "安徽省铜陵市义安区兴盛路与育才路交叉口正北方向1474米左右",
        "tel": "",
        "category": "基础设施:公共设施:公共厕所",
        "type": 0,
        "location": {
            "lat": 31.102619,
            "lng": 117.845164
        },
        "ad_info": {
            "adcode": 340706,
            "province": "安徽省",
            "city": "铜陵市",
            "district": "义安区"
        }
    },
    {
        "id": "13714880576564261779",
        "title": "无障碍公共厕所",
        "address": "安徽省铜陵市铜官区春蕾路与石城大道南段交叉口西北方向66米左右",
        "tel": "",
        "category": "基础设施:公共设施:公共厕所",
        "type": 0,
        "location": {
            "lat": 30.932101,
            "lng": 117.819218
        },
        "ad_info": {
            "adcode": 340705,
            "province": "安徽省",
            "city": "铜陵市",
            "district": "铜官区"
        }
    },
    {
        "id": "17792004804272336059",
        "title": "公共厕所",
        "address": "安徽省铜陵市义安区",
        "tel": "",
        "category": "基础设施:公共设施:公共厕所",
        "type": 0,
        "location": {
            "lat": 31.075119,
            "lng": 117.783111
        },
        "ad_info": {
            "adcode": 340706,
            "province": "安徽省",
            "city": "铜陵市",
            "district": "义安区"
        }
    },
    {
        "id": "1161333222093684722",
        "title": "公共厕所",
        "address": "安徽省铜陵市铜官区新光路与铜庄二路交叉口正南方向71米左右",
        "tel": "",
        "category": "基础设施:公共设施:公共厕所",
        "type": 0,
        "location": {
            "lat": 30.924405,
            "lng": 117.801296
        },
        "ad_info": {
            "adcode": 340705,
            "province": "安徽省",
            "city": "铜陵市",
            "district": "铜官区"
        }
    },
    {
        "id": "9098182421396958962",
        "title": "公共厕所",
        "address": "安徽省铜陵市郊区铜都大道南段与光荣路交叉口西南200米",
        "tel": "",
        "category": "基础设施:公共设施:公共厕所",
        "type": 0,
        "location": {
            "lat": 30.809717,
            "lng": 117.762123
        },
        "ad_info": {
            "adcode": 340711,
            "province": "安徽省",
            "city": "铜陵市",
            "district": "郊区"
        }
    },
    {
        "id": "13376530782048682257",
        "title": "公共厕所",
        "address": "安徽省铜陵市郊区石门路与铜都大道中段交叉口正东方向187米左右",
        "tel": "",
        "category": "基础设施:公共设施:公共厕所",
        "type": 0,
        "location": {
            "lat": 30.903068,
            "lng": 117.803588
        },
        "ad_info": {
            "adcode": 340711,
            "province": "安徽省",
            "city": "铜陵市",
            "district": "郊区"
        }
    },
    {
        "id": "8545990158200400655",
        "title": "公共厕所",
        "address": "安徽省铜陵市铜官区天山大道与铜井路交叉口正南方向185米左右",
        "tel": "",
        "category": "基础设施:公共设施:公共厕所",
        "type": 0,
        "location": {
            "lat": 30.939352,
            "lng": 117.841224
        },
        "ad_info": {
            "adcode": 340705,
            "province": "安徽省",
            "city": "铜陵市",
            "district": "铜官区"
        }
    },
    {
        "id": "4573146438018792963",
        "title": "旅游公共厕所",
        "address": "安徽省铜陵市枞阳县莲花路与连城东路交叉口正东方向323米左右",
        "tel": "",
        "category": "基础设施:公共设施:公共厕所",
        "type": 0,
        "location": {
            "lat": 30.704066,
            "lng": 117.225258
        },
        "ad_info": {
            "adcode": 340722,
            "province": "安徽省",
            "city": "铜陵市",
            "district": "枞阳县"
        }
    },
    {
        "id": "8480089457126512924",
        "title": "公共厕所",
        "address": "安徽省铜陵市郊区S221与滨江大道南段交叉口正北方向578米左右",
        "tel": "",
        "category": "基础设施:公共设施:公共厕所",
        "type": 0,
        "location": {
            "lat": 30.858548,
            "lng": 117.743171
        },
        "ad_info": {
            "adcode": 340711,
            "province": "安徽省",
            "city": "铜陵市",
            "district": "郊区"
        }
    },
    {
        "id": "14922471787399151657",
        "title": "女洗手间",
        "address": "安徽省铜陵市铜官区长江中路917号雨润中央购物广场F4",
        "tel": "",
        "category": "基础设施:公共设施:女洗手间",
        "type": 0,
        "location": {
            "lat": 30.926186,
            "lng": 117.818838
        },
        "ad_info": {
            "adcode": 340705,
            "province": "安徽省",
            "city": "铜陵市",
            "district": "铜官区"
        }
    },
    {
        "id": "132138559371561388",
        "title": "男洗手间",
        "address": "安徽省铜陵市铜官区长江中路917号雨润中央购物广场F2",
        "tel": "",
        "category": "基础设施:公共设施:男洗手间",
        "type": 0,
        "location": {
            "lat": 30.925693,
            "lng": 117.819142
        },
        "ad_info": {
            "adcode": 340705,
            "province": "安徽省",
            "city": "铜陵市",
            "district": "铜官区"
        }
    },
    {
        "id": "4201941311600340260",
        "title": "公共厕所",
        "address": "安徽省铜陵市铜官区滨江大道与铜港路交叉口正东方向171米左右",
        "tel": "",
        "category": "基础设施:公共设施:公共厕所",
        "type": 0,
        "location": {
            "lat": 30.88578,
            "lng": 117.751802
        },
        "ad_info": {
            "adcode": 340705,
            "province": "安徽省",
            "city": "铜陵市",
            "district": "铜官区"
        }
    },
    {
        "id": "11479917852538462897",
        "title": "女洗手间",
        "address": "安徽省铜陵市铜官区长江中路917号雨润中央购物广场F5",
        "tel": "",
        "category": "基础设施:公共设施:女洗手间",
        "type": 0,
        "location": {
            "lat": 30.926185,
            "lng": 117.818847
        },
        "ad_info": {
            "adcode": 340705,
            "province": "安徽省",
            "city": "铜陵市",
            "district": "铜官区"
        }
    },
    {
        "id": "17868807691529999881",
        "title": "公共厕所",
        "address": "安徽省铜陵市铜官区杨家山路与爱国路交叉口正东方向152米左右",
        "tel": "",
        "category": "基础设施:公共设施:公共厕所",
        "type": 0,
        "location": {
            "lat": 30.923888,
            "lng": 117.812622
        },
        "ad_info": {
            "adcode": 340705,
            "province": "安徽省",
            "city": "铜陵市",
            "district": "铜官区"
        }
    },
    {
        "id": "11287595579061700723",
        "title": "公共厕所",
        "address": "安徽省铜陵市铜官区北京中路775号",
        "tel": "",
        "category": "基础设施:公共设施:公共厕所",
        "type": 0,
        "location": {
            "lat": 30.929574,
            "lng": 117.828426
        },
        "ad_info": {
            "adcode": 340705,
            "province": "安徽省",
            "city": "铜陵市",
            "district": "铜官区"
        }
    },
    {
        "id": "10714938113678318341",
        "title": "公共厕所",
        "address": "安徽省铜陵市铜官区笔架山路与铜都大道中段交叉口东南方向105米左右",
        "tel": "",
        "category": "基础设施:公共设施:公共厕所",
        "type": 0,
        "location": {
            "lat": 30.921313,
            "lng": 117.819939
        },
        "ad_info": {
            "adcode": 340705,
            "province": "安徽省",
            "city": "铜陵市",
            "district": "铜官区"
        }
    },
    {
        "id": "16447195454547634779",
        "title": "公共厕所",
        "address": "安徽省铜陵市铜官区阳光一路与铜都大道中段交叉口西北100米",
        "tel": "",
        "category": "基础设施:公共设施:公共厕所",
        "type": 0,
        "location": {
            "lat": 30.927404,
            "lng": 117.828881
        },
        "ad_info": {
            "adcode": 340705,
            "province": "安徽省",
            "city": "铜陵市",
            "district": "铜官区"
        }
    },
    {
        "id": "13869454922013952685",
        "title": "公共厕所",
        "address": "安徽省铜陵市铜官区杨家山路与爱国路交叉口西北方向171米左右",
        "tel": "",
        "category": "基础设施:公共设施:公共厕所",
        "type": 0,
        "location": {
            "lat": 30.924824,
            "lng": 117.81025
        },
        "ad_info": {
            "adcode": 340705,
            "province": "安徽省",
            "city": "铜陵市",
            "district": "铜官区"
        }
    },
    {
        "id": "3182318356092523047",
        "title": "公共厕所",
        "address": "安徽省铜陵市义安区天门镇牌坊头",
        "tel": "",
        "category": "基础设施:公共设施:公共厕所",
        "type": 0,
        "location": {
            "lat": 30.815524,
            "lng": 117.79357
        },
        "ad_info": {
            "adcode": 340706,
            "province": "安徽省",
            "city": "铜陵市",
            "district": "义安区"
        }
    },
    {
        "id": "10449361448503647182",
        "title": "公共厕所",
        "address": "安徽省铜陵市枞阳县渡江路与湖滨路交叉口正西方向153米左右",
        "tel": "",
        "category": "基础设施:公共设施:公共厕所",
        "type": 0,
        "location": {
            "lat": 30.698352,
            "lng": 117.215666
        },
        "ad_info": {
            "adcode": 340722,
            "province": "安徽省",
            "city": "铜陵市",
            "district": "枞阳县"
        }
    },
    {
        "id": "5186624297037219171",
        "title": "公共厕所",
        "address": "安徽省铜陵市铜官区文华路与金山中路交叉口正北方向44米左右",
        "tel": "",
        "category": "基础设施:公共设施:公共厕所",
        "type": 0,
        "location": {
            "lat": 30.922233,
            "lng": 117.790301
        },
        "ad_info": {
            "adcode": 340705,
            "province": "安徽省",
            "city": "铜陵市",
            "district": "铜官区"
        }
    },
    {
        "id": "17158374129623601990",
        "title": "公共厕所",
        "address": "安徽省铜陵市枞阳县大亿运输有限公司南侧70米",
        "tel": "",
        "category": "基础设施:公共设施:公共厕所",
        "type": 0,
        "location": {
            "lat": 30.849892,
            "lng": 117.375875
        },
        "ad_info": {
            "adcode": 340722,
            "province": "安徽省",
            "city": "铜陵市",
            "district": "枞阳县"
        }
    },
    {
        "id": "10720222147936629845",
        "title": "公共厕所",
        "address": "安徽省铜陵市铜官区陵江大道中段5708号铜陵汽车站",
        "tel": "",
        "category": "基础设施:公共设施:公共厕所",
        "type": 0,
        "location": {
            "lat": 30.919839,
            "lng": 117.861408
        },
        "ad_info": {
            "adcode": 340705,
            "province": "安徽省",
            "city": "铜陵市",
            "district": "铜官区"
        }
    },
    {
        "id": "15982951359342805710",
        "title": "公共厕所",
        "address": "安徽省铜陵市铜官区向阳路与淮河大道交叉口东南方向106米左右",
        "tel": "",
        "category": "基础设施:公共设施:公共厕所",
        "type": 0,
        "location": {
            "lat": 30.925248,
            "lng": 117.808174
        },
        "ad_info": {
            "adcode": 340705,
            "province": "安徽省",
            "city": "铜陵市",
            "district": "铜官区"
        }
    },
    {
        "id": "3761895280039841957",
        "title": "公共厕所",
        "address": "安徽省铜陵市义安区X003与丰泉东路交叉口正西方向57米左右",
        "tel": "",
        "category": "基础设施:公共设施:公共厕所",
        "type": 0,
        "location": {
            "lat": 30.983759,
            "lng": 118.058247
        },
        "ad_info": {
            "adcode": 340706,
            "province": "安徽省",
            "city": "铜陵市",
            "district": "义安区"
        }
    },
    {
        "id": "12950228991603844124",
        "title": "公共厕所",
        "address": "安徽省铜陵市义安区滨江大道与翠湖六路交叉口西北方向1409米左右",
        "tel": "",
        "category": "基础设施:公共设施:公共厕所",
        "type": 0,
        "location": {
            "lat": 30.993286,
            "lng": 117.767709
        },
        "ad_info": {
            "adcode": 340706,
            "province": "安徽省",
            "city": "铜陵市",
            "district": "义安区"
        }
    },
    {
        "id": "17756717572341165058",
        "title": "女洗手间",
        "address": "安徽省铜陵市铜官区长江中路917号雨润中央购物广场F6",
        "tel": "",
        "category": "基础设施:公共设施:女洗手间",
        "type": 0,
        "location": {
            "lat": 30.926182,
            "lng": 117.818852
        },
        "ad_info": {
            "adcode": 340705,
            "province": "安徽省",
            "city": "铜陵市",
            "district": "铜官区"
        }
    },
    {
        "id": "9015750301711557338",
        "title": "公共厕所",
        "address": "安徽省铜陵市铜官区南山路与宜嘉路交叉口正南方向141米左右",
        "tel": "",
        "category": "基础设施:公共设施:公共厕所",
        "type": 0,
        "location": {
            "lat": 30.915821,
            "lng": 117.804763
        },
        "ad_info": {
            "adcode": 340705,
            "province": "安徽省",
            "city": "铜陵市",
            "district": "铜官区"
        }
    },
    {
        "id": "14692087604237437826",
        "title": "男洗手间",
        "address": "安徽省铜陵市铜官区长江中路917号雨润中央购物广场F5",
        "tel": "",
        "category": "基础设施:公共设施:男洗手间",
        "type": 0,
        "location": {
            "lat": 30.925695,
            "lng": 117.819141
        },
        "ad_info": {
            "adcode": 340705,
            "province": "安徽省",
            "city": "铜陵市",
            "district": "铜官区"
        }
    },
    {
        "id": "14993870808864308908",
        "title": "公共厕所",
        "address": "安徽省铜陵市铜官区何村路与天山大道交叉口正东方向290米左右",
        "tel": "",
        "category": "基础设施:公共设施:公共厕所",
        "type": 0,
        "location": {
            "lat": 30.937547,
            "lng": 117.842468
        },
        "ad_info": {
            "adcode": 340705,
            "province": "安徽省",
            "city": "铜陵市",
            "district": "铜官区"
        }
    },
    {
        "id": "12157535657337932470",
        "title": "肯德基-洗手间",
        "address": "安徽省铜陵市铜官区义安北路置地·财富广场a座B1层",
        "tel": "",
        "category": "基础设施:公共设施:公共厕所",
        "type": 0,
        "location": {
            "lat": 30.927509,
            "lng": 117.817917
        },
        "ad_info": {
            "adcode": 340705,
            "province": "安徽省",
            "city": "铜陵市",
            "district": "铜官区"
        }
    },
    {
        "id": "16883951595964244758",
        "title": "公共厕所",
        "address": "安徽省铜陵市义安区南湖路与山城道交叉口东南方向21米左右",
        "tel": "",
        "category": "基础设施:公共设施:公共厕所",
        "type": 0,
        "location": {
            "lat": 30.948563,
            "lng": 117.787949
        },
        "ad_info": {
            "adcode": 340706,
            "province": "安徽省",
            "city": "铜陵市",
            "district": "义安区"
        }
    },
    {
        "id": "10125181271108306725",
        "title": "公共厕所",
        "address": "安徽省铜陵市铜官区翠湖一路与铜官大道北段交叉口东北方向178米左右",
        "tel": "",
        "category": "基础设施:公共设施:公共厕所",
        "type": 0,
        "location": {
            "lat": 30.951369,
            "lng": 117.827252
        },
        "ad_info": {
            "adcode": 340705,
            "province": "安徽省",
            "city": "铜陵市",
            "district": "铜官区"
        }
    },
    {
        "id": "4318244887283387533",
        "title": "公共厕所",
        "address": "安徽省铜陵市铜官区铜都大道北段金山油品第三加油站",
        "tel": "",
        "category": "基础设施:公共设施:公共厕所",
        "type": 0,
        "location": {
            "lat": 30.937512,
            "lng": 117.88491
        },
        "ad_info": {
            "adcode": 340705,
            "province": "安徽省",
            "city": "铜陵市",
            "district": "铜官区"
        }
    },
    {
        "id": "11669041538938886157",
        "title": "公共厕所",
        "address": "安徽省铜陵市铜官区长江西路89号",
        "tel": "",
        "category": "基础设施:公共设施:公共厕所",
        "type": 0,
        "location": {
            "lat": 30.930553,
            "lng": 117.810081
        },
        "ad_info": {
            "adcode": 340705,
            "province": "安徽省",
            "city": "铜陵市",
            "district": "铜官区"
        }
    },
    {
        "id": "12571446457667408425",
        "title": "公共厕所",
        "address": "安徽省铜陵市铜官区幸福路与晨光路交叉口正西方向151米左右",
        "tel": "",
        "category": "基础设施:公共设施:公共厕所",
        "type": 0,
        "location": {
            "lat": 30.935,
            "lng": 117.81927
        },
        "ad_info": {
            "adcode": 340705,
            "province": "安徽省",
            "city": "铜陵市",
            "district": "铜官区"
        }
    },
    {
        "id": "3951353535267539879",
        "title": "公共厕所",
        "address": "安徽省铜陵市铜官区太平湖路与铜都大道北段交叉口正西方向63米左右",
        "tel": "",
        "category": "基础设施:公共设施:公共厕所",
        "type": 0,
        "location": {
            "lat": 30.941769,
            "lng": 117.850078
        },
        "ad_info": {
            "adcode": 340705,
            "province": "安徽省",
            "city": "铜陵市",
            "district": "铜官区"
        }
    },
    {
        "id": "2030393085074312842",
        "title": "女洗手间",
        "address": "安徽省铜陵市铜官区长江中路917号雨润中央购物广场F6",
        "tel": "",
        "category": "基础设施:公共设施:女洗手间",
        "type": 0,
        "location": {
            "lat": 30.925744,
            "lng": 117.819066
        },
        "ad_info": {
            "adcode": 340705,
            "province": "安徽省",
            "city": "铜陵市",
            "district": "铜官区"
        }
    },
    {
        "id": "11535523929977641744",
        "title": "公共厕所",
        "address": "安徽省铜陵市铜官区北京西路井湖·北斗星城",
        "tel": "",
        "category": "基础设施:公共设施:公共厕所",
        "type": 0,
        "location": {
            "lat": 30.95039,
            "lng": 117.814762
        },
        "ad_info": {
            "adcode": 340705,
            "province": "安徽省",
            "city": "铜陵市",
            "district": "铜官区"
        }
    },
    {
        "id": "13442317627832205099",
        "title": "公共厕所",
        "address": "安徽省铜陵市铜官区金山中路与金岭道交叉口西南方向401米左右",
        "tel": "",
        "category": "基础设施:公共设施:公共厕所",
        "type": 0,
        "location": {
            "lat": 30.919269,
            "lng": 117.79438
        },
        "ad_info": {
            "adcode": 340705,
            "province": "安徽省",
            "city": "铜陵市",
            "district": "铜官区"
        }
    },
    {
        "id": "15578596992650678661",
        "title": "女洗手间",
        "address": "安徽省铜陵市铜官区长江中路917号雨润中央购物广场F8",
        "tel": "",
        "category": "基础设施:公共设施:女洗手间",
        "type": 0,
        "location": {
            "lat": 30.926186,
            "lng": 117.818846
        },
        "ad_info": {
            "adcode": 340705,
            "province": "安徽省",
            "city": "铜陵市",
            "district": "铜官区"
        }
    },
    {
        "id": "6832444723170458917",
        "title": "公共厕所",
        "address": "安徽省铜陵市铜官区滨江大道与铜港路交叉口正北方向274米左右",
        "tel": "",
        "category": "基础设施:公共设施:公共厕所",
        "type": 0,
        "location": {
            "lat": 30.887888,
            "lng": 117.750432
        },
        "ad_info": {
            "adcode": 340705,
            "province": "安徽省",
            "city": "铜陵市",
            "district": "铜官区"
        }
    },
    {
        "id": "12214715308357921666",
        "title": "公共厕所",
        "address": "安徽省铜陵市铜官区宝山路与金山东路交叉口正南方向76米左右",
        "tel": "",
        "category": "基础设施:公共设施:公共厕所",
        "type": 0,
        "location": {
            "lat": 30.919313,
            "lng": 117.808283
        },
        "ad_info": {
            "adcode": 340705,
            "province": "安徽省",
            "city": "铜陵市",
            "district": "铜官区"
        }
    },
    {
        "id": "15264758202319815920",
        "title": "男洗手间",
        "address": "安徽省铜陵市铜官区长江中路917号雨润中央购物广场F6",
        "tel": "",
        "category": "基础设施:公共设施:男洗手间",
        "type": 0,
        "location": {
            "lat": 30.926143,
            "lng": 117.818861
        },
        "ad_info": {
            "adcode": 340705,
            "province": "安徽省",
            "city": "铜陵市",
            "district": "铜官区"
        }
    },
    {
        "id": "836990652454552874",
        "title": "残障-洗手间",
        "address": "安徽省铜陵市铜官区长江中路917号雨润中央购物广场F3",
        "tel": "",
        "category": "基础设施:公共设施:无障碍洗手间",
        "type": 0,
        "location": {
            "lat": 30.926146,
            "lng": 117.818851
        },
        "ad_info": {
            "adcode": 340705,
            "province": "安徽省",
            "city": "铜陵市",
            "district": "铜官区"
        }
    },
    {
        "id": "8571376231701249111",
        "title": "旅游公共厕所",
        "address": "安徽省铜陵市义安区胥坝乡安平渡口",
        "tel": "",
        "category": "基础设施:公共设施:公共厕所",
        "type": 0,
        "location": {
            "lat": 31.025547,
            "lng": 117.818848
        },
        "ad_info": {
            "adcode": 340706,
            "province": "安徽省",
            "city": "铜陵市",
            "district": "义安区"
        }
    },
    {
        "id": "17756717572341165058",
        "title": "女洗手间",
        "address": "安徽省铜陵市铜官区长江中路917号雨润中央购物广场F6",
        "tel": "",
        "category": "基础设施:公共设施:女洗手间",
        "type": 0,
        "location": {
            "lat": 30.926182,
            "lng": 117.818852
        },
        "ad_info": {
            "adcode": 340705,
            "province": "安徽省",
            "city": "铜陵市",
            "district": "铜官区"
        }
    },
    {
        "id": "9015750301711557338",
        "title": "公共厕所",
        "address": "安徽省铜陵市铜官区南山路与宜嘉路交叉口正南方向141米左右",
        "tel": "",
        "category": "基础设施:公共设施:公共厕所",
        "type": 0,
        "location": {
            "lat": 30.915821,
            "lng": 117.804763
        },
        "ad_info": {
            "adcode": 340705,
            "province": "安徽省",
            "city": "铜陵市",
            "district": "铜官区"
        }
    },
    {
        "id": "14692087604237437826",
        "title": "男洗手间",
        "address": "安徽省铜陵市铜官区长江中路917号雨润中央购物广场F5",
        "tel": "",
        "category": "基础设施:公共设施:男洗手间",
        "type": 0,
        "location": {
            "lat": 30.925695,
            "lng": 117.819141
        },
        "ad_info": {
            "adcode": 340705,
            "province": "安徽省",
            "city": "铜陵市",
            "district": "铜官区"
        }
    },
    {
        "id": "14993870808864308908",
        "title": "公共厕所",
        "address": "安徽省铜陵市铜官区何村路与天山大道交叉口正东方向290米左右",
        "tel": "",
        "category": "基础设施:公共设施:公共厕所",
        "type": 0,
        "location": {
            "lat": 30.937547,
            "lng": 117.842468
        },
        "ad_info": {
            "adcode": 340705,
            "province": "安徽省",
            "city": "铜陵市",
            "district": "铜官区"
        }
    },
    {
        "id": "12157535657337932470",
        "title": "肯德基-洗手间",
        "address": "安徽省铜陵市铜官区义安北路置地·财富广场a座B1层",
        "tel": "",
        "category": "基础设施:公共设施:公共厕所",
        "type": 0,
        "location": {
            "lat": 30.927509,
            "lng": 117.817917
        },
        "ad_info": {
            "adcode": 340705,
            "province": "安徽省",
            "city": "铜陵市",
            "district": "铜官区"
        }
    },
    {
        "id": "16883951595964244758",
        "title": "公共厕所",
        "address": "安徽省铜陵市义安区南湖路与山城道交叉口东南方向21米左右",
        "tel": "",
        "category": "基础设施:公共设施:公共厕所",
        "type": 0,
        "location": {
            "lat": 30.948563,
            "lng": 117.787949
        },
        "ad_info": {
            "adcode": 340706,
            "province": "安徽省",
            "city": "铜陵市",
            "district": "义安区"
        }
    },
    {
        "id": "10125181271108306725",
        "title": "公共厕所",
        "address": "安徽省铜陵市铜官区翠湖一路与铜官大道北段交叉口东北方向178米左右",
        "tel": "",
        "category": "基础设施:公共设施:公共厕所",
        "type": 0,
        "location": {
            "lat": 30.951369,
            "lng": 117.827252
        },
        "ad_info": {
            "adcode": 340705,
            "province": "安徽省",
            "city": "铜陵市",
            "district": "铜官区"
        }
    },
    {
        "id": "4318244887283387533",
        "title": "公共厕所",
        "address": "安徽省铜陵市铜官区铜都大道北段金山油品第三加油站",
        "tel": "",
        "category": "基础设施:公共设施:公共厕所",
        "type": 0,
        "location": {
            "lat": 30.937512,
            "lng": 117.88491
        },
        "ad_info": {
            "adcode": 340705,
            "province": "安徽省",
            "city": "铜陵市",
            "district": "铜官区"
        }
    },
    {
        "id": "11669041538938886157",
        "title": "公共厕所",
        "address": "安徽省铜陵市铜官区长江西路89号",
        "tel": "",
        "category": "基础设施:公共设施:公共厕所",
        "type": 0,
        "location": {
            "lat": 30.930553,
            "lng": 117.810081
        },
        "ad_info": {
            "adcode": 340705,
            "province": "安徽省",
            "city": "铜陵市",
            "district": "铜官区"
        }
    },
    {
        "id": "12571446457667408425",
        "title": "公共厕所",
        "address": "安徽省铜陵市铜官区幸福路与晨光路交叉口正西方向151米左右",
        "tel": "",
        "category": "基础设施:公共设施:公共厕所",
        "type": 0,
        "location": {
            "lat": 30.935,
            "lng": 117.81927
        },
        "ad_info": {
            "adcode": 340705,
            "province": "安徽省",
            "city": "铜陵市",
            "district": "铜官区"
        }
    },
    {
        "id": "3951353535267539879",
        "title": "公共厕所",
        "address": "安徽省铜陵市铜官区太平湖路与铜都大道北段交叉口正西方向63米左右",
        "tel": "",
        "category": "基础设施:公共设施:公共厕所",
        "type": 0,
        "location": {
            "lat": 30.941769,
            "lng": 117.850078
        },
        "ad_info": {
            "adcode": 340705,
            "province": "安徽省",
            "city": "铜陵市",
            "district": "铜官区"
        }
    },
    {
        "id": "2030393085074312842",
        "title": "女洗手间",
        "address": "安徽省铜陵市铜官区长江中路917号雨润中央购物广场F6",
        "tel": "",
        "category": "基础设施:公共设施:女洗手间",
        "type": 0,
        "location": {
            "lat": 30.925744,
            "lng": 117.819066
        },
        "ad_info": {
            "adcode": 340705,
            "province": "安徽省",
            "city": "铜陵市",
            "district": "铜官区"
        }
    },
    {
        "id": "11535523929977641744",
        "title": "公共厕所",
        "address": "安徽省铜陵市铜官区北京西路井湖·北斗星城",
        "tel": "",
        "category": "基础设施:公共设施:公共厕所",
        "type": 0,
        "location": {
            "lat": 30.95039,
            "lng": 117.814762
        },
        "ad_info": {
            "adcode": 340705,
            "province": "安徽省",
            "city": "铜陵市",
            "district": "铜官区"
        }
    },
    {
        "id": "13442317627832205099",
        "title": "公共厕所",
        "address": "安徽省铜陵市铜官区金山中路与金岭道交叉口西南方向401米左右",
        "tel": "",
        "category": "基础设施:公共设施:公共厕所",
        "type": 0,
        "location": {
            "lat": 30.919269,
            "lng": 117.79438
        },
        "ad_info": {
            "adcode": 340705,
            "province": "安徽省",
            "city": "铜陵市",
            "district": "铜官区"
        }
    },
    {
        "id": "15578596992650678661",
        "title": "女洗手间",
        "address": "安徽省铜陵市铜官区长江中路917号雨润中央购物广场F8",
        "tel": "",
        "category": "基础设施:公共设施:女洗手间",
        "type": 0,
        "location": {
            "lat": 30.926186,
            "lng": 117.818846
        },
        "ad_info": {
            "adcode": 340705,
            "province": "安徽省",
            "city": "铜陵市",
            "district": "铜官区"
        }
    },
    {
        "id": "6832444723170458917",
        "title": "公共厕所",
        "address": "安徽省铜陵市铜官区滨江大道与铜港路交叉口正北方向274米左右",
        "tel": "",
        "category": "基础设施:公共设施:公共厕所",
        "type": 0,
        "location": {
            "lat": 30.887888,
            "lng": 117.750432
        },
        "ad_info": {
            "adcode": 340705,
            "province": "安徽省",
            "city": "铜陵市",
            "district": "铜官区"
        }
    },
    {
        "id": "12214715308357921666",
        "title": "公共厕所",
        "address": "安徽省铜陵市铜官区宝山路与金山东路交叉口正南方向76米左右",
        "tel": "",
        "category": "基础设施:公共设施:公共厕所",
        "type": 0,
        "location": {
            "lat": 30.919313,
            "lng": 117.808283
        },
        "ad_info": {
            "adcode": 340705,
            "province": "安徽省",
            "city": "铜陵市",
            "district": "铜官区"
        }
    },
    {
        "id": "15264758202319815920",
        "title": "男洗手间",
        "address": "安徽省铜陵市铜官区长江中路917号雨润中央购物广场F6",
        "tel": "",
        "category": "基础设施:公共设施:男洗手间",
        "type": 0,
        "location": {
            "lat": 30.926143,
            "lng": 117.818861
        },
        "ad_info": {
            "adcode": 340705,
            "province": "安徽省",
            "city": "铜陵市",
            "district": "铜官区"
        }
    },
    {
        "id": "836990652454552874",
        "title": "残障-洗手间",
        "address": "安徽省铜陵市铜官区长江中路917号雨润中央购物广场F3",
        "tel": "",
        "category": "基础设施:公共设施:无障碍洗手间",
        "type": 0,
        "location": {
            "lat": 30.926146,
            "lng": 117.818851
        },
        "ad_info": {
            "adcode": 340705,
            "province": "安徽省",
            "city": "铜陵市",
            "district": "铜官区"
        }
    },
    {
        "id": "8571376231701249111",
        "title": "旅游公共厕所",
        "address": "安徽省铜陵市义安区胥坝乡安平渡口",
        "tel": "",
        "category": "基础设施:公共设施:公共厕所",
        "type": 0,
        "location": {
            "lat": 31.025547,
            "lng": 117.818848
        },
        "ad_info": {
            "adcode": 340706,
            "province": "安徽省",
            "city": "铜陵市",
            "district": "义安区"
        }
    }
]