[
    {
        "id": "12510146738213650946",
        "title": "公共厕所",
        "address": "宁夏回族自治区银川市兴庆区佑民巷宁夏商都(西北角)",
        "tel": "",
        "category": "基础设施:公共设施:公共厕所",
        "type": 0,
        "location": {
            "lat": 38.458495,
            "lng": 106.286021
        },
        "ad_info": {
            "adcode": 640104,
            "province": "宁夏回族自治区",
            "city": "银川市",
            "district": "兴庆区"
        }
    },
    {
        "id": "4054257630621697438",
        "title": "公共厕所",
        "address": "宁夏回族自治区银川市西夏区丽子园北街与红井巷交叉口正南方向106米左右",
        "tel": "",
        "category": "基础设施:公共设施:公共厕所",
        "type": 0,
        "location": {
            "lat": 38.494759,
            "lng": 106.159452
        },
        "ad_info": {
            "adcode": 640105,
            "province": "宁夏回族自治区",
            "city": "银川市",
            "district": "西夏区"
        }
    },
    {
        "id": "2576528727566817423",
        "title": "公共厕所",
        "address": "宁夏回族自治区银川市兴庆区精业巷与胜利街交叉口正东方向341米左右",
        "tel": "",
        "category": "基础设施:公共设施:公共厕所",
        "type": 0,
        "location": {
            "lat": 38.421775,
            "lng": 106.285644
        },
        "ad_info": {
            "adcode": 640104,
            "province": "宁夏回族自治区",
            "city": "银川市",
            "district": "兴庆区"
        }
    },
    {
        "id": "8675482339741924837",
        "title": "公共厕所",
        "address": "宁夏回族自治区银川市兴庆区六盘山东路与友爱街交叉口正东方向496米左右",
        "tel": "",
        "category": "基础设施:公共设施:公共厕所",
        "type": 0,
        "location": {
            "lat": 38.425704,
            "lng": 106.303344
        },
        "ad_info": {
            "adcode": 640104,
            "province": "宁夏回族自治区",
            "city": "银川市",
            "district": "兴庆区"
        }
    },
    {
        "id": "2090965371838662059",
        "title": "公共厕所",
        "address": "宁夏回族自治区银川市金凤区福安巷与阅欣路交叉口正南方向80米左右",
        "tel": "",
        "category": "基础设施:公共设施:公共厕所",
        "type": 0,
        "location": {
            "lat": 38.509266,
            "lng": 106.258045
        },
        "ad_info": {
            "adcode": 640106,
            "province": "宁夏回族自治区",
            "city": "银川市",
            "district": "金凤区"
        }
    },
    {
        "id": "18111979447846749726",
        "title": "公共厕所",
        "address": "宁夏回族自治区银川市兴庆区友爱街银帝·丽水家园",
        "tel": "",
        "category": "基础设施:公共设施:公共厕所",
        "type": 0,
        "location": {
            "lat": 38.455984,
            "lng": 106.312
        },
        "ad_info": {
            "adcode": 640104,
            "province": "宁夏回族自治区",
            "city": "银川市",
            "district": "兴庆区"
        }
    },
    {
        "id": "15808991990596213901",
        "title": "公共厕所",
        "address": "宁夏回族自治区银川市兴庆区新生巷与永通巷交叉口正北方向175米左右",
        "tel": "",
        "category": "基础设施:公共设施:公共厕所",
        "type": 0,
        "location": {
            "lat": 38.450103,
            "lng": 106.284683
        },
        "ad_info": {
            "adcode": 640104,
            "province": "宁夏回族自治区",
            "city": "银川市",
            "district": "兴庆区"
        }
    },
    {
        "id": "4113360433520902742",
        "title": "公共厕所",
        "address": "宁夏回族自治区银川市金凤区正源北街与阅欣路交叉口西北方向74米左右",
        "tel": "",
        "category": "基础设施:公共设施:公共厕所",
        "type": 0,
        "location": {
            "lat": 38.510694,
            "lng": 106.252489
        },
        "ad_info": {
            "adcode": 640106,
            "province": "宁夏回族自治区",
            "city": "银川市",
            "district": "金凤区"
        }
    },
    {
        "id": "10931599885194431349",
        "title": "公共厕所",
        "address": "宁夏回族自治区银川市金凤区人民广场东街与北京中路交叉口正北方向278米左右",
        "tel": "",
        "category": "基础设施:公共设施:公共厕所",
        "type": 0,
        "location": {
            "lat": 38.486004,
            "lng": 106.233335
        },
        "ad_info": {
            "adcode": 640106,
            "province": "宁夏回族自治区",
            "city": "银川市",
            "district": "金凤区"
        }
    },
    {
        "id": "12647622571906691324",
        "title": "公共卫生间",
        "address": "宁夏回族自治区银川市兴庆区南薰西路与富宁街交叉口东南方向100米左右",
        "tel": "",
        "category": "基础设施:公共设施:公共厕所",
        "type": 0,
        "location": {
            "lat": 38.463303,
            "lng": 106.263393
        },
        "ad_info": {
            "adcode": 640104,
            "province": "宁夏回族自治区",
            "city": "银川市",
            "district": "兴庆区"
        }
    },
    {
        "id": "17052071428253775074",
        "title": "公共厕所",
        "address": "宁夏回族自治区银川市兴庆区富强巷与清和南街交叉口正西方向68米左右",
        "tel": "",
        "category": "基础设施:公共设施:公共厕所",
        "type": 0,
        "location": {
            "lat": 38.458241,
            "lng": 106.2876
        },
        "ad_info": {
            "adcode": 640104,
            "province": "宁夏回族自治区",
            "city": "银川市",
            "district": "兴庆区"
        }
    },
    {
        "id": "7654652016508682986",
        "title": "公共厕所",
        "address": "宁夏回族自治区银川市金凤区双渠口路与新开渠街交叉口正南方向105米左右",
        "tel": "",
        "category": "基础设施:公共设施:公共厕所",
        "type": 0,
        "location": {
            "lat": 38.459595,
            "lng": 106.165279
        },
        "ad_info": {
            "adcode": 640106,
            "province": "宁夏回族自治区",
            "city": "银川市",
            "district": "金凤区"
        }
    },
    {
        "id": "6818151602356845218",
        "title": "公共厕所",
        "address": "宁夏回族自治区银川市金凤区正源南街与治平路交叉口正西方向91米左右",
        "tel": "",
        "category": "基础设施:公共设施:公共厕所",
        "type": 0,
        "location": {
            "lat": 38.446934,
            "lng": 106.238468
        },
        "ad_info": {
            "adcode": 640106,
            "province": "宁夏回族自治区",
            "city": "银川市",
            "district": "金凤区"
        }
    },
    {
        "id": "5006731195272723259",
        "title": "公共厕所",
        "address": "宁夏回族自治区银川市兴庆区友爱街辅路与宜春巷交叉口正北方向50米左右",
        "tel": "",
        "category": "基础设施:公共设施:公共厕所",
        "type": 0,
        "location": {
            "lat": 38.46638,
            "lng": 106.316019
        },
        "ad_info": {
            "adcode": 640104,
            "province": "宁夏回族自治区",
            "city": "银川市",
            "district": "兴庆区"
        }
    },
    {
        "id": "14799242971291584481",
        "title": "公共厕所",
        "address": "宁夏回族自治区银川市金凤区惠北巷与通达北街交叉口正东方向178米左右",
        "tel": "",
        "category": "基础设施:公共设施:公共厕所",
        "type": 0,
        "location": {
            "lat": 38.49729,
            "lng": 106.183712
        },
        "ad_info": {
            "adcode": 640106,
            "province": "宁夏回族自治区",
            "city": "银川市",
            "district": "金凤区"
        }
    },
    {
        "id": "10657473995796302829",
        "title": "公共厕所",
        "address": "宁夏回族自治区银川市兴庆区滨河路与礼贤街交叉口正南方向364米左右",
        "tel": "",
        "category": "基础设施:公共设施:公共厕所",
        "type": 0,
        "location": {
            "lat": 38.500873,
            "lng": 106.278774
        },
        "ad_info": {
            "adcode": 640104,
            "province": "宁夏回族自治区",
            "city": "银川市",
            "district": "兴庆区"
        }
    },
    {
        "id": "16024447390513683286",
        "title": "公共厕所",
        "address": "宁夏回族自治区银川市西夏区学院东路建发兴洲花园",
        "tel": "",
        "category": "基础设施:公共设施:公共厕所",
        "type": 0,
        "location": {
            "lat": 38.507422,
            "lng": 106.163274
        },
        "ad_info": {
            "adcode": 640105,
            "province": "宁夏回族自治区",
            "city": "银川市",
            "district": "西夏区"
        }
    },
    {
        "id": "2720598239492082187",
        "title": "公共厕所",
        "address": "宁夏回族自治区银川市金凤区金凤十五路高桥家园",
        "tel": "",
        "category": "基础设施:公共设施:公共厕所",
        "type": 0,
        "location": {
            "lat": 38.420579,
            "lng": 106.269091
        },
        "ad_info": {
            "adcode": 640106,
            "province": "宁夏回族自治区",
            "city": "银川市",
            "district": "金凤区"
        }
    },
    {
        "id": "7767159059352034251",
        "title": "公共卫生间",
        "address": "宁夏回族自治区银川市兴庆区上海东路与天平街交叉口正东方向156米左右",
        "tel": "",
        "category": "基础设施:公共设施:公共厕所",
        "type": 0,
        "location": {
            "lat": 38.486429,
            "lng": 106.272866
        },
        "ad_info": {
            "adcode": 640104,
            "province": "宁夏回族自治区",
            "city": "银川市",
            "district": "兴庆区"
        }
    },
    {
        "id": "1117305552041482182",
        "title": "公共厕所",
        "address": "宁夏回族自治区银川市永宁县双庆路与蓝花巷交叉口西北方向189米左右",
        "tel": "",
        "category": "基础设施:公共设施:公共厕所",
        "type": 0,
        "location": {
            "lat": 38.390279,
            "lng": 106.288995
        },
        "ad_info": {
            "adcode": 640121,
            "province": "宁夏回族自治区",
            "city": "银川市",
            "district": "永宁县"
        }
    },
    {
        "id": "6280485354026521822",
        "title": "公共厕所",
        "address": "宁夏回族自治区银川市兴庆区华佐巷与解放东路辅路交叉口东南方向111米左右",
        "tel": "",
        "category": "基础设施:公共设施:公共厕所",
        "type": 0,
        "location": {
            "lat": 38.462058,
            "lng": 106.295865
        },
        "ad_info": {
            "adcode": 640104,
            "province": "宁夏回族自治区",
            "city": "银川市",
            "district": "兴庆区"
        }
    },
    {
        "id": "8653559392465122952",
        "title": "公共厕所",
        "address": "宁夏回族自治区银川市兴庆区南薰东路与燕兴路交叉口西北方向186米左右",
        "tel": "",
        "category": "基础设施:公共设施:公共厕所",
        "type": 0,
        "location": {
            "lat": 38.444628,
            "lng": 106.313502
        },
        "ad_info": {
            "adcode": 640104,
            "province": "宁夏回族自治区",
            "city": "银川市",
            "district": "兴庆区"
        }
    },
    {
        "id": "2156120809768053228",
        "title": "公共厕所",
        "address": "宁夏回族自治区银川市兴庆区海宝塔寺西侧160米",
        "tel": "",
        "category": "基础设施:公共设施:公共厕所",
        "type": 0,
        "location": {
            "lat": 38.491226,
            "lng": 106.279166
        },
        "ad_info": {
            "adcode": 640104,
            "province": "宁夏回族自治区",
            "city": "银川市",
            "district": "兴庆区"
        }
    },
    {
        "id": "1026027462763236879",
        "title": "公共厕所",
        "address": "宁夏回族自治区银川市金凤区银植公路与长城东路交叉口东南方向126米左右",
        "tel": "",
        "category": "基础设施:公共设施:公共厕所",
        "type": 0,
        "location": {
            "lat": 38.457545,
            "lng": 106.254833
        },
        "ad_info": {
            "adcode": 640106,
            "province": "宁夏回族自治区",
            "city": "银川市",
            "district": "金凤区"
        }
    },
    {
        "id": "12179155821757100076",
        "title": "公共厕所",
        "address": "宁夏回族自治区银川市兴庆区北京东路768号",
        "tel": "",
        "category": "基础设施:公共设施:公共厕所",
        "type": 0,
        "location": {
            "lat": 38.468552,
            "lng": 106.299611
        },
        "ad_info": {
            "adcode": 640104,
            "province": "宁夏回族自治区",
            "city": "银川市",
            "district": "兴庆区"
        }
    },
    {
        "id": "1126525002706016414",
        "title": "公共厕所",
        "address": "宁夏回族自治区银川市兴庆区友爱街满春宜居苑",
        "tel": "",
        "category": "基础设施:公共设施:公共厕所",
        "type": 0,
        "location": {
            "lat": 38.477935,
            "lng": 106.318649
        },
        "ad_info": {
            "adcode": 640104,
            "province": "宁夏回族自治区",
            "city": "银川市",
            "district": "兴庆区"
        }
    },
    {
        "id": "14037168300620199150",
        "title": "公共厕所",
        "address": "宁夏回族自治区银川市灵武市嘉源街与安湖路交叉口西南方向47米左右",
        "tel": "",
        "category": "基础设施:公共设施:公共厕所",
        "type": 0,
        "location": {
            "lat": 38.096225,
            "lng": 106.32567
        },
        "ad_info": {
            "adcode": 640181,
            "province": "宁夏回族自治区",
            "city": "银川市",
            "district": "灵武市"
        }
    },
    {
        "id": "11179481689731396855",
        "title": "公共厕所",
        "address": "宁夏回族自治区银川市西夏区801文创园东侧140米",
        "tel": "",
        "category": "基础设施:公共设施:公共厕所",
        "type": 0,
        "location": {
            "lat": 38.495598,
            "lng": 106.11615
        },
        "ad_info": {
            "adcode": 640105,
            "province": "宁夏回族自治区",
            "city": "银川市",
            "district": "西夏区"
        }
    },
    {
        "id": "2480018069666395068",
        "title": "公共厕所",
        "address": "宁夏回族自治区银川市兴庆区修业路与利民街交叉口正南方向175米左右",
        "tel": "",
        "category": "基础设施:公共设施:公共厕所",
        "type": 0,
        "location": {
            "lat": 38.451881,
            "lng": 106.263531
        },
        "ad_info": {
            "adcode": 640104,
            "province": "宁夏回族自治区",
            "city": "银川市",
            "district": "兴庆区"
        }
    },
    {
        "id": "18400291016464636424",
        "title": "公共厕所",
        "address": "宁夏回族自治区银川市兴庆区前进路新材小区",
        "tel": "",
        "category": "基础设施:公共设施:公共厕所",
        "type": 0,
        "location": {
            "lat": 38.4652,
            "lng": 106.267895
        },
        "ad_info": {
            "adcode": 640104,
            "province": "宁夏回族自治区",
            "city": "银川市",
            "district": "兴庆区"
        }
    },
    {
        "id": "5219841622243849101",
        "title": "公共厕所",
        "address": "宁夏回族自治区银川市金凤区北京中路94号",
        "tel": "",
        "category": "基础设施:公共设施:公共厕所",
        "type": 0,
        "location": {
            "lat": 38.482255,
            "lng": 106.242359
        },
        "ad_info": {
            "adcode": 640106,
            "province": "宁夏回族自治区",
            "city": "银川市",
            "district": "金凤区"
        }
    },
    {
        "id": "9138153541575431589",
        "title": "公共厕所",
        "address": "宁夏回族自治区银川市灵武市健康路芙蓉苑-1区",
        "tel": "",
        "category": "基础设施:公共设施:公共厕所",
        "type": 0,
        "location": {
            "lat": 38.089354,
            "lng": 106.34233
        },
        "ad_info": {
            "adcode": 640181,
            "province": "宁夏回族自治区",
            "city": "银川市",
            "district": "灵武市"
        }
    },
    {
        "id": "11866124741213991822",
        "title": "公共厕所",
        "address": "宁夏回族自治区银川市金凤区尹家渠北街与贺兰山中路交叉口西南方向117米左右",
        "tel": "",
        "category": "基础设施:公共设施:公共厕所",
        "type": 0,
        "location": {
            "lat": 38.49941,
            "lng": 106.244069
        },
        "ad_info": {
            "adcode": 640106,
            "province": "宁夏回族自治区",
            "city": "银川市",
            "district": "金凤区"
        }
    },
    {
        "id": "11989184608923132866",
        "title": "公共厕所",
        "address": "宁夏回族自治区银川市永宁县南桥路祥和名邸一期-南区",
        "tel": "",
        "category": "基础设施:公共设施:公共厕所",
        "type": 0,
        "location": {
            "lat": 38.270465,
            "lng": 106.256077
        },
        "ad_info": {
            "adcode": 640121,
            "province": "宁夏回族自治区",
            "city": "银川市",
            "district": "永宁县"
        }
    },
    {
        "id": "6216994582730309699",
        "title": "公共厕所",
        "address": "宁夏回族自治区银川市西夏区长城西路舜天·嘉园",
        "tel": "",
        "category": "基础设施:公共设施:公共厕所",
        "type": 0,
        "location": {
            "lat": 38.472115,
            "lng": 106.142689
        },
        "ad_info": {
            "adcode": 640105,
            "province": "宁夏回族自治区",
            "city": "银川市",
            "district": "西夏区"
        }
    },
    {
        "id": "17759916636198443592",
        "title": "公共厕所",
        "address": "宁夏回族自治区银川市兴庆区永安巷与治平路交叉口正东方向198米左右",
        "tel": "",
        "category": "基础设施:公共设施:公共厕所",
        "type": 0,
        "location": {
            "lat": 38.437401,
            "lng": 106.27449
        },
        "ad_info": {
            "adcode": 640104,
            "province": "宁夏回族自治区",
            "city": "银川市",
            "district": "兴庆区"
        }
    },
    {
        "id": "16298353472115126677",
        "title": "公共厕所",
        "address": "宁夏回族自治区银川市兴庆区国商北路与德源街交叉口正南方向274米左右",
        "tel": "",
        "category": "基础设施:公共设施:公共厕所",
        "type": 0,
        "location": {
            "lat": 38.497276,
            "lng": 106.315717
        },
        "ad_info": {
            "adcode": 640104,
            "province": "宁夏回族自治区",
            "city": "银川市",
            "district": "兴庆区"
        }
    },
    {
        "id": "4613964340223428913",
        "title": "公共厕所",
        "address": "宁夏回族自治区银川市兴庆区胜利南街804号宁夏医科大学总医院",
        "tel": "",
        "category": "基础设施:公共设施:公共厕所",
        "type": 0,
        "location": {
            "lat": 38.431245,
            "lng": 106.27539
        },
        "ad_info": {
            "adcode": 640104,
            "province": "宁夏回族自治区",
            "city": "银川市",
            "district": "兴庆区"
        }
    },
    {
        "id": "12104711677159790105",
        "title": "公共厕所",
        "address": "宁夏回族自治区银川市永宁县杨和北街永宁县人民医院",
        "tel": "",
        "category": "基础设施:公共设施:公共厕所",
        "type": 0,
        "location": {
            "lat": 38.283472,
            "lng": 106.253553
        },
        "ad_info": {
            "adcode": 640121,
            "province": "宁夏回族自治区",
            "city": "银川市",
            "district": "永宁县"
        }
    },
    {
        "id": "11077607985179150166",
        "title": "公共厕所",
        "address": "宁夏回族自治区银川市金凤区正源南街与雪绒巷交叉口西北方向77米左右",
        "tel": "",
        "category": "基础设施:公共设施:公共厕所",
        "type": 0,
        "location": {
            "lat": 38.480837,
            "lng": 106.248165
        },
        "ad_info": {
            "adcode": 640106,
            "province": "宁夏回族自治区",
            "city": "银川市",
            "district": "金凤区"
        }
    },
    {
        "id": "18172488581688868515",
        "title": "公共厕所",
        "address": "宁夏回族自治区银川市兴庆区永康北巷40号",
        "tel": "",
        "category": "基础设施:公共设施:公共厕所",
        "type": 0,
        "location": {
            "lat": 38.464802,
            "lng": 106.288491
        },
        "ad_info": {
            "adcode": 640104,
            "province": "宁夏回族自治区",
            "city": "银川市",
            "district": "兴庆区"
        }
    },
    {
        "id": "1674818188992910755",
        "title": "公共厕所",
        "address": "宁夏回族自治区银川市兴庆区北京东路与永丰巷交叉口西南方向100米",
        "tel": "",
        "category": "基础设施:公共设施:公共厕所",
        "type": 0,
        "location": {
            "lat": 38.474284,
            "lng": 106.282038
        },
        "ad_info": {
            "adcode": 640104,
            "province": "宁夏回族自治区",
            "city": "银川市",
            "district": "兴庆区"
        }
    },
    {
        "id": "6401027951512911485",
        "title": "公共厕所",
        "address": "宁夏回族自治区银川市金凤区大连中路阅海万家-G2区",
        "tel": "",
        "category": "基础设施:公共设施:公共厕所",
        "type": 0,
        "location": {
            "lat": 38.518456,
            "lng": 106.283521
        },
        "ad_info": {
            "adcode": 640106,
            "province": "宁夏回族自治区",
            "city": "银川市",
            "district": "金凤区"
        }
    },
    {
        "id": "1151436039419124689",
        "title": "公共厕所",
        "address": "宁夏回族自治区银川市兴庆区牛街与玉皇阁南街交叉口正西方向125米左右",
        "tel": "",
        "category": "基础设施:公共设施:公共厕所",
        "type": 0,
        "location": {
            "lat": 38.455896,
            "lng": 106.279831
        },
        "ad_info": {
            "adcode": 640104,
            "province": "宁夏回族自治区",
            "city": "银川市",
            "district": "兴庆区"
        }
    },
    {
        "id": "3091099438801098919",
        "title": "公共厕所",
        "address": "宁夏回族自治区银川市兴庆区宝湖东路与胜利街交叉口正东方向84米左右",
        "tel": "",
        "category": "基础设施:公共设施:公共厕所",
        "type": 0,
        "location": {
            "lat": 38.443815,
            "lng": 106.281026
        },
        "ad_info": {
            "adcode": 640104,
            "province": "宁夏回族自治区",
            "city": "银川市",
            "district": "兴庆区"
        }
    },
    {
        "id": "15398270474075131041",
        "title": "公共厕所",
        "address": "宁夏回族自治区银川市金凤区六号路与卫远路交叉口东北方向178米左右",
        "tel": "",
        "category": "基础设施:公共设施:公共厕所",
        "type": 0,
        "location": {
            "lat": 38.465201,
            "lng": 106.186309
        },
        "ad_info": {
            "adcode": 640106,
            "province": "宁夏回族自治区",
            "city": "银川市",
            "district": "金凤区"
        }
    },
    {
        "id": "962578987864274743",
        "title": "公共厕所",
        "address": "宁夏回族自治区银川市兴庆区新运巷与胜利街交叉口正东方向104米左右",
        "tel": "",
        "category": "基础设施:公共设施:公共厕所",
        "type": 0,
        "location": {
            "lat": 38.456319,
            "lng": 106.285492
        },
        "ad_info": {
            "adcode": 640104,
            "province": "宁夏回族自治区",
            "city": "银川市",
            "district": "兴庆区"
        }
    },
    {
        "id": "1485230845921111605",
        "title": "公共厕所",
        "address": "宁夏回族自治区银川市金凤区大有巷与庆丰街交叉口正北方向199米左右",
        "tel": "",
        "category": "基础设施:公共设施:公共厕所",
        "type": 0,
        "location": {
            "lat": 38.451696,
            "lng": 106.233324
        },
        "ad_info": {
            "adcode": 640106,
            "province": "宁夏回族自治区",
            "city": "银川市",
            "district": "金凤区"
        }
    },
    {
        "id": "10125795328090904256",
        "title": "公共厕所",
        "address": "宁夏回族自治区银川市金凤区福州南街与黄河东路交叉口东南方向278米左右",
        "tel": "",
        "category": "基础设施:公共设施:公共厕所",
        "type": 0,
        "location": {
            "lat": 38.475969,
            "lng": 106.192686
        },
        "ad_info": {
            "adcode": 640106,
            "province": "宁夏回族自治区",
            "city": "银川市",
            "district": "金凤区"
        }
    },
    {
        "id": "10745053242869968397",
        "title": "公共厕所",
        "address": "宁夏回族自治区银川市兴庆区凤凰北街与康平路交叉口东北方向119米左右",
        "tel": "",
        "category": "基础设施:公共设施:公共厕所",
        "type": 0,
        "location": {
            "lat": 38.49342,
            "lng": 106.26698
        },
        "ad_info": {
            "adcode": 640104,
            "province": "宁夏回族自治区",
            "city": "银川市",
            "district": "兴庆区"
        }
    },
    {
        "id": "457397525585119264",
        "title": "公共厕所",
        "address": "宁夏回族自治区银川市金凤区庆丰街东方尚都",
        "tel": "",
        "category": "基础设施:公共设施:公共厕所",
        "type": 0,
        "location": {
            "lat": 38.461335,
            "lng": 106.241142
        },
        "ad_info": {
            "adcode": 640106,
            "province": "宁夏回族自治区",
            "city": "银川市",
            "district": "金凤区"
        }
    },
    {
        "id": "9509237239773179863",
        "title": "公共厕所",
        "address": "宁夏回族自治区银川市金凤区北京中路与育苗巷交叉口正南方向69米左右",
        "tel": "",
        "category": "基础设施:公共设施:公共厕所",
        "type": 0,
        "location": {
            "lat": 38.484683,
            "lng": 106.194434
        },
        "ad_info": {
            "adcode": 640106,
            "province": "宁夏回族自治区",
            "city": "银川市",
            "district": "金凤区"
        }
    },
    {
        "id": "4050787166298251070",
        "title": "公共厕所",
        "address": "宁夏回族自治区银川市兴庆区中山北街与北京东路交叉口东北方向56米左右",
        "tel": "",
        "category": "基础设施:公共设施:公共厕所",
        "type": 0,
        "location": {
            "lat": 38.47365,
            "lng": 106.28956
        },
        "ad_info": {
            "adcode": 640104,
            "province": "宁夏回族自治区",
            "city": "银川市",
            "district": "兴庆区"
        }
    },
    {
        "id": "15563796923876268285",
        "title": "公共厕所",
        "address": "宁夏回族自治区银川市金凤区五里台路与亲水南大街交叉口西北方向147米左右",
        "tel": "",
        "category": "基础设施:公共设施:公共厕所",
        "type": 0,
        "location": {
            "lat": 38.441199,
            "lng": 106.212144
        },
        "ad_info": {
            "adcode": 640106,
            "province": "宁夏回族自治区",
            "city": "银川市",
            "district": "金凤区"
        }
    },
    {
        "id": "3846414561967924132",
        "title": "公共厕所",
        "address": "宁夏回族自治区银川市兴庆区六盘山东路与凤凰南街交叉口东南方向306米左右",
        "tel": "",
        "category": "基础设施:公共设施:公共厕所",
        "type": 0,
        "location": {
            "lat": 38.423333,
            "lng": 106.275898
        },
        "ad_info": {
            "adcode": 640104,
            "province": "宁夏回族自治区",
            "city": "银川市",
            "district": "兴庆区"
        }
    },
    {
        "id": "14007328018669655868",
        "title": "公共厕所",
        "address": "宁夏回族自治区银川市西夏区同心南街与长城路交叉口正南方向221米左右",
        "tel": "",
        "category": "基础设施:公共设施:公共厕所",
        "type": 0,
        "location": {
            "lat": 38.470719,
            "lng": 106.123545
        },
        "ad_info": {
            "adcode": 640105,
            "province": "宁夏回族自治区",
            "city": "银川市",
            "district": "西夏区"
        }
    },
    {
        "id": "2652145533430064237",
        "title": "公共厕所",
        "address": "宁夏回族自治区银川市兴庆区燕长路与银横路交叉口正东方向109米左右",
        "tel": "",
        "category": "基础设施:公共设施:公共厕所",
        "type": 0,
        "location": {
            "lat": 38.439473,
            "lng": 106.323526
        },
        "ad_info": {
            "adcode": 640104,
            "province": "宁夏回族自治区",
            "city": "银川市",
            "district": "兴庆区"
        }
    },
    {
        "id": "2351355020777114093",
        "title": "公共厕所",
        "address": "宁夏回族自治区银川市兴庆区丽景南街与新华东路交叉口西北方向247米左右",
        "tel": "",
        "category": "基础设施:公共设施:公共厕所",
        "type": 0,
        "location": {
            "lat": 38.459928,
            "lng": 106.298006
        },
        "ad_info": {
            "adcode": 640104,
            "province": "宁夏回族自治区",
            "city": "银川市",
            "district": "兴庆区"
        }
    },
    {
        "id": "16159632011467407165",
        "title": "公共厕所",
        "address": "宁夏回族自治区银川市兴庆区新世纪冷链物流中心(丽景北街东)",
        "tel": "",
        "category": "基础设施:公共设施:公共厕所",
        "type": 0,
        "location": {
            "lat": 38.502794,
            "lng": 106.311928
        },
        "ad_info": {
            "adcode": 640104,
            "province": "宁夏回族自治区",
            "city": "银川市",
            "district": "兴庆区"
        }
    },
    {
        "id": "16108583720380645240",
        "title": "公共厕所",
        "address": "宁夏回族自治区银川市金凤区凤翔街与黄河东路交叉口正东方向84米左右",
        "tel": "",
        "category": "基础设施:公共设施:公共厕所",
        "type": 0,
        "location": {
            "lat": 38.47688,
            "lng": 106.17582
        },
        "ad_info": {
            "adcode": 640106,
            "province": "宁夏回族自治区",
            "city": "银川市",
            "district": "金凤区"
        }
    },
    {
        "id": "1429661429104246274",
        "title": "公共厕所",
        "address": "宁夏回族自治区银川市金凤区尹家渠北街与悦园路交叉口正北方向130米左右",
        "tel": "",
        "category": "基础设施:公共设施:公共厕所",
        "type": 0,
        "location": {
            "lat": 38.504057,
            "lng": 106.245471
        },
        "ad_info": {
            "adcode": 640106,
            "province": "宁夏回族自治区",
            "city": "银川市",
            "district": "金凤区"
        }
    },
    {
        "id": "15986217151373611199",
        "title": "公共厕所",
        "address": "宁夏回族自治区银川市灵武市嘉源街与学苑路交叉口正南方向234米左右",
        "tel": "",
        "category": "基础设施:公共设施:公共厕所",
        "type": 0,
        "location": {
            "lat": 38.088731,
            "lng": 106.324053
        },
        "ad_info": {
            "adcode": 640181,
            "province": "宁夏回族自治区",
            "city": "银川市",
            "district": "灵武市"
        }
    },
    {
        "id": "2903082313062191187",
        "title": "公共厕所",
        "address": "宁夏回族自治区银川市永宁县G109与双庆路交叉口正西方向123米左右",
        "tel": "",
        "category": "基础设施:公共设施:公共厕所",
        "type": 0,
        "location": {
            "lat": 38.391125,
            "lng": 106.278083
        },
        "ad_info": {
            "adcode": 640121,
            "province": "宁夏回族自治区",
            "city": "银川市",
            "district": "永宁县"
        }
    },
    {
        "id": "6992327711690174288",
        "title": "公共厕所",
        "address": "宁夏回族自治区银川市兴庆区银川阿语学校北侧280米",
        "tel": "",
        "category": "基础设施:公共设施:公共厕所",
        "type": 0,
        "location": {
            "lat": 38.425441,
            "lng": 106.305421
        },
        "ad_info": {
            "adcode": 640104,
            "province": "宁夏回族自治区",
            "city": "银川市",
            "district": "兴庆区"
        }
    },
    {
        "id": "14181014835531744229",
        "title": "公共厕所",
        "address": "宁夏回族自治区银川市兴庆区凤凰南街与长城东路交叉口正南方向270米左右",
        "tel": "",
        "category": "基础设施:公共设施:公共厕所",
        "type": 0,
        "location": {
            "lat": 38.456899,
            "lng": 106.259181
        },
        "ad_info": {
            "adcode": 640104,
            "province": "宁夏回族自治区",
            "city": "银川市",
            "district": "兴庆区"
        }
    },
    {
        "id": "7530265677825858298",
        "title": "公共厕所",
        "address": "宁夏回族自治区银川市贺兰县丰庆东路与丰庆西路交叉口正北方向36米左右",
        "tel": "",
        "category": "基础设施:公共设施:公共厕所",
        "type": 0,
        "location": {
            "lat": 38.545066,
            "lng": 106.335087
        },
        "ad_info": {
            "adcode": 640122,
            "province": "宁夏回族自治区",
            "city": "银川市",
            "district": "贺兰县"
        }
    },
    {
        "id": "10189431155709112069",
        "title": "公共厕所",
        "address": "宁夏回族自治区银川市金凤区满城南街与满瑞巷交叉口正东方向78米左右",
        "tel": "",
        "category": "基础设施:公共设施:公共厕所",
        "type": 0,
        "location": {
            "lat": 38.472534,
            "lng": 106.197282
        },
        "ad_info": {
            "adcode": 640106,
            "province": "宁夏回族自治区",
            "city": "银川市",
            "district": "金凤区"
        }
    },
    {
        "id": "6888443644041505045",
        "title": "公共厕所",
        "address": "宁夏回族自治区银川市兴庆区上海东路与景福巷交叉口东南方向263米左右",
        "tel": "",
        "category": "基础设施:公共设施:公共厕所",
        "type": 0,
        "location": {
            "lat": 38.476257,
            "lng": 106.311825
        },
        "ad_info": {
            "adcode": 640104,
            "province": "宁夏回族自治区",
            "city": "银川市",
            "district": "兴庆区"
        }
    },
    {
        "id": "7651905397309009191",
        "title": "公共厕所",
        "address": "宁夏回族自治区银川市兴庆区凤凰北街与解放西路交叉口正北方向83米左右",
        "tel": "",
        "category": "基础设施:公共设施:公共厕所",
        "type": 0,
        "location": {
            "lat": 38.471218,
            "lng": 106.261258
        },
        "ad_info": {
            "adcode": 640104,
            "province": "宁夏回族自治区",
            "city": "银川市",
            "district": "兴庆区"
        }
    },
    {
        "id": "7062285829176752550",
        "title": "公共厕所",
        "address": "宁夏回族自治区银川市永宁县启元路与清源街交叉口正东方向185米左右",
        "tel": "",
        "category": "基础设施:公共设施:公共厕所",
        "type": 0,
        "location": {
            "lat": 38.37798,
            "lng": 106.25677
        },
        "ad_info": {
            "adcode": 640121,
            "province": "宁夏回族自治区",
            "city": "银川市",
            "district": "永宁县"
        }
    },
    {
        "id": "10521408825566005480",
        "title": "公共厕所",
        "address": "宁夏回族自治区银川市贺兰县德源街与新胜东路交叉口正西方向46米左右",
        "tel": "",
        "category": "基础设施:公共设施:公共厕所",
        "type": 0,
        "location": {
            "lat": 38.531094,
            "lng": 106.323198
        },
        "ad_info": {
            "adcode": 640122,
            "province": "宁夏回族自治区",
            "city": "银川市",
            "district": "贺兰县"
        }
    },
    {
        "id": "12207520627762467343",
        "title": "公共厕所",
        "address": "宁夏回族自治区银川市兴庆区友爱街与塔寺路交叉口正东方向562米左右",
        "tel": "",
        "category": "基础设施:公共设施:公共厕所",
        "type": 0,
        "location": {
            "lat": 38.420951,
            "lng": 106.302974
        },
        "ad_info": {
            "adcode": 640104,
            "province": "宁夏回族自治区",
            "city": "银川市",
            "district": "兴庆区"
        }
    },
    {
        "id": "15683476577843857096",
        "title": "公共厕所",
        "address": "宁夏回族自治区银川市金凤区宁安大街与富安东巷交叉口正北方向131米左右",
        "tel": "",
        "category": "基础设施:公共设施:公共厕所",
        "type": 0,
        "location": {
            "lat": 38.477042,
            "lng": 106.229837
        },
        "ad_info": {
            "adcode": 640106,
            "province": "宁夏回族自治区",
            "city": "银川市",
            "district": "金凤区"
        }
    },
    {
        "id": "7620631202335893458",
        "title": "公共厕所",
        "address": "宁夏回族自治区银川市兴庆区丽景南街与友爱中心路交叉口正南方向92米左右",
        "tel": "",
        "category": "基础设施:公共设施:公共厕所",
        "type": 0,
        "location": {
            "lat": 38.40932,
            "lng": 106.28718
        },
        "ad_info": {
            "adcode": 640104,
            "province": "宁夏回族自治区",
            "city": "银川市",
            "district": "兴庆区"
        }
    },
    {
        "id": "15461496079709374286",
        "title": "公共厕所",
        "address": "宁夏回族自治区银川市永宁县力成路望远人家-C区",
        "tel": "",
        "category": "基础设施:公共设施:公共厕所",
        "type": 0,
        "location": {
            "lat": 38.372835,
            "lng": 106.252326
        },
        "ad_info": {
            "adcode": 640121,
            "province": "宁夏回族自治区",
            "city": "银川市",
            "district": "永宁县"
        }
    },
    {
        "id": "8128693470031483275",
        "title": "公共厕所",
        "address": "宁夏回族自治区银川市西夏区轻纺巷叠翠园",
        "tel": "",
        "category": "基础设施:公共设施:公共厕所",
        "type": 0,
        "location": {
            "lat": 38.489884,
            "lng": 106.132763
        },
        "ad_info": {
            "adcode": 640105,
            "province": "宁夏回族自治区",
            "city": "银川市",
            "district": "西夏区"
        }
    },
    {
        "id": "7786426894085499448",
        "title": "公共厕所",
        "address": "宁夏回族自治区银川市兴庆区文苑东巷与永安巷交叉口正东方向86米左右",
        "tel": "",
        "category": "基础设施:公共设施:公共厕所",
        "type": 0,
        "location": {
            "lat": 38.446121,
            "lng": 106.276021
        },
        "ad_info": {
            "adcode": 640104,
            "province": "宁夏回族自治区",
            "city": "银川市",
            "district": "兴庆区"
        }
    },
    {
        "id": "6740213733199459292",
        "title": "公共厕所",
        "address": "宁夏回族自治区银川市兴庆区农资巷与清和北街交叉口正西方向52米左右",
        "tel": "",
        "category": "基础设施:公共设施:公共厕所",
        "type": 0,
        "location": {
            "lat": 38.496802,
            "lng": 106.302164
        },
        "ad_info": {
            "adcode": 640104,
            "province": "宁夏回族自治区",
            "city": "银川市",
            "district": "兴庆区"
        }
    },
    {
        "id": "5589876750951489475",
        "title": "公共厕所",
        "address": "宁夏回族自治区银川市兴庆区双福巷与海宝路交叉口东北方向192米左右",
        "tel": "",
        "category": "基础设施:公共设施:公共厕所",
        "type": 0,
        "location": {
            "lat": 38.489093,
            "lng": 106.29213
        },
        "ad_info": {
            "adcode": 640104,
            "province": "宁夏回族自治区",
            "city": "银川市",
            "district": "兴庆区"
        }
    },
    {
        "id": "2895524174047924703",
        "title": "公共厕所",
        "address": "宁夏回族自治区银川市金凤区惠北巷昊天大院",
        "tel": "",
        "category": "基础设施:公共设施:公共厕所",
        "type": 0,
        "location": {
            "lat": 38.497215,
            "lng": 106.191811
        },
        "ad_info": {
            "adcode": 640106,
            "province": "宁夏回族自治区",
            "city": "银川市",
            "district": "金凤区"
        }
    },
    {
        "id": "14879577842282991335",
        "title": "公共厕所",
        "address": "宁夏回族自治区银川市贺兰县花园南街与通胜巷交叉口正北方向94米左右",
        "tel": "",
        "category": "基础设施:公共设施:公共厕所",
        "type": 0,
        "location": {
            "lat": 38.52616,
            "lng": 106.301836
        },
        "ad_info": {
            "adcode": 640122,
            "province": "宁夏回族自治区",
            "city": "银川市",
            "district": "贺兰县"
        }
    },
    {
        "id": "240830422664939890",
        "title": "公共厕所",
        "address": "宁夏回族自治区银川市兴庆区凤凰南街与宝湖东路交叉口正南方向102米左右",
        "tel": "",
        "category": "基础设施:公共设施:公共厕所",
        "type": 0,
        "location": {
            "lat": 38.445222,
            "lng": 106.262482
        },
        "ad_info": {
            "adcode": 640104,
            "province": "宁夏回族自治区",
            "city": "银川市",
            "district": "兴庆区"
        }
    },
    {
        "id": "14167456065269049620",
        "title": "免费公共厕所",
        "address": "宁夏回族自治区银川市兴庆区海宝西区",
        "tel": "",
        "category": "基础设施:公共设施:公共厕所",
        "type": 0,
        "location": {
            "lat": 38.490769,
            "lng": 106.260149
        },
        "ad_info": {
            "adcode": 640104,
            "province": "宁夏回族自治区",
            "city": "银川市",
            "district": "兴庆区"
        }
    },
    {
        "id": "2944353089231679482",
        "title": "公共厕所",
        "address": "宁夏回族自治区银川市金凤区平湖巷与望海路交叉口正西方向274米左右",
        "tel": "",
        "category": "基础设施:公共设施:公共厕所",
        "type": 0,
        "location": {
            "lat": 38.505363,
            "lng": 106.189513
        },
        "ad_info": {
            "adcode": 640106,
            "province": "宁夏回族自治区",
            "city": "银川市",
            "district": "金凤区"
        }
    },
    {
        "id": "17278529726202788846",
        "title": "公共厕所",
        "address": "宁夏回族自治区银川市兴庆区家事街与家万路交叉口东北方向39米",
        "tel": "",
        "category": "基础设施:公共设施:公共厕所",
        "type": 0,
        "location": {
            "lat": 38.456512,
            "lng": 106.282859
        },
        "ad_info": {
            "adcode": 640104,
            "province": "宁夏回族自治区",
            "city": "银川市",
            "district": "兴庆区"
        }
    },
    {
        "id": "14290803371662171064",
        "title": "无障碍公共厕所",
        "address": "宁夏回族自治区银川市兴庆区西桥南巷与西桥巷交叉口西南方向88米左右",
        "tel": "",
        "category": "基础设施:公共设施:公共厕所",
        "type": 0,
        "location": {
            "lat": 38.470974,
            "lng": 106.255355
        },
        "ad_info": {
            "adcode": 640104,
            "province": "宁夏回族自治区",
            "city": "银川市",
            "district": "兴庆区"
        }
    },
    {
        "id": "4215452771415922919",
        "title": "公共厕所",
        "address": "宁夏回族自治区银川市金凤区人民广场东街德馨公园-(南区)",
        "tel": "",
        "category": "基础设施:公共设施:公共厕所",
        "type": 0,
        "location": {
            "lat": 38.4941,
            "lng": 106.234413
        },
        "ad_info": {
            "adcode": 640106,
            "province": "宁夏回族自治区",
            "city": "银川市",
            "district": "金凤区"
        }
    },
    {
        "id": "17154603012145337507",
        "title": "银川上陵波斯顿酒店-洗手间",
        "address": "宁夏回族自治区银川市兴庆区丽景南街与新华东路交叉口正南方向63米左右",
        "tel": "",
        "category": "基础设施:公共设施:公共厕所",
        "type": 0,
        "location": {
            "lat": 38.456469,
            "lng": 106.298293
        },
        "ad_info": {
            "adcode": 640104,
            "province": "宁夏回族自治区",
            "city": "银川市",
            "district": "兴庆区"
        }
    },
    {
        "id": "7697580650013029191",
        "title": "公共厕所",
        "address": "宁夏回族自治区银川市金凤区北京中路辅路与福州步行街交叉口正北方向46米左右",
        "tel": "",
        "category": "基础设施:公共设施:公共厕所",
        "type": 0,
        "location": {
            "lat": 38.485479,
            "lng": 106.18914
        },
        "ad_info": {
            "adcode": 640106,
            "province": "宁夏回族自治区",
            "city": "银川市",
            "district": "金凤区"
        }
    },
    {
        "id": "447270348953112688",
        "title": "无障碍公共厕所",
        "address": "宁夏回族自治区银川市贺兰县桃林北街33号",
        "tel": "",
        "category": "基础设施:公共设施:公共厕所",
        "type": 0,
        "location": {
            "lat": 38.559734,
            "lng": 106.335083
        },
        "ad_info": {
            "adcode": 640122,
            "province": "宁夏回族自治区",
            "city": "银川市",
            "district": "贺兰县"
        }
    },
    {
        "id": "18311733435826679733",
        "title": "公共厕所",
        "address": "宁夏回族自治区银川市贺兰县朝阳北街与桃源东路交叉口正北方向66米左右",
        "tel": "",
        "category": "基础设施:公共设施:公共厕所",
        "type": 0,
        "location": {
            "lat": 38.55738,
            "lng": 106.36013
        },
        "ad_info": {
            "adcode": 640122,
            "province": "宁夏回族自治区",
            "city": "银川市",
            "district": "贺兰县"
        }
    },
    {
        "id": "10496401937411781257",
        "title": "公共厕所",
        "address": "宁夏回族自治区银川市兴庆区水一方-B区",
        "tel": "",
        "category": "基础设施:公共设施:公共厕所",
        "type": 0,
        "location": {
            "lat": 38.468804,
            "lng": 106.310091
        },
        "ad_info": {
            "adcode": 640104,
            "province": "宁夏回族自治区",
            "city": "银川市",
            "district": "兴庆区"
        }
    },
    {
        "id": "9973781656196592500",
        "title": "公共厕所",
        "address": "宁夏回族自治区银川市金凤区宁安东巷与新昌东路交叉口西南方向48米左右",
        "tel": "",
        "category": "基础设施:公共设施:公共厕所",
        "type": 0,
        "location": {
            "lat": 38.477761,
            "lng": 106.234779
        },
        "ad_info": {
            "adcode": 640106,
            "province": "宁夏回族自治区",
            "city": "银川市",
            "district": "金凤区"
        }
    },
    {
        "id": "11370994916181345685",
        "title": "公共厕所",
        "address": "宁夏回族自治区银川市兴庆区新华东路东城人家",
        "tel": "",
        "category": "基础设施:公共设施:公共厕所",
        "type": 0,
        "location": {
            "lat": 38.45053,
            "lng": 106.317602
        },
        "ad_info": {
            "adcode": 640104,
            "province": "宁夏回族自治区",
            "city": "银川市",
            "district": "兴庆区"
        }
    },
    {
        "id": "9664064175400489909",
        "title": "公共厕所",
        "address": "宁夏回族自治区银川市西夏区建设巷橡民小区-B区",
        "tel": "",
        "category": "基础设施:公共设施:公共厕所",
        "type": 0,
        "location": {
            "lat": 38.487479,
            "lng": 106.141836
        },
        "ad_info": {
            "adcode": 640105,
            "province": "宁夏回族自治区",
            "city": "银川市",
            "district": "西夏区"
        }
    },
    {
        "id": "12081614386263128294",
        "title": "滨河服务区公共厕所(1)",
        "address": "宁夏回族自治区银川市兴庆区掌政镇青银高速公路滨河服务区",
        "tel": "",
        "category": "基础设施:公共设施:公共厕所",
        "type": 0,
        "location": {
            "lat": 38.370796,
            "lng": 106.393405
        },
        "ad_info": {
            "adcode": 640104,
            "province": "宁夏回族自治区",
            "city": "银川市",
            "district": "兴庆区"
        }
    },
    {
        "id": "9775103283614598039",
        "title": "公共厕所",
        "address": "宁夏回族自治区银川市西夏区兴州路1号",
        "tel": "",
        "category": "基础设施:公共设施:公共厕所",
        "type": 0,
        "location": {
            "lat": 38.484294,
            "lng": 106.167435
        },
        "ad_info": {
            "adcode": 640105,
            "province": "宁夏回族自治区",
            "city": "银川市",
            "district": "西夏区"
        }
    },
    {
        "id": "13932979558062872581",
        "title": "公共厕所",
        "address": "宁夏回族自治区银川市永宁县杨和街心家园北(永宁县政府东南)",
        "tel": "",
        "category": "基础设施:公共设施:公共厕所",
        "type": 0,
        "location": {
            "lat": 38.275816,
            "lng": 106.254317
        },
        "ad_info": {
            "adcode": 640121,
            "province": "宁夏回族自治区",
            "city": "银川市",
            "district": "永宁县"
        }
    },
    {
        "id": "10678820361095052971",
        "title": "公共厕所",
        "address": "宁夏回族自治区银川市兴庆区中山北街与银河巷交叉口正北方向150米左右",
        "tel": "",
        "category": "基础设施:公共设施:公共厕所",
        "type": 0,
        "location": {
            "lat": 38.471079,
            "lng": 106.288755
        },
        "ad_info": {
            "adcode": 640104,
            "province": "宁夏回族自治区",
            "city": "银川市",
            "district": "兴庆区"
        }
    },
    {
        "id": "18366603418702228711",
        "title": "公共厕所",
        "address": "宁夏回族自治区银川市兴庆区北京东路银川实验中学",
        "tel": "",
        "category": "基础设施:公共设施:公共厕所",
        "type": 0,
        "location": {
            "lat": 38.477822,
            "lng": 106.272481
        },
        "ad_info": {
            "adcode": 640104,
            "province": "宁夏回族自治区",
            "city": "银川市",
            "district": "兴庆区"
        }
    },
    {
        "id": "4758783005197827914",
        "title": "公共厕所",
        "address": "宁夏回族自治区银川市兴庆区友爱街与银古公路交叉口东南方向96米左右",
        "tel": "",
        "category": "基础设施:公共设施:公共厕所",
        "type": 0,
        "location": {
            "lat": 38.44286,
            "lng": 106.306535
        },
        "ad_info": {
            "adcode": 640104,
            "province": "宁夏回族自治区",
            "city": "银川市",
            "district": "兴庆区"
        }
    },
    {
        "id": "7234056714238131992",
        "title": "公共厕所",
        "address": "宁夏回族自治区银川市兴庆区利群东路宁夏文化馆(民族南街)",
        "tel": "",
        "category": "基础设施:公共设施:公共厕所",
        "type": 0,
        "location": {
            "lat": 38.461795,
            "lng": 106.27517
        },
        "ad_info": {
            "adcode": 640104,
            "province": "宁夏回族自治区",
            "city": "银川市",
            "district": "兴庆区"
        }
    },
    {
        "id": "10732903879574161789",
        "title": "公共厕所",
        "address": "宁夏回族自治区银川市西夏区北京西路与运材巷交叉口正西方向70米左右",
        "tel": "",
        "category": "基础设施:公共设施:公共厕所",
        "type": 0,
        "location": {
            "lat": 38.485163,
            "lng": 106.145137
        },
        "ad_info": {
            "adcode": 640105,
            "province": "宁夏回族自治区",
            "city": "银川市",
            "district": "西夏区"
        }
    },
    {
        "id": "5315731945540113269",
        "title": "公共场所",
        "address": "宁夏回族自治区银川市兴庆区宏佑巷与景明路交叉口东北方向68米左右",
        "tel": "",
        "category": "基础设施:公共设施:公共厕所",
        "type": 0,
        "location": {
            "lat": 38.455933,
            "lng": 106.290359
        },
        "ad_info": {
            "adcode": 640104,
            "province": "宁夏回族自治区",
            "city": "银川市",
            "district": "兴庆区"
        }
    },
    {
        "id": "2401695321789468233",
        "title": "无障碍公共厕所",
        "address": "宁夏回族自治区银川市灵武市东盛街与镇河路交叉口正南方向221米左右",
        "tel": "",
        "category": "基础设施:公共设施:公共厕所",
        "type": 0,
        "location": {
            "lat": 38.071604,
            "lng": 106.34755
        },
        "ad_info": {
            "adcode": 640181,
            "province": "宁夏回族自治区",
            "city": "银川市",
            "district": "灵武市"
        }
    },
    {
        "id": "6205784672293783024",
        "title": "无障碍公共厕所",
        "address": "宁夏回族自治区银川市西夏区丰盈巷与文萃北街交叉口东南方向39米左右",
        "tel": "",
        "category": "基础设施:公共设施:公共厕所",
        "type": 0,
        "location": {
            "lat": 38.488789,
            "lng": 106.137299
        },
        "ad_info": {
            "adcode": 640105,
            "province": "宁夏回族自治区",
            "city": "银川市",
            "district": "西夏区"
        }
    },
    {
        "id": "17648531682149477554",
        "title": "公共厕所",
        "address": "宁夏回族自治区银川市兴庆区前程家园东南侧290米",
        "tel": "",
        "category": "基础设施:公共设施:公共厕所",
        "type": 0,
        "location": {
            "lat": 38.415925,
            "lng": 106.300336
        },
        "ad_info": {
            "adcode": 640104,
            "province": "宁夏回族自治区",
            "city": "银川市",
            "district": "兴庆区"
        }
    },
    {
        "id": "3126171563980938193",
        "title": "宁夏大学国际交流中心(宁大假日酒店)-洗手间",
        "address": "宁夏回族自治区银川市西夏区贺兰山西路489号",
        "tel": "",
        "category": "基础设施:公共设施:公共厕所",
        "type": 0,
        "location": {
            "lat": 38.50157,
            "lng": 106.13786
        },
        "ad_info": {
            "adcode": 640105,
            "province": "宁夏回族自治区",
            "city": "银川市",
            "district": "西夏区"
        }
    },
    {
        "id": "12110386452385291010",
        "title": "镇北堡服务区公共厕所",
        "address": "宁夏回族自治区银川市西夏区镇北堡服务区北(银川绕城高速公路)",
        "tel": "",
        "category": "基础设施:公共设施:公共厕所",
        "type": 0,
        "location": {
            "lat": 38.561284,
            "lng": 106.094353
        },
        "ad_info": {
            "adcode": 640105,
            "province": "宁夏回族自治区",
            "city": "银川市",
            "district": "西夏区"
        }
    },
    {
        "id": "7734069196520188029",
        "title": "白鸽服务区公共厕所",
        "address": "宁夏回族自治区银川市永宁县京藏高速白鸽服务区",
        "tel": "",
        "category": "基础设施:公共设施:公共厕所",
        "type": 0,
        "location": {
            "lat": 38.392787,
            "lng": 106.292554
        },
        "ad_info": {
            "adcode": 640121,
            "province": "宁夏回族自治区",
            "city": "银川市",
            "district": "永宁县"
        }
    },
    {
        "id": "11527558782104327859",
        "title": "永宁服务区公共厕所",
        "address": "宁夏回族自治区银川市永宁县纳五公里",
        "tel": "",
        "category": "基础设施:公共设施:公共厕所",
        "type": 0,
        "location": {
            "lat": 38.278685,
            "lng": 106.221065
        },
        "ad_info": {
            "adcode": 640121,
            "province": "宁夏回族自治区",
            "city": "银川市",
            "district": "永宁县"
        }
    },
    {
        "id": "16342906225839348669",
        "title": "白鸽服务区公共厕所",
        "address": "宁夏回族自治区银川市永宁县京藏高速白鸽服务区",
        "tel": "",
        "category": "基础设施:公共设施:公共厕所",
        "type": 0,
        "location": {
            "lat": 38.39239,
            "lng": 106.293888
        },
        "ad_info": {
            "adcode": 640121,
            "province": "宁夏回族自治区",
            "city": "银川市",
            "district": "永宁县"
        }
    },
    {
        "id": "892818173124174546",
        "title": "滨河服务区公共厕所",
        "address": "宁夏回族自治区银川市兴庆区S103与银川黄河二桥交叉口正西方向1044米左右",
        "tel": "",
        "category": "基础设施:公共设施:公共厕所",
        "type": 0,
        "location": {
            "lat": 38.369659,
            "lng": 106.398682
        },
        "ad_info": {
            "adcode": 640104,
            "province": "宁夏回族自治区",
            "city": "银川市",
            "district": "兴庆区"
        }
    },
    {
        "id": "8335656592734212735",
        "title": "滨河服务区第二公共厕所",
        "address": "宁夏回族自治区银川市兴庆区S103与银川黄河二桥交叉口正西方向1244米左右",
        "tel": "",
        "category": "基础设施:公共设施:公共厕所",
        "type": 0,
        "location": {
            "lat": 38.370677,
            "lng": 106.396721
        },
        "ad_info": {
            "adcode": 640104,
            "province": "宁夏回族自治区",
            "city": "银川市",
            "district": "兴庆区"
        }
    },
    {
        "id": "17317236808989001861",
        "title": "贺兰服务区公共厕所",
        "address": "宁夏回族自治区银川市贺兰县习岗镇京藏高速公路贺兰服务区西",
        "tel": "",
        "category": "基础设施:公共设施:公共厕所",
        "type": 0,
        "location": {
            "lat": 38.521828,
            "lng": 106.336548
        },
        "ad_info": {
            "adcode": 640122,
            "province": "宁夏回族自治区",
            "city": "银川市",
            "district": "贺兰县"
        }
    },
    {
        "id": "10380432594550913350",
        "title": "贺兰服务区公共厕所",
        "address": "宁夏回族自治区银川市贺兰县习岗镇京藏高速公路贺兰服务区",
        "tel": "",
        "category": "基础设施:公共设施:公共厕所",
        "type": 0,
        "location": {
            "lat": 38.52388,
            "lng": 106.337905
        },
        "ad_info": {
            "adcode": 640122,
            "province": "宁夏回族自治区",
            "city": "银川市",
            "district": "贺兰县"
        }
    },
    {
        "id": "13697885408689291062",
        "title": "男卫生间",
        "address": "宁夏回族自治区银川市金凤区正源北街277号建发大阅城F2",
        "tel": "",
        "category": "基础设施:公共设施:男洗手间",
        "type": 0,
        "location": {
            "lat": 38.513034,
            "lng": 106.255881
        },
        "ad_info": {
            "adcode": 640106,
            "province": "宁夏回族自治区",
            "city": "银川市",
            "district": "金凤区"
        }
    },
    {
        "id": "14214409101747134197",
        "title": "公共厕所",
        "address": "宁夏回族自治区银川市金凤区正源南街银帝·宝湖天下",
        "tel": "",
        "category": "基础设施:公共设施:公共厕所",
        "type": 0,
        "location": {
            "lat": 38.458883,
            "lng": 106.247703
        },
        "ad_info": {
            "adcode": 640106,
            "province": "宁夏回族自治区",
            "city": "银川市",
            "district": "金凤区"
        }
    },
    {
        "id": "5515803537447415328",
        "title": "公共厕所",
        "address": "宁夏回族自治区银川市西夏区丽子园南街与兰芝巷交叉口西北100米",
        "tel": "",
        "category": "基础设施:公共设施:公共厕所",
        "type": 0,
        "location": {
            "lat": 38.483972,
            "lng": 106.159216
        },
        "ad_info": {
            "adcode": 640105,
            "province": "宁夏回族自治区",
            "city": "银川市",
            "district": "西夏区"
        }
    },
    {
        "id": "7642760250340717241",
        "title": "男洗手间",
        "address": "宁夏回族自治区银川市金凤区北京中路380号世纪金花银川购物中心1层",
        "tel": "",
        "category": "基础设施:公共设施:公共厕所",
        "type": 0,
        "location": {
            "lat": 38.483465,
            "lng": 106.214087
        },
        "ad_info": {
            "adcode": 640106,
            "province": "宁夏回族自治区",
            "city": "银川市",
            "district": "金凤区"
        }
    },
    {
        "id": "12488181880796987018",
        "title": "公共厕所",
        "address": "宁夏回族自治区银川市贺兰县建设街与民族路交叉口西南方向138米左右",
        "tel": "",
        "category": "基础设施:公共设施:公共厕所",
        "type": 0,
        "location": {
            "lat": 38.54513,
            "lng": 106.342043
        },
        "ad_info": {
            "adcode": 640122,
            "province": "宁夏回族自治区",
            "city": "银川市",
            "district": "贺兰县"
        }
    },
    {
        "id": "5875408547729349996",
        "title": "公共厕所",
        "address": "宁夏回族自治区银川市兴庆区凤凰南街与南薰西路交叉口西北方向73米左右",
        "tel": "",
        "category": "基础设施:公共设施:公共厕所",
        "type": 0,
        "location": {
            "lat": 38.465307,
            "lng": 106.258498
        },
        "ad_info": {
            "adcode": 640104,
            "province": "宁夏回族自治区",
            "city": "银川市",
            "district": "兴庆区"
        }
    },
    {
        "id": "7490756989267615585",
        "title": "公共厕所",
        "address": "宁夏回族自治区银川市兴庆区上海东路与杞福巷交叉口东北方向39米左右",
        "tel": "",
        "category": "基础设施:公共设施:公共厕所",
        "type": 0,
        "location": {
            "lat": 38.478076,
            "lng": 106.314789
        },
        "ad_info": {
            "adcode": 640104,
            "province": "宁夏回族自治区",
            "city": "银川市",
            "district": "兴庆区"
        }
    },
    {
        "id": "16303448120106004797",
        "title": "公共厕所",
        "address": "宁夏回族自治区银川市西夏区景平街与济民西路交叉口东北方向49米左右",
        "tel": "",
        "category": "基础设施:公共设施:公共厕所",
        "type": 0,
        "location": {
            "lat": 38.468641,
            "lng": 106.108648
        },
        "ad_info": {
            "adcode": 640105,
            "province": "宁夏回族自治区",
            "city": "银川市",
            "district": "西夏区"
        }
    },
    {
        "id": "7531060249108109217",
        "title": "公共厕所",
        "address": "宁夏回族自治区银川市西夏区新风巷22号",
        "tel": "",
        "category": "基础设施:公共设施:公共厕所",
        "type": 0,
        "location": {
            "lat": 38.494343,
            "lng": 106.128002
        },
        "ad_info": {
            "adcode": 640105,
            "province": "宁夏回族自治区",
            "city": "银川市",
            "district": "西夏区"
        }
    },
    {
        "id": "7915286919373584164",
        "title": "公共卫生间",
        "address": "宁夏回族自治区银川市金凤区新建巷与福州北街交叉口正西方向51米左右",
        "tel": "",
        "category": "基础设施:公共设施:公共厕所",
        "type": 0,
        "location": {
            "lat": 38.494499,
            "lng": 106.189503
        },
        "ad_info": {
            "adcode": 640106,
            "province": "宁夏回族自治区",
            "city": "银川市",
            "district": "金凤区"
        }
    },
    {
        "id": "12797905125232717439",
        "title": "公共厕所",
        "address": "宁夏回族自治区银川市兴庆区利民街与利群西路交叉口正东方向105米左右",
        "tel": "",
        "category": "基础设施:公共设施:公共厕所",
        "type": 0,
        "location": {
            "lat": 38.463144,
            "lng": 106.269468
        },
        "ad_info": {
            "adcode": 640104,
            "province": "宁夏回族自治区",
            "city": "银川市",
            "district": "兴庆区"
        }
    },
    {
        "id": "9223381632549028159",
        "title": "公共厕所",
        "address": "宁夏回族自治区银川市金凤区贺兰山中路与通达北街交叉口正东方向314米左右",
        "tel": "",
        "category": "基础设施:公共设施:公共厕所",
        "type": 0,
        "location": {
            "lat": 38.501894,
            "lng": 106.18506
        },
        "ad_info": {
            "adcode": 640106,
            "province": "宁夏回族自治区",
            "city": "银川市",
            "district": "金凤区"
        }
    },
    {
        "id": "10933170966425199202",
        "title": "公共厕所",
        "address": "宁夏回族自治区银川市兴庆区凤凰北街400号北安小区",
        "tel": "",
        "category": "基础设施:公共设施:公共厕所",
        "type": 0,
        "location": {
            "lat": 38.486264,
            "lng": 106.262393
        },
        "ad_info": {
            "adcode": 640104,
            "province": "宁夏回族自治区",
            "city": "银川市",
            "district": "兴庆区"
        }
    },
    {
        "id": "15533847762536306132",
        "title": "公共厕所",
        "address": "宁夏回族自治区银川市贺兰县光明东路66号",
        "tel": "",
        "category": "基础设施:公共设施:公共厕所",
        "type": 0,
        "location": {
            "lat": 38.557805,
            "lng": 106.350225
        },
        "ad_info": {
            "adcode": 640122,
            "province": "宁夏回族自治区",
            "city": "银川市",
            "district": "贺兰县"
        }
    },
    {
        "id": "14799868398048108625",
        "title": "公共卫生间",
        "address": "宁夏回族自治区银川市灵武市东临线",
        "tel": "",
        "category": "基础设施:公共设施:公共厕所",
        "type": 0,
        "location": {
            "lat": 38.157039,
            "lng": 106.366811
        },
        "ad_info": {
            "adcode": 640181,
            "province": "宁夏回族自治区",
            "city": "银川市",
            "district": "灵武市"
        }
    },
    {
        "id": "2593509510542396379",
        "title": "公共厕所",
        "address": "宁夏回族自治区银川市西夏区北京西路与育林巷交叉口东南方向126米左右",
        "tel": "",
        "category": "基础设施:公共设施:公共厕所",
        "type": 0,
        "location": {
            "lat": 38.484607,
            "lng": 106.134383
        },
        "ad_info": {
            "adcode": 640105,
            "province": "宁夏回族自治区",
            "city": "银川市",
            "district": "西夏区"
        }
    },
    {
        "id": "3130882653656663312",
        "title": "公共厕所",
        "address": "宁夏回族自治区银川市西夏区福利巷与福园巷交叉口正南方向79米左右",
        "tel": "",
        "category": "基础设施:公共设施:公共厕所",
        "type": 0,
        "location": {
            "lat": 38.492249,
            "lng": 106.161122
        },
        "ad_info": {
            "adcode": 640105,
            "province": "宁夏回族自治区",
            "city": "银川市",
            "district": "西夏区"
        }
    },
    {
        "id": "7870846607504251163",
        "title": "公共厕所",
        "address": "宁夏回族自治区银川市金凤区亲水南大街与宝湖中路交叉口正南方向103米左右",
        "tel": "",
        "category": "基础设施:公共设施:公共厕所",
        "type": 0,
        "location": {
            "lat": 38.455469,
            "lng": 106.213625
        },
        "ad_info": {
            "adcode": 640106,
            "province": "宁夏回族自治区",
            "city": "银川市",
            "district": "金凤区"
        }
    },
    {
        "id": "17990513361012702962",
        "title": "公共厕所",
        "address": "宁夏回族自治区银川市永宁县永宁快速路与永黄公路交叉口正南方向1853米左右",
        "tel": "",
        "category": "基础设施:公共设施:公共厕所",
        "type": 0,
        "location": {
            "lat": 38.251334,
            "lng": 106.207303
        },
        "ad_info": {
            "adcode": 640121,
            "province": "宁夏回族自治区",
            "city": "银川市",
            "district": "永宁县"
        }
    },
    {
        "id": "17775677811611787252",
        "title": "公共厕所",
        "address": "宁夏回族自治区银川市兴庆区丽景北街与国商北路交叉口西南方向92米左右",
        "tel": "",
        "category": "基础设施:公共设施:公共厕所",
        "type": 0,
        "location": {
            "lat": 38.499894,
            "lng": 106.307725
        },
        "ad_info": {
            "adcode": 640104,
            "province": "宁夏回族自治区",
            "city": "银川市",
            "district": "兴庆区"
        }
    },
    {
        "id": "11166020286391066929",
        "title": "公共厕所",
        "address": "宁夏回族自治区银川市兴庆区宏佑巷与景明路交叉口正北方向24米左右",
        "tel": "",
        "category": "基础设施:公共设施:公共厕所",
        "type": 0,
        "location": {
            "lat": 38.455604,
            "lng": 106.290006
        },
        "ad_info": {
            "adcode": 640104,
            "province": "宁夏回族自治区",
            "city": "银川市",
            "district": "兴庆区"
        }
    },
    {
        "id": "11390631303057177600",
        "title": "公共厕所",
        "address": "宁夏回族自治区银川市兴庆区宗睦巷前进街-135号院",
        "tel": "",
        "category": "基础设施:公共设施:公共厕所",
        "type": 0,
        "location": {
            "lat": 38.467014,
            "lng": 106.269129
        },
        "ad_info": {
            "adcode": 640104,
            "province": "宁夏回族自治区",
            "city": "银川市",
            "district": "兴庆区"
        }
    },
    {
        "id": "17431798347491249147",
        "title": "公共厕所",
        "address": "宁夏回族自治区银川市金凤区正源南街465东南方向110米",
        "tel": "",
        "category": "基础设施:公共设施:公共厕所",
        "type": 0,
        "location": {
            "lat": 38.463346,
            "lng": 106.247538
        },
        "ad_info": {
            "adcode": 640106,
            "province": "宁夏回族自治区",
            "city": "银川市",
            "district": "金凤区"
        }
    },
    {
        "id": "15357432928842024674",
        "title": "公共厕所",
        "address": "宁夏回族自治区银川市兴庆区育新巷与西桥南巷交叉口西北方向252米左右",
        "tel": "",
        "category": "基础设施:公共设施:公共厕所",
        "type": 0,
        "location": {
            "lat": 38.468881,
            "lng": 106.257041
        },
        "ad_info": {
            "adcode": 640104,
            "province": "宁夏回族自治区",
            "city": "银川市",
            "district": "兴庆区"
        }
    },
    {
        "id": "12927628975462209406",
        "title": "公共厕所",
        "address": "宁夏回族自治区银川市金凤区上海西路与陶然东巷交叉口东北方向164米左右",
        "tel": "",
        "category": "基础设施:公共设施:公共厕所",
        "type": 0,
        "location": {
            "lat": 38.490631,
            "lng": 106.216214
        },
        "ad_info": {
            "adcode": 640106,
            "province": "宁夏回族自治区",
            "city": "银川市",
            "district": "金凤区"
        }
    },
    {
        "id": "9313175028658239916",
        "title": "宝清园公共厕所",
        "address": "宁夏回族自治区银川市兴庆区宝湖东路与清和南街交叉口东南方向71米左右",
        "tel": "",
        "category": "基础设施:公共设施:公共厕所",
        "type": 0,
        "location": {
            "lat": 38.441948,
            "lng": 106.28622
        },
        "ad_info": {
            "adcode": 640104,
            "province": "宁夏回族自治区",
            "city": "银川市",
            "district": "兴庆区"
        }
    },
    {
        "id": "9528296296883477208",
        "title": "玫瑰园公共厕所",
        "address": "宁夏回族自治区银川市西夏区同心北街与瑞桐巷交叉口西北方向261米左右",
        "tel": "",
        "category": "基础设施:公共设施:公共厕所",
        "type": 0,
        "location": {
            "lat": 38.496364,
            "lng": 106.122237
        },
        "ad_info": {
            "adcode": 640105,
            "province": "宁夏回族自治区",
            "city": "银川市",
            "district": "西夏区"
        }
    },
    {
        "id": "15518011686608819895",
        "title": "公共厕所",
        "address": "宁夏回族自治区银川市西夏区同心北街与贺兰山西路交叉口正东方向162米左右",
        "tel": "",
        "category": "基础设施:公共设施:公共厕所",
        "type": 0,
        "location": {
            "lat": 38.501458,
            "lng": 106.126047
        },
        "ad_info": {
            "adcode": 640105,
            "province": "宁夏回族自治区",
            "city": "银川市",
            "district": "西夏区"
        }
    },
    {
        "id": "4625544543196924589",
        "title": "公共厕所",
        "address": "宁夏回族自治区银川市兴庆区环湖北路长庆银川燕鸽湖基地(燕庆路)-燕乐园",
        "tel": "",
        "category": "基础设施:公共设施:公共厕所",
        "type": 0,
        "location": {
            "lat": 38.448301,
            "lng": 106.326807
        },
        "ad_info": {
            "adcode": 640104,
            "province": "宁夏回族自治区",
            "city": "银川市",
            "district": "兴庆区"
        }
    },
    {
        "id": "5918104391965657851",
        "title": "公共厕所",
        "address": "宁夏回族自治区银川市兴庆区胜利街与长城东路交叉口正东方向107米左右",
        "tel": "",
        "category": "基础设施:公共设施:公共厕所",
        "type": 0,
        "location": {
            "lat": 38.454722,
            "lng": 106.283548
        },
        "ad_info": {
            "adcode": 640104,
            "province": "宁夏回族自治区",
            "city": "银川市",
            "district": "兴庆区"
        }
    },
    {
        "id": "2379475592132728608",
        "title": "公共厕所",
        "address": "宁夏回族自治区银川市兴庆区胜利街804号宁夏医科大学附属医院",
        "tel": "",
        "category": "基础设施:公共设施:公共厕所",
        "type": 0,
        "location": {
            "lat": 38.433429,
            "lng": 106.27739
        },
        "ad_info": {
            "adcode": 640104,
            "province": "宁夏回族自治区",
            "city": "银川市",
            "district": "兴庆区"
        }
    },
    {
        "id": "1785844926970643727",
        "title": "公共厕所",
        "address": "宁夏回族自治区银川市西夏区北京西路与北京路立交桥交叉口正南方向35米左右",
        "tel": "",
        "category": "基础设施:公共设施:公共厕所",
        "type": 0,
        "location": {
            "lat": 38.484932,
            "lng": 106.065522
        },
        "ad_info": {
            "adcode": 640105,
            "province": "宁夏回族自治区",
            "city": "银川市",
            "district": "西夏区"
        }
    },
    {
        "id": "3782011935144059333",
        "title": "公共厕所",
        "address": "宁夏回族自治区银川市金凤区通达南街与银啤巷交叉口正东方向66米左右",
        "tel": "",
        "category": "基础设施:公共设施:公共厕所",
        "type": 0,
        "location": {
            "lat": 38.480977,
            "lng": 106.182546
        },
        "ad_info": {
            "adcode": 640106,
            "province": "宁夏回族自治区",
            "city": "银川市",
            "district": "金凤区"
        }
    },
    {
        "id": "13987553803739148970",
        "title": "公共厕所",
        "address": "宁夏回族自治区银川市兴庆区丽景北街与大连东路交叉口西北方向106米左右",
        "tel": "",
        "category": "基础设施:公共设施:公共厕所",
        "type": 0,
        "location": {
            "lat": 38.516542,
            "lng": 106.310475
        },
        "ad_info": {
            "adcode": 640104,
            "province": "宁夏回族自治区",
            "city": "银川市",
            "district": "兴庆区"
        }
    },
    {
        "id": "6625021852658856336",
        "title": "公共厕所",
        "address": "宁夏回族自治区银川市兴庆区上海东路745号",
        "tel": "",
        "category": "基础设施:公共设施:公共厕所",
        "type": 0,
        "location": {
            "lat": 38.480839,
            "lng": 106.288249
        },
        "ad_info": {
            "adcode": 640104,
            "province": "宁夏回族自治区",
            "city": "银川市",
            "district": "兴庆区"
        }
    },
    {
        "id": "15829296321236079349",
        "title": "公共厕所",
        "address": "宁夏回族自治区银川市兴庆区贺兰山东路中国石化加油站",
        "tel": "",
        "category": "基础设施:公共设施:公共厕所",
        "type": 0,
        "location": {
            "lat": 38.505448,
            "lng": 106.310794
        },
        "ad_info": {
            "adcode": 640104,
            "province": "宁夏回族自治区",
            "city": "银川市",
            "district": "兴庆区"
        }
    },
    {
        "id": "16879240929092502741",
        "title": "公共厕所",
        "address": "宁夏回族自治区银川市兴庆区湖滨西路宁夏宾馆家属院",
        "tel": "",
        "category": "基础设施:公共设施:公共厕所",
        "type": 0,
        "location": {
            "lat": 38.472495,
            "lng": 106.270062
        },
        "ad_info": {
            "adcode": 640104,
            "province": "宁夏回族自治区",
            "city": "银川市",
            "district": "兴庆区"
        }
    },
    {
        "id": "10404448552652230557",
        "title": "公共厕所",
        "address": "宁夏回族自治区银川市兴庆区中山南街与新华东路交叉口正东方向64米左右",
        "tel": "",
        "category": "基础设施:公共设施:公共厕所",
        "type": 0,
        "location": {
            "lat": 38.46074,
            "lng": 106.28608
        },
        "ad_info": {
            "adcode": 640104,
            "province": "宁夏回族自治区",
            "city": "银川市",
            "district": "兴庆区"
        }
    },
    {
        "id": "11378034117624105643",
        "title": "公共厕所",
        "address": "宁夏回族自治区银川市兴庆区南薰东路石油城管道基地",
        "tel": "",
        "category": "基础设施:公共设施:公共厕所",
        "type": 0,
        "location": {
            "lat": 38.446658,
            "lng": 106.308849
        },
        "ad_info": {
            "adcode": 640104,
            "province": "宁夏回族自治区",
            "city": "银川市",
            "district": "兴庆区"
        }
    },
    {
        "id": "11464940096503400527",
        "title": "公共厕所",
        "address": "宁夏回族自治区银川市西夏区大连西路与文萃北街交叉口正东方向93米左右",
        "tel": "",
        "category": "基础设施:公共设施:公共厕所",
        "type": 0,
        "location": {
            "lat": 38.521949,
            "lng": 106.138027
        },
        "ad_info": {
            "adcode": 640105,
            "province": "宁夏回族自治区",
            "city": "银川市",
            "district": "西夏区"
        }
    },
    {
        "id": "10750317760530902394",
        "title": "公共厕所",
        "address": "宁夏回族自治区银川市兴庆区山河湾后巷民生小区",
        "tel": "",
        "category": "基础设施:公共设施:公共厕所",
        "type": 0,
        "location": {
            "lat": 38.467442,
            "lng": 106.279406
        },
        "ad_info": {
            "adcode": 640104,
            "province": "宁夏回族自治区",
            "city": "银川市",
            "district": "兴庆区"
        }
    },
    {
        "id": "7848909757326157425",
        "title": "公共厕所",
        "address": "宁夏回族自治区银川市兴庆区中寺巷与宗睦巷交叉口正南方向126米左右",
        "tel": "",
        "category": "基础设施:公共设施:公共厕所",
        "type": 0,
        "location": {
            "lat": 38.466296,
            "lng": 106.266883
        },
        "ad_info": {
            "adcode": 640104,
            "province": "宁夏回族自治区",
            "city": "银川市",
            "district": "兴庆区"
        }
    },
    {
        "id": "16197830695231786664",
        "title": "公共卫生间",
        "address": "宁夏回族自治区银川市西夏区萌城东巷与萌城西巷交叉口正西方向135米左右",
        "tel": "",
        "category": "基础设施:公共设施:公共厕所",
        "type": 0,
        "location": {
            "lat": 38.48871,
            "lng": 106.163496
        },
        "ad_info": {
            "adcode": 640105,
            "province": "宁夏回族自治区",
            "city": "银川市",
            "district": "西夏区"
        }
    },
    {
        "id": "9330374139191543693",
        "title": "中山公园公共厕所",
        "address": "宁夏回族自治区银川市兴庆区中山公园(东南角)",
        "tel": "",
        "category": "基础设施:公共设施:公共厕所",
        "type": 0,
        "location": {
            "lat": 38.47387,
            "lng": 106.26925
        },
        "ad_info": {
            "adcode": 640104,
            "province": "宁夏回族自治区",
            "city": "银川市",
            "district": "兴庆区"
        }
    },
    {
        "id": "8148819099915935198",
        "title": "公共厕所",
        "address": "宁夏回族自治区银川市兴庆区丽景北街辅路与北京东路辅路交叉口东南方向182米左右",
        "tel": "",
        "category": "基础设施:公共设施:公共厕所",
        "type": 0,
        "location": {
            "lat": 38.468457,
            "lng": 106.304818
        },
        "ad_info": {
            "adcode": 640104,
            "province": "宁夏回族自治区",
            "city": "银川市",
            "district": "兴庆区"
        }
    },
    {
        "id": "3005934171626873329",
        "title": "公共厕所",
        "address": "宁夏回族自治区银川市永宁县杨和南街与步行街交叉口正西方向148米左右",
        "tel": "",
        "category": "基础设施:公共设施:公共厕所",
        "type": 0,
        "location": {
            "lat": 38.272821,
            "lng": 106.250866
        },
        "ad_info": {
            "adcode": 640121,
            "province": "宁夏回族自治区",
            "city": "银川市",
            "district": "永宁县"
        }
    },
    {
        "id": "3213150076055276738",
        "title": "男卫生间",
        "address": "宁夏回族自治区银川市西夏区金波北街75号万达广场F2",
        "tel": "",
        "category": "基础设施:公共设施:男洗手间",
        "type": 0,
        "location": {
            "lat": 38.493218,
            "lng": 106.150763
        },
        "ad_info": {
            "adcode": 640105,
            "province": "宁夏回族自治区",
            "city": "银川市",
            "district": "西夏区"
        }
    },
    {
        "id": "925398857776898346",
        "title": "公共厕所",
        "address": "宁夏回族自治区银川市兴庆区兴隆街292号",
        "tel": "",
        "category": "基础设施:公共设施:公共厕所",
        "type": 0,
        "location": {
            "lat": 38.446806,
            "lng": 106.290736
        },
        "ad_info": {
            "adcode": 640104,
            "province": "宁夏回族自治区",
            "city": "银川市",
            "district": "兴庆区"
        }
    },
    {
        "id": "446851883249186472",
        "title": "无障碍公共厕所",
        "address": "宁夏回族自治区银川市金凤区锦泰花园西侧390米",
        "tel": "",
        "category": "基础设施:公共设施:公共厕所",
        "type": 0,
        "location": {
            "lat": 38.495829,
            "lng": 106.25815
        },
        "ad_info": {
            "adcode": 640106,
            "province": "宁夏回族自治区",
            "city": "银川市",
            "district": "金凤区"
        }
    },
    {
        "id": "11073639485399641301",
        "title": "公共厕所",
        "address": "宁夏回族自治区银川市兴庆区仁义巷与鼓楼南街交叉口西北方向64米左右",
        "tel": "",
        "category": "基础设施:公共设施:公共厕所",
        "type": 0,
        "location": {
            "lat": 38.463505,
            "lng": 106.279925
        },
        "ad_info": {
            "adcode": 640104,
            "province": "宁夏回族自治区",
            "city": "银川市",
            "district": "兴庆区"
        }
    },
    {
        "id": "2089784189871980560",
        "title": "公共厕所",
        "address": "宁夏回族自治区银川市金凤区上海西路与惠北巷交叉口正北方向72米左右",
        "tel": "",
        "category": "基础设施:公共设施:公共厕所",
        "type": 0,
        "location": {
            "lat": 38.489857,
            "lng": 106.177289
        },
        "ad_info": {
            "adcode": 640106,
            "province": "宁夏回族自治区",
            "city": "银川市",
            "district": "金凤区"
        }
    },
    {
        "id": "11128658815366072058",
        "title": "公共厕所",
        "address": "宁夏回族自治区银川市兴庆区三林巷与南薰西路交叉口正南方向162米左右",
        "tel": "",
        "category": "基础设施:公共设施:公共厕所",
        "type": 0,
        "location": {
            "lat": 38.460168,
            "lng": 106.269858
        },
        "ad_info": {
            "adcode": 640104,
            "province": "宁夏回族自治区",
            "city": "银川市",
            "district": "兴庆区"
        }
    },
    {
        "id": "13996169295060877962",
        "title": "公共厕所",
        "address": "宁夏回族自治区银川市兴庆区北京东路新月广场内",
        "tel": "",
        "category": "基础设施:公共设施:公共厕所",
        "type": 0,
        "location": {
            "lat": 38.47011,
            "lng": 106.300079
        },
        "ad_info": {
            "adcode": 640104,
            "province": "宁夏回族自治区",
            "city": "银川市",
            "district": "兴庆区"
        }
    },
    {
        "id": "13343750891406807527",
        "title": "公共卫生间",
        "address": "宁夏回族自治区银川市兴庆区光华头道巷与鼓楼北街交叉口西北方向23米左右",
        "tel": "",
        "category": "基础设施:公共设施:公共厕所",
        "type": 0,
        "location": {
            "lat": 38.466091,
            "lng": 106.281324
        },
        "ad_info": {
            "adcode": 640104,
            "province": "宁夏回族自治区",
            "city": "银川市",
            "district": "兴庆区"
        }
    },
    {
        "id": "2811538359050688912",
        "title": "公共厕所",
        "address": "宁夏回族自治区银川市兴庆区南塘巷与民族南街交叉口西北方向78米左右",
        "tel": "",
        "category": "基础设施:公共设施:公共厕所",
        "type": 0,
        "location": {
            "lat": 38.455076,
            "lng": 106.271777
        },
        "ad_info": {
            "adcode": 640104,
            "province": "宁夏回族自治区",
            "city": "银川市",
            "district": "兴庆区"
        }
    },
    {
        "id": "18367102544345305076",
        "title": "公共厕所",
        "address": "宁夏回族自治区银川市兴庆区民族北街与沙渠路交叉口西北方向247米左右",
        "tel": "",
        "category": "基础设施:公共设施:公共厕所",
        "type": 0,
        "location": {
            "lat": 38.497149,
            "lng": 106.286666
        },
        "ad_info": {
            "adcode": 640104,
            "province": "宁夏回族自治区",
            "city": "银川市",
            "district": "兴庆区"
        }
    },
    {
        "id": "6011599631641275004",
        "title": "公共厕所",
        "address": "宁夏回族自治区银川市兴庆区丽景北街与国商北路交叉口正南方向169米左右",
        "tel": "",
        "category": "基础设施:公共设施:公共厕所",
        "type": 0,
        "location": {
            "lat": 38.498823,
            "lng": 106.308867
        },
        "ad_info": {
            "adcode": 640104,
            "province": "宁夏回族自治区",
            "city": "银川市",
            "district": "兴庆区"
        }
    },
    {
        "id": "6349697834153945097",
        "title": "公共厕所",
        "address": "宁夏回族自治区银川市兴庆区友爱街与南薰东路辅路交叉口西60米",
        "tel": "",
        "category": "基础设施:公共设施:公共厕所",
        "type": 0,
        "location": {
            "lat": 38.446552,
            "lng": 106.306923
        },
        "ad_info": {
            "adcode": 640104,
            "province": "宁夏回族自治区",
            "city": "银川市",
            "district": "兴庆区"
        }
    },
    {
        "id": "9540291566790156168",
        "title": "公共厕所",
        "address": "宁夏回族自治区银川市兴庆区丽景北街与海宝路交叉口东北方向158米左右",
        "tel": "",
        "category": "基础设施:公共设施:公共厕所",
        "type": 0,
        "location": {
            "lat": 38.486003,
            "lng": 106.306915
        },
        "ad_info": {
            "adcode": 640104,
            "province": "宁夏回族自治区",
            "city": "银川市",
            "district": "兴庆区"
        }
    },
    {
        "id": "7416115195875038820",
        "title": "公共厕所",
        "address": "宁夏回族自治区银川市兴庆区宗睦巷与教育南巷交叉口正西方向8米左右",
        "tel": "",
        "category": "基础设施:公共设施:公共厕所",
        "type": 0,
        "location": {
            "lat": 38.465927,
            "lng": 106.273228
        },
        "ad_info": {
            "adcode": 640104,
            "province": "宁夏回族自治区",
            "city": "银川市",
            "district": "兴庆区"
        }
    },
    {
        "id": "8887485880653610433",
        "title": "公共厕所",
        "address": "宁夏回族自治区银川市贺兰县居安东路东方嘉苑",
        "tel": "",
        "category": "基础设施:公共设施:公共厕所",
        "type": 0,
        "location": {
            "lat": 38.550619,
            "lng": 106.347143
        },
        "ad_info": {
            "adcode": 640122,
            "province": "宁夏回族自治区",
            "city": "银川市",
            "district": "贺兰县"
        }
    },
    {
        "id": "16807367733469146247",
        "title": "公共卫生间",
        "address": "宁夏回族自治区银川市兴庆区丽景南街与治平路交叉口东北方向199米左右",
        "tel": "",
        "category": "基础设施:公共设施:公共厕所",
        "type": 0,
        "location": {
            "lat": 38.436461,
            "lng": 106.297268
        },
        "ad_info": {
            "adcode": 640104,
            "province": "宁夏回族自治区",
            "city": "银川市",
            "district": "兴庆区"
        }
    },
    {
        "id": "13190066719773168474",
        "title": "公共厕所",
        "address": "宁夏回族自治区银川市兴庆区宗睦巷与富宁街交叉口正南方向60米左右",
        "tel": "",
        "category": "基础设施:公共设施:公共厕所",
        "type": 0,
        "location": {
            "lat": 38.467606,
            "lng": 106.26412
        },
        "ad_info": {
            "adcode": 640104,
            "province": "宁夏回族自治区",
            "city": "银川市",
            "district": "兴庆区"
        }
    },
    {
        "id": "10071531843733693592",
        "title": "公共厕所",
        "address": "宁夏回族自治区银川市兴庆区玉皇阁北街工行和平新村住宅区",
        "tel": "",
        "category": "基础设施:公共设施:公共厕所",
        "type": 0,
        "location": {
            "lat": 38.473274,
            "lng": 106.286705
        },
        "ad_info": {
            "adcode": 640104,
            "province": "宁夏回族自治区",
            "city": "银川市",
            "district": "兴庆区"
        }
    },
    {
        "id": "18250140852343481107",
        "title": "公共厕所",
        "address": "宁夏回族自治区银川市兴庆区长城东路思宁园小区",
        "tel": "",
        "category": "基础设施:公共设施:公共厕所",
        "type": 0,
        "location": {
            "lat": 38.456904,
            "lng": 106.274453
        },
        "ad_info": {
            "adcode": 640104,
            "province": "宁夏回族自治区",
            "city": "银川市",
            "district": "兴庆区"
        }
    },
    {
        "id": "2571729814391397315",
        "title": "公共厕所",
        "address": "宁夏回族自治区银川市兴庆区燕京路与燕庆街交叉口正东方向137米左右",
        "tel": "",
        "category": "基础设施:公共设施:公共厕所",
        "type": 0,
        "location": {
            "lat": 38.446861,
            "lng": 106.323536
        },
        "ad_info": {
            "adcode": 640104,
            "province": "宁夏回族自治区",
            "city": "银川市",
            "district": "兴庆区"
        }
    },
    {
        "id": "1511300267144993449",
        "title": "公共厕所",
        "address": "宁夏回族自治区银川市永宁县南环路青春苑",
        "tel": "",
        "category": "基础设施:公共设施:公共厕所",
        "type": 0,
        "location": {
            "lat": 38.272067,
            "lng": 106.249511
        },
        "ad_info": {
            "adcode": 640121,
            "province": "宁夏回族自治区",
            "city": "银川市",
            "district": "永宁县"
        }
    },
    {
        "id": "3755134341117094099",
        "title": "公共厕所",
        "address": "宁夏回族自治区银川市兴庆区丽景北街银川恒大御景",
        "tel": "",
        "category": "基础设施:公共设施:公共厕所",
        "type": 0,
        "location": {
            "lat": 38.481796,
            "lng": 106.304794
        },
        "ad_info": {
            "adcode": 640104,
            "province": "宁夏回族自治区",
            "city": "银川市",
            "district": "兴庆区"
        }
    },
    {
        "id": "3152071616884262005",
        "title": "公共厕所",
        "address": "宁夏回族自治区银川市西夏区沙城子路与马场路交叉口东北方向328米左右",
        "tel": "",
        "category": "基础设施:公共设施:公共厕所",
        "type": 0,
        "location": {
            "lat": 38.53858,
            "lng": 106.146019
        },
        "ad_info": {
            "adcode": 640105,
            "province": "宁夏回族自治区",
            "city": "银川市",
            "district": "西夏区"
        }
    },
    {
        "id": "15626453809974868110",
        "title": "共卫生间",
        "address": "宁夏回族自治区银川市永宁县G109与启元路交叉口正南方向197米左右",
        "tel": "",
        "category": "基础设施:公共设施:公共厕所",
        "type": 0,
        "location": {
            "lat": 38.374114,
            "lng": 106.272894
        },
        "ad_info": {
            "adcode": 640121,
            "province": "宁夏回族自治区",
            "city": "银川市",
            "district": "永宁县"
        }
    },
    {
        "id": "14715042499068809413",
        "title": "公共厕所",
        "address": "宁夏回族自治区银川市西夏区健力巷与贺兰山西路交叉口东南方向129米左右",
        "tel": "",
        "category": "基础设施:公共设施:公共厕所",
        "type": 0,
        "location": {
            "lat": 38.500056,
            "lng": 106.158528
        },
        "ad_info": {
            "adcode": 640105,
            "province": "宁夏回族自治区",
            "city": "银川市",
            "district": "西夏区"
        }
    },
    {
        "id": "14571253763651644933",
        "title": "公共厕所",
        "address": "宁夏回族自治区银川市灵武市保健巷与谢家井巷交叉口正西方向69米左右",
        "tel": "",
        "category": "基础设施:公共设施:公共厕所",
        "type": 0,
        "location": {
            "lat": 38.092132,
            "lng": 106.33736
        },
        "ad_info": {
            "adcode": 640181,
            "province": "宁夏回族自治区",
            "city": "银川市",
            "district": "灵武市"
        }
    },
    {
        "id": "12450397933056300918",
        "title": "公共厕所",
        "address": "宁夏回族自治区银川市兴庆区燕庆街与迎燕巷交叉口正西方向166米左右",
        "tel": "",
        "category": "基础设施:公共设施:公共厕所",
        "type": 0,
        "location": {
            "lat": 38.453901,
            "lng": 106.327948
        },
        "ad_info": {
            "adcode": 640104,
            "province": "宁夏回族自治区",
            "city": "银川市",
            "district": "兴庆区"
        }
    },
    {
        "id": "18097706948330451784",
        "title": "公共厕所",
        "address": "宁夏回族自治区银川市西夏区华安街与平运路交叉口正西方向159米左右",
        "tel": "",
        "category": "基础设施:公共设施:公共厕所",
        "type": 0,
        "location": {
            "lat": 38.455082,
            "lng": 106.141099
        },
        "ad_info": {
            "adcode": 640105,
            "province": "宁夏回族自治区",
            "city": "银川市",
            "district": "西夏区"
        }
    },
    {
        "id": "10863563941620115592",
        "title": "公共厕所",
        "address": "宁夏回族自治区银川市贺兰县广场巷与水源街交叉口东南方向22米左右",
        "tel": "",
        "category": "基础设施:公共设施:公共厕所",
        "type": 0,
        "location": {
            "lat": 38.558819,
            "lng": 106.340969
        },
        "ad_info": {
            "adcode": 640122,
            "province": "宁夏回族自治区",
            "city": "银川市",
            "district": "贺兰县"
        }
    },
    {
        "id": "6115810506621742276",
        "title": "公共厕所",
        "address": "宁夏回族自治区银川市兴庆区济慈巷海宝小区福天苑东南1门",
        "tel": "",
        "category": "基础设施:公共设施:公共厕所",
        "type": 0,
        "location": {
            "lat": 38.482681,
            "lng": 106.273388
        },
        "ad_info": {
            "adcode": 640104,
            "province": "宁夏回族自治区",
            "city": "银川市",
            "district": "兴庆区"
        }
    },
    {
        "id": "9038544779340568145",
        "title": "公共厕所",
        "address": "宁夏回族自治区银川市金凤区宏育街与贺兰山中路交叉口正南方向407米左右",
        "tel": "",
        "category": "基础设施:公共设施:公共厕所",
        "type": 0,
        "location": {
            "lat": 38.49737,
            "lng": 106.203092
        },
        "ad_info": {
            "adcode": 640106,
            "province": "宁夏回族自治区",
            "city": "银川市",
            "district": "金凤区"
        }
    },
    {
        "id": "6712354944034223088",
        "title": "晨晚练广场(黄河东路)公共厕所",
        "address": "宁夏回族自治区银川市金凤区绿园巷与黄河东路交叉口西北方向54米左右",
        "tel": "",
        "category": "基础设施:公共设施:公共厕所",
        "type": 0,
        "location": {
            "lat": 38.472182,
            "lng": 106.252397
        },
        "ad_info": {
            "adcode": 640106,
            "province": "宁夏回族自治区",
            "city": "银川市",
            "district": "金凤区"
        }
    },
    {
        "id": "15805957273742261708",
        "title": "五里湖畔公共厕所",
        "address": "宁夏回族自治区银川市金凤区庆丰街与水乡路交叉口正东方向39米左右",
        "tel": "",
        "category": "基础设施:公共设施:公共厕所",
        "type": 0,
        "location": {
            "lat": 38.441355,
            "lng": 106.232387
        },
        "ad_info": {
            "adcode": 640106,
            "province": "宁夏回族自治区",
            "city": "银川市",
            "district": "金凤区"
        }
    },
    {
        "id": "15432103542620754721",
        "title": "公共厕所",
        "address": "宁夏回族自治区银川市兴庆区清和北街与清和南街交叉口东南方向108米左右",
        "tel": "",
        "category": "基础设施:公共设施:公共厕所",
        "type": 0,
        "location": {
            "lat": 38.462669,
            "lng": 106.291287
        },
        "ad_info": {
            "adcode": 640104,
            "province": "宁夏回族自治区",
            "city": "银川市",
            "district": "兴庆区"
        }
    },
    {
        "id": "8897495323514831631",
        "title": "公共厕所",
        "address": "宁夏回族自治区银川市西夏区泾华街兴泾镇市场(育才路)",
        "tel": "",
        "category": "基础设施:公共设施:公共厕所",
        "type": 0,
        "location": {
            "lat": 38.387087,
            "lng": 106.098596
        },
        "ad_info": {
            "adcode": 640105,
            "province": "宁夏回族自治区",
            "city": "银川市",
            "district": "西夏区"
        }
    },
    {
        "id": "5743878508265928200",
        "title": "公共厕所",
        "address": "宁夏回族自治区银川市兴庆区博仁诊所(友爱中心街)西侧80米",
        "tel": "",
        "category": "基础设施:公共设施:公共厕所",
        "type": 0,
        "location": {
            "lat": 38.432636,
            "lng": 106.299479
        },
        "ad_info": {
            "adcode": 640104,
            "province": "宁夏回族自治区",
            "city": "银川市",
            "district": "兴庆区"
        }
    },
    {
        "id": "1003887869855891216",
        "title": "桃林花园-公共厕所",
        "address": "宁夏回族自治区银川市贺兰县茂源街贺兰县文化局综合楼",
        "tel": "",
        "category": "基础设施:公共设施:公共厕所",
        "type": 0,
        "location": {
            "lat": 38.555279,
            "lng": 106.348939
        },
        "ad_info": {
            "adcode": 640122,
            "province": "宁夏回族自治区",
            "city": "银川市",
            "district": "贺兰县"
        }
    },
    {
        "id": "500619246679006605",
        "title": "公共厕所",
        "address": "宁夏回族自治区银川市金凤区亲水北大街与亲睦巷交叉口西南方向28米左右",
        "tel": "",
        "category": "基础设施:公共设施:公共厕所",
        "type": 0,
        "location": {
            "lat": 38.498551,
            "lng": 106.216584
        },
        "ad_info": {
            "adcode": 640106,
            "province": "宁夏回族自治区",
            "city": "银川市",
            "district": "金凤区"
        }
    },
    {
        "id": "18250140852343481107",
        "title": "公共厕所",
        "address": "宁夏回族自治区银川市兴庆区长城东路思宁园小区",
        "tel": "",
        "category": "基础设施:公共设施:公共厕所",
        "type": 0,
        "location": {
            "lat": 38.456904,
            "lng": 106.274453
        },
        "ad_info": {
            "adcode": 640104,
            "province": "宁夏回族自治区",
            "city": "银川市",
            "district": "兴庆区"
        }
    },
    {
        "id": "2571729814391397315",
        "title": "公共厕所",
        "address": "宁夏回族自治区银川市兴庆区燕京路与燕庆街交叉口正东方向137米左右",
        "tel": "",
        "category": "基础设施:公共设施:公共厕所",
        "type": 0,
        "location": {
            "lat": 38.446861,
            "lng": 106.323536
        },
        "ad_info": {
            "adcode": 640104,
            "province": "宁夏回族自治区",
            "city": "银川市",
            "district": "兴庆区"
        }
    },
    {
        "id": "1511300267144993449",
        "title": "公共厕所",
        "address": "宁夏回族自治区银川市永宁县南环路青春苑",
        "tel": "",
        "category": "基础设施:公共设施:公共厕所",
        "type": 0,
        "location": {
            "lat": 38.272067,
            "lng": 106.249511
        },
        "ad_info": {
            "adcode": 640121,
            "province": "宁夏回族自治区",
            "city": "银川市",
            "district": "永宁县"
        }
    },
    {
        "id": "3755134341117094099",
        "title": "公共厕所",
        "address": "宁夏回族自治区银川市兴庆区丽景北街银川恒大御景",
        "tel": "",
        "category": "基础设施:公共设施:公共厕所",
        "type": 0,
        "location": {
            "lat": 38.481796,
            "lng": 106.304794
        },
        "ad_info": {
            "adcode": 640104,
            "province": "宁夏回族自治区",
            "city": "银川市",
            "district": "兴庆区"
        }
    },
    {
        "id": "3152071616884262005",
        "title": "公共厕所",
        "address": "宁夏回族自治区银川市西夏区沙城子路与马场路交叉口东北方向328米左右",
        "tel": "",
        "category": "基础设施:公共设施:公共厕所",
        "type": 0,
        "location": {
            "lat": 38.53858,
            "lng": 106.146019
        },
        "ad_info": {
            "adcode": 640105,
            "province": "宁夏回族自治区",
            "city": "银川市",
            "district": "西夏区"
        }
    },
    {
        "id": "15626453809974868110",
        "title": "共卫生间",
        "address": "宁夏回族自治区银川市永宁县G109与启元路交叉口正南方向197米左右",
        "tel": "",
        "category": "基础设施:公共设施:公共厕所",
        "type": 0,
        "location": {
            "lat": 38.374114,
            "lng": 106.272894
        },
        "ad_info": {
            "adcode": 640121,
            "province": "宁夏回族自治区",
            "city": "银川市",
            "district": "永宁县"
        }
    },
    {
        "id": "14715042499068809413",
        "title": "公共厕所",
        "address": "宁夏回族自治区银川市西夏区健力巷与贺兰山西路交叉口东南方向129米左右",
        "tel": "",
        "category": "基础设施:公共设施:公共厕所",
        "type": 0,
        "location": {
            "lat": 38.500056,
            "lng": 106.158528
        },
        "ad_info": {
            "adcode": 640105,
            "province": "宁夏回族自治区",
            "city": "银川市",
            "district": "西夏区"
        }
    },
    {
        "id": "14571253763651644933",
        "title": "公共厕所",
        "address": "宁夏回族自治区银川市灵武市保健巷与谢家井巷交叉口正西方向69米左右",
        "tel": "",
        "category": "基础设施:公共设施:公共厕所",
        "type": 0,
        "location": {
            "lat": 38.092132,
            "lng": 106.33736
        },
        "ad_info": {
            "adcode": 640181,
            "province": "宁夏回族自治区",
            "city": "银川市",
            "district": "灵武市"
        }
    },
    {
        "id": "12450397933056300918",
        "title": "公共厕所",
        "address": "宁夏回族自治区银川市兴庆区燕庆街与迎燕巷交叉口正西方向166米左右",
        "tel": "",
        "category": "基础设施:公共设施:公共厕所",
        "type": 0,
        "location": {
            "lat": 38.453901,
            "lng": 106.327948
        },
        "ad_info": {
            "adcode": 640104,
            "province": "宁夏回族自治区",
            "city": "银川市",
            "district": "兴庆区"
        }
    },
    {
        "id": "18097706948330451784",
        "title": "公共厕所",
        "address": "宁夏回族自治区银川市西夏区华安街与平运路交叉口正西方向159米左右",
        "tel": "",
        "category": "基础设施:公共设施:公共厕所",
        "type": 0,
        "location": {
            "lat": 38.455082,
            "lng": 106.141099
        },
        "ad_info": {
            "adcode": 640105,
            "province": "宁夏回族自治区",
            "city": "银川市",
            "district": "西夏区"
        }
    },
    {
        "id": "10863563941620115592",
        "title": "公共厕所",
        "address": "宁夏回族自治区银川市贺兰县广场巷与水源街交叉口东南方向22米左右",
        "tel": "",
        "category": "基础设施:公共设施:公共厕所",
        "type": 0,
        "location": {
            "lat": 38.558819,
            "lng": 106.340969
        },
        "ad_info": {
            "adcode": 640122,
            "province": "宁夏回族自治区",
            "city": "银川市",
            "district": "贺兰县"
        }
    },
    {
        "id": "6115810506621742276",
        "title": "公共厕所",
        "address": "宁夏回族自治区银川市兴庆区济慈巷海宝小区福天苑东南1门",
        "tel": "",
        "category": "基础设施:公共设施:公共厕所",
        "type": 0,
        "location": {
            "lat": 38.482681,
            "lng": 106.273388
        },
        "ad_info": {
            "adcode": 640104,
            "province": "宁夏回族自治区",
            "city": "银川市",
            "district": "兴庆区"
        }
    },
    {
        "id": "9038544779340568145",
        "title": "公共厕所",
        "address": "宁夏回族自治区银川市金凤区宏育街与贺兰山中路交叉口正南方向407米左右",
        "tel": "",
        "category": "基础设施:公共设施:公共厕所",
        "type": 0,
        "location": {
            "lat": 38.49737,
            "lng": 106.203092
        },
        "ad_info": {
            "adcode": 640106,
            "province": "宁夏回族自治区",
            "city": "银川市",
            "district": "金凤区"
        }
    },
    {
        "id": "6712354944034223088",
        "title": "晨晚练广场(黄河东路)公共厕所",
        "address": "宁夏回族自治区银川市金凤区绿园巷与黄河东路交叉口西北方向54米左右",
        "tel": "",
        "category": "基础设施:公共设施:公共厕所",
        "type": 0,
        "location": {
            "lat": 38.472182,
            "lng": 106.252397
        },
        "ad_info": {
            "adcode": 640106,
            "province": "宁夏回族自治区",
            "city": "银川市",
            "district": "金凤区"
        }
    },
    {
        "id": "15805957273742261708",
        "title": "五里湖畔公共厕所",
        "address": "宁夏回族自治区银川市金凤区庆丰街与水乡路交叉口正东方向39米左右",
        "tel": "",
        "category": "基础设施:公共设施:公共厕所",
        "type": 0,
        "location": {
            "lat": 38.441355,
            "lng": 106.232387
        },
        "ad_info": {
            "adcode": 640106,
            "province": "宁夏回族自治区",
            "city": "银川市",
            "district": "金凤区"
        }
    },
    {
        "id": "15432103542620754721",
        "title": "公共厕所",
        "address": "宁夏回族自治区银川市兴庆区清和北街与清和南街交叉口东南方向108米左右",
        "tel": "",
        "category": "基础设施:公共设施:公共厕所",
        "type": 0,
        "location": {
            "lat": 38.462669,
            "lng": 106.291287
        },
        "ad_info": {
            "adcode": 640104,
            "province": "宁夏回族自治区",
            "city": "银川市",
            "district": "兴庆区"
        }
    },
    {
        "id": "8897495323514831631",
        "title": "公共厕所",
        "address": "宁夏回族自治区银川市西夏区泾华街兴泾镇市场(育才路)",
        "tel": "",
        "category": "基础设施:公共设施:公共厕所",
        "type": 0,
        "location": {
            "lat": 38.387087,
            "lng": 106.098596
        },
        "ad_info": {
            "adcode": 640105,
            "province": "宁夏回族自治区",
            "city": "银川市",
            "district": "西夏区"
        }
    },
    {
        "id": "5743878508265928200",
        "title": "公共厕所",
        "address": "宁夏回族自治区银川市兴庆区博仁诊所(友爱中心街)西侧80米",
        "tel": "",
        "category": "基础设施:公共设施:公共厕所",
        "type": 0,
        "location": {
            "lat": 38.432636,
            "lng": 106.299479
        },
        "ad_info": {
            "adcode": 640104,
            "province": "宁夏回族自治区",
            "city": "银川市",
            "district": "兴庆区"
        }
    },
    {
        "id": "1003887869855891216",
        "title": "桃林花园-公共厕所",
        "address": "宁夏回族自治区银川市贺兰县茂源街贺兰县文化局综合楼",
        "tel": "",
        "category": "基础设施:公共设施:公共厕所",
        "type": 0,
        "location": {
            "lat": 38.555279,
            "lng": 106.348939
        },
        "ad_info": {
            "adcode": 640122,
            "province": "宁夏回族自治区",
            "city": "银川市",
            "district": "贺兰县"
        }
    },
    {
        "id": "500619246679006605",
        "title": "公共厕所",
        "address": "宁夏回族自治区银川市金凤区亲水北大街与亲睦巷交叉口西南方向28米左右",
        "tel": "",
        "category": "基础设施:公共设施:公共厕所",
        "type": 0,
        "location": {
            "lat": 38.498551,
            "lng": 106.216584
        },
        "ad_info": {
            "adcode": 640106,
            "province": "宁夏回族自治区",
            "city": "银川市",
            "district": "金凤区"
        }
    },
    {
        "id": "18250140852343481107",
        "title": "公共厕所",
        "address": "宁夏回族自治区银川市兴庆区长城东路思宁园小区",
        "tel": "",
        "category": "基础设施:公共设施:公共厕所",
        "type": 0,
        "location": {
            "lat": 38.456904,
            "lng": 106.274453
        },
        "ad_info": {
            "adcode": 640104,
            "province": "宁夏回族自治区",
            "city": "银川市",
            "district": "兴庆区"
        }
    },
    {
        "id": "2571729814391397315",
        "title": "公共厕所",
        "address": "宁夏回族自治区银川市兴庆区燕京路与燕庆街交叉口正东方向137米左右",
        "tel": "",
        "category": "基础设施:公共设施:公共厕所",
        "type": 0,
        "location": {
            "lat": 38.446861,
            "lng": 106.323536
        },