[
    {
        "id": "14325333530400225733",
        "title": "公共厕所",
        "address": "内蒙古自治区锡林郭勒盟西乌珠穆沁旗巴彦高勒路与白音华街交叉口正南方向18米左右",
        "tel": "",
        "category": "基础设施:公共设施:公共厕所",
        "type": 0,
        "location": {
            "lat": 44.578237,
            "lng": 117.625495
        },
        "ad_info": {
            "adcode": 152526,
            "province": "内蒙古自治区",
            "city": "锡林郭勒盟",
            "district": "西乌珠穆沁旗"
        }
    },
    {
        "id": "4255535589049661760",
        "title": "公共厕所",
        "address": "内蒙古自治区锡林郭勒盟阿巴嘎旗阿巴嘎旗民政局东北(别力古台南路北)",
        "tel": "",
        "category": "基础设施:公共设施:公共厕所",
        "type": 0,
        "location": {
            "lat": 44.018677,
            "lng": 114.974842
        },
        "ad_info": {
            "adcode": 152522,
            "province": "内蒙古自治区",
            "city": "锡林郭勒盟",
            "district": "阿巴嘎旗"
        }
    },
    {
        "id": "5787847764642794974",
        "title": "公共厕所",
        "address": "内蒙古自治区锡林郭勒盟二连浩特市察哈尔街与影视巷交叉口东南方向271米左右",
        "tel": "",
        "category": "基础设施:公共设施:公共厕所",
        "type": 0,
        "location": {
            "lat": 43.654526,
            "lng": 111.974279
        },
        "ad_info": {
            "adcode": 152501,
            "province": "内蒙古自治区",
            "city": "锡林郭勒盟",
            "district": "二连浩特市"
        }
    },
    {
        "id": "15321134940907063118",
        "title": "公共厕所",
        "address": "内蒙古自治区锡林郭勒盟镶黄旗恩克路与新宝拉格街交叉口西北方向78米左右",
        "tel": "",
        "category": "基础设施:公共设施:公共厕所",
        "type": 0,
        "location": {
            "lat": 42.240274,
            "lng": 113.847853
        },
        "ad_info": {
            "adcode": 152528,
            "province": "内蒙古自治区",
            "city": "锡林郭勒盟",
            "district": "镶黄旗"
        }
    },
    {
        "id": "12468274377412473190",
        "title": "公共厕所",
        "address": "内蒙古自治区锡林郭勒盟西乌珠穆沁旗巴彦乌拉街与巴斯路交叉口正北方向91米左右",
        "tel": "",
        "category": "基础设施:公共设施:公共厕所",
        "type": 0,
        "location": {
            "lat": 44.586819,
            "lng": 117.608301
        },
        "ad_info": {
            "adcode": 152526,
            "province": "内蒙古自治区",
            "city": "锡林郭勒盟",
            "district": "西乌珠穆沁旗"
        }
    },
    {
        "id": "6978946559677354029",
        "title": "公共厕所",
        "address": "内蒙古自治区锡林郭勒盟二连浩特市友谊路与民康巷交叉口正南方向83米左右",
        "tel": "",
        "category": "基础设施:公共设施:公共厕所",
        "type": 0,
        "location": {
            "lat": 43.661255,
            "lng": 111.979358
        },
        "ad_info": {
            "adcode": 152501,
            "province": "内蒙古自治区",
            "city": "锡林郭勒盟",
            "district": "二连浩特市"
        }
    },
    {
        "id": "10668153474576172108",
        "title": "公共厕所",
        "address": "内蒙古自治区锡林郭勒盟太仆寺旗团结街与建设南路交叉口正东方向94米左右",
        "tel": "",
        "category": "基础设施:公共设施:公共厕所",
        "type": 0,
        "location": {
            "lat": 41.88503,
            "lng": 115.285363
        },
        "ad_info": {
            "adcode": 152527,
            "province": "内蒙古自治区",
            "city": "锡林郭勒盟",
            "district": "太仆寺旗"
        }
    },
    {
        "id": "11988263942207787112",
        "title": "公共厕所",
        "address": "内蒙古自治区锡林郭勒盟二连浩特市友谊小区南巷与迎宾路交叉口正东方向67米左右",
        "tel": "",
        "category": "基础设施:公共设施:公共厕所",
        "type": 0,
        "location": {
            "lat": 43.659421,
            "lng": 111.985655
        },
        "ad_info": {
            "adcode": 152501,
            "province": "内蒙古自治区",
            "city": "锡林郭勒盟",
            "district": "二连浩特市"
        }
    },
    {
        "id": "7509235627644579359",
        "title": "公共厕所",
        "address": "内蒙古自治区锡林郭勒盟二连浩特市二色线与欧亚大道交叉口西北方向75米左右",
        "tel": "",
        "category": "基础设施:公共设施:公共厕所",
        "type": 0,
        "location": {
            "lat": 43.682568,
            "lng": 111.990203
        },
        "ad_info": {
            "adcode": 152501,
            "province": "内蒙古自治区",
            "city": "锡林郭勒盟",
            "district": "二连浩特市"
        }
    },
    {
        "id": "1354425108840061056",
        "title": "公共厕所",
        "address": "内蒙古自治区锡林郭勒盟二连浩特市前进路与国门金街交叉口西北方向23米左右",
        "tel": "",
        "category": "基础设施:公共设施:公共厕所",
        "type": 0,
        "location": {
            "lat": 43.656394,
            "lng": 111.977429
        },
        "ad_info": {
            "adcode": 152501,
            "province": "内蒙古自治区",
            "city": "锡林郭勒盟",
            "district": "二连浩特市"
        }
    },
    {
        "id": "14957497386413809434",
        "title": "公共厕所",
        "address": "内蒙古自治区锡林郭勒盟二连浩特市恐龙大街与桐安小区东巷交叉口西北方向143米左右",
        "tel": "",
        "category": "基础设施:公共设施:公共厕所",
        "type": 0,
        "location": {
            "lat": 43.643463,
            "lng": 111.97434
        },
        "ad_info": {
            "adcode": 152501,
            "province": "内蒙古自治区",
            "city": "锡林郭勒盟",
            "district": "二连浩特市"
        }
    },
    {
        "id": "4728230983543513229",
        "title": "公共厕所",
        "address": "内蒙古自治区锡林郭勒盟锡林浩特市自由巷与那达慕大街交叉口西北方向20米左右",
        "tel": "",
        "category": "基础设施:公共设施:公共厕所",
        "type": 0,
        "location": {
            "lat": 43.946843,
            "lng": 116.101005
        },
        "ad_info": {
            "adcode": 152502,
            "province": "内蒙古自治区",
            "city": "锡林郭勒盟",
            "district": "锡林浩特市"
        }
    },
    {
        "id": "16781612921370258512",
        "title": "公共厕所",
        "address": "内蒙古自治区锡林郭勒盟二连浩特市建设路701号",
        "tel": "",
        "category": "基础设施:公共设施:公共厕所",
        "type": 0,
        "location": {
            "lat": 43.640245,
            "lng": 111.97814
        },
        "ad_info": {
            "adcode": 152501,
            "province": "内蒙古自治区",
            "city": "锡林郭勒盟",
            "district": "二连浩特市"
        }
    },
    {
        "id": "11421062234997511631",
        "title": "公共厕所",
        "address": "内蒙古自治区锡林郭勒盟太仆寺旗Y273与宝万线交叉口西南方向23米左右",
        "tel": "",
        "category": "基础设施:公共设施:公共厕所",
        "type": 0,
        "location": {
            "lat": 41.91421,
            "lng": 115.204255
        },
        "ad_info": {
            "adcode": 152527,
            "province": "内蒙古自治区",
            "city": "锡林郭勒盟",
            "district": "太仆寺旗"
        }
    },
    {
        "id": "745279050954216229",
        "title": "公共厕所",
        "address": "内蒙古自治区锡林郭勒盟锡林浩特市贝子庙大街与阿尔善路交叉口西北方向262米左右",
        "tel": "",
        "category": "基础设施:公共设施:公共厕所",
        "type": 0,
        "location": {
            "lat": 43.953159,
            "lng": 116.073448
        },
        "ad_info": {
            "adcode": 152502,
            "province": "内蒙古自治区",
            "city": "锡林郭勒盟",
            "district": "锡林浩特市"
        }
    },
    {
        "id": "3046062419416160583",
        "title": "公共厕所",
        "address": "内蒙古自治区锡林郭勒盟二连浩特市友谊路二连浩特市医院",
        "tel": "",
        "category": "基础设施:公共设施:公共厕所",
        "type": 0,
        "location": {
            "lat": 43.672817,
            "lng": 111.969989
        },
        "ad_info": {
            "adcode": 152501,
            "province": "内蒙古自治区",
            "city": "锡林郭勒盟",
            "district": "二连浩特市"
        }
    },
    {
        "id": "14724770485853743147",
        "title": "公共厕所",
        "address": "内蒙古自治区锡林郭勒盟二连浩特市诚信路与锡林街交叉口东南方向81米左右",
        "tel": "",
        "category": "基础设施:公共设施:公共厕所",
        "type": 0,
        "location": {
            "lat": 43.648732,
            "lng": 111.978325
        },
        "ad_info": {
            "adcode": 152501,
            "province": "内蒙古自治区",
            "city": "锡林郭勒盟",
            "district": "二连浩特市"
        }
    },
    {
        "id": "3060509778959201382",
        "title": "公共厕所",
        "address": "内蒙古自治区锡林郭勒盟二连浩特市团结路与新华大街交叉口西南方向195米左右",
        "tel": "",
        "category": "基础设施:公共设施:公共厕所",
        "type": 0,
        "location": {
            "lat": 43.653402,
            "lng": 111.981671
        },
        "ad_info": {
            "adcode": 152501,
            "province": "内蒙古自治区",
            "city": "锡林郭勒盟",
            "district": "二连浩特市"
        }
    },
    {
        "id": "3874983899978287671",
        "title": "公共厕所",
        "address": "内蒙古自治区锡林郭勒盟正蓝旗上都大街与腾飞路交叉口西北方向140米左右",
        "tel": "",
        "category": "基础设施:公共设施:公共厕所",
        "type": 0,
        "location": {
            "lat": 42.244632,
            "lng": 115.984789
        },
        "ad_info": {
            "adcode": 152530,
            "province": "内蒙古自治区",
            "city": "锡林郭勒盟",
            "district": "正蓝旗"
        }
    },
    {
        "id": "3098216231453747370",
        "title": "公共厕所",
        "address": "内蒙古自治区锡林郭勒盟阿巴嘎旗汉贝东街与海尔罕南路交叉口正南方向124米左右",
        "tel": "",
        "category": "基础设施:公共设施:公共厕所",
        "type": 0,
        "location": {
            "lat": 44.020919,
            "lng": 114.97721
        },
        "ad_info": {
            "adcode": 152522,
            "province": "内蒙古自治区",
            "city": "锡林郭勒盟",
            "district": "阿巴嘎旗"
        }
    },
    {
        "id": "18285098691205205724",
        "title": "公共卫生间",
        "address": "内蒙古自治区锡林郭勒盟西乌珠穆沁旗乌珠穆沁街与巴彦高勒路交叉口正西方向161米左右",
        "tel": "",
        "category": "基础设施:公共设施:公共厕所",
        "type": 0,
        "location": {
            "lat": 44.581765,
            "lng": 117.61762
        },
        "ad_info": {
            "adcode": 152526,
            "province": "内蒙古自治区",
            "city": "锡林郭勒盟",
            "district": "西乌珠穆沁旗"
        }
    },
    {
        "id": "15147615473930609913",
        "title": "公共厕所",
        "address": "内蒙古自治区锡林郭勒盟太仆寺旗国防街与解放大街交叉口正东方向38米左右",
        "tel": "",
        "category": "基础设施:公共设施:公共厕所",
        "type": 0,
        "location": {
            "lat": 41.893728,
            "lng": 115.274446
        },
        "ad_info": {
            "adcode": 152527,
            "province": "内蒙古自治区",
            "city": "锡林郭勒盟",
            "district": "太仆寺旗"
        }
    },
    {
        "id": "14074862919191616837",
        "title": "公共厕所",
        "address": "内蒙古自治区锡林郭勒盟太仆寺旗常青街与陵园路交叉口东南方向15米左右",
        "tel": "",
        "category": "基础设施:公共设施:公共厕所",
        "type": 0,
        "location": {
            "lat": 41.897983,
            "lng": 115.279534
        },
        "ad_info": {
            "adcode": 152527,
            "province": "内蒙古自治区",
            "city": "锡林郭勒盟",
            "district": "太仆寺旗"
        }
    },
    {
        "id": "13232982993341606318",
        "title": "公共厕所",
        "address": "内蒙古自治区锡林郭勒盟太仆寺旗新华街三道巷与利民街交叉口西40米",
        "tel": "",
        "category": "基础设施:公共设施:公共厕所",
        "type": 0,
        "location": {
            "lat": 41.892707,
            "lng": 115.289445
        },
        "ad_info": {
            "adcode": 152527,
            "province": "内蒙古自治区",
            "city": "锡林郭勒盟",
            "district": "太仆寺旗"
        }
    },
    {
        "id": "3731135634159696140",
        "title": "公共厕所",
        "address": "内蒙古自治区锡林郭勒盟苏尼特左旗宝德尔路与宝达尔路交叉口正北方向216米左右",
        "tel": "",
        "category": "基础设施:公共设施:公共厕所",
        "type": 0,
        "location": {
            "lat": 43.856611,
            "lng": 113.66564
        },
        "ad_info": {
            "adcode": 152523,
            "province": "内蒙古自治区",
            "city": "锡林郭勒盟",
            "district": "苏尼特左旗"
        }
    },
    {
        "id": "15521472892324488888",
        "title": "公共厕所",
        "address": "内蒙古自治区锡林郭勒盟苏尼特右旗赛汉大街天骄雅苑",
        "tel": "",
        "category": "基础设施:公共设施:公共厕所",
        "type": 0,
        "location": {
            "lat": 42.742088,
            "lng": 112.648394
        },
        "ad_info": {
            "adcode": 152524,
            "province": "内蒙古自治区",
            "city": "锡林郭勒盟",
            "district": "苏尼特右旗"
        }
    },
    {
        "id": "16494066836728113280",
        "title": "公共厕所",
        "address": "内蒙古自治区锡林郭勒盟二连浩特市团结巷与恐龙大街交叉口东南方向207米左右",
        "tel": "",
        "category": "基础设施:公共设施:公共厕所",
        "type": 0,
        "location": {
            "lat": 43.646878,
            "lng": 111.990112
        },
        "ad_info": {
            "adcode": 152501,
            "province": "内蒙古自治区",
            "city": "锡林郭勒盟",
            "district": "二连浩特市"
        }
    },
    {
        "id": "2309400658530973262",
        "title": "公共厕所",
        "address": "内蒙古自治区锡林郭勒盟正蓝旗G207与G239交叉口东北方向1542米左右",
        "tel": "",
        "category": "基础设施:公共设施:公共厕所",
        "type": 0,
        "location": {
            "lat": 42.657269,
            "lng": 115.95181
        },
        "ad_info": {
            "adcode": 152530,
            "province": "内蒙古自治区",
            "city": "锡林郭勒盟",
            "district": "正蓝旗"
        }
    },
    {
        "id": "12499267521297624615",
        "title": "公共厕所",
        "address": "内蒙古自治区锡林郭勒盟西乌珠穆沁旗巴彦高勒路与巴拉嘎尔街交叉口西南方向227米左右",
        "tel": "",
        "category": "基础设施:公共设施:公共厕所",
        "type": 0,
        "location": {
            "lat": 44.583337,
            "lng": 117.612191
        },
        "ad_info": {
            "adcode": 152526,
            "province": "内蒙古自治区",
            "city": "锡林郭勒盟",
            "district": "西乌珠穆沁旗"
        }
    },
    {
        "id": "7626043065741829070",
        "title": "公共厕所",
        "address": "内蒙古自治区锡林郭勒盟镶黄旗宝格都路与新宝拉格街交叉口东南方向278米左右",
        "tel": "",
        "category": "基础设施:公共设施:公共厕所",
        "type": 0,
        "location": {
            "lat": 42.235991,
            "lng": 113.844264
        },
        "ad_info": {
            "adcode": 152528,
            "province": "内蒙古自治区",
            "city": "锡林郭勒盟",
            "district": "镶黄旗"
        }
    },
    {
        "id": "5480959163521196375",
        "title": "公共厕所",
        "address": "内蒙古自治区锡林郭勒盟多伦县会盟大街与双拥路交叉口西南方向75米左右",
        "tel": "",
        "category": "基础设施:公共设施:公共厕所",
        "type": 0,
        "location": {
            "lat": 42.207619,
            "lng": 116.500612
        },
        "ad_info": {
            "adcode": 152531,
            "province": "内蒙古自治区",
            "city": "锡林郭勒盟",
            "district": "多伦县"
        }
    },
    {
        "id": "4346186713495248435",
        "title": "公共厕所",
        "address": "内蒙古自治区锡林郭勒盟正蓝旗玛拉日图胡同与金莲川大街交叉口西南方向89米左右",
        "tel": "",
        "category": "基础设施:公共设施:公共厕所",
        "type": 0,
        "location": {
            "lat": 42.24122,
            "lng": 116.00808
        },
        "ad_info": {
            "adcode": 152530,
            "province": "内蒙古自治区",
            "city": "锡林郭勒盟",
            "district": "正蓝旗"
        }
    },
    {
        "id": "66729492671288490",
        "title": "公共厕所(锡盟·维多利广场)",
        "address": "内蒙古自治区锡林郭勒盟锡林浩特市光明街与额尔敦路交叉口锡盟·维多利广场F2层",
        "tel": "",
        "category": "基础设施:公共设施:公共厕所",
        "type": 0,
        "location": {
            "lat": 43.942197,
            "lng": 116.078817
        },
        "ad_info": {
            "adcode": 152502,
            "province": "内蒙古自治区",
            "city": "锡林郭勒盟",
            "district": "锡林浩特市"
        }
    },
    {
        "id": "2271046316099251613",
        "title": "公共厕所",
        "address": "内蒙古自治区锡林郭勒盟太仆寺旗利民路与幸福街交叉口正东方向89米左右",
        "tel": "",
        "category": "基础设施:公共设施:公共厕所",
        "type": 0,
        "location": {
            "lat": 41.897679,
            "lng": 115.290323
        },
        "ad_info": {
            "adcode": 152527,
            "province": "内蒙古自治区",
            "city": "锡林郭勒盟",
            "district": "太仆寺旗"
        }
    },
    {
        "id": "10827667268073611204",
        "title": "公共厕所",
        "address": "内蒙古自治区锡林郭勒盟西乌珠穆沁旗G207与白霍一级路交叉口正南方向127米",
        "tel": "",
        "category": "基础设施:公共设施:公共厕所",
        "type": 0,
        "location": {
            "lat": 44.937416,
            "lng": 118.691946
        },
        "ad_info": {
            "adcode": 152526,
            "province": "内蒙古自治区",
            "city": "锡林郭勒盟",
            "district": "西乌珠穆沁旗"
        }
    },
    {
        "id": "13127003363555851266",
        "title": "公共厕所",
        "address": "内蒙古自治区锡林郭勒盟正蓝旗侍郎城路与温都尔额日格街交叉口东北方向400米左右",
        "tel": "",
        "category": "基础设施:公共设施:公共厕所",
        "type": 0,
        "location": {
            "lat": 42.257426,
            "lng": 116.007579
        },
        "ad_info": {
            "adcode": 152530,
            "province": "内蒙古自治区",
            "city": "锡林郭勒盟",
            "district": "正蓝旗"
        }
    },
    {
        "id": "14559593653676822764",
        "title": "公共厕所",
        "address": "内蒙古自治区锡林郭勒盟正蓝旗G207与桑伊线交叉口东南方向1524米左右",
        "tel": "",
        "category": "基础设施:公共设施:公共厕所",
        "type": 0,
        "location": {
            "lat": 42.689076,
            "lng": 115.954943
        },
        "ad_info": {
            "adcode": 152530,
            "province": "内蒙古自治区",
            "city": "锡林郭勒盟",
            "district": "正蓝旗"
        }
    },
    {
        "id": "12073508490973999118",
        "title": "公共厕所",
        "address": "内蒙古自治区锡林郭勒盟锡林浩特市澈布日路与锡林东大街交叉口正东方向178米左右",
        "tel": "",
        "category": "基础设施:公共设施:公共厕所",
        "type": 0,
        "location": {
            "lat": 43.958583,
            "lng": 116.101692
        },
        "ad_info": {
            "adcode": 152502,
            "province": "内蒙古自治区",
            "city": "锡林郭勒盟",
            "district": "锡林浩特市"
        }
    },
    {
        "id": "11171755542009823730",
        "title": "公共厕所",
        "address": "内蒙古自治区锡林郭勒盟苏尼特右旗G208与二长线交叉口西北方向516米左右",
        "tel": "",
        "category": "基础设施:公共设施:公共厕所",
        "type": 0,
        "location": {
            "lat": 42.397898,
            "lng": 112.900438
        },
        "ad_info": {
            "adcode": 152524,
            "province": "内蒙古自治区",
            "city": "锡林郭勒盟",
            "district": "苏尼特右旗"
        }
    },
    {
        "id": "12239583854702436392",
        "title": "公共厕所",
        "address": "内蒙古自治区锡林郭勒盟苏尼特右旗乌兰牧骑路与宝力嘎街交叉口西北方向209米左右",
        "tel": "",
        "category": "基础设施:公共设施:公共厕所",
        "type": 0,
        "location": {
            "lat": 42.736739,
            "lng": 112.651176
        },
        "ad_info": {
            "adcode": 152524,
            "province": "内蒙古自治区",
            "city": "锡林郭勒盟",
            "district": "苏尼特右旗"
        }
    },
    {
        "id": "6719963023241916845",
        "title": "公共厕所",
        "address": "内蒙古自治区锡林郭勒盟苏尼特右旗蒙古族小学西南(阿尔善街北)",
        "tel": "",
        "category": "基础设施:公共设施:公共厕所",
        "type": 0,
        "location": {
            "lat": 42.750496,
            "lng": 112.649009
        },
        "ad_info": {
            "adcode": 152524,
            "province": "内蒙古自治区",
            "city": "锡林郭勒盟",
            "district": "苏尼特右旗"
        }
    },
    {
        "id": "8869441840625642225",
        "title": "公共厕所",
        "address": "内蒙古自治区锡林郭勒盟正镶白旗S222与集阿高速交叉口正北方向221米左右",
        "tel": "",
        "category": "基础设施:公共设施:公共厕所",
        "type": 0,
        "location": {
            "lat": 42.209921,
            "lng": 115.075221
        },
        "ad_info": {
            "adcode": 152529,
            "province": "内蒙古自治区",
            "city": "锡林郭勒盟",
            "district": "正镶白旗"
        }
    },
    {
        "id": "1886717265284797213",
        "title": "公共厕所",
        "address": "内蒙古自治区锡林郭勒盟二连浩特市前进路与影视巷交叉口西南方向67米左右",
        "tel": "",
        "category": "基础设施:公共设施:公共厕所",
        "type": 0,
        "location": {
            "lat": 43.654453,
            "lng": 111.978442
        },
        "ad_info": {
            "adcode": 152501,
            "province": "内蒙古自治区",
            "city": "锡林郭勒盟",
            "district": "二连浩特市"
        }
    },
    {
        "id": "802029917578789241",
        "title": "公共卫生间",
        "address": "内蒙古自治区锡林郭勒盟西乌珠穆沁旗柴达木路与那达慕街交叉口正东方向252米左右",
        "tel": "",
        "category": "基础设施:公共设施:公共厕所",
        "type": 0,
        "location": {
            "lat": 44.595225,
            "lng": 117.61137
        },
        "ad_info": {
            "adcode": 152526,
            "province": "内蒙古自治区",
            "city": "锡林郭勒盟",
            "district": "西乌珠穆沁旗"
        }
    },
    {
        "id": "4849307480505512638",
        "title": "公共厕所",
        "address": "内蒙古自治区锡林郭勒盟西乌珠穆沁旗白音路与罕乌拉街交叉口正西方向248米左右",
        "tel": "",
        "category": "基础设施:公共设施:公共厕所",
        "type": 0,
        "location": {
            "lat": 44.59693,
            "lng": 117.618526
        },
        "ad_info": {
            "adcode": 152526,
            "province": "内蒙古自治区",
            "city": "锡林郭勒盟",
            "district": "西乌珠穆沁旗"
        }
    },
    {
        "id": "15585705816604322281",
        "title": "公共厕所",
        "address": "内蒙古自治区锡林郭勒盟正镶白旗正镶白旗集通建筑工程有限责任公司试验室北",
        "tel": "",
        "category": "基础设施:公共设施:公共厕所",
        "type": 0,
        "location": {
            "lat": 42.276545,
            "lng": 115.037786
        },
        "ad_info": {
            "adcode": 152529,
            "province": "内蒙古自治区",
            "city": "锡林郭勒盟",
            "district": "正镶白旗"
        }
    },
    {
        "id": "8623181192786599347",
        "title": "公共卫生间",
        "address": "内蒙古自治区锡林郭勒盟锡林浩特市金街与额尔敦路交叉口正北方向114米左右",
        "tel": "",
        "category": "基础设施:公共设施:公共厕所",
        "type": 0,
        "location": {
            "lat": 43.948953,
            "lng": 116.074081
        },
        "ad_info": {
            "adcode": 152502,
            "province": "内蒙古自治区",
            "city": "锡林郭勒盟",
            "district": "锡林浩特市"
        }
    },
    {
        "id": "17546997456018307531",
        "title": "公共厕所",
        "address": "内蒙古自治区锡林郭勒盟锡林浩特市众力如意园北巷众力·如意园",
        "tel": "",
        "category": "基础设施:公共设施:公共厕所",
        "type": 0,
        "location": {
            "lat": 43.954156,
            "lng": 116.085545
        },
        "ad_info": {
            "adcode": 152502,
            "province": "内蒙古自治区",
            "city": "锡林郭勒盟",
            "district": "锡林浩特市"
        }
    },
    {
        "id": "17549878524504271229",
        "title": "公共厕所",
        "address": "内蒙古自治区锡林郭勒盟西乌珠穆沁旗巴拉嘎尔街与新高勒路交叉口正南方向219米左右",
        "tel": "",
        "category": "基础设施:公共设施:公共厕所",
        "type": 0,
        "location": {
            "lat": 44.591479,
            "lng": 117.627313
        },
        "ad_info": {
            "adcode": 152526,
            "province": "内蒙古自治区",
            "city": "锡林郭勒盟",
            "district": "西乌珠穆沁旗"
        }
    },
    {
        "id": "2199886966898457684",
        "title": "公共厕所",
        "address": "内蒙古自治区锡林郭勒盟锡林浩特市察哈尔大街与杭盖路交叉口西南方向124米左右",
        "tel": "",
        "category": "基础设施:公共设施:公共厕所",
        "type": 0,
        "location": {
            "lat": 43.946069,
            "lng": 116.091474
        },
        "ad_info": {
            "adcode": 152502,
            "province": "内蒙古自治区",
            "city": "锡林郭勒盟",
            "district": "锡林浩特市"
        }
    },
    {
        "id": "5645426826425523053",
        "title": "公共厕所",
        "address": "内蒙古自治区锡林郭勒盟锡林浩特市宝昌路与那达慕西街交叉口正东方向175米左右",
        "tel": "",
        "category": "基础设施:公共设施:公共厕所",
        "type": 0,
        "location": {
            "lat": 43.916047,
            "lng": 116.04719
        },
        "ad_info": {
            "adcode": 152502,
            "province": "内蒙古自治区",
            "city": "锡林郭勒盟",
            "district": "锡林浩特市"
        }
    },
    {
        "id": "14841046977817432580",
        "title": "公共卫生间",
        "address": "内蒙古自治区锡林郭勒盟锡林浩特市额吉淖尔路优佳快捷宾馆",
        "tel": "",
        "category": "基础设施:公共设施:公共厕所",
        "type": 0,
        "location": {
            "lat": 43.931102,
            "lng": 116.100711
        },
        "ad_info": {
            "adcode": 152502,
            "province": "内蒙古自治区",
            "city": "锡林郭勒盟",
            "district": "锡林浩特市"
        }
    },
    {
        "id": "9622807291327298861",
        "title": "公共厕所",
        "address": "内蒙古自治区锡林郭勒盟锡林浩特市锡林大街友成尚都",
        "tel": "",
        "category": "基础设施:公共设施:公共厕所",
        "type": 0,
        "location": {
            "lat": 43.939756,
            "lng": 116.068447
        },
        "ad_info": {
            "adcode": 152502,
            "province": "内蒙古自治区",
            "city": "锡林郭勒盟",
            "district": "锡林浩特市"
        }
    },
    {
        "id": "10264013173529248547",
        "title": "公共厕所",
        "address": "内蒙古自治区锡林郭勒盟锡林浩特市光明东街与额吉淖尔路交叉口东北方向223米左右",
        "tel": "",
        "category": "基础设施:公共设施:公共厕所",
        "type": 0,
        "location": {
            "lat": 43.947819,
            "lng": 116.087544
        },
        "ad_info": {
            "adcode": 152502,
            "province": "内蒙古自治区",
            "city": "锡林郭勒盟",
            "district": "锡林浩特市"
        }
    },
    {
        "id": "10753386413050266461",
        "title": "公共厕所",
        "address": "内蒙古自治区锡林郭勒盟锡林浩特市光明西街与宝力根路交叉口西北方向178米左右",
        "tel": "",
        "category": "基础设施:公共设施:公共厕所",
        "type": 0,
        "location": {
            "lat": 43.942488,
            "lng": 116.074391
        },
        "ad_info": {
            "adcode": 152502,
            "province": "内蒙古自治区",
            "city": "锡林郭勒盟",
            "district": "锡林浩特市"
        }
    },
    {
        "id": "3605608908084884983",
        "title": "公共厕所",
        "address": "内蒙古自治区锡林郭勒盟锡林浩特市天津路方圆小区(团结大街)",
        "tel": "",
        "category": "基础设施:公共设施:公共厕所",
        "type": 0,
        "location": {
            "lat": 43.92906,
            "lng": 116.076071
        },
        "ad_info": {
            "adcode": 152502,
            "province": "内蒙古自治区",
            "city": "锡林郭勒盟",
            "district": "锡林浩特市"
        }
    },
    {
        "id": "17099326543413428284",
        "title": "公共厕所",
        "address": "内蒙古自治区锡林郭勒盟锡林浩特市希日街与西二环交叉口东南方向123米左右",
        "tel": "",
        "category": "基础设施:公共设施:公共厕所",
        "type": 0,
        "location": {
            "lat": 43.911441,
            "lng": 116.059215
        },
        "ad_info": {
            "adcode": 152502,
            "province": "内蒙古自治区",
            "city": "锡林郭勒盟",
            "district": "锡林浩特市"
        }
    },
    {
        "id": "7190938704099814697",
        "title": "公共厕所",
        "address": "内蒙古自治区锡林郭勒盟阿巴嘎旗101省道南50米",
        "tel": "",
        "category": "基础设施:公共设施:公共厕所",
        "type": 0,
        "location": {
            "lat": 44.010441,
            "lng": 115.027818
        },
        "ad_info": {
            "adcode": 152522,
            "province": "内蒙古自治区",
            "city": "锡林郭勒盟",
            "district": "阿巴嘎旗"
        }
    },
    {
        "id": "10353768583755546383",
        "title": "公共厕所",
        "address": "内蒙古自治区锡林郭勒盟锡林浩特市图拉吉尔胡同与贝子庙大街交叉口西北方向132米左右",
        "tel": "",
        "category": "基础设施:公共设施:公共厕所",
        "type": 0,
        "location": {
            "lat": 43.959386,
            "lng": 116.08667
        },
        "ad_info": {
            "adcode": 152502,
            "province": "内蒙古自治区",
            "city": "锡林郭勒盟",
            "district": "锡林浩特市"
        }
    },
    {
        "id": "14463955448945464207",
        "title": "公共厕所",
        "address": "内蒙古自治区锡林郭勒盟锡林浩特市一号湖广场",
        "tel": "",
        "category": "基础设施:公共设施:公共厕所",
        "type": 0,
        "location": {
            "lat": 43.932642,
            "lng": 116.064113
        },
        "ad_info": {
            "adcode": 152502,
            "province": "内蒙古自治区",
            "city": "锡林郭勒盟",
            "district": "锡林浩特市"
        }
    },
    {
        "id": "15200820774175922036",
        "title": "公共厕所",
        "address": "内蒙古自治区锡林郭勒盟锡林浩特市东二环与那达慕东街交叉口正东方向144米左右",
        "tel": "",
        "category": "基础设施:公共设施:公共厕所",
        "type": 0,
        "location": {
            "lat": 43.966123,
            "lng": 116.140204
        },
        "ad_info": {
            "adcode": 152502,
            "province": "内蒙古自治区",
            "city": "锡林郭勒盟",
            "district": "锡林浩特市"
        }
    },
    {
        "id": "11016324101625928514",
        "title": "公共厕所",
        "address": "内蒙古自治区锡林郭勒盟锡林浩特市赛汉路荣华苑",
        "tel": "",
        "category": "基础设施:公共设施:公共厕所",
        "type": 0,
        "location": {
            "lat": 43.945414,
            "lng": 116.070806
        },
        "ad_info": {
            "adcode": 152502,
            "province": "内蒙古自治区",
            "city": "锡林郭勒盟",
            "district": "锡林浩特市"
        }
    },
    {
        "id": "12904996597049227347",
        "title": "公共厕所",
        "address": "内蒙古自治区锡林郭勒盟锡林浩特市东风路与民禾大街交叉口西南方向149米左右",
        "tel": "",
        "category": "基础设施:公共设施:公共厕所",
        "type": 0,
        "location": {
            "lat": 43.937352,
            "lng": 116.010357
        },
        "ad_info": {
            "adcode": 152502,
            "province": "内蒙古自治区",
            "city": "锡林郭勒盟",
            "district": "锡林浩特市"
        }
    },
    {
        "id": "12447663109356600092",
        "title": "公共厕所",
        "address": "内蒙古自治区锡林郭勒盟锡林浩特市Y025与东二环交叉口正东方向1166米左右",
        "tel": "",
        "category": "基础设施:公共设施:公共厕所",
        "type": 0,
        "location": {
            "lat": 43.989001,
            "lng": 116.131994
        },
        "ad_info": {
            "adcode": 152502,
            "province": "内蒙古自治区",
            "city": "锡林郭勒盟",
            "district": "锡林浩特市"
        }
    },
    {
        "id": "7255331132916653176",
        "title": "公共厕所",
        "address": "内蒙古自治区锡林郭勒盟锡林浩特市额吉淖尔路锡林浩特鑫泰源假日酒店",
        "tel": "",
        "category": "基础设施:公共设施:公共厕所",
        "type": 0,
        "location": {
            "lat": 43.939651,
            "lng": 116.092527
        },
        "ad_info": {
            "adcode": 152502,
            "province": "内蒙古自治区",
            "city": "锡林郭勒盟",
            "district": "锡林浩特市"
        }
    },
    {
        "id": "5008185422262105337",
        "title": "公共厕所",
        "address": "内蒙古自治区锡林郭勒盟锡林浩特市那达慕大街与那达慕西街交叉口正东方向77米左右",
        "tel": "",
        "category": "基础设施:公共设施:公共厕所",
        "type": 0,
        "location": {
            "lat": 43.93796,
            "lng": 116.086338
        },
        "ad_info": {
            "adcode": 152502,
            "province": "内蒙古自治区",
            "city": "锡林郭勒盟",
            "district": "锡林浩特市"
        }
    },
    {
        "id": "14456574208362459178",
        "title": "公共厕所",
        "address": "内蒙古自治区锡林郭勒盟多伦县煤炭路与诺尔大街交叉口正西方向240米左右",
        "tel": "",
        "category": "基础设施:公共设施:公共厕所",
        "type": 0,
        "location": {
            "lat": 42.19417,
            "lng": 116.462762
        },
        "ad_info": {
            "adcode": 152531,
            "province": "内蒙古自治区",
            "city": "锡林郭勒盟",
            "district": "多伦县"
        }
    },
    {
        "id": "14051115857193518799",
        "title": "公共厕所",
        "address": "内蒙古自治区锡林郭勒盟锡林浩特市上海路与乌珠穆沁街交叉口正北方向208米左右",
        "tel": "",
        "category": "基础设施:公共设施:公共厕所",
        "type": 0,
        "location": {
            "lat": 43.939129,
            "lng": 116.048048
        },
        "ad_info": {
            "adcode": 152502,
            "province": "内蒙古自治区",
            "city": "锡林郭勒盟",
            "district": "锡林浩特市"
        }
    },
    {
        "id": "12694869690311270469",
        "title": "公共厕所",
        "address": "内蒙古自治区锡林郭勒盟锡林浩特市玛拉沁东街与致富路交叉口西北方向100米左右",
        "tel": "",
        "category": "基础设施:公共设施:公共厕所",
        "type": 0,
        "location": {
            "lat": 43.938131,
            "lng": 116.090202
        },
        "ad_info": {
            "adcode": 152502,
            "province": "内蒙古自治区",
            "city": "锡林郭勒盟",
            "district": "锡林浩特市"
        }
    },
    {
        "id": "4664026852187129946",
        "title": "公共厕所",
        "address": "内蒙古自治区锡林郭勒盟锡林浩特市广场西路锡林广场(南侧)",
        "tel": "",
        "category": "基础设施:公共设施:公共厕所",
        "type": 0,
        "location": {
            "lat": 43.930672,
            "lng": 116.091292
        },
        "ad_info": {
            "adcode": 152502,
            "province": "内蒙古自治区",
            "city": "锡林郭勒盟",
            "district": "锡林浩特市"
        }
    },
    {
        "id": "6467491412845061021",
        "title": "公共厕所",
        "address": "内蒙古自治区锡林郭勒盟多伦县会馆街与大西街交叉口正南方向85米左右",
        "tel": "",
        "category": "基础设施:公共设施:公共厕所",
        "type": 0,
        "location": {
            "lat": 42.183309,
            "lng": 116.472475
        },
        "ad_info": {
            "adcode": 152531,
            "province": "内蒙古自治区",
            "city": "锡林郭勒盟",
            "district": "多伦县"
        }
    },
    {
        "id": "5277818623223459431",
        "title": "公共厕所",
        "address": "内蒙古自治区锡林郭勒盟锡林浩特市旺业欣居东北侧120米",
        "tel": "",
        "category": "基础设施:公共设施:公共厕所",
        "type": 0,
        "location": {
            "lat": 43.963005,
            "lng": 116.080002
        },
        "ad_info": {
            "adcode": 152502,
            "province": "内蒙古自治区",
            "city": "锡林郭勒盟",
            "district": "锡林浩特市"
        }
    },
    {
        "id": "14654613837049702651",
        "title": "公共厕所",
        "address": "内蒙古自治区锡林郭勒盟锡林浩特市那达慕大街与额吉淖尔路交叉口西北方向217米左右",
        "tel": "",
        "category": "基础设施:公共设施:公共厕所",
        "type": 0,
        "location": {
            "lat": 43.942274,
            "lng": 116.089104
        },
        "ad_info": {
            "adcode": 152502,
            "province": "内蒙古自治区",
            "city": "锡林郭勒盟",
            "district": "锡林浩特市"
        }
    },
    {
        "id": "9124012855045077681",
        "title": "公共厕所",
        "address": "内蒙古自治区锡林郭勒盟锡林浩特市S101与Y022交叉口正北方向152米左右",
        "tel": "",
        "category": "基础设施:公共设施:公共厕所",
        "type": 0,
        "location": {
            "lat": 44.276219,
            "lng": 115.952005
        },
        "ad_info": {
            "adcode": 152502,
            "province": "内蒙古自治区",
            "city": "锡林郭勒盟",
            "district": "锡林浩特市"
        }
    },
    {
        "id": "15927776130700523230",
        "title": "公共厕所",
        "address": "内蒙古自治区锡林郭勒盟锡林浩特市宝力根路维多利华府",
        "tel": "",
        "category": "基础设施:公共设施:公共厕所",
        "type": 0,
        "location": {
            "lat": 43.940063,
            "lng": 116.076958
        },
        "ad_info": {
            "adcode": 152502,
            "province": "内蒙古自治区",
            "city": "锡林郭勒盟",
            "district": "锡林浩特市"
        }
    },
    {
        "id": "16631165922250456941",
        "title": "公共厕所",
        "address": "内蒙古自治区锡林郭勒盟锡林浩特市一中南巷与南京路交叉口正南方向96米左右",
        "tel": "",
        "category": "基础设施:公共设施:公共厕所",
        "type": 0,
        "location": {
            "lat": 43.928031,
            "lng": 116.095641
        },
        "ad_info": {
            "adcode": 152502,
            "province": "内蒙古自治区",
            "city": "锡林郭勒盟",
            "district": "锡林浩特市"
        }
    },
    {
        "id": "14838961781056544752",
        "title": "公共厕所",
        "address": "内蒙古自治区锡林郭勒盟锡林浩特市玖苑东巷与玖苑胡同交叉口东南方向154米左右",
        "tel": "",
        "category": "基础设施:公共设施:公共厕所",
        "type": 0,
        "location": {
            "lat": 43.94002,
            "lng": 116.062556
        },
        "ad_info": {
            "adcode": 152502,
            "province": "内蒙古自治区",
            "city": "锡林郭勒盟",
            "district": "锡林浩特市"
        }
    },
    {
        "id": "16258352760603407920",
        "title": "公共厕所",
        "address": "内蒙古自治区锡林郭勒盟锡林浩特市锡林大街中国石油(加油站)",
        "tel": "",
        "category": "基础设施:公共设施:公共厕所",
        "type": 0,
        "location": {
            "lat": 43.959209,
            "lng": 116.101783
        },
        "ad_info": {
            "adcode": 152502,
            "province": "内蒙古自治区",
            "city": "锡林郭勒盟",
            "district": "锡林浩特市"
        }
    },
    {
        "id": "5683364665002805686",
        "title": "公共厕所",
        "address": "内蒙古自治区锡林郭勒盟锡林浩特市锡林大街东段254号龙工叉车锂电叉车东北方向81米左右",
        "tel": "",
        "category": "基础设施:公共设施:公共厕所",
        "type": 0,
        "location": {
            "lat": 43.965033,
            "lng": 116.11256
        },
        "ad_info": {
            "adcode": 152502,
            "province": "内蒙古自治区",
            "city": "锡林郭勒盟",
            "district": "锡林浩特市"
        }
    },
    {
        "id": "6071842469948203668",
        "title": "公共厕所",
        "address": "内蒙古自治区锡林郭勒盟多伦县S304与南沙口大桥交叉口正南方向379米左右",
        "tel": "",
        "category": "基础设施:公共设施:公共厕所",
        "type": 0,
        "location": {
            "lat": 42.155189,
            "lng": 116.479577
        },
        "ad_info": {
            "adcode": 152531,
            "province": "内蒙古自治区",
            "city": "锡林郭勒盟",
            "district": "多伦县"
        }
    },
    {
        "id": "9624316383771195219",
        "title": "公共厕所",
        "address": "内蒙古自治区锡林郭勒盟锡林浩特市致富路与那达慕大街交叉口西北方向158米左右",
        "tel": "",
        "category": "基础设施:公共设施:公共厕所",
        "type": 0,
        "location": {
            "lat": 43.9402,
            "lng": 116.086746
        },
        "ad_info": {
            "adcode": 152502,
            "province": "内蒙古自治区",
            "city": "锡林郭勒盟",
            "district": "锡林浩特市"
        }
    },
    {
        "id": "17413885743767955976",
        "title": "公共厕所",
        "address": "内蒙古自治区锡林郭勒盟多伦县向阳路与煤炭路交叉口东北方向221米左右",
        "tel": "",
        "category": "基础设施:公共设施:公共厕所",
        "type": 0,
        "location": {
            "lat": 42.198439,
            "lng": 116.468012
        },
        "ad_info": {
            "adcode": 152531,
            "province": "内蒙古自治区",
            "city": "锡林郭勒盟",
            "district": "多伦县"
        }
    },
    {
        "id": "17039803407785035941",
        "title": "公共厕所",
        "address": "内蒙古自治区锡林郭勒盟锡林浩特市中国移动(毛登牧场合作营业厅)南侧260米",
        "tel": "",
        "category": "基础设施:公共设施:公共厕所",
        "type": 0,
        "location": {
            "lat": 44.168142,
            "lng": 116.498311
        },
        "ad_info": {
            "adcode": 152502,
            "province": "内蒙古自治区",
            "city": "锡林郭勒盟",
            "district": "锡林浩特市"
        }
    },
    {
        "id": "8697610719305805308",
        "title": "公共厕所",
        "address": "内蒙古自治区锡林郭勒盟锡林浩特市021乡道南50米",
        "tel": "",
        "category": "基础设施:公共设施:公共厕所",
        "type": 0,
        "location": {
            "lat": 44.553234,
            "lng": 115.767423
        },
        "ad_info": {
            "adcode": 152502,
            "province": "内蒙古自治区",
            "city": "锡林郭勒盟",
            "district": "锡林浩特市"
        }
    },
    {
        "id": "7708910320968268334",
        "title": "公共厕所",
        "address": "内蒙古自治区锡林郭勒盟多伦县上都北路与医院北巷交叉口正西方向60米左右",
        "tel": "",
        "category": "基础设施:公共设施:公共厕所",
        "type": 0,
        "location": {
            "lat": 42.198449,
            "lng": 116.474555
        },
        "ad_info": {
            "adcode": 152531,
            "province": "内蒙古自治区",
            "city": "锡林郭勒盟",
            "district": "多伦县"
        }
    },
    {
        "id": "4042038471114937015",
        "title": "公共厕所",
        "address": "内蒙古自治区锡林郭勒盟多伦县上都路与善因寺南街交叉口正东方向179米左右",
        "tel": "",
        "category": "基础设施:公共设施:公共厕所",
        "type": 0,
        "location": {
            "lat": 42.203109,
            "lng": 116.476223
        },
        "ad_info": {
            "adcode": 152531,
            "province": "内蒙古自治区",
            "city": "锡林郭勒盟",
            "district": "多伦县"
        }
    },
    {
        "id": "11677043420141981129",
        "title": "公共厕所",
        "address": "内蒙古自治区锡林郭勒盟东乌珠穆沁旗巴音胡硕大街与广源路交叉口正南方向161米左右",
        "tel": "",
        "category": "基础设施:公共设施:公共厕所",
        "type": 0,
        "location": {
            "lat": 45.713203,
            "lng": 118.840441
        },
        "ad_info": {
            "adcode": 152525,
            "province": "内蒙古自治区",
            "city": "锡林郭勒盟",
            "district": "东乌珠穆沁旗"
        }
    },
    {
        "id": "13863449932751114640",
        "title": "公共厕所",
        "address": "内蒙古自治区锡林郭勒盟锡林浩特市东内环南路与云杉街交叉口西南方向102米左右",
        "tel": "",
        "category": "基础设施:公共设施:公共厕所",
        "type": 0,
        "location": {
            "lat": 44.754468,
            "lng": 115.810408
        },
        "ad_info": {
            "adcode": 152502,
            "province": "内蒙古自治区",
            "city": "锡林郭勒盟",
            "district": "锡林浩特市"
        }
    },
    {
        "id": "15547815189927756237",
        "title": "公共厕所",
        "address": "内蒙古自治区锡林郭勒盟锡林浩特市G303与S101交叉口西北方向989米左右",
        "tel": "",
        "category": "基础设施:公共设施:公共厕所",
        "type": 0,
        "location": {
            "lat": 43.993069,
            "lng": 116.018747
        },
        "ad_info": {
            "adcode": 152502,
            "province": "内蒙古自治区",
            "city": "锡林郭勒盟",
            "district": "锡林浩特市"
        }
    },
    {
        "id": "7837321120730001444",
        "title": "公共厕所",
        "address": "内蒙古自治区锡林郭勒盟多伦县福盛街与财神庙街交叉口西南方向47米左右",
        "tel": "",
        "category": "基础设施:公共设施:公共厕所",
        "type": 0,
        "location": {
            "lat": 42.183215,
            "lng": 116.476664
        },
        "ad_info": {
            "adcode": 152531,
            "province": "内蒙古自治区",
            "city": "锡林郭勒盟",
            "district": "多伦县"
        }
    },
    {
        "id": "7542369285789121772",
        "title": "公共厕所",
        "address": "内蒙古自治区锡林郭勒盟多伦县S304与X503交叉口东北方向1189米左右",
        "tel": "",
        "category": "基础设施:公共设施:公共厕所",
        "type": 0,
        "location": {
            "lat": 42.004286,
            "lng": 116.196713
        },
        "ad_info": {
            "adcode": 152531,
            "province": "内蒙古自治区",
            "city": "锡林郭勒盟",
            "district": "多伦县"
        }
    },
    {
        "id": "7716145788206881332",
        "title": "公共厕所",
        "address": "内蒙古自治区锡林郭勒盟东乌珠穆沁旗团结大街与广源路交叉口正东方向217米左右",
        "tel": "",
        "category": "基础设施:公共设施:公共厕所",
        "type": 0,
        "location": {
            "lat": 45.718663,
            "lng": 118.842298
        },
        "ad_info": {
            "adcode": 152525,
            "province": "内蒙古自治区",
            "city": "锡林郭勒盟",
            "district": "东乌珠穆沁旗"
        }
    },
    {
        "id": "15482174056604050658",
        "title": "无障碍公共厕所",
        "address": "内蒙古自治区锡林郭勒盟阿巴嘎旗查干淖尔北路与查干淖尔南路交叉口正东方向173米左右",
        "tel": "",
        "category": "基础设施:公共设施:公共厕所",
        "type": 0,
        "location": {
            "lat": 44.019036,
            "lng": 114.966305
        },
        "ad_info": {
            "adcode": 152522,
            "province": "内蒙古自治区",
            "city": "锡林郭勒盟",
            "district": "阿巴嘎旗"
        }
    },
    {
        "id": "11358709779830764827",
        "title": "公共厕所",
        "address": "内蒙古自治区锡林郭勒盟锡林浩特市S101与锡阿线交叉口正东方向937米左右",
        "tel": "",
        "category": "基础设施:公共设施:公共厕所",
        "type": 0,
        "location": {
            "lat": 43.989676,
            "lng": 116.042183
        },
        "ad_info": {
            "adcode": 152502,
            "province": "内蒙古自治区",
            "city": "锡林郭勒盟",
            "district": "锡林浩特市"
        }
    },
    {
        "id": "1786289110581187888",
        "title": "公共厕所",
        "address": "内蒙古自治区锡林郭勒盟东乌珠穆沁旗东风大街与学苑路交叉口正北方向189米左右",
        "tel": "",
        "category": "基础设施:公共设施:公共厕所",
        "type": 0,
        "location": {
            "lat": 45.711344,
            "lng": 118.832301
        },
        "ad_info": {
            "adcode": 152525,
            "province": "内蒙古自治区",
            "city": "锡林郭勒盟",
            "district": "东乌珠穆沁旗"
        }
    },
    {
        "id": "3344644866076925217",
        "title": "公共厕所",
        "address": "内蒙古自治区锡林郭勒盟多伦县佛殿街与福盛街交叉口正南方向193米左右",
        "tel": "",
        "category": "基础设施:公共设施:公共厕所",
        "type": 0,
        "location": {
            "lat": 42.185865,
            "lng": 116.47731
        },
        "ad_info": {
            "adcode": 152531,
            "province": "内蒙古自治区",
            "city": "锡林郭勒盟",
            "district": "多伦县"
        }
    },
    {
        "id": "2084938464031654595",
        "title": "公共厕所",
        "address": "内蒙古自治区锡林郭勒盟东乌珠穆沁旗巴音胡硕镇园丁路60号",
        "tel": "",
        "category": "基础设施:公共设施:公共厕所",
        "type": 0,
        "location": {
            "lat": 45.711205,
            "lng": 118.829001
        },
        "ad_info": {
            "adcode": 152525,
            "province": "内蒙古自治区",
            "city": "锡林郭勒盟",
            "district": "东乌珠穆沁旗"
        }
    },
    {
        "id": "5227890295539479019",
        "title": "公共厕所",
        "address": "内蒙古自治区锡林郭勒盟东乌珠穆沁旗巴彦胡硕镇学苑路西党群服务中心北",
        "tel": "",
        "category": "基础设施:公共设施:公共厕所",
        "type": 0,
        "location": {
            "lat": 45.715893,
            "lng": 118.831154
        },
        "ad_info": {
            "adcode": 152525,
            "province": "内蒙古自治区",
            "city": "锡林郭勒盟",
            "district": "东乌珠穆沁旗"
        }
    },
    {
        "id": "5964017573119472912",
        "title": "公共厕所",
        "address": "内蒙古自治区锡林郭勒盟东乌珠穆沁旗乌里雅斯太镇东乌旗第一小学",
        "tel": "",
        "category": "基础设施:公共设施:公共厕所",
        "type": 0,
        "location": {
            "lat": 45.517946,
            "lng": 116.991031
        },
        "ad_info": {
            "adcode": 152525,
            "province": "内蒙古自治区",
            "city": "锡林郭勒盟",
            "district": "东乌珠穆沁旗"
        }
    },
    {
        "id": "17263324371977499112",
        "title": "公共厕所",
        "address": "内蒙古自治区锡林郭勒盟多伦县S304与X511交叉口东北方向317米",
        "tel": "",
        "category": "基础设施:公共设施:公共厕所",
        "type": 0,
        "location": {
            "lat": 41.988549,
            "lng": 116.094511
        },
        "ad_info": {
            "adcode": 152531,
            "province": "内蒙古自治区",
            "city": "锡林郭勒盟",
            "district": "多伦县"
        }
    },
    {
        "id": "13547253687133944502",
        "title": "公共厕所",
        "address": "内蒙古自治区锡林郭勒盟东乌珠穆沁旗宝格达乌拉街与巴彦敖包路交叉口正西方向188米左右",
        "tel": "",
        "category": "基础设施:公共设施:公共厕所",
        "type": 0,
        "location": {
            "lat": 45.501484,
            "lng": 116.969414
        },
        "ad_info": {
            "adcode": 152525,
            "province": "内蒙古自治区",
            "city": "锡林郭勒盟",
            "district": "东乌珠穆沁旗"
        }
    },
    {
        "id": "17852634940079576045",
        "title": "公共厕所",
        "address": "内蒙古自治区锡林郭勒盟东乌珠穆沁旗宝格达乌拉街与柴达穆路交叉口东南方向150米",
        "tel": "",
        "category": "基础设施:公共设施:公共厕所",
        "type": 0,
        "location": {
            "lat": 45.499299,
            "lng": 116.971363
        },
        "ad_info": {
            "adcode": 152525,
            "province": "内蒙古自治区",
            "city": "锡林郭勒盟",
            "district": "东乌珠穆沁旗"
        }
    },
    {
        "id": "8200593874970658154",
        "title": "公共厕所",
        "address": "内蒙古自治区锡林郭勒盟二连浩特市方正路与育才路交叉口正东方向131米左右",
        "tel": "",
        "category": "基础设施:公共设施:公共厕所",
        "type": 0,
        "location": {
            "lat": 43.64032,
            "lng": 111.964318
        },
        "ad_info": {
            "adcode": 152501,
            "province": "内蒙古自治区",
            "city": "锡林郭勒盟",
            "district": "二连浩特市"
        }
    },
    {
        "id": "16785868786601252155",
        "title": "公共厕所",
        "address": "内蒙古自治区锡林郭勒盟东乌珠穆沁旗巴音胡硕大街与广源路交叉口西北方向156米左右",
        "tel": "",
        "category": "基础设施:公共设施:公共厕所",
        "type": 0,
        "location": {
            "lat": 45.715914,
            "lng": 118.83943
        },
        "ad_info": {
            "adcode": 152525,
            "province": "内蒙古自治区",
            "city": "锡林郭勒盟",
            "district": "东乌珠穆沁旗"
        }
    },
    {
        "id": "1414251704677188633",
        "title": "公共厕所",
        "address": "内蒙古自治区锡林郭勒盟东乌珠穆沁旗G306与锡霍公路交叉口正南方向1636米左右",
        "tel": "",
        "category": "基础设施:公共设施:公共厕所",
        "type": 0,
        "location": {
            "lat": 45.476149,
            "lng": 116.968875
        },
        "ad_info": {
            "adcode": 152525,
            "province": "内蒙古自治区",
            "city": "锡林郭勒盟",
            "district": "东乌珠穆沁旗"
        }
    },
    {
        "id": "15601262365914501149",
        "title": "公共厕所",
        "address": "内蒙古自治区锡林郭勒盟东乌珠穆沁旗团结大街与建设路交叉口正南方向115米左右",
        "tel": "",
        "category": "基础设施:公共设施:公共厕所",
        "type": 0,
        "location": {
            "lat": 45.71673,
            "lng": 118.834776
        },
        "ad_info": {
            "adcode": 152525,
            "province": "内蒙古自治区",
            "city": "锡林郭勒盟",
            "district": "东乌珠穆沁旗"
        }
    },
    {
        "id": "14461141686764408589",
        "title": "公共厕所",
        "address": "内蒙古自治区锡林郭勒盟东乌珠穆沁旗宝格达乌拉街与巴彦敖包路交叉口西北方向249米左右",
        "tel": "",
        "category": "基础设施:公共设施:公共厕所",
        "type": 0,
        "location": {
            "lat": 45.50336,
            "lng": 116.969998
        },
        "ad_info": {
            "adcode": 152525,
            "province": "内蒙古自治区",
            "city": "锡林郭勒盟",
            "district": "东乌珠穆沁旗"
        }
    },
    {
        "id": "11445363790735279451",
        "title": "公共厕所",
        "address": "内蒙古自治区锡林郭勒盟东乌珠穆沁旗东乌旗第二中学西北侧160米",
        "tel": "",
        "category": "基础设施:公共设施:公共厕所",
        "type": 0,
        "location": {
            "lat": 45.510321,
            "lng": 116.961364
        },
        "ad_info": {
            "adcode": 152525,
            "province": "内蒙古自治区",
            "city": "锡林郭勒盟",
            "district": "东乌珠穆沁旗"
        }
    },
    {
        "id": "17117388798400311052",
        "title": "公共厕所",
        "address": "内蒙古自治区锡林郭勒盟东乌珠穆沁旗260乡道附近",
        "tel": "",
        "category": "基础设施:公共设施:公共厕所",
        "type": 0,
        "location": {
            "lat": 45.468984,
            "lng": 118.84061
        },
        "ad_info": {
            "adcode": 152525,
            "province": "内蒙古自治区",
            "city": "锡林郭勒盟",
            "district": "东乌珠穆沁旗"
        }
    },
    {
        "id": "13415314833840182862",
        "title": "公共厕所",
        "address": "内蒙古自治区锡林郭勒盟锡林浩特市希日塔拉街与杭盖路交叉口东南方向156米左右",
        "tel": "",
        "category": "基础设施:公共设施:公共厕所",
        "type": 0,
        "location": {
            "lat": 43.93192,
            "lng": 116.109973
        },
        "ad_info": {
            "adcode": 152502,
            "province": "内蒙古自治区",
            "city": "锡林郭勒盟",
            "district": "锡林浩特市"
        }
    },
    {
        "id": "17598592003251421757",
        "title": "无障碍公共厕所",
        "address": "内蒙古自治区锡林郭勒盟二连浩特市如意南巷与苏尼特街交叉口西北方向29米左右",
        "tel": "",
        "category": "基础设施:公共设施:公共厕所",
        "type": 0,
        "location": {
            "lat": 43.652388,
            "lng": 111.98874
        },
        "ad_info": {
            "adcode": 152501,
            "province": "内蒙古自治区",
            "city": "锡林郭勒盟",
            "district": "二连浩特市"
        }
    },
    {
        "id": "10301147238014385170",
        "title": "公共厕所",
        "address": "内蒙古自治区锡林郭勒盟多伦县二道街与老胡同横街交叉口正北方向49米左右",
        "tel": "",
        "category": "基础设施:公共设施:公共厕所",
        "type": 0,
        "location": {
            "lat": 42.189921,
            "lng": 116.482313
        },
        "ad_info": {
            "adcode": 152531,
            "province": "内蒙古自治区",
            "city": "锡林郭勒盟",
            "district": "多伦县"
        }
    },
    {
        "id": "18212539243900375414",
        "title": "桑根达来服务区公共厕所",
        "address": "内蒙古自治区锡林郭勒盟正蓝旗海张高速",
        "tel": "",
        "category": "基础设施:公共设施:公共厕所",
        "type": 0,
        "location": {
            "lat": 42.676083,
            "lng": 115.913089
        },
        "ad_info": {
            "adcode": 152530,
            "province": "内蒙古自治区",
            "city": "锡林郭勒盟",
            "district": "正蓝旗"
        }
    },
    {
        "id": "4670085585524641562",
        "title": "宝日胡硕服务区公共厕所",
        "address": "内蒙古自治区锡林郭勒盟西乌珠穆沁旗白霍一级路",
        "tel": "",
        "category": "基础设施:公共设施:公共厕所",
        "type": 0,
        "location": {
            "lat": 45.213237,
            "lng": 119.252313
        },
        "ad_info": {
            "adcode": 152526,
            "province": "内蒙古自治区",
            "city": "锡林郭勒盟",
            "district": "西乌珠穆沁旗"
        }
    },
    {
        "id": "12172150217813983293",
        "title": "哈毕日嘎服务区公共厕所",
        "address": "内蒙古自治区锡林郭勒盟正蓝旗G1013海张高速与哈毕日嘎服务区交叉口西300米",
        "tel": "",
        "category": "基础设施:公共设施:公共厕所",
        "type": 0,
        "location": {
            "lat": 42.261531,
            "lng": 115.661831
        },
        "ad_info": {
            "adcode": 152530,
            "province": "内蒙古自治区",
            "city": "锡林郭勒盟",
            "district": "正蓝旗"
        }
    },
    {
        "id": "1904961029516435636",
        "title": "锡林浩特南服务区公共厕所",
        "address": "内蒙古自治区锡林郭勒盟锡林浩特市G16丹锡高速附近",
        "tel": "",
        "category": "基础设施:公共设施:公共厕所",
        "type": 0,
        "location": {
            "lat": 43.869903,
            "lng": 116.213713
        },
        "ad_info": {
            "adcode": 152502,
            "province": "内蒙古自治区",
            "city": "锡林郭勒盟",
            "district": "锡林浩特市"
        }
    },
    {
        "id": "6532447835480964229",
        "title": "公共厕所",
        "address": "内蒙古自治区锡林郭勒盟二连浩特市贝加尔街与迎宾路交叉口东南方向192米左右",
        "tel": "",
        "category": "基础设施:公共设施:公共厕所",
        "type": 0,
        "location": {
            "lat": 43.643911,
            "lng": 111.998182
        },
        "ad_info": {
            "adcode": 152501,
            "province": "内蒙古自治区",
            "city": "锡林郭勒盟",
            "district": "二连浩特市"
        }
    },
    {
        "id": "10032886329390487328",
        "title": "公共厕所",
        "address": "内蒙古自治区锡林郭勒盟太仆寺旗国防街与建设南路交叉口正西方向31米左右",
        "tel": "",
        "category": "基础设施:公共设施:公共厕所",
        "type": 0,
        "location": {
            "lat": 41.890051,
            "lng": 115.283322
        },
        "ad_info": {
            "adcode": 152527,
            "province": "内蒙古自治区",
            "city": "锡林郭勒盟",
            "district": "太仆寺旗"
        }
    },
    {
        "id": "10475436453497905751",
        "title": "公共厕所",
        "address": "内蒙古自治区锡林郭勒盟多伦县东盛街与财神庙街交叉口东北方向29米左右",
        "tel": "",
        "category": "基础设施:公共设施:公共厕所",
        "type": 0,
        "location": {
            "lat": 42.183249,
            "lng": 116.478856
        },
        "ad_info": {
            "adcode": 152531,
            "province": "内蒙古自治区",
            "city": "锡林郭勒盟",
            "district": "多伦县"
        }
    },
    {
        "id": "8511100019615784410",
        "title": "公共厕所",
        "address": "内蒙古自治区锡林郭勒盟锡林浩特市团结大街与巴彦路交叉口西南方向72米左右",
        "tel": "",
        "category": "基础设施:公共设施:公共厕所",
        "type": 0,
        "location": {
            "lat": 43.941955,
            "lng": 116.103493
        },
        "ad_info": {
            "adcode": 152502,
            "province": "内蒙古自治区",
            "city": "锡林郭勒盟",
            "district": "锡林浩特市"
        }
    },
    {
        "id": "9826105437875733797",
        "title": "公共厕所",
        "address": "内蒙古自治区锡林郭勒盟镶黄旗呼格吉路与巴音街交叉口东北方向71米左右",
        "tel": "",
        "category": "基础设施:公共设施:公共厕所",
        "type": 0,
        "location": {
            "lat": 42.229123,
            "lng": 113.850992
        },
        "ad_info": {
            "adcode": 152528,
            "province": "内蒙古自治区",
            "city": "锡林郭勒盟",
            "district": "镶黄旗"
        }
    },
    {
        "id": "8304586936466438402",
        "title": "汇宗寺公共厕所",
        "address": "内蒙古自治区锡林郭勒盟多伦县东仓路与会盟大街交叉口正西方向60米左右",
        "tel": "",
        "category": "基础设施:公共设施:公共厕所",
        "type": 0,
        "location": {
            "lat": 42.207003,
            "lng": 116.478967
        },
        "ad_info": {
            "adcode": 152531,
            "province": "内蒙古自治区",
            "city": "锡林郭勒盟",
            "district": "多伦县"
        }
    },
    {
        "id": "16474514208257263633",
        "title": "公共厕所",
        "address": "内蒙古自治区锡林郭勒盟锡林浩特市海河路与玲珑美食街交叉口西南方向44米左右",
        "tel": "",
        "category": "基础设施:公共设施:公共厕所",
        "type": 0,
        "location": {
            "lat": 43.959703,
            "lng": 116.107875
        },
        "ad_info": {
            "adcode": 152502,
            "province": "内蒙古自治区",
            "city": "锡林郭勒盟",
            "district": "锡林浩特市"
        }
    },
    {
        "id": "1177964143377459523",
        "title": "公共厕所",
        "address": "内蒙古自治区锡林郭勒盟西乌珠穆沁旗巴拉嘎尔街与新高勒路交叉口正西方向347米左右",
        "tel": "",
        "category": "基础设施:公共设施:公共厕所",
        "type": 0,
        "location": {
            "lat": 44.592321,
            "lng": 117.622768
        },
        "ad_info": {
            "adcode": 152526,
            "province": "内蒙古自治区",
            "city": "锡林郭勒盟",
            "district": "西乌珠穆沁旗"
        }
    },
    {
        "id": "1957423998636980231",
        "title": "公共厕所",
        "address": "内蒙古自治区锡林郭勒盟太仆寺旗国防街与满沽线交叉口西南方向32米左右",
        "tel": "",
        "category": "基础设施:公共设施:公共厕所",
        "type": 0,
        "location": {
            "lat": 41.890294,
            "lng": 115.29645
        },
        "ad_info": {
            "adcode": 152527,
            "province": "内蒙古自治区",
            "city": "锡林郭勒盟",
            "district": "太仆寺旗"
        }
    },
    {
        "id": "15466015168438398448",
        "title": "公共厕所",
        "address": "内蒙古自治区锡林郭勒盟苏尼特右旗赛汗温泉西侧90米",
        "tel": "",
        "category": "基础设施:公共设施:公共厕所",
        "type": 0,
        "location": {
            "lat": 42.613006,
            "lng": 112.664822
        },
        "ad_info": {
            "adcode": 152524,
            "province": "内蒙古自治区",
            "city": "锡林郭勒盟",
            "district": "苏尼特右旗"
        }
    },
    {
        "id": "2994372972948381573",
        "title": "公共厕所",
        "address": "内蒙古自治区锡林郭勒盟西乌珠穆沁旗307省道东50米",
        "tel": "",
        "category": "基础设施:公共设施:公共厕所",
        "type": 0,
        "location": {
            "lat": 44.355998,
            "lng": 116.778787
        },
        "ad_info": {
            "adcode": 152526,
            "province": "内蒙古自治区",
            "city": "锡林郭勒盟",
            "district": "西乌珠穆沁旗"
        }
    },
    {
        "id": "8478034805436681270",
        "title": "公共厕所",
        "address": "内蒙古自治区锡林郭勒盟太仆寺旗国防街与解放大街交叉口东南方向262米左右",
        "tel": "",
        "category": "基础设施:公共设施:公共厕所",
        "type": 0,
        "location": {
            "lat": 41.891685,
            "lng": 115.275271
        },
        "ad_info": {
            "adcode": 152527,
            "province": "内蒙古自治区",
            "city": "锡林郭勒盟",
            "district": "太仆寺旗"
        }
    },
    {
        "id": "1091491579903809103",
        "title": "公共厕所",
        "address": "内蒙古自治区锡林郭勒盟锡林浩特市北京路与查干街交叉口西北方向96米左右",
        "tel": "",
        "category": "基础设施:公共设施:公共厕所",
        "type": 0,
        "location": {
            "lat": 43.918216,
            "lng": 116.059435
        },
        "ad_info": {
            "adcode": 152502,
            "province": "内蒙古自治区",
            "city": "锡林郭勒盟",
            "district": "锡林浩特市"
        }
    },
    {
        "id": "6782823473222342720",
        "title": "镶黄旗南服务区公共厕所",
        "address": "内蒙古自治区锡林郭勒盟镶黄旗中国石油镶黄旗南服务区加油站南侧160米",
        "tel": "",
        "category": "基础设施:公共设施:公共厕所",
        "type": 0,
        "location": {
            "lat": 41.977374,
            "lng": 113.971389
        },
        "ad_info": {
            "adcode": 152528,
            "province": "内蒙古自治区",
            "city": "锡林郭勒盟",
            "district": "镶黄旗"
        }
    },
    {
        "id": "9211847271047987073",
        "title": "公共厕所",
        "address": "内蒙古自治区锡林郭勒盟多伦县一中路与东盛街交叉口东南方向38米左右",
        "tel": "",
        "category": "基础设施:公共设施:公共厕所",
        "type": 0,
        "location": {
            "lat": 42.180788,
            "lng": 116.477714
        },
        "ad_info": {
            "adcode": 152531,
            "province": "内蒙古自治区",
            "city": "锡林郭勒盟",
            "district": "多伦县"
        }
    },
    {
        "id": "7983608666510279615",
        "title": "无障碍公共厕所",
        "address": "内蒙古自治区锡林郭勒盟东乌珠穆沁旗学苑路与北海大街交叉口东南240米",
        "tel": "",
        "category": "基础设施:公共设施:公共厕所",
        "type": 0,
        "location": {
            "lat": 45.720379,
            "lng": 118.83213
        },
        "ad_info": {
            "adcode": 152525,
            "province": "内蒙古自治区",
            "city": "锡林郭勒盟",
            "district": "东乌珠穆沁旗"
        }
    },
    {
        "id": "749050423846580469",
        "title": "公共厕所",
        "address": "内蒙古自治区锡林郭勒盟正蓝旗上都大街与宝恩巴胡同交叉口正南方向387米左右",
        "tel": "",
        "category": "基础设施:公共设施:公共厕所",
        "type": 0,
        "location": {
            "lat": 42.252106,
            "lng": 116.013515
        },
        "ad_info": {
            "adcode": 152530,
            "province": "内蒙古自治区",
            "city": "锡林郭勒盟",
            "district": "正蓝旗"
        }
    },
    {
        "id": "16191235217252576275",
        "title": "公共厕所",
        "address": "内蒙古自治区锡林郭勒盟锡林浩特市团结大街九校西南角",
        "tel": "",
        "category": "基础设施:公共设施:公共厕所",
        "type": 0,
        "location": {
            "lat": 43.925708,
            "lng": 116.074853
        },
        "ad_info": {
            "adcode": 152502,
            "province": "内蒙古自治区",
            "city": "锡林郭勒盟",
            "district": "锡林浩特市"
        }
    },
    {
        "id": "8405973726079548254",
        "title": "前房子服务区公共厕所",
        "address": "内蒙古自治区锡林郭勒盟太仆寺旗海张高速前房子服务区",
        "tel": "",
        "category": "基础设施:公共设施:公共厕所",
        "type": 0,
        "location": {
            "lat": 41.952716,
            "lng": 115.289891
        },
        "ad_info": {
            "adcode": 152527,
            "province": "内蒙古自治区",
            "city": "锡林郭勒盟",
            "district": "太仆寺旗"
        }
    },
    {
        "id": "7974784993525618401",
        "title": "公共厕所",
        "address": "内蒙古自治区锡林郭勒盟锡林浩特市额尔敦路41号锡盟·维多利广场F1",
        "tel": "",
        "category": "基础设施:公共设施:公共厕所",
        "type": 0,
        "location": {
            "lat": 43.942575,
            "lng": 116.078439
        },
        "ad_info": {
            "adcode": 152502,
            "province": "内蒙古自治区",
            "city": "锡林郭勒盟",
            "district": "锡林浩特市"
        }
    },
    {
        "id": "5756234133634848151",
        "title": "公共厕所",
        "address": "内蒙古自治区锡林郭勒盟锡林浩特市致富路环卫处",
        "tel": "",
        "category": "基础设施:公共设施:公共厕所",
        "type": 0,
        "location": {
            "lat": 43.936231,
            "lng": 116.091501
        },
        "ad_info": {
            "adcode": 152502,
            "province": "内蒙古自治区",
            "city": "锡林郭勒盟",
            "district": "锡林浩特市"
        }
    },
    {
        "id": "15031204329945234944",
        "title": "公共厕所",
        "address": "内蒙古自治区锡林郭勒盟苏尼特左旗白吉拉路与达日罕街交叉口正东方向142米左右",
        "tel": "",
        "category": "基础设施:公共设施:公共厕所",
        "type": 0,
        "location": {
            "lat": 43.858062,
            "lng": 113.662782
        },
        "ad_info": {
            "adcode": 152523,
            "province": "内蒙古自治区",
            "city": "锡林郭勒盟",
            "district": "苏尼特左旗"
        }
    },
    {
        "id": "896243101230979522",
        "title": "公共厕所",
        "address": "内蒙古自治区锡林郭勒盟正镶白旗明安图服务区附近",
        "tel": "",
        "category": "基础设施:公共设施:公共厕所",
        "type": 0,
        "location": {
            "lat": 42.20889,
            "lng": 115.029387
        },
        "ad_info": {
            "adcode": 152529,
            "province": "内蒙古自治区",
            "city": "锡林郭勒盟",
            "district": "正镶白旗"
        }
    },
    {
        "id": "7936185596738066900",
        "title": "公共厕所",
        "address": "内蒙古自治区锡林郭勒盟二连浩特市创业路与罕乌拉街交叉口东南方向95米左右",
        "tel": "",
        "category": "基础设施:公共设施:公共厕所",
        "type": 0,
        "location": {
            "lat": 43.662148,
            "lng": 111.950373
        },
        "ad_info": {
            "adcode": 152501,
            "province": "内蒙古自治区",
            "city": "锡林郭勒盟",
            "district": "二连浩特市"
        }
    },
    {
        "id": "8308875401169125424",
        "title": "公共厕所",
        "address": "内蒙古自治区锡林郭勒盟正镶白旗明安图东街与育才路交叉口东北方向280米左右",
        "tel": "",
        "category": "基础设施:公共设施:公共厕所",
        "type": 0,
        "location": {
            "lat": 42.306758,
            "lng": 115.015498
        },
        "ad_info": {
            "adcode": 152529,
            "province": "内蒙古自治区",
            "city": "锡林郭勒盟",
            "district": "正镶白旗"
        }
    },
    {
        "id": "10681630449539611884",
        "title": "公共厕所",
        "address": "内蒙古自治区锡林郭勒盟正蓝旗侍郎城路与温都尔额日格街交叉口西北方向96米左右",
        "tel": "",
        "category": "基础设施:公共设施:公共厕所",
        "type": 0,
        "location": {
            "lat": 42.255216,
            "lng": 116.003859
        },
        "ad_info": {
            "adcode": 152530,
            "province": "内蒙古自治区",
            "city": "锡林郭勒盟",
            "district": "正蓝旗"
        }
    },
    {
        "id": "18403479943648883264",
        "title": "都仁乌力吉服务区公共厕所",
        "address": "内蒙古自治区锡林郭勒盟苏尼特右旗G5516苏张高速与都仁乌力吉服务区交叉口西北460米",
        "tel": "",
        "category": "基础设施:公共设施:公共厕所",
        "type": 0,
        "location": {
            "lat": 42.413202,
            "lng": 113.354204
        },
        "ad_info": {
            "adcode": 152524,
            "province": "内蒙古自治区",
            "city": "锡林郭勒盟",
            "district": "苏尼特右旗"
        }
    },
    {
        "id": "8808682922619624724",
        "title": "公共厕所",
        "address": "内蒙古自治区锡林郭勒盟锡林浩特市S101与乌拉盖街交叉口西南方向1018米左右",
        "tel": "",
        "category": "基础设施:公共设施:公共厕所",
        "type": 0,
        "location": {
            "lat": 43.952253,
            "lng": 116.051343
        },
        "ad_info": {
            "adcode": 152502,
            "province": "内蒙古自治区",
            "city": "锡林郭勒盟",
            "district": "锡林浩特市"
        }
    },
    {
        "id": "7318061616558993998",
        "title": "公共厕所",
        "address": "内蒙古自治区锡林郭勒盟太仆寺旗光明大街与广场西路交叉口正北方向123米",
        "tel": "",
        "category": "基础设施:公共设施:公共厕所",
        "type": 0,
        "location": {
            "lat": 41.872206,
            "lng": 115.280174
        },
        "ad_info": {
            "adcode": 152527,
            "province": "内蒙古自治区",
            "city": "锡林郭勒盟",
            "district": "太仆寺旗"
        }
    },
    {
        "id": "15261300392887047380",
        "title": "桑根达来服务区公共厕所",
        "address": "内蒙古自治区锡林郭勒盟正蓝旗海张高速",
        "tel": "",
        "category": "基础设施:公共设施:公共厕所",
        "type": 0,
        "location": {
            "lat": 42.67531,
            "lng": 115.909987
        },
        "ad_info": {
            "adcode": 152530,
            "province": "内蒙古自治区",
            "city": "锡林郭勒盟",
            "district": "正蓝旗"
        }
    },
    {
        "id": "1609901180970402984",
        "title": "公共厕所",
        "address": "内蒙古自治区锡林郭勒盟锡林浩特市康馨佳苑",
        "tel": "",
        "category": "基础设施:公共设施:公共厕所",
        "type": 0,
        "location": {
            "lat": 43.968178,
            "lng": 116.107282
        },
        "ad_info": {
            "adcode": 152502,
            "province": "内蒙古自治区",
            "city": "锡林郭勒盟",
            "district": "锡林浩特市"
        }
    },
    {
        "id": "744785707085793044",
        "title": "公共厕所",
        "address": "内蒙古自治区锡林郭勒盟多伦县G510与Y314交叉口正东方向250米左右",
        "tel": "",
        "category": "基础设施:公共设施:公共厕所",
        "type": 0,
        "location": {
            "lat": 42.172266,
            "lng": 116.752676
        },
        "ad_info": {
            "adcode": 152531,
            "province": "内蒙古自治区",
            "city": "锡林郭勒盟",
            "district": "多伦县"
        }
    },
    {
        "id": "9782314440058696094",
        "title": "公共厕所(NM-XL-0775)",
        "address": "内蒙古自治区锡林郭勒盟正镶白旗南木汗旅游度假村东南侧70米",
        "tel": "",
        "category": "基础设施:公共设施:公共厕所",
        "type": 0,
        "location": {
            "lat": 42.650663,
            "lng": 115.093089
        },
        "ad_info": {
            "adcode": 152529,
            "province": "内蒙古自治区",
            "city": "锡林郭勒盟",
            "district": "正镶白旗"
        }
    },
    {
        "id": "15309679509270086182",
        "title": "公共厕所",
        "address": "内蒙古自治区锡林郭勒盟锡林浩特市光明东街与额尔敦路交叉口东北方向306米左右",
        "tel": "",
        "category": "基础设施:公共设施:公共厕所",
        "type": 0,
        "location": {
            "lat": 43.945176,
            "lng": 116.081893
        },
        "ad_info": {
            "adcode": 152502,
            "province": "内蒙古自治区",
            "city": "锡林郭勒盟",
            "district": "锡林浩特市"
        }
    },
    {
        "id": "17320835457848778449",
        "title": "公共厕所",
        "address": "内蒙古自治区锡林郭勒盟锡林浩特市额尔敦路41号锡盟·维多利广场F4",
        "tel": "",
        "category": "基础设施:公共设施:公共厕所",
        "type": 0,
        "location": {
            "lat": 43.94257,
            "lng": 116.078396
        },
        "ad_info": {
            "adcode": 152502,
            "province": "内蒙古自治区",
            "city": "锡林郭勒盟",
            "district": "锡林浩特市"
        }
    },
    {
        "id": "13632937315457633904",
        "title": "公共厕所",
        "address": "内蒙古自治区锡林郭勒盟苏尼特左旗昆仑好客便利店北侧",
        "tel": "",
        "category": "基础设施:公共设施:公共厕所",
        "type": 0,
        "location": {
            "lat": 43.122575,
            "lng": 114.491321
        },
        "ad_info": {
            "adcode": 152523,
            "province": "内蒙古自治区",
            "city": "锡林郭勒盟",
            "district": "苏尼特左旗"
        }
    },
    {
        "id": "688263885665920340",
        "title": "公共厕所",
        "address": "内蒙古自治区锡林郭勒盟西乌珠穆沁旗白音路与罕乌拉街交叉口西南方向345米左右",
        "tel": "",
        "category": "基础设施:公共设施:公共厕所",
        "type": 0,
        "location": {
            "lat": 44.594472,
            "lng": 117.617963
        },
        "ad_info": {
            "adcode": 152526,
            "province": "内蒙古自治区",
            "city": "锡林郭勒盟",
            "district": "西乌珠穆沁旗"
        }
    },
    {
        "id": "13221262201676826699",
        "title": "公共厕所",
        "address": "内蒙古自治区锡林郭勒盟锡林浩特市重庆路逸园公园内(东侧)",
        "tel": "",
        "category": "基础设施:公共设施:公共厕所",
        "type": 0,
        "location": {
            "lat": 43.927632,
            "lng": 116.083901
        },
        "ad_info": {
            "adcode": 152502,
            "province": "内蒙古自治区",
            "city": "锡林郭勒盟",
            "district": "锡林浩特市"
        }
    },
    {
        "id": "9301422420937714675",
        "title": "公共厕所",
        "address": "内蒙古自治区锡林郭勒盟多伦县善因寺南街与西仓路交叉口西南方向53米左右",
        "tel": "",
        "category": "基础设施:公共设施:公共厕所",
        "type": 0,
        "location": {
            "lat": 42.20282,
            "lng": 116.469826
        },
        "ad_info": {
            "adcode": 152531,
            "province": "内蒙古自治区",
            "city": "锡林郭勒盟",
            "district": "多伦县"
        }
    },
    {
        "id": "14821944475413034566",
        "title": "宝日胡硕服务区公共厕所",
        "address": "内蒙古自治区锡林郭勒盟西乌珠穆沁旗宝日胡硕服务区与白霍一级路交叉口西南360米",
        "tel": "",
        "category": "基础设施:公共设施:公共厕所",
        "type": 0,
        "location": {
            "lat": 45.211397,
            "lng": 119.253405
        },
        "ad_info": {
            "adcode": 152526,
            "province": "内蒙古自治区",
            "city": "锡林郭勒盟",
            "district": "西乌珠穆沁旗"
        }
    },
    {
        "id": "11919298759547623112",
        "title": "公共厕所",
        "address": "内蒙古自治区锡林郭勒盟苏尼特左旗宝力格路与巴彦塔拉街交叉口正东方向147米左右",
        "tel": "",
        "category": "基础设施:公共设施:公共厕所",
        "type": 0,
        "location": {
            "lat": 43.855496,
            "lng": 113.657922
        },
        "ad_info": {
            "adcode": 152523,
            "province": "内蒙古自治区",
            "city": "锡林郭勒盟",
            "district": "苏尼特左旗"
        }
    },
    {
        "id": "3088440458898727871",
        "title": "公共厕所",
        "address": "内蒙古自治区锡林郭勒盟正镶白旗察汗淖南路与治华山街交叉口正北方向178米左右",
        "tel": "",
        "category": "基础设施:公共设施:公共厕所",
        "type": 0,
        "location": {
            "lat": 42.300058,
            "lng": 115.009179
        },
        "ad_info": {
            "adcode": 152529,
            "province": "内蒙古自治区",
            "city": "锡林郭勒盟",
            "district": "正镶白旗"
        }
    },
    {
        "id": "320037999719021248",
        "title": "公共厕所",
        "address": "内蒙古自治区锡林郭勒盟多伦县会盟大街与育才西路交叉口东南方向311米左右",
        "tel": "",
        "category": "基础设施:公共设施:公共厕所",
        "type": 0,
        "location": {
            "lat": 42.203369,
            "lng": 116.458291
        },
        "ad_info": {
            "adcode": 152531,
            "province": "内蒙古自治区",
            "city": "锡林郭勒盟",
            "district": "多伦县"
        }
    },
    {
        "id": "7922347117389767620",
        "title": "公共厕所",
        "address": "内蒙古自治区锡林郭勒盟西乌珠穆沁旗如家日租公寓东北侧100米",
        "tel": "",
        "category": "基础设施:公共设施:公共厕所",
        "type": 0,
        "location": {
            "lat": 44.595338,
            "lng": 117.615014
        },
        "ad_info": {
            "adcode": 152526,
            "province": "内蒙古自治区",
            "city": "锡林郭勒盟",
            "district": "西乌珠穆沁旗"
        }
    },
    {
        "id": "17664279254225931297",
        "title": "镶黄旗南服务区公共厕所",
        "address": "内蒙古自治区锡林郭勒盟镶黄旗南服务区西南40米",
        "tel": "",
        "category": "基础设施:公共设施:公共厕所",
        "type": 0,
        "location": {
            "lat": 41.978282,
            "lng": 113.973207
        },
        "ad_info": {
            "adcode": 152528,
            "province": "内蒙古自治区",
            "city": "锡林郭勒盟",
            "district": "镶黄旗"
        }
    },
    {
        "id": "9801257381872360611",
        "title": "公共厕所",
        "address": "内蒙古自治区锡林郭勒盟太仆寺旗宝昌大街与建设南路交叉口正东方向137米左右",
        "tel": "",
        "category": "基础设施:公共设施:公共厕所",
        "type": 0,
        "location": {
            "lat": 41.876323,
            "lng": 115.285741
        },
        "ad_info": {
            "adcode": 152527,
            "province": "内蒙古自治区",
            "city": "锡林郭勒盟",
            "district": "太仆寺旗"
        }
    },
    {
        "id": "10617301289960822692",
        "title": "都仁乌力吉服务区公共厕所",
        "address": "内蒙古自治区锡林郭勒盟苏尼特右旗G5516苏张高速与都仁乌力吉服务区交叉口东南400米",
        "tel": "",
        "category": "基础设施:公共设施:公共厕所",
        "type": 0,
        "location": {
            "lat": 42.41191,
            "lng": 113.351369
        },
        "ad_info": {
            "adcode": 152524,
            "province": "内蒙古自治区",
            "city": "锡林郭勒盟",
            "district": "苏尼特右旗"
        }
    },
    {
        "id": "15864625954895914283",
        "title": "公共厕所",
        "address": "内蒙古自治区锡林郭勒盟苏尼特右旗乌兰牧骑路与宝力嘎街交叉口西北方向26米左右",
        "tel": "",
        "category": "基础设施:公共设施:公共厕所",
        "type": 0,
        "location": {
            "lat": 42.735243,
            "lng": 112.652151
        },
        "ad_info": {
            "adcode": 152524,
            "province": "内蒙古自治区",
            "city": "锡林郭勒盟",
            "district": "苏尼特右旗"
        }
    },
    {
        "id": "16293647387005603101",
        "title": "公共卫生间",
        "address": "内蒙古自治区锡林郭勒盟东乌珠穆沁旗五三路与巴音胡硕大街交叉口正南方向222米左右",
        "tel": "",
        "category": "基础设施:公共设施:公共厕所",
        "type": 0,
        "location": {
            "lat": 45.713386,
            "lng": 118.848466
        },
        "ad_info": {
            "adcode": 152525,
            "province": "内蒙古自治区",
            "city": "锡林郭勒盟",
            "district": "东乌珠穆沁旗"
        }
    },
    {
        "id": "10254181030624651658",
        "title": "公共厕所",
        "address": "内蒙古自治区锡林郭勒盟锡林浩特市锡阿线中国石油加油站",
        "tel": "",
        "category": "基础设施:公共设施:公共厕所",
        "type": 0,
        "location": {
            "lat": 43.988988,
            "lng": 116.031203
        },
        "ad_info": {
            "adcode": 152502,
            "province": "内蒙古自治区",
            "city": "锡林郭勒盟",
            "district": "锡林浩特市"
        }
    },
    {
        "id": "8835009770159853192",
        "title": "公共厕所",
        "address": "内蒙古自治区锡林郭勒盟锡林浩特市锡林西大街盟行署2号楼西",
        "tel": "",
        "category": "基础设施:公共设施:公共厕所",
        "type": 0,
        "location": {
            "lat": 43.925454,
            "lng": 116.037664
        },
        "ad_info": {
            "adcode": 152502,
            "province": "内蒙古自治区",
            "city": "锡林郭勒盟",
            "district": "锡林浩特市"
        }
    },
    {
        "id": "7504817384882089316",
        "title": "公共厕所",
        "address": "内蒙古自治区锡林郭勒盟锡林浩特市多伦路盛世豪庭小区东门北侧",
        "tel": "",
        "category": "基础设施:公共设施:公共厕所",
        "type": 0,
        "location": {
            "lat": 43.917569,
            "lng": 116.051195
        },
        "ad_info": {
            "adcode": 152502,
            "province": "内蒙古自治区",
            "city": "锡林郭勒盟",
            "district": "锡林浩特市"
        }
    },
    {
        "id": "7964581981758854093",
        "title": "公共厕所",
        "address": "内蒙古自治区锡林郭勒盟苏尼特右旗锡林路驿站",
        "tel": "",
        "category": "基础设施:公共设施:公共厕所",
        "type": 0,
        "location": {
            "lat": 42.757751,
            "lng": 112.656795
        },
        "ad_info": {
            "adcode": 152524,
            "province": "内蒙古自治区",
            "city": "锡林郭勒盟",
            "district": "苏尼特右旗"
        }
    },
    {
        "id": "4390851062173411068",
        "title": "公共厕所",
        "address": "内蒙古自治区锡林郭勒盟太仆寺旗锡张高速",
        "tel": "",
        "category": "基础设施:公共设施:公共厕所",
        "type": 0,
        "location": {
            "lat": 41.757468,
            "lng": 115.176586
        },
        "ad_info": {
            "adcode": 152527,
            "province": "内蒙古自治区",
            "city": "锡林郭勒盟",
            "district": "太仆寺旗"
        }
    },
    {
        "id": "13146764224801366755",
        "title": "公共卫生间",
        "address": "内蒙古自治区锡林郭勒盟锡林浩特市东一环路与宝石根街交叉口正南方向45米左右",
        "tel": "",
        "category": "基础设施:公共设施:公共厕所",
        "type": 0,
        "location": {
            "lat": 43.941836,
            "lng": 116.109697
        },
        "ad_info": {
            "adcode": 152502,
            "province": "内蒙古自治区",
            "city": "锡林郭勒盟",
            "district": "锡林浩特市"
        }
    },
    {
        "id": "8605625988536437123",
        "title": "公共卫生间",
        "address": "内蒙古自治区锡林郭勒盟西乌珠穆沁旗白霍一级路东200米",
        "tel": "",
        "category": "基础设施:公共设施:公共厕所",
        "type": 0,
        "location": {
            "lat": 44.772301,
            "lng": 118.474201
        },
        "ad_info": {
            "adcode": 152526,
            "province": "内蒙古自治区",
            "city": "锡林郭勒盟",
            "district": "西乌珠穆沁旗"
        }
    },
    {
        "id": "5560820604878827602",
        "title": "公共厕所",
        "address": "内蒙古自治区锡林郭勒盟锡林浩特市东风路与民禾大街交叉口正西方向512米左右",
        "tel": "",
        "category": "基础设施:公共设施:公共厕所",
        "type": 0,
        "location": {
            "lat": 43.939414,
            "lng": 116.005939
        },
        "ad_info": {
            "adcode": 152502,
            "province": "内蒙古自治区",
            "city": "锡林郭勒盟",
            "district": "锡林浩特市"
        }
    },
    {
        "id": "13715606515705150077",
        "title": "公共厕所",
        "address": "内蒙古自治区锡林郭勒盟多伦县佛殿街与哈尔沁街交叉口西南方向255米左右",
        "tel": "",
        "category": "基础设施:公共设施:公共厕所",
        "type": 0,
        "location": {
            "lat": 42.186583,
            "lng": 116.474353
        },
        "ad_info": {
            "adcode": 152531,
            "province": "内蒙古自治区",
            "city": "锡林郭勒盟",
            "district": "多伦县"
        }
    },
    {
        "id": "15859062882362448668",
        "title": "公共厕所",
        "address": "内蒙古自治区锡林郭勒盟锡林浩特市额尔敦路41号锡盟·维多利广场F2",
        "tel": "",
        "category": "基础设施:公共设施:公共厕所",
        "type": 0,
        "location": {
            "lat": 43.942579,
            "lng": 116.078422
        },
        "ad_info": {
            "adcode": 152502,
            "province": "内蒙古自治区",
            "city": "锡林郭勒盟",
            "district": "锡林浩特市"
        }
    },
    {
        "id": "11863738471947818764",
        "title": "公共厕所",
        "address": "内蒙古自治区锡林郭勒盟东乌珠穆沁旗乌拉盖街与巴彦乌拉路交叉口正南方向533米左右",
        "tel": "",
        "category": "基础设施:公共设施:公共厕所",
        "type": 0,
        "location": {
            "lat": 45.516712,
            "lng": 116.990541
        },
        "ad_info": {
            "adcode": 152525,
            "province": "内蒙古自治区",
            "city": "锡林郭勒盟",
            "district": "东乌珠穆沁旗"
        }
    },
    {
        "id": "13942114430354706569",
        "title": "公共厕所",
        "address": "内蒙古自治区锡林郭勒盟二连浩特市新华街2号",
        "tel": "",
        "category": "基础设施:公共设施:公共厕所",
        "type": 0,
        "location": {
            "lat": 43.656989,
            "lng": 111.986505
        },
        "ad_info": {
            "adcode": 152501,
            "province": "内蒙古自治区",
            "city": "锡林郭勒盟",
            "district": "二连浩特市"
        }
    },
    {
        "id": "14451493454738068200",
        "title": "公共厕所",
        "address": "内蒙古自治区锡林郭勒盟苏尼特右旗脑干街与都仁路交叉口西南方向81米左右",
        "tel": "",
        "category": "基础设施:公共设施:公共厕所",
        "type": 0,
        "location": {
            "lat": 42.732361,
            "lng": 112.668951
        },
        "ad_info": {
            "adcode": 152524,
            "province": "内蒙古自治区",
            "city": "锡林郭勒盟",
            "district": "苏尼特右旗"
        }
    },
    {
        "id": "996356601848886439",
        "title": "公共厕所",
        "address": "内蒙古自治区锡林郭勒盟正蓝旗锡张高速与集阿高速交叉口正西方向759米左右",
        "tel": "",
        "category": "基础设施:公共设施:公共厕所",
        "type": 0,
        "location": {
            "lat": 42.649535,
            "lng": 115.91446
        },
        "ad_info": {
            "adcode": 152530,
            "province": "内蒙古自治区",
            "city": "锡林郭勒盟",
            "district": "正蓝旗"
        }
    },
    {
        "id": "18287322745855434363",
        "title": "公共厕所",
        "address": "内蒙古自治区锡林郭勒盟锡林浩特市贝子庙二步台阶东",
        "tel": "",
        "category": "基础设施:公共设施:公共厕所",
        "type": 0,
        "location": {
            "lat": 43.951949,
            "lng": 116.070042
        },
        "ad_info": {
            "adcode": 152502,
            "province": "内蒙古自治区",
            "city": "锡林郭勒盟",
            "district": "锡林浩特市"
        }
    },
    {
        "id": "352739165731395867",
        "title": "公共厕所",
        "address": "内蒙古自治区锡林郭勒盟二连浩特市伊林大道与贝加尔街交叉口西南方向118米左右",
        "tel": "",
        "category": "基础设施:公共设施:公共厕所",
        "type": 0,
        "location": {
            "lat": 43.633847,
            "lng": 111.974056
        },
        "ad_info": {
            "adcode": 152501,
            "province": "内蒙古自治区",
            "city": "锡林郭勒盟",
            "district": "二连浩特市"
        }
    },
    {
        "id": "3105059514847187285",
        "title": "公共厕所",
        "address": "内蒙古自治区锡林郭勒盟锡林浩特市北京路350号",
        "tel": "",
        "category": "基础设施:公共设施:公共厕所",
        "type": 0,
        "location": {
            "lat": 43.914417,
            "lng": 116.06148
        },
        "ad_info": {
            "adcode": 152502,
            "province": "内蒙古自治区",
            "city": "锡林郭勒盟",
            "district": "锡林浩特市"
        }
    },
    {
        "id": "15784307177674170817",
        "title": "公共厕所",
        "address": "内蒙古自治区锡林郭勒盟苏尼特左旗白吉拉路与达日罕街交叉口正西方向200米左右",
        "tel": "",
        "category": "基础设施:公共设施:公共厕所",
        "type": 0,
        "location": {
            "lat": 43.85741,
            "lng": 113.658654
        },
        "ad_info": {
            "adcode": 152523,
            "province": "内蒙古自治区",
            "city": "锡林郭勒盟",
            "district": "苏尼特左旗"
        }
    },
    {
        "id": "11877092147783680744",
        "title": "公共厕所",
        "address": "内蒙古自治区锡林郭勒盟阿巴嘎旗别力古台北路与宝格达乌拉东街交叉口正北方向66米左右",
        "tel": "",
        "category": "基础设施:公共设施:公共厕所",
        "type": 0,
        "location": {
            "lat": 44.025013,
            "lng": 114.967572
        },
        "ad_info": {
            "adcode": 152522,
            "province": "内蒙古自治区",
            "city": "锡林郭勒盟",
            "district": "阿巴嘎旗"
        }
    },
    {
        "id": "1042679094485660691",
        "title": "无障碍公共厕所",
        "address": "内蒙古自治区锡林郭勒盟锡林浩特市团结大街与滨河路交叉口东北方向136米左右",
        "tel": "",
        "category": "基础设施:公共设施:公共厕所",
        "type": 0,
        "location": {
            "lat": 43.925641,
            "lng": 116.074552
        },
        "ad_info": {
            "adcode": 152502,
            "province": "内蒙古自治区",
            "city": "锡林郭勒盟",
            "district": "锡林浩特市"
        }
    },
    {
        "id": "13780312013328342629",
        "title": "公共厕所",
        "address": "内蒙古自治区锡林郭勒盟锡林浩特市伊利勒特街与达布希呼胡同交叉口正西方向218米左右",
        "tel": "",
        "category": "基础设施:公共设施:公共厕所",
        "type": 0,
        "location": {
            "lat": 43.970097,
            "lng": 116.090074
        },
        "ad_info": {
            "adcode": 152502,
            "province": "内蒙古自治区",
            "city": "锡林郭勒盟",
            "district": "锡林浩特市"
        }
    },
    {
        "id": "14034352629331393754",
        "title": "公共厕所",
        "address": "内蒙古自治区锡林郭勒盟锡林浩特市天津路与振兴南街交叉口东南方向191米左右",
        "tel": "",
        "category": "基础设施:公共设施:公共厕所",
        "type": 0,
        "location": {
            "lat": 43.919943,
            "lng": 116.086281
        },
        "ad_info": {
            "adcode": 152502,
            "province": "内蒙古自治区",
            "city": "锡林郭勒盟",
            "district": "锡林浩特市"
        }
    },
    {
        "id": "12190019284340472406",
        "title": "公共卫生间",
        "address": "内蒙古自治区锡林郭勒盟锡林浩特市伊利勒特街与呼格吉勒路交叉口西北方向108米左右",
        "tel": "",
        "category": "基础设施:公共设施:公共厕所",
        "type": 0,
        "location": {
            "lat": 43.967482,
            "lng": 116.085052
        },
        "ad_info": {
            "adcode": 152502,
            "province": "内蒙古自治区",
            "city": "锡林郭勒盟",
            "district": "锡林浩特市"
        }
    },
    {
        "id": "3388483348298049020",
        "title": "公共厕所",
        "address": "内蒙古自治区锡林郭勒盟正镶白旗",
        "tel": "",
        "category": "基础设施:公共设施:公共厕所",
        "type": 0,
        "location": {
            "lat": 42.220423,
            "lng": 115.248058
        },
        "ad_info": {
            "adcode": 152529,
            "province": "内蒙古自治区",
            "city": "锡林郭勒盟",
            "district": "正镶白旗"
        }
    },
    {
        "id": "3865834210239556038",
        "title": "旅游公共厕所",
        "address": "内蒙古自治区锡林郭勒盟东乌珠穆沁旗哈总线与哈拉盖路交叉口正东方向244米左右",
        "tel": "",
        "category": "基础设施:公共设施:公共厕所",
        "type": 0,
        "location": {
            "lat": 45.861773,
            "lng": 119.424297
        },
        "ad_info": {
            "adcode": 152525,
            "province": "内蒙古自治区",
            "city": "锡林郭勒盟",
            "district": "东乌珠穆沁旗"
        }
    },
    {
        "id": "426766275208426826",
        "title": "公共厕所",
        "address": "内蒙古自治区锡林郭勒盟东乌珠穆沁旗乌里雅斯太镇东乌国际商贸城东北",
        "tel": "",
        "category": "基础设施:公共设施:公共厕所",
        "type": 0,
        "location": {
            "lat": 45.522451,
            "lng": 116.98142
        },
        "ad_info": {
            "adcode": 152525,
            "province": "内蒙古自治区",
            "city": "锡林郭勒盟",
            "district": "东乌珠穆沁旗"
        }
    },
    {
        "id": "11767550192202516485",
        "title": "公共厕所",
        "address": "内蒙古自治区锡林郭勒盟苏尼特左旗满达拉街与芒来路交叉口正西方向105米左右",
        "tel": "",
        "category": "基础设施:公共设施:公共厕所",
        "type": 0,
        "location": {
            "lat": 43.855156,
            "lng": 113.669448
        },
        "ad_info": {
            "adcode": 152523,
            "province": "内蒙古自治区",
            "city": "锡林郭勒盟",
            "district": "苏尼特左旗"
        }
    },
    {
        "id": "4034746883270063066",
        "title": "公共厕所",
        "address": "内蒙古自治区锡林郭勒盟太仆寺旗光明大街与益民巷交叉口东北方向47米左右",
        "tel": "",
        "category": "基础设施:公共设施:公共厕所",
        "type": 0,
        "location": {
            "lat": 41.871094,
            "lng": 115.271375
        },
        "ad_info": {
            "adcode": 152527,
            "province": "内蒙古自治区",
            "city": "锡林郭勒盟",
            "district": "太仆寺旗"
        }
    },
    {
        "id": "15946476832730945260",
        "title": "公共厕所",
        "address": "内蒙古自治区锡林郭勒盟锡林浩特市长城西街与阿都沁东路交叉口东北方向52米左右",
        "tel": "",
        "category": "基础设施:公共设施:公共厕所",
        "type": 0,
        "location": {
            "lat": 43.958173,
            "lng": 116.108893
        },
        "ad_info": {
            "adcode": 152502,
            "province": "内蒙古自治区",
            "city": "锡林郭勒盟",
            "district": "锡林浩特市"
        }
    },
    {
        "id": "14484835995898891684",
        "title": "公共厕所",
        "address": "内蒙古自治区锡林郭勒盟锡林浩特市第十三小学西南侧210米",
        "tel": "",
        "category": "基础设施:公共设施:公共厕所",
        "type": 0,
        "location": {
            "lat": 43.905011,
            "lng": 116.060503
        },
        "ad_info": {
            "adcode": 152502,
            "province": "内蒙古自治区",
            "city": "锡林郭勒盟",
            "district": "锡林浩特市"
        }
    },
    {
        "id": "17318376371767424666",
        "title": "公共厕所",
        "address": "内蒙古自治区锡林郭勒盟正镶白旗S105宝力根陶海苏木苏金宝力格嘎查",
        "tel": "",
        "category": "基础设施:公共设施:公共厕所",
        "type": 0,
        "location": {
            "lat": 42.441156,
            "lng": 115.402026
        },
        "ad_info": {
            "adcode": 152529,
            "province": "内蒙古自治区",
            "city": "锡林郭勒盟",
            "district": "正镶白旗"
        }
    },
    {
        "id": "13236705115367669686",
        "title": "公共厕所",
        "address": "内蒙古自治区锡林郭勒盟东乌珠穆沁旗来故乡情饭店南侧50米",
        "tel": "",
        "category": "基础设施:公共设施:公共厕所",
        "type": 0,
        "location": {
            "lat": 45.974366,
            "lng": 119.127142
        },
        "ad_info": {
            "adcode": 152525,
            "province": "内蒙古自治区",
            "city": "锡林郭勒盟",
            "district": "东乌珠穆沁旗"
        }
    },
    {
        "id": "675172601836172268",
        "title": "公共厕所",
        "address": "内蒙古自治区锡林郭勒盟镶黄旗宝格都路与鸿格尔街交叉口正西方向152米左右",
        "tel": "",
        "category": "基础设施:公共设施:公共厕所",
        "type": 0,
        "location": {
            "lat": 42.243061,
            "lng": 113.838664
        },
        "ad_info": {
            "adcode": 152528,
            "province": "内蒙古自治区",
            "city": "锡林郭勒盟",
            "district": "镶黄旗"
        }
    },
    {
        "id": "644725204925238129",
        "title": "公共厕所",
        "address": "内蒙古自治区锡林郭勒盟西乌珠穆沁旗巴斯路与罕乌拉街交叉口正南方向211米左右",
        "tel": "",
        "category": "基础设施:公共设施:公共厕所",
        "type": 0,
        "location": {
            "lat": 44.583382,
            "lng": 117.609114
        },
        "ad_info": {
            "adcode": 152526,
            "province": "内蒙古自治区",
            "city": "锡林郭勒盟",
            "district": "西乌珠穆沁旗"
        }
    },
    {
        "id": "17771896077174582417",
        "title": "公共厕所",
        "address": "内蒙古自治区锡林郭勒盟锡林浩特市额尔敦路41号锡盟·维多利广场F3",
        "tel": "",
        "category": "基础设施:公共设施:公共厕所",
        "type": 0,
        "location": {
            "lat": 43.942572,
            "lng": 116.078434
        },
        "ad_info": {
            "adcode": 152502,
            "province": "内蒙古自治区",
            "city": "锡林郭勒盟",
            "district": "锡林浩特市"
        }
    },
    {
        "id": "352739165731395867",
        "title": "公共厕所",
        "address": "内蒙古自治区锡林郭勒盟二连浩特市伊林大道与贝加尔街交叉口西南方向118米左右",
        "tel": "",
        "category": "基础设施:公共设施:公共厕所",
        "type": 0,
        "location": {
            "lat": 43.633847,
            "lng": 111.974056
        },
        "ad_info": {
            "adcode": 152501,
            "province": "内蒙古自治区",
            "city": "锡林郭勒盟",
            "district": "二连浩特市"
        }
    },
    {
        "id": "3105059514847187285",
        "title": "公共厕所",
        "address": "内蒙古自治区锡林郭勒盟锡林浩特市北京路350号",
        "tel": "",
        "category": "基础设施:公共设施:公共厕所",
        "type": 0,
        "location": {
            "lat": 43.914417,
            "lng": 116.06148
        },
        "ad_info": {
            "adcode": 152502,
            "province": "内蒙古自治区",
            "city": "锡林郭勒盟",
            "district": "锡林浩特市"
        }
    },
    {
        "id": "15784307177674170817",
        "title": "公共厕所",
        "address": "内蒙古自治区锡林郭勒盟苏尼特左旗白吉拉路与达日罕街交叉口正西方向200米左右",
        "tel": "",
        "category": "基础设施:公共设施:公共厕所",
        "type": 0,
        "location": {
            "lat": 43.85741,
            "lng": 113.658654
        },
        "ad_info": {
            "adcode": 152523,
            "province": "内蒙古自治区",
            "city": "锡林郭勒盟",
            "district": "苏尼特左旗"
        }
    },
    {
        "id": "11877092147783680744",
        "title": "公共厕所",
        "address": "内蒙古自治区锡林郭勒盟阿巴嘎旗别力古台北路与宝格达乌拉东街交叉口正北方向66米左右",
        "tel": "",
        "category": "基础设施:公共设施:公共厕所",
        "type": 0,
        "location": {
            "lat": 44.025013,
            "lng": 114.967572
        },
        "ad_info": {
            "adcode": 152522,
            "province": "内蒙古自治区",
            "city": "锡林郭勒盟",
            "district": "阿巴嘎旗"
        }
    },
    {
        "id": "1042679094485660691",
        "title": "无障碍公共厕所",
        "address": "内蒙古自治区锡林郭勒盟锡林浩特市团结大街与滨河路交叉口东北方向136米左右",
        "tel": "",
        "category": "基础设施:公共设施:公共厕所",
        "type": 0,
        "location": {
            "lat": 43.925641,
            "lng": 116.074552
        },
        "ad_info": {
            "adcode": 152502,
            "province": "内蒙古自治区",
            "city": "锡林郭勒盟",
            "district": "锡林浩特市"
        }
    },
    {
        "id": "13780312013328342629",
        "title": "公共厕所",
        "address": "内蒙古自治区锡林郭勒盟锡林浩特市伊利勒特街与达布希呼胡同交叉口正西方向218米左右",
        "tel": "",
        "category": "基础设施:公共设施:公共厕所",
        "type": 0,
        "location": {
            "lat": 43.970097,
            "lng": 116.090074
        },
        "ad_info": {
            "adcode": 152502,
            "province": "内蒙古自治区",
            "city": "锡林郭勒盟",
            "district": "锡林浩特市"
        }
    },
    {
        "id": "14034352629331393754",
        "title": "公共厕所",
        "address": "内蒙古自治区锡林郭勒盟锡林浩特市天津路与振兴南街交叉口东南方向191米左右",
        "tel": "",
        "category": "基础设施:公共设施:公共厕所",
        "type": 0,
        "location": {
            "lat": 43.919943,
            "lng": 116.086281
        },
        "ad_info": {
            "adcode": 152502,
            "province": "内蒙古自治区",
            "city": "锡林郭勒盟",
            "district": "锡林浩特市"
        }
    },
    {
        "id": "12190019284340472406",
        "title": "公共卫生间",
        "address": "内蒙古自治区锡林郭勒盟锡林浩特市伊利勒特街与呼格吉勒路交叉口西北方向108米左右",
        "tel": "",
        "category": "基础设施:公共设施:公共厕所",
        "type": 0,
        "location": {
            "lat": 43.967482,
            "lng": 116.085052
        },
        "ad_info": {
            "adcode": 152502,
            "province": "内蒙古自治区",
            "city": "锡林郭勒盟",
            "district": "锡林浩特市"
        }
    },
    {
        "id": "3388483348298049020",
        "title": "公共厕所",
        "address": "内蒙古自治区锡林郭勒盟正镶白旗",
        "tel": "",
        "category": "基础设施:公共设施:公共厕所",
        "type": 0,
        "location": {
            "lat": 42.220423,
            "lng": 115.248058
        },
        "ad_info": {
            "adcode": 152529,
            "province": "内蒙古自治区",
            "city": "锡林郭勒盟",
            "district": "正镶白旗"
        }
    },
    {
        "id": "3865834210239556038",
        "title": "旅游公共厕所",
        "address": "内蒙古自治区锡林郭勒盟东乌珠穆沁旗哈总线与哈拉盖路交叉口正东方向244米左右",
        "tel": "",
        "category": "基础设施:公共设施:公共厕所",
        "type": 0,
        "location": {
            "lat": 45.861773,
            "lng": 119.424297
        },
        "ad_info": {
            "adcode": 152525,
            "province": "内蒙古自治区",
            "city": "锡林郭勒盟",
            "district": "东乌珠穆沁旗"
        }
    },
    {
        "id": "426766275208426826",
        "title": "公共厕所",
        "address": "内蒙古自治区锡林郭勒盟东乌珠穆沁旗乌里雅斯太镇东乌国际商贸城东北",
        "tel": "",
        "category": "基础设施:公共设施:公共厕所",
        "type": 0,
        "location": {
            "lat": 45.522451,
            "lng": 116.98142
        },
        "ad_info": {
            "adcode": 152525,
            "province": "内蒙古自治区",
            "city": "锡林郭勒盟",
            "district": "东乌珠穆沁旗"
        }
    },
    {
        "id": "11767550192202516485",
        "title": "公共厕所",
        "address": "内蒙古自治区锡林郭勒盟苏尼特左旗满达拉街与芒来路交叉口正西方向105米左右",
        "tel": "",
        "category": "基础设施:公共设施:公共厕所",
        "type": 0,
        "location": {
            "lat": 43.855156,
            "lng": 113.669448
        },
        "ad_info": {
            "adcode": 152523,
            "province": "内蒙古自治区",
            "city": "锡林郭勒盟",
            "district": "苏尼特左旗"
        }
    },
    {
        "id": "4034746883270063066",
        "title": "公共厕所",
        "address": "内蒙古自治区锡林郭勒盟太仆寺旗光明大街与益民巷交叉口东北方向47米左右",
        "tel": "",
        "category": "基础设施:公共设施:公共厕所",
        "type": 0,
        "location": {
            "lat": 41.871094,
            "lng": 115.271375
        },
        "ad_info": {
            "adcode": 152527,
            "province": "内蒙古自治区",
            "city": "锡林郭勒盟",
            "district": "太仆寺旗"
        }
    },
    {
        "id": "15946476832730945260",
        "title": "公共厕所",
        "address": "内蒙古自治区锡林郭勒盟锡林浩特市长城西街与阿都沁东路交叉口东北方向52米左右",
        "tel": "",
        "category": "基础设施:公共设施:公共厕所",
        "type": 0,
        "location": {
            "lat": 43.958173,
            "lng": 116.108893
        },
        "ad_info": {
            "adcode": 152502,
            "province": "内蒙古自治区",
            "city": "锡林郭勒盟",
            "district": "锡林浩特市"
        }
    },
    {
        "id": "14484835995898891684",
        "title": "公共厕所",
        "address": "内蒙古自治区锡林郭勒盟锡林浩特市第十三小学西南侧210米",
        "tel": "",
        "category": "基础设施:公共设施:公共厕所",
        "type": 0,
        "location": {
            "lat": 43.905011,
            "lng": 116.060503
        },
        "ad_info": {
            "adcode": 152502,
            "province": "内蒙古自治区",
            "city": "锡林郭勒盟",
            "district": "锡林浩特市"
        }
    },
    {
        "id": "17318376371767424666",
        "title": "公共厕所",
        "address": "内蒙古自治区锡林郭勒盟正镶白旗S105宝力根陶海苏木苏金宝力格嘎查",
        "tel": "",
        "category": "基础设施:公共设施:公共厕所",
        "type": 0,
        "location": {
            "lat": 42.441156,
            "lng": 115.402026
        },
        "ad_info": {
            "adcode": 152529,
            "province": "内蒙古自治区",
            "city": "锡林郭勒盟",
            "district": "正镶白旗"
        }
    },
    {
        "id": "13236705115367669686",
        "title": "公共厕所",
        "address": "内蒙古自治区锡林郭勒盟东乌珠穆沁旗来故乡情饭店南侧50米",
        "tel": "",
        "category": "基础设施:公共设施:公共厕所",
        "type": 0,
        "location": {
            "lat": 45.974366,
            "lng": 119.127142
        },
        "ad_info": {
            "adcode": 152525,
            "province": "内蒙古自治区",
            "city": "锡林郭勒盟",
            "district": "东乌珠穆沁旗"
        }
    },
    {
        "id": "675172601836172268",
        "title": "公共厕所",
        "address": "内蒙古自治区锡林郭勒盟镶黄旗宝格都路与鸿格尔街交叉口正西方向152米左右",
        "tel": "",
        "category": "基础设施:公共设施:公共厕所",
        "type": 0,
        "location": {
            "lat": 42.243061,
            "lng": 113.838664
        },
        "ad_info": {
            "adcode": 152528,
            "province": "内蒙古自治区",
            "city": "锡林郭勒盟",
            "district": "镶黄旗"
        }
    },
    {
        "id": "644725204925238129",
        "title": "公共厕所",
        "address": "内蒙古自治区锡林郭勒盟西乌珠穆沁旗巴斯路与罕乌拉街交叉口正南方向211米左右",
        "tel": "",
        "category": "基础设施:公共设施:公共厕所",
        "type": 0,
        "location": {
            "lat": 44.583382,
            "lng": 117.609114
        },
        "ad_info": {
            "adcode": 152526,
            "province": "内蒙古自治区",
            "city": "锡林郭勒盟",
            "district": "西乌珠穆沁旗"
        }
    },
    {
        "id": "17771896077174582417",
        "title": "公共厕所",
        "address": "内蒙古自治区锡林郭勒盟锡林浩特市额尔敦路41号锡盟·维多利广场F3",
        "tel": "",
        "category": "基础设施:公共设施:公共厕所",
        "type": 0,
        "location": {
            "lat": 43.942572,
            "lng": 116.078434
        },
        "ad_info": {
            "adcode": 152502,
            "province": "内蒙古自治区",
            "city": "锡林郭勒盟",
            "district": "锡林浩特市"
        }
    },
    {
        "id": "352739165731395867",
        "title": "公共厕所",
        "address": "内蒙古自治区锡林郭勒盟二连浩特市伊林大道与贝加尔街交叉口西南方向118米左右",
        "tel": "",
        "category": "基础设施:公共设施:公共厕所",
        "type": 0,
        "location": {
            "lat": 43.633847,
            "lng": 111.974056
        },
        "ad_info": {
            "adcode": 152501,
            "province": "内蒙古自治区",
            "city": "锡林郭勒盟",
            "district": "二连浩特市"
        }
    },
    {
        "id": "3105059514847187285",
        "title": "公共厕所",
        "address": "内蒙古自治区锡林郭勒盟锡林浩特市北京路350号",
        "tel": "",
        "category": "基础设施:公共设施:公共厕所",
        "type": 0,
        "location": {
            "lat": 43.914417,
            "lng": 116.06148
        },
        "ad_info": {
            "adcode": 152502,
            "province": "内蒙古自治区",
            "city": "锡林郭勒盟",
            "district": "锡林浩特市"
        }
    },
    {
        "id": "15784307177674170817",
        "title": "公共厕所",
        "address": "内蒙古自治区锡林郭勒盟苏尼特左旗白吉拉路与达日罕街交叉口正西方向200米左右",
        "tel": "",
        "category": "基础设施:公共设施:公共厕所",
        "type": 0,
        "location": {
            "lat": 43.85741,
            "lng": 113.658654
        },
        "ad_info": {
            "adcode": 152523,
            "province": "内蒙古自治区",
            "city": "锡林郭勒盟",
            "district": "苏尼特左旗"
        }
    },
    {
        "id": "11877092147783680744",
        "title": "公共厕所",
        "address": "内蒙古自治区锡林郭勒盟阿巴嘎旗别力古台北路与宝格达乌拉东街交叉口正北方向66米左右",
        "tel": "",
        "category": "基础设施:公共设施:公共厕所",
        "type": 0,
        "location": {
            "lat": 44.025013,
            "lng": 114.967572
        },
        "ad_info": {
            "adcode": 152522,
            "province": "内蒙古自治区",
            "city": "锡林郭勒盟",
            "district": "阿巴嘎旗"
        }
    },
    {
        "id": "1042679094485660691",
        "title": "无障碍公共厕所",
        "address": "内蒙古自治区锡林郭勒盟锡林浩特市团结大街与滨河路交叉口东北方向136米左右",
        "tel": "",
        "category": "基础设施:公共设施:公共厕所",
        "type": 0,
        "location": {
            "lat": 43.925641,
            "lng": 116.074552
        },
        "ad_info": {
            "adcode": 152502,
            "province": "内蒙古自治区",
            "city": "锡林郭勒盟",
            "district": "锡林浩特市"
        }
    },
    {
        "id": "13780312013328342629",
        "title": "公共厕所",
        "address": "内蒙古自治区锡林郭勒盟锡林浩特市伊利勒特街与达布希呼胡同交叉口正西方向218米左右",
        "tel": "",
        "category": "基础设施:公共设施:公共厕所",
        "type": 0,
        "location": {
            "lat": 43.970097,
            "lng": 116.090074
        },
        "ad_info": {
            "adcode": 152502,
            "province": "内蒙古自治区",
            "city": "锡林郭勒盟",
            "district": "锡林浩特市"
        }
    },
    {
        "id": "14034352629331393754",
        "title": "公共厕所",
        "address": "内蒙古自治区锡林郭勒盟锡林浩特市天津路与振兴南街交叉口东南方向191米左右",
        "tel": "",
        "category": "基础设施:公共设施:公共厕所",
        "type": 0,
        "location": {
            "lat": 43.919943,
            "lng": 116.086281
        },
        "ad_info": {
            "adcode": 152502,
            "province": "内蒙古自治区",
            "city": "锡林郭勒盟",
            "district": "锡林浩特市"
        }
    },
    {
        "id": "12190019284340472406",
        "title": "公共卫生间",
        "address": "内蒙古自治区锡林郭勒盟锡林浩特市伊利勒特街与呼格吉勒路交叉口西北方向108米左右",
        "tel": "",
        "category": "基础设施:公共设施:公共厕所",
        "type": 0,
        "location": {
            "lat": 43.967482,
            "lng": 116.085052
        },
        "ad_info": {
            "adcode": 152502,
            "province": "内蒙古自治区",
            "city": "锡林郭勒盟",
            "district": "锡林浩特市"
        }
    },
    {
        "id": "3388483348298049020",
        "title": "公共厕所",
        "address": "内蒙古自治区锡林郭勒盟正镶白旗",
        "tel": "",
        "category": "基础设施:公共设施:公共厕所",
        "type": 0,
        "location": {
            "lat": 42.220423,
            "lng": 115.248058
        },
        "ad_info": {
            "adcode": 152529,
            "province": "内蒙古自治区",
            "city": "锡林郭勒盟",
            "district": "正镶白旗"
        }
    },
    {
        "id": "3865834210239556038",
        "title": "旅游公共厕所",
        "address": "内蒙古自治区锡林郭勒盟东乌珠穆沁旗哈总线与哈拉盖路交叉口正东方向244米左右",
        "tel": "",
        "category": "基础设施:公共设施:公共厕所",
        "type": 0,
        "location": {
            "lat": 45.861773,
            "lng": 119.424297
        },
        "ad_info": {
            "adcode": 152525,
            "province": "内蒙古自治区",
            "city": "锡林郭勒盟",
            "district": "东乌珠穆沁旗"
        }
    },
    {
        "id": "426766275208426826",
        "title": "公共厕所",
        "address": "内蒙古自治区锡林郭勒盟东乌珠穆沁旗乌里雅斯太镇东乌国际商贸城东北",
        "tel": "",
        "category": "基础设施:公共设施:公共厕所",
        "type": 0,
        "location": {
            "lat": 45.522451,
            "lng": 116.98142
        },
        "ad_info": {
            "adcode": 152525,
            "province": "内蒙古自治区",
            "city": "锡林郭勒盟",
            "district": "东乌珠穆沁旗"
        }
    },
    {
        "id": "11767550192202516485",
        "title": "公共厕所",
        "address": "内蒙古自治区锡林郭勒盟苏尼特左旗满达拉街与芒来路交叉口正西方向105米左右",
        "tel": "",
        "category": "基础设施:公共设施:公共厕所",
        "type": 0,
        "location": {
            "lat": 43.855156,
            "lng": 113.669448
        },
        "ad_info": {
            "adcode": 152523,
            "province": "内蒙古自治区",
            "city": "锡林郭勒盟",
            "district": "苏尼特左旗"
        }
    },
    {
        "id": "4034746883270063066",
        "title": "公共厕所",
        "address": "内蒙古自治区锡林郭勒盟太仆寺旗光明大街与益民巷交叉口东北方向47米左右",
        "tel": "",
        "category": "基础设施:公共设施:公共厕所",
        "type": 0,
        "location": {
            "lat": 41.871094,
            "lng": 115.271375
        },
        "ad_info": {
            "adcode": 152527,
            "province": "内蒙古自治区",
            "city": "锡林郭勒盟",
            "district": "太仆寺旗"
        }
    },
    {
        "id": "15946476832730945260",
        "title": "公共厕所",
        "address": "内蒙古自治区锡林郭勒盟锡林浩特市长城西街与阿都沁东路交叉口东北方向52米左右",
        "tel": "",
        "category": "基础设施:公共设施:公共厕所",
        "type": 0,
        "location": {
            "lat": 43.958173,
            "lng": 116.108893
        },
        "ad_info": {
            "adcode": 152502,
            "province": "内蒙古自治区",
            "city": "锡林郭勒盟",
            "district": "锡林浩特市"
        }
    },
    {
        "id": "14484835995898891684",
        "title": "公共厕所",
        "address": "内蒙古自治区锡林郭勒盟锡林浩特市第十三小学西南侧210米",
        "tel": "",
        "category": "基础设施:公共设施:公共厕所",
        "type": 0,
        "location": {
            "lat": 43.905011,
            "lng": 116.060503
        },
        "ad_info": {
            "adcode": 152502,
            "province": "内蒙古自治区",
            "city": "锡林郭勒盟",
            "district": "锡林浩特市"
        }
    },
    {
        "id": "17318376371767424666",
        "title": "公共厕所",
        "address": "内蒙古自治区锡林郭勒盟正镶白旗S105宝力根陶海苏木苏金宝力格嘎查",
        "tel": "",
        "category": "基础设施:公共设施:公共厕所",
        "type": 0,
        "location": {
            "lat": 42.441156,
            "lng": 115.402026
        },
        "ad_info": {
            "adcode": 152529,
            "province": "内蒙古自治区",
            "city": "锡林郭勒盟",
            "district": "正镶白旗"
        }
    },
    {
        "id": "13236705115367669686",
        "title": "公共厕所",
        "address": "内蒙古自治区锡林郭勒盟东乌珠穆沁旗来故乡情饭店南侧50米",
        "tel": "",
        "category": "基础设施:公共设施:公共厕所",
        "type": 0,
        "location": {
            "lat": 45.974366,
            "lng": 119.127142
        },
        "ad_info": {
            "adcode": 152525,
            "province": "内蒙古自治区",
            "city": "锡林郭勒盟",
            "district": "东乌珠穆沁旗"
        }
    },
    {
        "id": "675172601836172268",
        "title": "公共厕所",
        "address": "内蒙古自治区锡林郭勒盟镶黄旗宝格都路与鸿格尔街交叉口正西方向152米左右",
        "tel": "",
        "category": "基础设施:公共设施:公共厕所",
        "type": 0,
        "location": {
            "lat": 42.243061,
            "lng": 113.838664
        },
        "ad_info": {
            "adcode": 152528,
            "province": "内蒙古自治区",
            "city": "锡林郭勒盟",
            "district": "镶黄旗"
        }
    },
    {
        "id": "644725204925238129",
        "title": "公共厕所",
        "address": "内蒙古自治区锡林郭勒盟西乌珠穆沁旗巴斯路与罕乌拉街交叉口正南方向211米左右",
        "tel": "",
        "category": "基础设施:公共设施:公共厕所",
        "type": 0,
        "location": {
            "lat": 44.583382,
            "lng": 117.609114
        },
        "ad_info": {
            "adcode": 152526,
            "province": "内蒙古自治区",
            "city": "锡林郭勒盟",
            "district": "西乌珠穆沁旗"
        }
    },
    {
        "id": "17771896077174582417",
        "title": "公共厕所",
        "address": "内蒙古自治区锡林郭勒盟锡林浩特市额尔敦路41号锡盟·维多利广场F3",
        "tel": "",
        "category": "基础设施:公共设施:公共厕所",
        "type": 0,
        "location": {
            "lat": 43.942572,
            "lng": 116.078434
        },
        "ad_info": {
            "adcode": 152502,
            "province": "内蒙古自治区",
            "city": "锡林郭勒盟",
            "district": "锡林浩特市"
        }
    },
    {
        "id": "352739165731395867",
        "title": "公共厕所",
        "address": "内蒙古自治区锡林郭勒盟二连浩特市伊林大道与贝加尔街交叉口西南方向118米左右",
        "tel": "",
        "category": "基础设施:公共设施:公共厕所",
        "type": 0,
        "location": {
            "lat": 43.633847,
            "lng": 111.974056
        },
        "ad_info": {
            "adcode": 152501,
            "province": "内蒙古自治区",
            "city": "锡林郭勒盟",
            "district": "二连浩特市"
        }
    },
    {
        "id": "3105059514847187285",
        "title": "公共厕所",
        "address": "内蒙古自治区锡林郭勒盟锡林浩特市北京路350号",
        "tel": "",
        "category": "基础设施:公共设施:公共厕所",
        "type": 0,
        "location": {
            "lat": 43.914417,
            "lng": 116.06148
        },
        "ad_info": {
            "adcode": 152502,
            "province": "内蒙古自治区",
            "city": "锡林郭勒盟",
            "district": "锡林浩特市"
        }
    },
    {
        "id": "15784307177674170817",
        "title": "公共厕所",
        "address": "内蒙古自治区锡林郭勒盟苏尼特左旗白吉拉路与达日罕街交叉口正西方向200米左右",
        "tel": "",
        "category": "基础设施:公共设施:公共厕所",
        "type": 0,
        "location": {
            "lat": 43.85741,
            "lng": 113.658654
        },
        "ad_info": {
            "adcode": 152523,
            "province": "内蒙古自治区",
            "city": "锡林郭勒盟",
            "district": "苏尼特左旗"
        }
    },
    {
        "id": "11877092147783680744",
        "title": "公共厕所",
        "address": "内蒙古自治区锡林郭勒盟阿巴嘎旗别力古台北路与宝格达乌拉东街交叉口正北方向66米左右",
        "tel": "",
        "category": "基础设施:公共设施:公共厕所",
        "type": 0,
        "location": {
            "lat": 44.025013,
            "lng": 114.967572
        },
        "ad_info": {
            "adcode": 152522,
            "province": "内蒙古自治区",
            "city": "锡林郭勒盟",
            "district": "阿巴嘎旗"
        }
    },
    {
        "id": "1042679094485660691",
        "title": "无障碍公共厕所",
        "address": "内蒙古自治区锡林郭勒盟锡林浩特市团结大街与滨河路交叉口东北方向136米左右",
        "tel": "",
        "category": "基础设施:公共设施:公共厕所",
        "type": 0,
        "location": {
            "lat": 43.925641,
            "lng": 116.074552
        },
        "ad_info": {
            "adcode": 152502,
            "province": "内蒙古自治区",
            "city": "锡林郭勒盟",
            "district": "锡林浩特市"
        }
    },
    {
        "id": "13780312013328342629",
        "title": "公共厕所",
        "address": "内蒙古自治区锡林郭勒盟锡林浩特市伊利勒特街与达布希呼胡同交叉口正西方向218米左右",
        "tel": "",
        "category": "基础设施:公共设施:公共厕所",
        "type": 0,
        "location": {
            "lat": 43.970097,
            "lng": 116.090074
        },
        "ad_info": {
            "adcode": 152502,
            "province": "内蒙古自治区",
            "city": "锡林郭勒盟",
            "district": "锡林浩特市"
        }
    },
    {
        "id": "14034352629331393754",
        "title": "公共厕所",
        "address": "内蒙古自治区锡林郭勒盟锡林浩特市天津路与振兴南街交叉口东南方向191米左右",
        "tel": "",
        "category": "基础设施:公共设施:公共厕所",
        "type": 0,
        "location": {
            "lat": 43.919943,
            "lng": 116.086281
        },
        "ad_info": {
            "adcode": 152502,
            "province": "内蒙古自治区",
            "city": "锡林郭勒盟",
            "district": "锡林浩特市"
        }
    },
    {
        "id": "12190019284340472406",
        "title": "公共卫生间",
        "address": "内蒙古自治区锡林郭勒盟锡林浩特市伊利勒特街与呼格吉勒路交叉口西北方向108米左右",
        "tel": "",
        "category": "基础设施:公共设施:公共厕所",
        "type": 0,
        "location": {
            "lat": 43.967482,
            "lng": 116.085052
        },
        "ad_info": {
            "adcode": 152502,
            "province": "内蒙古自治区",
            "city": "锡林郭勒盟",
            "district": "锡林浩特市"
        }
    },
    {
        "id": "3388483348298049020",
        "title": "公共厕所",
        "address": "内蒙古自治区锡林郭勒盟正镶白旗",
        "tel": "",
        "category": "基础设施:公共设施:公共厕所",
        "type": 0,
        "location": {
            "lat": 42.220423,
            "lng": 115.248058
        },
        "ad_info": {
            "adcode": 152529,
            "province": "内蒙古自治区",
            "city": "锡林郭勒盟",
            "district": "正镶白旗"
        }
    },
    {
        "id": "3865834210239556038",
        "title": "旅游公共厕所",
        "address": "内蒙古自治区锡林郭勒盟东乌珠穆沁旗哈总线与哈拉盖路交叉口正东方向244米左右",
        "tel": "",
        "category": "基础设施:公共设施:公共厕所",
        "type": 0,
        "location": {
            "lat": 45.861773,
            "lng": 119.424297
        },
        "ad_info": {
            "adcode": 152525,
            "province": "内蒙古自治区",
            "city": "锡林郭勒盟",
            "district": "东乌珠穆沁旗"
        }
    },
    {
        "id": "426766275208426826",
        "title": "公共厕所",
        "address": "内蒙古自治区锡林郭勒盟东乌珠穆沁旗乌里雅斯太镇东乌国际商贸城东北",
        "tel": "",
        "category": "基础设施:公共设施:公共厕所",
        "type": 0,
        "location": {
            "lat": 45.522451,
            "lng": 116.98142
        },
        "ad_info": {
            "adcode": 152525,
            "province": "内蒙古自治区",
            "city": "锡林郭勒盟",
            "district": "东乌珠穆沁旗"
        }
    },
    {
        "id": "11767550192202516485",
        "title": "公共厕所",
        "address": "内蒙古自治区锡林郭勒盟苏尼特左旗满达拉街与芒来路交叉口正西方向105米左右",
        "tel": "",
        "category": "基础设施:公共设施:公共厕所",
        "type": 0,
        "location": {
            "lat": 43.855156,
            "lng": 113.669448
        },
        "ad_info": {
            "adcode": 152523,
            "province": "内蒙古自治区",
            "city": "锡林郭勒盟",
            "district": "苏尼特左旗"
        }
    },
    {
        "id": "4034746883270063066",
        "title": "公共厕所",
        "address": "内蒙古自治区锡林郭勒盟太仆寺旗光明大街与益民巷交叉口东北方向47米左右",
        "tel": "",
        "category": "基础设施:公共设施:公共厕所",
        "type": 0,
        "location": {
            "lat": 41.871094,
            "lng": 115.271375
        },
        "ad_info": {
            "adcode": 152527,
            "province": "内蒙古自治区",
            "city": "锡林郭勒盟",
            "district": "太仆寺旗"
        }
    },
    {
        "id": "15946476832730945260",
        "title": "公共厕所",
        "address": "内蒙古自治区锡林郭勒盟锡林浩特市长城西街与阿都沁东路交叉口东北方向52米左右",
        "tel": "",
        "category": "基础设施:公共设施:公共厕所",
        "type": 0,
        "location": {
            "lat": 43.958173,
            "lng": 116.108893
        },
        "ad_info": {
            "adcode": 152502,
            "province": "内蒙古自治区",
            "city": "锡林郭勒盟",
            "district": "锡林浩特市"
        }
    },
    {
        "id": "14484835995898891684",
        "title": "公共厕所",
        "address": "内蒙古自治区锡林郭勒盟锡林浩特市第十三小学西南侧210米",
        "tel": "",
        "category": "基础设施:公共设施:公共厕所",
        "type": 0,
        "location": {
            "lat": 43.905011,
            "lng": 116.060503
        },
        "ad_info": {
            "adcode": 152502,
            "province": "内蒙古自治区",
            "city": "锡林郭勒盟",
            "district": "锡林浩特市"
        }
    },
    {
        "id": "17318376371767424666",
        "title": "公共厕所",
        "address": "内蒙古自治区锡林郭勒盟正镶白旗S105宝力根陶海苏木苏金宝力格嘎查",
        "tel": "",
        "category": "基础设施:公共设施:公共厕所",
        "type": 0,
        "location": {
            "lat": 42.441156,
            "lng": 115.402026
        },
        "ad_info": {
            "adcode": 152529,
            "province": "内蒙古自治区",
            "city": "锡林郭勒盟",
            "district": "正镶白旗"
        }
    },
    {
        "id": "13236705115367669686",
        "title": "公共厕所",
        "address": "内蒙古自治区锡林郭勒盟东乌珠穆沁旗来故乡情饭店南侧50米",
        "tel": "",
        "category": "基础设施:公共设施:公共厕所",
        "type": 0,
        "location": {
            "lat": 45.974366,
            "lng": 119.127142
        },
        "ad_info": {
            "adcode": 152525,
            "province": "内蒙古自治区",
            "city": "锡林郭勒盟",
            "district": "东乌珠穆沁旗"
        }
    },
    {
        "id": "675172601836172268",
        "title": "公共厕所",
        "address": "内蒙古自治区锡林郭勒盟镶黄旗宝格都路与鸿格尔街交叉口正西方向152米左右",
        "tel": "",
        "category": "基础设施:公共设施:公共厕所",
        "type": 0,
        "location": {
            "lat": 42.243061,
            "lng": 113.838664
        },
        "ad_info": {
            "adcode": 152528,
            "province": "内蒙古自治区",
            "city": "锡林郭勒盟",
            "district": "镶黄旗"
        }
    },
    {
        "id": "644725204925238129",
        "title": "公共厕所",
        "address": "内蒙古自治区锡林郭勒盟西乌珠穆沁旗巴斯路与罕乌拉街交叉口正南方向211米左右",
        "tel": "",
        "category": "基础设施:公共设施:公共厕所",
        "type": 0,
        "location": {
            "lat": 44.583382,
            "lng": 117.609114
        },
        "ad_info": {
            "adcode": 152526,
            "province": "内蒙古自治区",
            "city": "锡林郭勒盟",
            "district": "西乌珠穆沁旗"
        }
    },
    {
        "id": "17771896077174582417",
        "title": "公共厕所",
        "address": "内蒙古自治区锡林郭勒盟锡林浩特市额尔敦路41号锡盟·维多利广场F3",
        "tel": "",
        "category": "基础设施:公共设施:公共厕所",
        "type": 0,
        "location": {
            "lat": 43.942572,
            "lng": 116.078434
        },
        "ad_info": {
            "adcode": 152502,
            "province": "内蒙古自治区",
            "city": "锡林郭勒盟",
            "district": "锡林浩特市"
        }
    },
    {
        "id": "352739165731395867",
        "title": "公共厕所",
        "address": "内蒙古自治区锡林郭勒盟二连浩特市伊林大道与贝加尔街交叉口西南方向118米左右",
        "tel": "",
        "category": "基础设施:公共设施:公共厕所",
        "type": 0,
        "location": {
            "lat": 43.633847,
            "lng": 111.974056
        },
        "ad_info": {
            "adcode": 152501,
            "province": "内蒙古自治区",
            "city": "锡林郭勒盟",
            "district": "二连浩特市"
        }
    },
    {
        "id": "3105059514847187285",
        "title": "公共厕所",
        "address": "内蒙古自治区锡林郭勒盟锡林浩特市北京路350号",
        "tel": "",
        "category": "基础设施:公共设施:公共厕所",
        "type": 0,
        "location": {
            "lat": 43.914417,
            "lng": 116.06148
        },
        "ad_info": {
            "adcode": 152502,
            "province": "内蒙古自治区",
            "city": "锡林郭勒盟",
            "district": "锡林浩特市"
        }
    },
    {
        "id": "15784307177674170817",
        "title": "公共厕所",
        "address": "内蒙古自治区锡林郭勒盟苏尼特左旗白吉拉路与达日罕街交叉口正西方向200米左右",
        "tel": "",
        "category": "基础设施:公共设施:公共厕所",
        "type": 0,
        "location": {
            "lat": 43.85741,
            "lng": 113.658654
        },
        "ad_info": {
            "adcode": 152523,
            "province": "内蒙古自治区",
            "city": "锡林郭勒盟",
            "district": "苏尼特左旗"
        }
    },
    {
        "id": "11877092147783680744",
        "title": "公共厕所",
        "address": "内蒙古自治区锡林郭勒盟阿巴嘎旗别力古台北路与宝格达乌拉东街交叉口正北方向66米左右",
        "tel": "",
        "category": "基础设施:公共设施:公共厕所",
        "type": 0,
        "location": {
            "lat": 44.025013,
            "lng": 114.967572
        },
        "ad_info": {
            "adcode": 152522,
            "province": "内蒙古自治区",
            "city": "锡林郭勒盟",
            "district": "阿巴嘎旗"
        }
    },
    {
        "id": "1042679094485660691",
        "title": "无障碍公共厕所",
        "address": "内蒙古自治区锡林郭勒盟锡林浩特市团结大街与滨河路交叉口东北方向136米左右",
        "tel": "",
        "category": "基础设施:公共设施:公共厕所",
        "type": 0,
        "location": {
            "lat": 43.925641,
            "lng": 116.074552
        },
        "ad_info": {
            "adcode": 152502,
            "province": "内蒙古自治区",
            "city": "锡林郭勒盟",
            "district": "锡林浩特市"
        }
    },
    {
        "id": "13780312013328342629",
        "title": "公共厕所",
        "address": "内蒙古自治区锡林郭勒盟锡林浩特市伊利勒特街与达布希呼胡同交叉口正西方向218米左右",
        "tel": "",
        "category": "基础设施:公共设施:公共厕所",
        "type": 0,
        "location": {
            "lat": 43.970097,
            "lng": 116.090074
        },
        "ad_info": {
            "adcode": 152502,
            "province": "内蒙古自治区",
            "city": "锡林郭勒盟",
            "district": "锡林浩特市"
        }
    },
    {
        "id": "14034352629331393754",
        "title": "公共厕所",
        "address": "内蒙古自治区锡林郭勒盟锡林浩特市天津路与振兴南街交叉口东南方向191米左右",
        "tel": "",
        "category": "基础设施:公共设施:公共厕所",
        "type": 0,
        "location": {
            "lat": 43.919943,
            "lng": 116.086281
        },
        "ad_info": {
            "adcode": 152502,
            "province": "内蒙古自治区",
            "city": "锡林郭勒盟",
            "district": "锡林浩特市"
        }
    },
    {
        "id": "12190019284340472406",
        "title": "公共卫生间",
        "address": "内蒙古自治区锡林郭勒盟锡林浩特市伊利勒特街与呼格吉勒路交叉口西北方向108米左右",
        "tel": "",
        "category": "基础设施:公共设施:公共厕所",
        "type": 0,
        "location": {
            "lat": 43.967482,
            "lng": 116.085052
        },
        "ad_info": {
            "adcode": 152502,
            "province": "内蒙古自治区",
            "city": "锡林郭勒盟",
            "district": "锡林浩特市"
        }
    },
    {
        "id": "3388483348298049020",
        "title": "公共厕所",
        "address": "内蒙古自治区锡林郭勒盟正镶白旗",
        "tel": "",
        "category": "基础设施:公共设施:公共厕所",
        "type": 0,
        "location": {
            "lat": 42.220423,
            "lng": 115.248058
        },
        "ad_info": {
            "adcode": 152529,
            "province": "内蒙古自治区",
            "city": "锡林郭勒盟",
            "district": "正镶白旗"
        }
    },
    {
        "id": "3865834210239556038",
        "title": "旅游公共厕所",
        "address": "内蒙古自治区锡林郭勒盟东乌珠穆沁旗哈总线与哈拉盖路交叉口正东方向244米左右",
        "tel": "",
        "category": "基础设施:公共设施:公共厕所",
        "type": 0,
        "location": {
            "lat": 45.861773,
            "lng": 119.424297
        },
        "ad_info": {
            "adcode": 152525,
            "province": "内蒙古自治区",
            "city": "锡林郭勒盟",
            "district": "东乌珠穆沁旗"
        }
    },
    {
        "id": "426766275208426826",
        "title": "公共厕所",
        "address": "内蒙古自治区锡林郭勒盟东乌珠穆沁旗乌里雅斯太镇东乌国际商贸城东北",
        "tel": "",
        "category": "基础设施:公共设施:公共厕所",
        "type": 0,
        "location": {
            "lat": 45.522451,
            "lng": 116.98142
        },
        "ad_info": {
            "adcode": 152525,
            "province": "内蒙古自治区",
            "city": "锡林郭勒盟",
            "district": "东乌珠穆沁旗"
        }
    },
    {
        "id": "11767550192202516485",
        "title": "公共厕所",
        "address": "内蒙古自治区锡林郭勒盟苏尼特左旗满达拉街与芒来路交叉口正西方向105米左右",
        "tel": "",
        "category": "基础设施:公共设施:公共厕所",
        "type": 0,
        "location": {
            "lat": 43.855156,
            "lng": 113.669448
        },
        "ad_info": {
            "adcode": 152523,
            "province": "内蒙古自治区",
            "city": "锡林郭勒盟",
            "district": "苏尼特左旗"
        }
    },
    {
        "id": "4034746883270063066",
        "title": "公共厕所",
        "address": "内蒙古自治区锡林郭勒盟太仆寺旗光明大街与益民巷交叉口东北方向47米左右",
        "tel": "",
        "category": "基础设施:公共设施:公共厕所",
        "type": 0,
        "location": {
            "lat": 41.871094,
            "lng": 115.271375
        },
        "ad_info": {
            "adcode": 152527,
            "province": "内蒙古自治区",
            "city": "锡林郭勒盟",
            "district": "太仆寺旗"
        }
    },
    {
        "id": "15946476832730945260",
        "title": "公共厕所",
        "address": "内蒙古自治区锡林郭勒盟锡林浩特市长城西街与阿都沁东路交叉口东北方向52米左右",
        "tel": "",
        "category": "基础设施:公共设施:公共厕所",
        "type": 0,
        "location": {
            "lat": 43.958173,
            "lng": 116.108893
        },
        "ad_info": {
            "adcode": 152502,
            "province": "内蒙古自治区",
            "city": "锡林郭勒盟",
            "district": "锡林浩特市"
        }
    },
    {
        "id": "14484835995898891684",
        "title": "公共厕所",
        "address": "内蒙古自治区锡林郭勒盟锡林浩特市第十三小学西南侧210米",
        "tel": "",
        "category": "基础设施:公共设施:公共厕所",
        "type": 0,
        "location": {
            "lat": 43.905011,
            "lng": 116.060503
        },
        "ad_info": {
            "adcode": 152502,
            "province": "内蒙古自治区",
            "city": "锡林郭勒盟",
            "district": "锡林浩特市"
        }
    },
    {
        "id": "17318376371767424666",
        "title": "公共厕所",
        "address": "内蒙古自治区锡林郭勒盟正镶白旗S105宝力根陶海苏木苏金宝力格嘎查",
        "tel": "",
        "category": "基础设施:公共设施:公共厕所",
        "type": 0,
        "location": {
            "lat": 42.441156,
            "lng": 115.402026
        },
        "ad_info": {
            "adcode": 152529,
            "province": "内蒙古自治区",
            "city": "锡林郭勒盟",
            "district": "正镶白旗"
        }
    },
    {
        "id": "13236705115367669686",
        "title": "公共厕所",
        "address": "内蒙古自治区锡林郭勒盟东乌珠穆沁旗来故乡情饭店南侧50米",
        "tel": "",
        "category": "基础设施:公共设施:公共厕所",
        "type": 0,
        "location": {
            "lat": 45.974366,
            "lng": 119.127142
        },
        "ad_info": {
            "adcode": 152525,
            "province": "内蒙古自治区",
            "city": "锡林郭勒盟",
            "district": "东乌珠穆沁旗"
        }
    },
    {
        "id": "675172601836172268",
        "title": "公共厕所",
        "address": "内蒙古自治区锡林郭勒盟镶黄旗宝格都路与鸿格尔街交叉口正西方向152米左右",
        "tel": "",
        "category": "基础设施:公共设施:公共厕所",
        "type": 0,
        "location": {
            "lat": 42.243061,
            "lng": 113.838664
        },
        "ad_info": {
            "adcode": 152528,
            "province": "内蒙古自治区",
            "city": "锡林郭勒盟",
            "district": "镶黄旗"
        }
    },
    {
        "id": "644725204925238129",
        "title": "公共厕所",
        "address": "内蒙古自治区锡林郭勒盟西乌珠穆沁旗巴斯路与罕乌拉街交叉口正南方向211米左右",
        "tel": "",
        "category": "基础设施:公共设施:公共厕所",
        "type": 0,
        "location": {
            "lat": 44.583382,
            "lng": 117.609114
        },
        "ad_info": {
            "adcode": 152526,
            "province": "内蒙古自治区",
            "city": "锡林郭勒盟",
            "district": "西乌珠穆沁旗"
        }
    },
    {
        "id": "17771896077174582417",
        "title": "公共厕所",
        "address": "内蒙古自治区锡林郭勒盟锡林浩特市额尔敦路41号锡盟·维多利广场F3",
        "tel": "",
        "category": "基础设施:公共设施:公共厕所",
        "type": 0,
        "location": {
            "lat": 43.942572,
            "lng": 116.078434
        },
        "ad_info": {
            "adcode": 152502,
            "province": "内蒙古自治区",
            "city": "锡林郭勒盟",
            "district": "锡林浩特市"
        }
    },
    {
        "id": "352739165731395867",
        "title": "公共厕所",
        "address": "内蒙古自治区锡林郭勒盟二连浩特市伊林大道与贝加尔街交叉口西南方向118米左右",
        "tel": "",
        "category": "基础设施:公共设施:公共厕所",
        "type": 0,
        "location": {
            "lat": 43.633847,
            "lng": 111.974056
        },
        "ad_info": {
            "adcode": 152501,
            "province": "内蒙古自治区",
            "city": "锡林郭勒盟",
            "district": "二连浩特市"
        }
    },
    {
        "id": "3105059514847187285",
        "title": "公共厕所",
        "address": "内蒙古自治区锡林郭勒盟锡林浩特市北京路350号",
        "tel": "",
        "category": "基础设施:公共设施:公共厕所",
        "type": 0,
        "location": {
            "lat": 43.914417,
            "lng": 116.06148
        },
        "ad_info": {
            "adcode": 152502,
            "province": "内蒙古自治区",
            "city": "锡林郭勒盟",
            "district": "锡林浩特市"
        }
    },
    {
        "id": "15784307177674170817",
        "title": "公共厕所",
        "address": "内蒙古自治区锡林郭勒盟苏尼特左旗白吉拉路与达日罕街交叉口正西方向200米左右",
        "tel": "",
        "category": "基础设施:公共设施:公共厕所",
        "type": 0,
        "location": {
            "lat": 43.85741,
            "lng": 113.658654
        },
        "ad_info": {
            "adcode": 152523,
            "province": "内蒙古自治区",
            "city": "锡林郭勒盟",
            "district": "苏尼特左旗"
        }
    },
    {
        "id": "11877092147783680744",
        "title": "公共厕所",
        "address": "内蒙古自治区锡林郭勒盟阿巴嘎旗别力古台北路与宝格达乌拉东街交叉口正北方向66米左右",
        "tel": "",
        "category": "基础设施:公共设施:公共厕所",
        "type": 0,
        "location": {
            "lat": 44.025013,
            "lng": 114.967572
        },
        "ad_info": {
            "adcode": 152522,
            "province": "内蒙古自治区",
            "city": "锡林郭勒盟",
            "district": "阿巴嘎旗"
        }
    },
    {
        "id": "1042679094485660691",
        "title": "无障碍公共厕所",
        "address": "内蒙古自治区锡林郭勒盟锡林浩特市团结大街与滨河路交叉口东北方向136米左右",
        "tel": "",
        "category": "基础设施:公共设施:公共厕所",
        "type": 0,
        "location": {
            "lat": 43.925641,
            "lng": 116.074552
        },
        "ad_info": {
            "adcode": 152502,
            "province": "内蒙古自治区",
            "city": "锡林郭勒盟",
            "district": "锡林浩特市"
        }
    },
    {
        "id": "13780312013328342629",
        "title": "公共厕所",
        "address": "内蒙古自治区锡林郭勒盟锡林浩特市伊利勒特街与达布希呼胡同交叉口正西方向218米左右",
        "tel": "",
        "category": "基础设施:公共设施:公共厕所",
        "type": 0,
        "location": {
            "lat": 43.970097,
            "lng": 116.090074
        },
        "ad_info": {
            "adcode": 152502,
            "province": "内蒙古自治区",
            "city": "锡林郭勒盟",
            "district": "锡林浩特市"
        }
    },
    {
        "id": "14034352629331393754",
        "title": "公共厕所",
        "address": "内蒙古自治区锡林郭勒盟锡林浩特市天津路与振兴南街交叉口东南方向191米左右",
        "tel": "",
        "category": "基础设施:公共设施:公共厕所",
        "type": 0,
        "location": {
            "lat": 43.919943,
            "lng": 116.086281
        },
        "ad_info": {
            "adcode": 152502,
            "province": "内蒙古自治区",
            "city": "锡林郭勒盟",
            "district": "锡林浩特市"
        }
    },
    {
        "id": "12190019284340472406",
        "title": "公共卫生间",
        "address": "内蒙古自治区锡林郭勒盟锡林浩特市伊利勒特街与呼格吉勒路交叉口西北方向108米左右",
        "tel": "",
        "category": "基础设施:公共设施:公共厕所",
        "type": 0,
        "location": {
            "lat": 43.967482,
            "lng": 116.085052
        },
        "ad_info": {
            "adcode": 152502,
            "province": "内蒙古自治区",
            "city": "锡林郭勒盟",
            "district": "锡林浩特市"
        }
    },
    {
        "id": "3388483348298049020",
        "title": "公共厕所",
        "address": "内蒙古自治区锡林郭勒盟正镶白旗",
        "tel": "",
        "category": "基础设施:公共设施:公共厕所",
        "type": 0,
        "location": {
            "lat": 42.220423,
            "lng": 115.248058
        },
        "ad_info": {
            "adcode": 152529,
            "province": "内蒙古自治区",
            "city": "锡林郭勒盟",
            "district": "正镶白旗"
        }
    },
    {
        "id": "3865834210239556038",
        "title": "旅游公共厕所",
        "address": "内蒙古自治区锡林郭勒盟东乌珠穆沁旗哈总线与哈拉盖路交叉口正东方向244米左右",
        "tel": "",
        "category": "基础设施:公共设施:公共厕所",
        "type": 0,
        "location": {
            "lat": 45.861773,
            "lng": 119.424297
        },
        "ad_info": {
            "adcode": 152525,
            "province": "内蒙古自治区",
            "city": "锡林郭勒盟",
            "district": "东乌珠穆沁旗"
        }
    },
    {
        "id": "426766275208426826",
        "title": "公共厕所",
        "address": "内蒙古自治区锡林郭勒盟东乌珠穆沁旗乌里雅斯太镇东乌国际商贸城东北",
        "tel": "",
        "category": "基础设施:公共设施:公共厕所",
        "type": 0,
        "location": {
            "lat": 45.522451,
            "lng": 116.98142
        },
        "ad_info": {
            "adcode": 152525,
            "province": "内蒙古自治区",
            "city": "锡林郭勒盟",
            "district": "东乌珠穆沁旗"
        }
    },
    {
        "id": "11767550192202516485",
        "title": "公共厕所",
        "address": "内蒙古自治区锡林郭勒盟苏尼特左旗满达拉街与芒来路交叉口正西方向105米左右",
        "tel": "",
        "category": "基础设施:公共设施:公共厕所",
        "type": 0,
        "location": {
            "lat": 43.855156,
            "lng": 113.669448
        },
        "ad_info": {
            "adcode": 152523,
            "province": "内蒙古自治区",
            "city": "锡林郭勒盟",
            "district": "苏尼特左旗"
        }
    },
    {
        "id": "4034746883270063066",
        "title": "公共厕所",
        "address": "内蒙古自治区锡林郭勒盟太仆寺旗光明大街与益民巷交叉口东北方向47米左右",
        "tel": "",
        "category": "基础设施:公共设施:公共厕所",
        "type": 0,
        "location": {
            "lat": 41.871094,
            "lng": 115.271375
        },
        "ad_info": {
            "adcode": 152527,
            "province": "内蒙古自治区",
            "city": "锡林郭勒盟",
            "district": "太仆寺旗"
        }
    },
    {
        "id": "15946476832730945260",
        "title": "公共厕所",
        "address": "内蒙古自治区锡林郭勒盟锡林浩特市长城西街与阿都沁东路交叉口东北方向52米左右",
        "tel": "",
        "category": "基础设施:公共设施:公共厕所",
        "type": 0,
        "location": {
            "lat": 43.958173,
            "lng": 116.108893
        },
        "ad_info": {
            "adcode": 152502,
            "province": "内蒙古自治区",
            "city": "锡林郭勒盟",
            "district": "锡林浩特市"
        }
    },
    {
        "id": "14484835995898891684",
        "title": "公共厕所",
        "address": "内蒙古自治区锡林郭勒盟锡林浩特市第十三小学西南侧210米",
        "tel": "",
        "category": "基础设施:公共设施:公共厕所",
        "type": 0,
        "location": {
            "lat": 43.905011,
            "lng": 116.060503
        },
        "ad_info": {
            "adcode": 152502,
            "province": "内蒙古自治区",
            "city": "锡林郭勒盟",
            "district": "锡林浩特市"
        }
    },
    {
        "id": "17318376371767424666",
        "title": "公共厕所",
        "address": "内蒙古自治区锡林郭勒盟正镶白旗S105宝力根陶海苏木苏金宝力格嘎查",
        "tel": "",
        "category": "基础设施:公共设施:公共厕所",
        "type": 0,
        "location": {
            "lat": 42.441156,
            "lng": 115.402026
        },
        "ad_info": {
            "adcode": 152529,
            "province": "内蒙古自治区",
            "city": "锡林郭勒盟",
            "district": "正镶白旗"
        }
    },
    {
        "id": "13236705115367669686",
        "title": "公共厕所",
        "address": "内蒙古自治区锡林郭勒盟东乌珠穆沁旗来故乡情饭店南侧50米",
        "tel": "",
        "category": "基础设施:公共设施:公共厕所",
        "type": 0,
        "location": {
            "lat": 45.974366,
            "lng": 119.127142
        },
        "ad_info": {
            "adcode": 152525,
            "province": "内蒙古自治区",
            "city": "锡林郭勒盟",
            "district": "东乌珠穆沁旗"
        }
    },
    {
        "id": "675172601836172268",
        "title": "公共厕所",
        "address": "内蒙古自治区锡林郭勒盟镶黄旗宝格都路与鸿格尔街交叉口正西方向152米左右",
        "tel": "",
        "category": "基础设施:公共设施:公共厕所",
        "type": 0,
        "location": {
            "lat": 42.243061,
            "lng": 113.838664
        },
        "ad_info": {
            "adcode": 152528,
            "province": "内蒙古自治区",
            "city": "锡林郭勒盟",
            "district": "镶黄旗"
        }
    },
    {
        "id": "644725204925238129",
        "title": "公共厕所",
        "address": "内蒙古自治区锡林郭勒盟西乌珠穆沁旗巴斯路与罕乌拉街交叉口正南方向211米左右",
        "tel": "",
        "category": "基础设施:公共设施:公共厕所",
        "type": 0,
        "location": {
            "lat": 44.583382,
            "lng": 117.609114
        },
        "ad_info": {
            "adcode": 152526,
            "province": "内蒙古自治区",
            "city": "锡林郭勒盟",
            "district": "西乌珠穆沁旗"
        }
    },
    {
        "id": "17771896077174582417",
        "title": "公共厕所",
        "address": "内蒙古自治区锡林郭勒盟锡林浩特市额尔敦路41号锡盟·维多利广场F3",
        "tel": "",
        "category": "基础设施:公共设施:公共厕所",
        "type": 0,
        "location": {
            "lat": 43.942572,
            "lng": 116.078434
        },
        "ad_info": {
            "adcode": 152502,
            "province": "内蒙古自治区",
            "city": "锡林郭勒盟",
            "district": "锡林浩特市"
        }
    },
    {
        "id": "352739165731395867",
        "title": "公共厕所",
        "address": "内蒙古自治区锡林郭勒盟二连浩特市伊林大道与贝加尔街交叉口西南方向118米左右",
        "tel": "",
        "category": "基础设施:公共设施:公共厕所",
        "type": 0,
        "location": {
            "lat": 43.633847,
            "lng": 111.974056
        },
        "ad_info": {
            "adcode": 152501,
            "province": "内蒙古自治区",
            "city": "锡林郭勒盟",
            "district": "二连浩特市"
        }
    },
    {
        "id": "3105059514847187285",
        "title": "公共厕所",
        "address": "内蒙古自治区锡林郭勒盟锡林浩特市北京路350号",
        "tel": "",
        "category": "基础设施:公共设施:公共厕所",
        "type": 0,
        "location": {
            "lat": 43.914417,
            "lng": 116.06148
        },
        "ad_info": {
            "adcode": 152502,
            "province": "内蒙古自治区",
            "city": "锡林郭勒盟",
            "district": "锡林浩特市"
        }
    },
    {
        "id": "15784307177674170817",
        "title": "公共厕所",
        "address": "内蒙古自治区锡林郭勒盟苏尼特左旗白吉拉路与达日罕街交叉口正西方向200米左右",
        "tel": "",
        "category": "基础设施:公共设施:公共厕所",
        "type": 0,
        "location": {
            "lat": 43.85741,
            "lng": 113.658654
        },
        "ad_info": {
            "adcode": 152523,
            "province": "内蒙古自治区",
            "city": "锡林郭勒盟",
            "district": "苏尼特左旗"
        }
    },
    {
        "id": "11877092147783680744",
        "title": "公共厕所",
        "address": "内蒙古自治区锡林郭勒盟阿巴嘎旗别力古台北路与宝格达乌拉东街交叉口正北方向66米左右",
        "tel": "",
        "category": "基础设施:公共设施:公共厕所",
        "type": 0,
        "location": {
            "lat": 44.025013,
            "lng": 114.967572
        },
        "ad_info": {
            "adcode": 152522,
            "province": "内蒙古自治区",
            "city": "锡林郭勒盟",
            "district": "阿巴嘎旗"
        }
    },
    {
        "id": "1042679094485660691",
        "title": "无障碍公共厕所",
        "address": "内蒙古自治区锡林郭勒盟锡林浩特市团结大街与滨河路交叉口东北方向136米左右",
        "tel": "",
        "category": "基础设施:公共设施:公共厕所",
        "type": 0,
        "location": {
            "lat": 43.925641,
            "lng": 116.074552
        },
        "ad_info": {
            "adcode": 152502,
            "province": "内蒙古自治区",
            "city": "锡林郭勒盟",
            "district": "锡林浩特市"
        }
    },
    {
        "id": "13780312013328342629",
        "title": "公共厕所",
        "address": "内蒙古自治区锡林郭勒盟锡林浩特市伊利勒特街与达布希呼胡同交叉口正西方向218米左右",
        "tel": "",
        "category": "基础设施:公共设施:公共厕所",
        "type": 0,
        "location": {
            "lat": 43.970097,
            "lng": 116.090074
        },
        "ad_info": {
            "adcode": 152502,
            "province": "内蒙古自治区",
            "city": "锡林郭勒盟",
            "district": "锡林浩特市"
        }
    },
    {
        "id": "14034352629331393754",
        "title": "公共厕所",
        "address": "内蒙古自治区锡林郭勒盟锡林浩特市天津路与振兴南街交叉口东南方向191米左右",
        "tel": "",
        "category": "基础设施:公共设施:公共厕所",
        "type": 0,
        "location": {
            "lat": 43.919943,
            "lng": 116.086281
        },
        "ad_info": {
            "adcode": 152502,
            "province": "内蒙古自治区",
            "city": "锡林郭勒盟",
            "district": "锡林浩特市"
        }
    },
    {
        "id": "12190019284340472406",
        "title": "公共卫生间",
        "address": "内蒙古自治区锡林郭勒盟锡林浩特市伊利勒特街与呼格吉勒路交叉口西北方向108米左右",
        "tel": "",
        "category": "基础设施:公共设施:公共厕所",
        "type": 0,
        "location": {
            "lat": 43.967482,
            "lng": 116.085052
        },
        "ad_info": {
            "adcode": 152502,
            "province": "内蒙古自治区",
            "city": "锡林郭勒盟",
            "district": "锡林浩特市"
        }
    },
    {
        "id": "3388483348298049020",
        "title": "公共厕所",
        "address": "内蒙古自治区锡林郭勒盟正镶白旗",
        "tel": "",
        "category": "基础设施:公共设施:公共厕所",
        "type": 0,
        "location": {
            "lat": 42.220423,
            "lng": 115.248058
        },
        "ad_info": {
            "adcode": 152529,
            "province": "内蒙古自治区",
            "city": "锡林郭勒盟",
            "district": "正镶白旗"
        }
    },
    {
        "id": "3865834210239556038",
        "title": "旅游公共厕所",
        "address": "内蒙古自治区锡林郭勒盟东乌珠穆沁旗哈总线与哈拉盖路交叉口正东方向244米左右",
        "tel": "",
        "category": "基础设施:公共设施:公共厕所",
        "type": 0,
        "location": {
            "lat": 45.861773,
            "lng": 119.424297
        },
        "ad_info": {
            "adcode": 152525,
            "province": "内蒙古自治区",
            "city": "锡林郭勒盟",
            "district": "东乌珠穆沁旗"
        }
    },
    {
        "id": "426766275208426826",
        "title": "公共厕所",
        "address": "内蒙古自治区锡林郭勒盟东乌珠穆沁旗乌里雅斯太镇东乌国际商贸城东北",
        "tel": "",
        "category": "基础设施:公共设施:公共厕所",
        "type": 0,
        "location": {
            "lat": 45.522451,
            "lng": 116.98142
        },
        "ad_info": {
            "adcode": 152525,
            "province": "内蒙古自治区",
            "city": "锡林郭勒盟",
            "district": "东乌珠穆沁旗"
        }
    },
    {
        "id": "11767550192202516485",
        "title": "公共厕所",
        "address": "内蒙古自治区锡林郭勒盟苏尼特左旗满达拉街与芒来路交叉口正西方向105米左右",
        "tel": "",
        "category": "基础设施:公共设施:公共厕所",
        "type": 0,
        "location": {
            "lat": 43.855156,
            "lng": 113.669448
        },
        "ad_info": {
            "adcode": 152523,
            "province": "内蒙古自治区",
            "city": "锡林郭勒盟",
            "district": "苏尼特左旗"
        }
    },
    {
        "id": "4034746883270063066",
        "title": "公共厕所",
        "address": "内蒙古自治区锡林郭勒盟太仆寺旗光明大街与益民巷交叉口东北方向47米左右",
        "tel": "",
        "category": "基础设施:公共设施:公共厕所",
        "type": 0,
        "location": {
            "lat": 41.871094,
            "lng": 115.271375
        },
        "ad_info": {
            "adcode": 152527,
            "province": "内蒙古自治区",
            "city": "锡林郭勒盟",
            "district": "太仆寺旗"
        }
    },
    {
        "id": "15946476832730945260",
        "title": "公共厕所",
        "address": "内蒙古自治区锡林郭勒盟锡林浩特市长城西街与阿都沁东路交叉口东北方向52米左右",
        "tel": "",
        "category": "基础设施:公共设施:公共厕所",
        "type": 0,
        "location": {
            "lat": 43.958173,
            "lng": 116.108893
        },
        "ad_info": {
            "adcode": 152502,
            "province": "内蒙古自治区",
            "city": "锡林郭勒盟",
            "district": "锡林浩特市"
        }
    },
    {
        "id": "14484835995898891684",
        "title": "公共厕所",
        "address": "内蒙古自治区锡林郭勒盟锡林浩特市第十三小学西南侧210米",
        "tel": "",
        "category": "基础设施:公共设施:公共厕所",
        "type": 0,
        "location": {
            "lat": 43.905011,
            "lng": 116.060503
        },
        "ad_info": {
            "adcode": 152502,
            "province": "内蒙古自治区",
            "city": "锡林郭勒盟",
            "district": "锡林浩特市"
        }
    },
    {
        "id": "17318376371767424666",
        "title": "公共厕所",
        "address": "内蒙古自治区锡林郭勒盟正镶白旗S105宝力根陶海苏木苏金宝力格嘎查",
        "tel": "",
        "category": "基础设施:公共设施:公共厕所",
        "type": 0,
        "location": {
            "lat": 42.441156,
            "lng": 115.402026
        },
        "ad_info": {
            "adcode": 152529,
            "province": "内蒙古自治区",
            "city": "锡林郭勒盟",
            "district": "正镶白旗"
        }
    },
    {
        "id": "13236705115367669686",
        "title": "公共厕所",
        "address": "内蒙古自治区锡林郭勒盟东乌珠穆沁旗来故乡情饭店南侧50米",
        "tel": "",
        "category": "基础设施:公共设施:公共厕所",
        "type": 0,
        "location": {
            "lat": 45.974366,
            "lng": 119.127142
        },
        "ad_info": {
            "adcode": 152525,
            "province": "内蒙古自治区",
            "city": "锡林郭勒盟",
            "district": "东乌珠穆沁旗"
        }
    },
    {
        "id": "675172601836172268",
        "title": "公共厕所",
        "address": "内蒙古自治区锡林郭勒盟镶黄旗宝格都路与鸿格尔街交叉口正西方向152米左右",
        "tel": "",
        "category": "基础设施:公共设施:公共厕所",
        "type": 0,
        "location": {
            "lat": 42.243061,
            "lng": 113.838664
        },
        "ad_info": {
            "adcode": 152528,
            "province": "内蒙古自治区",
            "city": "锡林郭勒盟",
            "district": "镶黄旗"
        }
    },
    {
        "id": "644725204925238129",
        "title": "公共厕所",
        "address": "内蒙古自治区锡林郭勒盟西乌珠穆沁旗巴斯路与罕乌拉街交叉口正南方向211米左右",
        "tel": "",
        "category": "基础设施:公共设施:公共厕所",
        "type": 0,
        "location": {
            "lat": 44.583382,
            "lng": 117.609114
        },
        "ad_info": {
            "adcode": 152526,
            "province": "内蒙古自治区",
            "city": "锡林郭勒盟",
            "district": "西乌珠穆沁旗"
        }
    },
    {
        "id": "17771896077174582417",
        "title": "公共厕所",
        "address": "内蒙古自治区锡林郭勒盟锡林浩特市额尔敦路41号锡盟·维多利广场F3",
        "tel": "",
        "category": "基础设施:公共设施:公共厕所",
        "type": 0,
        "location": {
            "lat": 43.942572,
            "lng": 116.078434
        },
        "ad_info": {
            "adcode": 152502,
            "province": "内蒙古自治区",
            "city": "锡林郭勒盟",
            "district": "锡林浩特市"
        }
    },
    {
        "id": "352739165731395867",
        "title": "公共厕所",
        "address": "内蒙古自治区锡林郭勒盟二连浩特市伊林大道与贝加尔街交叉口西南方向118米左右",
        "tel": "",
        "category": "基础设施:公共设施:公共厕所",
        "type": 0,
        "location": {
            "lat": 43.633847,
            "lng": 111.974056
        },
        "ad_info": {
            "adcode": 152501,
            "province": "内蒙古自治区",
            "city": "锡林郭勒盟",
            "district": "二连浩特市"
        }
    },
    {
        "id": "3105059514847187285",
        "title": "公共厕所",
        "address": "内蒙古自治区锡林郭勒盟锡林浩特市北京路350号",
        "tel": "",
        "category": "基础设施:公共设施:公共厕所",
        "type": 0,
        "location": {
            "lat": 43.914417,
            "lng": 116.06148
        },
        "ad_info": {
            "adcode": 152502,
            "province": "内蒙古自治区",
            "city": "锡林郭勒盟",
            "district": "锡林浩特市"
        }
    },
    {
        "id": "15784307177674170817",
        "title": "公共厕所",
        "address": "内蒙古自治区锡林郭勒盟苏尼特左旗白吉拉路与达日罕街交叉口正西方向200米左右",
        "tel": "",
        "category": "基础设施:公共设施:公共厕所",
        "type": 0,
        "location": {
            "lat": 43.85741,
            "lng": 113.658654
        },
        "ad_info": {
            "adcode": 152523,
            "province": "内蒙古自治区",
            "city": "锡林郭勒盟",
            "district": "苏尼特左旗"
        }
    },
    {
        "id": "11877092147783680744",
        "title": "公共厕所",
        "address": "内蒙古自治区锡林郭勒盟阿巴嘎旗别力古台北路与宝格达乌拉东街交叉口正北方向66米左右",
        "tel": "",
        "category": "基础设施:公共设施:公共厕所",
        "type": 0,
        "location": {
            "lat": 44.025013,
            "lng": 114.967572
        },
        "ad_info": {
            "adcode": 152522,
            "province": "内蒙古自治区",
            "city": "锡林郭勒盟",
            "district": "阿巴嘎旗"
        }
    },
    {
        "id": "1042679094485660691",
        "title": "无障碍公共厕所",
        "address": "内蒙古自治区锡林郭勒盟锡林浩特市团结大街与滨河路交叉口东北方向136米左右",
        "tel": "",
        "category": "基础设施:公共设施:公共厕所",
        "type": 0,
        "location": {
            "lat": 43.925641,
            "lng": 116.074552
        },
        "ad_info": {
            "adcode": 152502,
            "province": "内蒙古自治区",
            "city": "锡林郭勒盟",
            "district": "锡林浩特市"
        }
    },
    {
        "id": "13780312013328342629",
        "title": "公共厕所",
        "address": "内蒙古自治区锡林郭勒盟锡林浩特市伊利勒特街与达布希呼胡同交叉口正西方向218米左右",
        "tel": "",
        "category": "基础设施:公共设施:公共厕所",
        "type": 0,
        "location": {
            "lat": 43.970097,
            "lng": 116.090074
        },
        "ad_info": {
            "adcode": 152502,
            "province": "内蒙古自治区",
            "city": "锡林郭勒盟",
            "district": "锡林浩特市"
        }
    },
    {
        "id": "14034352629331393754",
        "title": "公共厕所",
        "address": "内蒙古自治区锡林郭勒盟锡林浩特市天津路与振兴南街交叉口东南方向191米左右",
        "tel": "",
        "category": "基础设施:公共设施:公共厕所",
        "type": 0,
        "location": {
            "lat": 43.919943,
            "lng": 116.086281
        },
        "ad_info": {
            "adcode": 152502,
            "province": "内蒙古自治区",
            "city": "锡林郭勒盟",
            "district": "锡林浩特市"
        }
    },
    {
        "id": "12190019284340472406",
        "title": "公共卫生间",
        "address": "内蒙古自治区锡林郭勒盟锡林浩特市伊利勒特街与呼格吉勒路交叉口西北方向108米左右",
        "tel": "",
        "category": "基础设施:公共设施:公共厕所",
        "type": 0,
        "location": {
            "lat": 43.967482,
            "lng": 116.085052
        },
        "ad_info": {
            "adcode": 152502,
            "province": "内蒙古自治区",
            "city": "锡林郭勒盟",
            "district": "锡林浩特市"
        }
    },
    {
        "id": "3388483348298049020",
        "title": "公共厕所",
        "address": "内蒙古自治区锡林郭勒盟正镶白旗",
        "tel": "",
        "category": "基础设施:公共设施:公共厕所",
        "type": 0,
        "location": {
            "lat": 42.220423,
            "lng": 115.248058
        },
        "ad_info": {
            "adcode": 152529,
            "province": "内蒙古自治区",
            "city": "锡林郭勒盟",
            "district": "正镶白旗"
        }
    },
    {
        "id": "3865834210239556038",
        "title": "旅游公共厕所",
        "address": "内蒙古自治区锡林郭勒盟东乌珠穆沁旗哈总线与哈拉盖路交叉口正东方向244米左右",
        "tel": "",
        "category": "基础设施:公共设施:公共厕所",
        "type": 0,
        "location": {
            "lat": 45.861773,
            "lng": 119.424297
        },
        "ad_info": {
            "adcode": 152525,
            "province": "内蒙古自治区",
            "city": "锡林郭勒盟",
            "district": "东乌珠穆沁旗"
        }
    },
    {
        "id": "426766275208426826",
        "title": "公共厕所",
        "address": "内蒙古自治区锡林郭勒盟东乌珠穆沁旗乌里雅斯太镇东乌国际商贸城东北",
        "tel": "",
        "category": "基础设施:公共设施:公共厕所",
        "type": 0,
        "location": {
            "lat": 45.522451,
            "lng": 116.98142
        },
        "ad_info": {
            "adcode": 152525,
            "province": "内蒙古自治区",
            "city": "锡林郭勒盟",
            "district": "东乌珠穆沁旗"
        }
    },
    {
        "id": "11767550192202516485",
        "title": "公共厕所",
        "address": "内蒙古自治区锡林郭勒盟苏尼特左旗满达拉街与芒来路交叉口正西方向105米左右",
        "tel": "",
        "category": "基础设施:公共设施:公共厕所",
        "type": 0,
        "location": {
            "lat": 43.855156,
            "lng": 113.669448
        },
        "ad_info": {
            "adcode": 152523,
            "province": "内蒙古自治区",
            "city": "锡林郭勒盟",
            "district": "苏尼特左旗"
        }
    },
    {
        "id": "4034746883270063066",
        "title": "公共厕所",
        "address": "内蒙古自治区锡林郭勒盟太仆寺旗光明大街与益民巷交叉口东北方向47米左右",
        "tel": "",
        "category": "基础设施:公共设施:公共厕所",
        "type": 0,
        "location": {
            "lat": 41.871094,
            "lng": 115.271375
        },
        "ad_info": {
            "adcode": 152527,
            "province": "内蒙古自治区",
            "city": "锡林郭勒盟",
            "district": "太仆寺旗"
        }
    },
    {
        "id": "15946476832730945260",
        "title": "公共厕所",
        "address": "内蒙古自治区锡林郭勒盟锡林浩特市长城西街与阿都沁东路交叉口东北方向52米左右",
        "tel": "",
        "category": "基础设施:公共设施:公共厕所",
        "type": 0,
        "location": {
            "lat": 43.958173,
            "lng": 116.108893
        },
        "ad_info": {
            "adcode": 152502,
            "province": "内蒙古自治区",
            "city": "锡林郭勒盟",
            "district": "锡林浩特市"
        }
    },
    {
        "id": "14484835995898891684",
        "title": "公共厕所",
        "address": "内蒙古自治区锡林郭勒盟锡林浩特市第十三小学西南侧210米",
        "tel": "",
        "category": "基础设施:公共设施:公共厕所",
        "type": 0,
        "location": {
            "lat": 43.905011,
            "lng": 116.060503
        },
        "ad_info": {
            "adcode": 152502,
            "province": "内蒙古自治区",
            "city": "锡林郭勒盟",
            "district": "锡林浩特市"
        }
    },
    {
        "id": "17318376371767424666",
        "title": "公共厕所",
        "address": "内蒙古自治区锡林郭勒盟正镶白旗S105宝力根陶海苏木苏金宝力格嘎查",
        "tel": "",
        "category": "基础设施:公共设施:公共厕所",
        "type": 0,
        "location": {
            "lat": 42.441156,
            "lng": 115.402026
        },
        "ad_info": {
            "adcode": 152529,
            "province": "内蒙古自治区",
            "city": "锡林郭勒盟",
            "district": "正镶白旗"
        }
    },
    {
        "id": "13236705115367669686",
        "title": "公共厕所",
        "address": "内蒙古自治区锡林郭勒盟东乌珠穆沁旗来故乡情饭店南侧50米",
        "tel": "",
        "category": "基础设施:公共设施:公共厕所",
        "type": 0,
        "location": {
            "lat": 45.974366,
            "lng": 119.127142
        },
        "ad_info": {
            "adcode": 152525,
            "province": "内蒙古自治区",
            "city": "锡林郭勒盟",
            "district": "东乌珠穆沁旗"
        }
    },
    {
        "id": "675172601836172268",
        "title": "公共厕所",
        "address": "内蒙古自治区锡林郭勒盟镶黄旗宝格都路与鸿格尔街交叉口正西方向152米左右",
        "tel": "",
        "category": "基础设施:公共设施:公共厕所",
        "type": 0,
        "location": {
            "lat": 42.243061,
            "lng": 113.838664
        },
        "ad_info": {
            "adcode": 152528,
            "province": "内蒙古自治区",
            "city": "锡林郭勒盟",
            "district": "镶黄旗"
        }
    },
    {
        "id": "644725204925238129",
        "title": "公共厕所",
        "address": "内蒙古自治区锡林郭勒盟西乌珠穆沁旗巴斯路与罕乌拉街交叉口正南方向211米左右",
        "tel": "",
        "category": "基础设施:公共设施:公共厕所",
        "type": 0,
        "location": {
            "lat": 44.583382,
            "lng": 117.609114
        },
        "ad_info": {
            "adcode": 152526,
            "province": "内蒙古自治区",
            "city": "锡林郭勒盟",
            "district": "西乌珠穆沁旗"
        }
    },
    {
        "id": "17771896077174582417",
        "title": "公共厕所",
        "address": "内蒙古自治区锡林郭勒盟锡林浩特市额尔敦路41号锡盟·维多利广场F3",
        "tel": "",
        "category": "基础设施:公共设施:公共厕所",
        "type": 0,
        "location": {
            "lat": 43.942572,
            "lng": 116.078434
        },
        "ad_info": {
            "adcode": 152502,
            "province": "内蒙古自治区",
            "city": "锡林郭勒盟",
            "district": "锡林浩特市"
        }
    },
    {
        "id": "352739165731395867",
        "title": "公共厕所",
        "address": "内蒙古自治区锡林郭勒盟二连浩特市伊林大道与贝加尔街交叉口西南方向118米左右",
        "tel": "",
        "category": "基础设施:公共设施:公共厕所",
        "type": 0,
        "location": {
            "lat": 43.633847,
            "lng": 111.974056
        },
        "ad_info": {
            "adcode": 152501,
            "province": "内蒙古自治区",
            "city": "锡林郭勒盟",
            "district": "二连浩特市"
        }
    },
    {
        "id": "3105059514847187285",
        "title": "公共厕所",
        "address": "内蒙古自治区锡林郭勒盟锡林浩特市北京路350号",
        "tel": "",
        "category": "基础设施:公共设施:公共厕所",
        "type": 0,
        "location": {
            "lat": 43.914417,
            "lng": 116.06148
        },
        "ad_info": {
            "adcode": 152502,
            "province": "内蒙古自治区",
            "city": "锡林郭勒盟",
            "district": "锡林浩特市"
        }
    },
    {
        "id": "15784307177674170817",
        "title": "公共厕所",
        "address": "内蒙古自治区锡林郭勒盟苏尼特左旗白吉拉路与达日罕街交叉口正西方向200米左右",
        "tel": "",
        "category": "基础设施:公共设施:公共厕所",
        "type": 0,
        "location": {
            "lat": 43.85741,
            "lng": 113.658654
        },
        "ad_info": {
            "adcode": 152523,
            "province": "内蒙古自治区",
            "city": "锡林郭勒盟",
            "district": "苏尼特左旗"
        }
    },
    {
        "id": "11877092147783680744",
        "title": "公共厕所",
        "address": "内蒙古自治区锡林郭勒盟阿巴嘎旗别力古台北路与宝格达乌拉东街交叉口正北方向66米左右",
        "tel": "",
        "category": "基础设施:公共设施:公共厕所",
        "type": 0,
        "location": {
            "lat": 44.025013,
            "lng": 114.967572
        },
        "ad_info": {
            "adcode": 152522,
            "province": "内蒙古自治区",
            "city": "锡林郭勒盟",
            "district": "阿巴嘎旗"
        }
    },
    {
        "id": "1042679094485660691",
        "title": "无障碍公共厕所",
        "address": "内蒙古自治区锡林郭勒盟锡林浩特市团结大街与滨河路交叉口东北方向136米左右",
        "tel": "",
        "category": "基础设施:公共设施:公共厕所",
        "type": 0,
        "location": {
            "lat": 43.925641,
            "lng": 116.074552
        },
        "ad_info": {
            "adcode": 152502,
            "province": "内蒙古自治区",
            "city": "锡林郭勒盟",
            "district": "锡林浩特市"
        }
    },
    {
        "id": "13780312013328342629",
        "title": "公共厕所",
        "address": "内蒙古自治区锡林郭勒盟锡林浩特市伊利勒特街与达布希呼胡同交叉口正西方向218米左右",
        "tel": "",
        "category": "基础设施:公共设施:公共厕所",
        "type": 0,
        "location": {
            "lat": 43.970097,
            "lng": 116.090074
        },
        "ad_info": {
            "adcode": 152502,
            "province": "内蒙古自治区",
            "city": "锡林郭勒盟",
            "district": "锡林浩特市"
        }
    },
    {
        "id": "14034352629331393754",
        "title": "公共厕所",
        "address": "内蒙古自治区锡林郭勒盟锡林浩特市天津路与振兴南街交叉口东南方向191米左右",
        "tel": "",
        "category": "基础设施:公共设施:公共厕所",
        "type": 0,
        "location": {
            "lat": 43.919943,
            "lng": 116.086281
        },
        "ad_info": {
            "adcode": 152502,
            "province": "内蒙古自治区",
            "city": "锡林郭勒盟",
            "district": "锡林浩特市"
        }
    },
    {
        "id": "12190019284340472406",
        "title": "公共卫生间",
        "address": "内蒙古自治区锡林郭勒盟锡林浩特市伊利勒特街与呼格吉勒路交叉口西北方向108米左右",
        "tel": "",
        "category": "基础设施:公共设施:公共厕所",
        "type": 0,
        "location": {
            "lat": 43.967482,
            "lng": 116.085052
        },
        "ad_info": {
            "adcode": 152502,
            "province": "内蒙古自治区",
            "city": "锡林郭勒盟",
            "district": "锡林浩特市"
        }
    },
    {
        "id": "3388483348298049020",
        "title": "公共厕所",
        "address": "内蒙古自治区锡林郭勒盟正镶白旗",
        "tel": "",
        "category": "基础设施:公共设施:公共厕所",
        "type": 0,
        "location": {
            "lat": 42.220423,
            "lng": 115.248058
        },
        "ad_info": {
            "adcode": 152529,
            "province": "内蒙古自治区",
            "city": "锡林郭勒盟",
            "district": "正镶白旗"
        }
    },
    {
        "id": "3865834210239556038",
        "title": "旅游公共厕所",
        "address": "内蒙古自治区锡林郭勒盟东乌珠穆沁旗哈总线与哈拉盖路交叉口正东方向244米左右",
        "tel": "",
        "category": "基础设施:公共设施:公共厕所",
        "type": 0,
        "location": {
            "lat": 45.861773,
            "lng": 119.424297
        },
        "ad_info": {
            "adcode": 152525,
            "province": "内蒙古自治区",
            "city": "锡林郭勒盟",
            "district": "东乌珠穆沁旗"
        }
    },
    {
        "id": "426766275208426826",
        "title": "公共厕所",
        "address": "内蒙古自治区锡林郭勒盟东乌珠穆沁旗乌里雅斯太镇东乌国际商贸城东北",
        "tel": "",
        "category": "基础设施:公共设施:公共厕所",
        "type": 0,
        "location": {
            "lat": 45.522451,
            "lng": 116.98142
        },
        "ad_info": {
            "adcode": 152525,
            "province": "内蒙古自治区",
            "city": "锡林郭勒盟",
            "district": "东乌珠穆沁旗"
        }
    },
    {
        "id": "11767550192202516485",
        "title": "公共厕所",
        "address": "内蒙古自治区锡林郭勒盟苏尼特左旗满达拉街与芒来路交叉口正西方向105米左右",
        "tel": "",
        "category": "基础设施:公共设施:公共厕所",
        "type": 0,
        "location": {
            "lat": 43.855156,
            "lng": 113.669448
        },
        "ad_info": {
            "adcode": 152523,
            "province": "内蒙古自治区",
            "city": "锡林郭勒盟",
            "district": "苏尼特左旗"
        }
    },
    {
        "id": "4034746883270063066",
        "title": "公共厕所",
        "address": "内蒙古自治区锡林郭勒盟太仆寺旗光明大街与益民巷交叉口东北方向47米左右",
        "tel": "",
        "category": "基础设施:公共设施:公共厕所",
        "type": 0,
        "location": {
            "lat": 41.871094,
            "lng": 115.271375
        },
        "ad_info": {
            "adcode": 152527,
            "province": "内蒙古自治区",
            "city": "锡林郭勒盟",
            "district": "太仆寺旗"
        }
    },
    {
        "id": "15946476832730945260",
        "title": "公共厕所",
        "address": "内蒙古自治区锡林郭勒盟锡林浩特市长城西街与阿都沁东路交叉口东北方向52米左右",
        "tel": "",
        "category": "基础设施:公共设施:公共厕所",
        "type": 0,
        "location": {
            "lat": 43.958173,
            "lng": 116.108893
        },
        "ad_info": {
            "adcode": 152502,
            "province": "内蒙古自治区",
            "city": "锡林郭勒盟",
            "district": "锡林浩特市"
        }
    },
    {
        "id": "14484835995898891684",
        "title": "公共厕所",
        "address": "内蒙古自治区锡林郭勒盟锡林浩特市第十三小学西南侧210米",
        "tel": "",
        "category": "基础设施:公共设施:公共厕所",
        "type": 0,
        "location": {
            "lat": 43.905011,
            "lng": 116.060503
        },
        "ad_info": {
            "adcode": 152502,
            "province": "内蒙古自治区",
            "city": "锡林郭勒盟",
            "district": "锡林浩特市"
        }
    },
    {
        "id": "17318376371767424666",
        "title": "公共厕所",
        "address": "内蒙古自治区锡林郭勒盟正镶白旗S105宝力根陶海苏木苏金宝力格嘎查",
        "tel": "",
        "category": "基础设施:公共设施:公共厕所",
        "type": 0,
        "location": {
            "lat": 42.441156,
            "lng": 115.402026
        },
        "ad_info": {
            "adcode": 152529,
            "province": "内蒙古自治区",
            "city": "锡林郭勒盟",
            "district": "正镶白旗"
        }
    },
    {
        "id": "13236705115367669686",
        "title": "公共厕所",
        "address": "内蒙古自治区锡林郭勒盟东乌珠穆沁旗来故乡情饭店南侧50米",
        "tel": "",
        "category": "基础设施:公共设施:公共厕所",
        "type": 0,
        "location": {
            "lat": 45.974366,
            "lng": 119.127142
        },
        "ad_info": {
            "adcode": 152525,
            "province": "内蒙古自治区",
            "city": "锡林郭勒盟",
            "district": "东乌珠穆沁旗"
        }
    },
    {
        "id": "675172601836172268",
        "title": "公共厕所",
        "address": "内蒙古自治区锡林郭勒盟镶黄旗宝格都路与鸿格尔街交叉口正西方向152米左右",
        "tel": "",
        "category": "基础设施:公共设施:公共厕所",
        "type": 0,
        "location": {
            "lat": 42.243061,
            "lng": 113.838664
        },
        "ad_info": {
            "adcode": 152528,
            "province": "内蒙古自治区",
            "city": "锡林郭勒盟",
            "district": "镶黄旗"
        }
    },
    {
        "id": "644725204925238129",
        "title": "公共厕所",
        "address": "内蒙古自治区锡林郭勒盟西乌珠穆沁旗巴斯路与罕乌拉街交叉口正南方向211米左右",
        "tel": "",
        "category": "基础设施:公共设施:公共厕所",
        "type": 0,
        "location": {
            "lat": 44.583382,
            "lng": 117.609114
        },
        "ad_info": {
            "adcode": 152526,
            "province": "内蒙古自治区",
            "city": "锡林郭勒盟",
            "district": "西乌珠穆沁旗"
        }
    },
    {
        "id": "17771896077174582417",
        "title": "公共厕所",
        "address": "内蒙古自治区锡林郭勒盟锡林浩特市额尔敦路41号锡盟·维多利广场F3",
        "tel": "",
        "category": "基础设施:公共设施:公共厕所",
        "type": 0,
        "location": {
            "lat": 43.942572,
            "lng": 116.078434
        },
        "ad_info": {
            "adcode": 152502,
            "province": "内蒙古自治区",
            "city": "锡林郭勒盟",
            "district": "锡林浩特市"
        }
    }
]