[
    {
        "id": "15873423422684355444",
        "title": "公共厕所",
        "address": "辽宁省锦州市凌海市凌海大街与商业路交叉口正南方向305米左右",
        "tel": "",
        "category": "基础设施:公共设施:公共厕所",
        "type": 0,
        "location": {
            "lat": 41.162675,
            "lng": 121.364128
        },
        "ad_info": {
            "adcode": 210781,
            "province": "辽宁省",
            "city": "锦州市",
            "district": "凌海市"
        }
    },
    {
        "id": "5243947642384104311",
        "title": "公共厕所",
        "address": "辽宁省锦州市凌河区广东街与延安路交叉口西南方向17米左右",
        "tel": "",
        "category": "基础设施:公共设施:公共厕所",
        "type": 0,
        "location": {
            "lat": 41.123463,
            "lng": 121.141984
        },
        "ad_info": {
            "adcode": 210703,
            "province": "辽宁省",
            "city": "锦州市",
            "district": "凌河区"
        }
    },
    {
        "id": "3914647625246674192",
        "title": "公共厕所",
        "address": "辽宁省锦州市凌河区安达街与松坡路交叉口正南方向154米左右",
        "tel": "",
        "category": "基础设施:公共设施:公共厕所",
        "type": 0,
        "location": {
            "lat": 41.14466,
            "lng": 121.14408
        },
        "ad_info": {
            "adcode": 210703,
            "province": "辽宁省",
            "city": "锦州市",
            "district": "凌河区"
        }
    },
    {
        "id": "15980101853313638943",
        "title": "公共厕所",
        "address": "辽宁省锦州市古塔区人民街与解放路交叉口西南方向145米左右",
        "tel": "",
        "category": "基础设施:公共设施:公共厕所",
        "type": 0,
        "location": {
            "lat": 41.115666,
            "lng": 121.127263
        },
        "ad_info": {
            "adcode": 210702,
            "province": "辽宁省",
            "city": "锦州市",
            "district": "古塔区"
        }
    },
    {
        "id": "15459813890777572008",
        "title": "公共厕所",
        "address": "辽宁省锦州市古塔区上海路与中央大街交叉口正南方向94米左右",
        "tel": "",
        "category": "基础设施:公共设施:公共厕所",
        "type": 0,
        "location": {
            "lat": 41.119004,
            "lng": 121.139765
        },
        "ad_info": {
            "adcode": 210702,
            "province": "辽宁省",
            "city": "锦州市",
            "district": "古塔区"
        }
    },
    {
        "id": "4523984972338108024",
        "title": "公共厕所",
        "address": "辽宁省锦州市古塔区士英街与解放路交叉口正西方向251米左右",
        "tel": "",
        "category": "基础设施:公共设施:公共厕所",
        "type": 0,
        "location": {
            "lat": 41.11476,
            "lng": 121.114551
        },
        "ad_info": {
            "adcode": 210702,
            "province": "辽宁省",
            "city": "锦州市",
            "district": "古塔区"
        }
    },
    {
        "id": "14953193225035658084",
        "title": "公共厕所",
        "address": "辽宁省锦州市凌海市凌海大街与振兴路交叉口东南方向66米左右",
        "tel": "",
        "category": "基础设施:公共设施:公共厕所",
        "type": 0,
        "location": {
            "lat": 41.174414,
            "lng": 121.363849
        },
        "ad_info": {
            "adcode": 210781,
            "province": "辽宁省",
            "city": "锦州市",
            "district": "凌海市"
        }
    },
    {
        "id": "13816444061474258047",
        "title": "公共厕所",
        "address": "辽宁省锦州市凌河区人民街五段锦州动物园(西南角)",
        "tel": "",
        "category": "基础设施:公共设施:公共厕所",
        "type": 0,
        "location": {
            "lat": 41.137388,
            "lng": 121.132014
        },
        "ad_info": {
            "adcode": 210703,
            "province": "辽宁省",
            "city": "锦州市",
            "district": "凌河区"
        }
    },
    {
        "id": "15640866696654741404",
        "title": "公共厕所",
        "address": "辽宁省锦州市凌河区上海路与紫明街交叉口东北方向37米左右",
        "tel": "",
        "category": "基础设施:公共设施:公共厕所",
        "type": 0,
        "location": {
            "lat": 41.117338,
            "lng": 121.17628
        },
        "ad_info": {
            "adcode": 210703,
            "province": "辽宁省",
            "city": "锦州市",
            "district": "凌河区"
        }
    },
    {
        "id": "17504161602280404435",
        "title": "公共厕所",
        "address": "辽宁省锦州市黑山县南外环路黑山南关校",
        "tel": "",
        "category": "基础设施:公共设施:公共厕所",
        "type": 0,
        "location": {
            "lat": 41.682916,
            "lng": 122.114107
        },
        "ad_info": {
            "adcode": 210726,
            "province": "辽宁省",
            "city": "锦州市",
            "district": "黑山县"
        }
    },
    {
        "id": "11312576845924347848",
        "title": "公共厕所",
        "address": "辽宁省锦州市凌河区松坡路与重庆路交叉口西北方向488米左右",
        "tel": "",
        "category": "基础设施:公共设施:公共厕所",
        "type": 0,
        "location": {
            "lat": 41.131644,
            "lng": 121.165198
        },
        "ad_info": {
            "adcode": 210703,
            "province": "辽宁省",
            "city": "锦州市",
            "district": "凌河区"
        }
    },
    {
        "id": "16802074221437232881",
        "title": "公共厕所",
        "address": "辽宁省锦州市凌河区人民街与北宁路交叉口正东方向210米左右",
        "tel": "",
        "category": "基础设施:公共设施:公共厕所",
        "type": 0,
        "location": {
            "lat": 41.142547,
            "lng": 121.132991
        },
        "ad_info": {
            "adcode": 210703,
            "province": "辽宁省",
            "city": "锦州市",
            "district": "凌河区"
        }
    },
    {
        "id": "14046163914622831982",
        "title": "公共厕所",
        "address": "辽宁省锦州市凌河区南京路与厚生街交叉口东北方向36米左右",
        "tel": "",
        "category": "基础设施:公共设施:公共厕所",
        "type": 0,
        "location": {
            "lat": 41.110292,
            "lng": 121.164889
        },
        "ad_info": {
            "adcode": 210703,
            "province": "辽宁省",
            "city": "锦州市",
            "district": "凌河区"
        }
    },
    {
        "id": "13233398469270397920",
        "title": "公共厕所",
        "address": "辽宁省锦州市古塔区人民街锦州市铁路高级中学",
        "tel": "",
        "category": "基础设施:公共设施:公共厕所",
        "type": 0,
        "location": {
            "lat": 41.129939,
            "lng": 121.130769
        },
        "ad_info": {
            "adcode": 210702,
            "province": "辽宁省",
            "city": "锦州市",
            "district": "古塔区"
        }
    },
    {
        "id": "1541647711855956945",
        "title": "公共厕所",
        "address": "辽宁省锦州市凌河区南昌路与龙江中街交叉口正南方向23米左右",
        "tel": "",
        "category": "基础设施:公共设施:公共厕所",
        "type": 0,
        "location": {
            "lat": 41.106085,
            "lng": 121.148144
        },
        "ad_info": {
            "adcode": 210703,
            "province": "辽宁省",
            "city": "锦州市",
            "district": "凌河区"
        }
    },
    {
        "id": "18253166117344282849",
        "title": "公共厕所",
        "address": "辽宁省锦州市古塔区宜昌路与广西街交叉口正南方向65米左右",
        "tel": "",
        "category": "基础设施:公共设施:公共厕所",
        "type": 0,
        "location": {
            "lat": 41.11754,
            "lng": 121.138685
        },
        "ad_info": {
            "adcode": 210702,
            "province": "辽宁省",
            "city": "锦州市",
            "district": "古塔区"
        }
    },
    {
        "id": "17852185990172248457",
        "title": "公共厕所",
        "address": "辽宁省锦州市古塔区和平路与山西街交叉口西北方向121米左右",
        "tel": "",
        "category": "基础设施:公共设施:公共厕所",
        "type": 0,
        "location": {
            "lat": 41.122528,
            "lng": 121.137114
        },
        "ad_info": {
            "adcode": 210702,
            "province": "辽宁省",
            "city": "锦州市",
            "district": "古塔区"
        }
    },
    {
        "id": "15344107336242129959",
        "title": "洗手间",
        "address": "辽宁省锦州市凌河区中央大街与解放路交叉口东南方向70米左右",
        "tel": "",
        "category": "基础设施:公共设施:公共厕所",
        "type": 0,
        "location": {
            "lat": 41.115702,
            "lng": 121.140157
        },
        "ad_info": {
            "adcode": 210703,
            "province": "辽宁省",
            "city": "锦州市",
            "district": "凌河区"
        }
    },
    {
        "id": "1412094842967463770",
        "title": "公共厕所",
        "address": "辽宁省锦州市凌海市国庆路与大锦线交叉口西南方向166米左右",
        "tel": "",
        "category": "基础设施:公共设施:公共厕所",
        "type": 0,
        "location": {
            "lat": 41.171166,
            "lng": 121.342519
        },
        "ad_info": {
            "adcode": 210781,
            "province": "辽宁省",
            "city": "锦州市",
            "district": "凌海市"
        }
    },
    {
        "id": "8180832301866545295",
        "title": "公共厕所",
        "address": "辽宁省锦州市太和区湘江街与青城山路交叉口西南方向54米左右",
        "tel": "",
        "category": "基础设施:公共设施:公共厕所",
        "type": 0,
        "location": {
            "lat": 40.842429,
            "lng": 121.058486
        },
        "ad_info": {
            "adcode": 210711,
            "province": "辽宁省",
            "city": "锦州市",
            "district": "太和区"
        }
    },
    {
        "id": "44460953954486788",
        "title": "公共厕所",
        "address": "辽宁省锦州市凌海市八一街与商业路交叉口正南方向164米左右",
        "tel": "",
        "category": "基础设施:公共设施:公共厕所",
        "type": 0,
        "location": {
            "lat": 41.164229,
            "lng": 121.367945
        },
        "ad_info": {
            "adcode": 210781,
            "province": "辽宁省",
            "city": "锦州市",
            "district": "凌海市"
        }
    },
    {
        "id": "17360998756101094375",
        "title": "公共厕所",
        "address": "辽宁省锦州市黑山县湖畔花园东侧220米",
        "tel": "",
        "category": "基础设施:公共设施:公共厕所",
        "type": 0,
        "location": {
            "lat": 41.680018,
            "lng": 122.128156
        },
        "ad_info": {
            "adcode": 210726,
            "province": "辽宁省",
            "city": "锦州市",
            "district": "黑山县"
        }
    },
    {
        "id": "14060655814947033702",
        "title": "公共厕所",
        "address": "辽宁省锦州市凌海市308省道与G1京哈高速出口交叉口东100米",
        "tel": "",
        "category": "基础设施:公共设施:公共厕所",
        "type": 0,
        "location": {
            "lat": 41.188768,
            "lng": 121.619106
        },
        "ad_info": {
            "adcode": 210781,
            "province": "辽宁省",
            "city": "锦州市",
            "district": "凌海市"
        }
    },
    {
        "id": "12674923376443723931",
        "title": "公共厕所",
        "address": "辽宁省锦州市古塔区中央大街女儿里",
        "tel": "",
        "category": "基础设施:公共设施:公共厕所",
        "type": 0,
        "location": {
            "lat": 41.110393,
            "lng": 121.137728
        },
        "ad_info": {
            "adcode": 210702,
            "province": "辽宁省",
            "city": "锦州市",
            "district": "古塔区"
        }
    },
    {
        "id": "14297603406308269505",
        "title": "公共厕所",
        "address": "辽宁省锦州市凌海市集兴路与集贸街交叉口正南方向239米左右",
        "tel": "",
        "category": "基础设施:公共设施:公共厕所",
        "type": 0,
        "location": {
            "lat": 41.168007,
            "lng": 121.368746
        },
        "ad_info": {
            "adcode": 210781,
            "province": "辽宁省",
            "city": "锦州市",
            "district": "凌海市"
        }
    },
    {
        "id": "7314541833585242597",
        "title": "公共厕所",
        "address": "辽宁省锦州市凌海市中兴大街与健康路交叉口正东方向96米左右",
        "tel": "",
        "category": "基础设施:公共设施:公共厕所",
        "type": 0,
        "location": {
            "lat": 41.170168,
            "lng": 121.359786
        },
        "ad_info": {
            "adcode": 210781,
            "province": "辽宁省",
            "city": "锦州市",
            "district": "凌海市"
        }
    },
    {
        "id": "11556833653654008019",
        "title": "公共厕所",
        "address": "辽宁省锦州市凌海市健康路与八一街交叉口东北方向29米左右",
        "tel": "",
        "category": "基础设施:公共设施:公共厕所",
        "type": 0,
        "location": {
            "lat": 41.171674,
            "lng": 121.367629
        },
        "ad_info": {
            "adcode": 210781,
            "province": "辽宁省",
            "city": "锦州市",
            "district": "凌海市"
        }
    },
    {
        "id": "11697771570857624807",
        "title": "公共厕所",
        "address": "辽宁省锦州市黑山县解放街与警民街交叉口正东方向267米左右",
        "tel": "",
        "category": "基础设施:公共设施:公共厕所",
        "type": 0,
        "location": {
            "lat": 41.695071,
            "lng": 122.119715
        },
        "ad_info": {
            "adcode": 210726,
            "province": "辽宁省",
            "city": "锦州市",
            "district": "黑山县"
        }
    },
    {
        "id": "18299697510159097129",
        "title": "公共厕所",
        "address": "辽宁省锦州市凌河区南昌路与卫东街交叉口东北方向84米左右",
        "tel": "",
        "category": "基础设施:公共设施:公共厕所",
        "type": 0,
        "location": {
            "lat": 41.107113,
            "lng": 121.154784
        },
        "ad_info": {
            "adcode": 210703,
            "province": "辽宁省",
            "city": "锦州市",
            "district": "凌河区"
        }
    },
    {
        "id": "14890051568410769926",
        "title": "公共厕所",
        "address": "辽宁省锦州市古塔区石油西街与红旗路交叉口正南方向189米左右",
        "tel": "",
        "category": "基础设施:公共设施:公共厕所",
        "type": 0,
        "location": {
            "lat": 41.132651,
            "lng": 121.110429
        },
        "ad_info": {
            "adcode": 210702,
            "province": "辽宁省",
            "city": "锦州市",
            "district": "古塔区"
        }
    },
    {
        "id": "13022433833182002752",
        "title": "公共厕所",
        "address": "辽宁省锦州市凌河区丹东街与和平路交叉口东南方向41米左右",
        "tel": "",
        "category": "基础设施:公共设施:公共厕所",
        "type": 0,
        "location": {
            "lat": 41.12026,
            "lng": 121.1463
        },
        "ad_info": {
            "adcode": 210703,
            "province": "辽宁省",
            "city": "锦州市",
            "district": "凌河区"
        }
    },
    {
        "id": "8675574925345693263",
        "title": "公共厕所",
        "address": "辽宁省锦州市太和区凌西大街与锦山街交叉口正南方向322米左右",
        "tel": "",
        "category": "基础设施:公共设施:公共厕所",
        "type": 0,
        "location": {
            "lat": 41.073463,
            "lng": 121.108603
        },
        "ad_info": {
            "adcode": 210711,
            "province": "辽宁省",
            "city": "锦州市",
            "district": "太和区"
        }
    },
    {
        "id": "7832467240375302600",
        "title": "公共厕所",
        "address": "辽宁省锦州市凌海市S306",
        "tel": "",
        "category": "基础设施:公共设施:公共厕所",
        "type": 0,
        "location": {
            "lat": 41.271861,
            "lng": 120.739249
        },
        "ad_info": {
            "adcode": 210781,
            "province": "辽宁省",
            "city": "锦州市",
            "district": "凌海市"
        }
    },
    {
        "id": "17709001637192442138",
        "title": "公共厕所",
        "address": "辽宁省锦州市凌海市衡山路与辽河街交叉口东南方向1074米左右",
        "tel": "",
        "category": "基础设施:公共设施:公共厕所",
        "type": 0,
        "location": {
            "lat": 41.315072,
            "lng": 121.257042
        },
        "ad_info": {
            "adcode": 210781,
            "province": "辽宁省",
            "city": "锦州市",
            "district": "凌海市"
        }
    },
    {
        "id": "17031456647962438839",
        "title": "公共厕所",
        "address": "辽宁省锦州市凌海市G102与环城路交叉口正东方向144米左右",
        "tel": "",
        "category": "基础设施:公共设施:公共厕所",
        "type": 0,
        "location": {
            "lat": 41.146926,
            "lng": 121.348922
        },
        "ad_info": {
            "adcode": 210781,
            "province": "辽宁省",
            "city": "锦州市",
            "district": "凌海市"
        }
    },
    {
        "id": "1401386223115755379",
        "title": "公共厕所",
        "address": "辽宁省锦州市凌河区环堤路东湖公园(西侧)",
        "tel": "",
        "category": "基础设施:公共设施:公共厕所",
        "type": 0,
        "location": {
            "lat": 41.101436,
            "lng": 121.161262
        },
        "ad_info": {
            "adcode": 210703,
            "province": "辽宁省",
            "city": "锦州市",
            "district": "凌河区"
        }
    },
    {
        "id": "15398380671010744863",
        "title": "公共厕所",
        "address": "辽宁省锦州市凌河区南京东路与幸福街交叉口西南方向69米左右",
        "tel": "",
        "category": "基础设施:公共设施:公共厕所",
        "type": 0,
        "location": {
            "lat": 41.112774,
            "lng": 121.180327
        },
        "ad_info": {
            "adcode": 210703,
            "province": "辽宁省",
            "city": "锦州市",
            "district": "凌河区"
        }
    },
    {
        "id": "10278395846867289187",
        "title": "公共厕所",
        "address": "辽宁省锦州市古塔区人民街三段10号",
        "tel": "",
        "category": "基础设施:公共设施:公共厕所",
        "type": 0,
        "location": {
            "lat": 41.11893,
            "lng": 121.128587
        },
        "ad_info": {
            "adcode": 210702,
            "province": "辽宁省",
            "city": "锦州市",
            "district": "古塔区"
        }
    },
    {
        "id": "2457497327902635147",
        "title": "公共厕所",
        "address": "辽宁省锦州市太和区博学路与吉祥街交叉口东南方向137米左右",
        "tel": "",
        "category": "基础设施:公共设施:公共厕所",
        "type": 0,
        "location": {
            "lat": 41.088221,
            "lng": 121.114202
        },
        "ad_info": {
            "adcode": 210711,
            "province": "辽宁省",
            "city": "锦州市",
            "district": "太和区"
        }
    },
    {
        "id": "18410360180663371933",
        "title": "公共厕所",
        "address": "辽宁省锦州市黑山县G230与X704交叉口西南方向44米左右",
        "tel": "",
        "category": "基础设施:公共设施:公共厕所",
        "type": 0,
        "location": {
            "lat": 41.712437,
            "lng": 122.104691
        },
        "ad_info": {
            "adcode": 210726,
            "province": "辽宁省",
            "city": "锦州市",
            "district": "黑山县"
        }
    },
    {
        "id": "2644891928286764459",
        "title": "公共厕所",
        "address": "辽宁省锦州市古塔区士英街与解放路交叉口正西方向263米左右",
        "tel": "",
        "category": "基础设施:公共设施:公共厕所",
        "type": 0,
        "location": {
            "lat": 41.115036,
            "lng": 121.114331
        },
        "ad_info": {
            "adcode": 210702,
            "province": "辽宁省",
            "city": "锦州市",
            "district": "古塔区"
        }
    },
    {
        "id": "513577025321080511",
        "title": "公共卫生间",
        "address": "辽宁省锦州市太和区新民街与西宁街交叉口西南方向18米左右",
        "tel": "",
        "category": "基础设施:公共设施:公共厕所",
        "type": 0,
        "location": {
            "lat": 41.100179,
            "lng": 121.103234
        },
        "ad_info": {
            "adcode": 210711,
            "province": "辽宁省",
            "city": "锦州市",
            "district": "太和区"
        }
    },
    {
        "id": "3878390014877312241",
        "title": "公共厕所",
        "address": "辽宁省锦州市太和区市府路56号",
        "tel": "",
        "category": "基础设施:公共设施:公共厕所",
        "type": 0,
        "location": {
            "lat": 41.094198,
            "lng": 121.118515
        },
        "ad_info": {
            "adcode": 210711,
            "province": "辽宁省",
            "city": "锦州市",
            "district": "太和区"
        }
    },
    {
        "id": "10423509274105197995",
        "title": "公共厕所",
        "address": "辽宁省锦州市凌河区吉庆南街与牡丹一路交叉口东南方向31米左右",
        "tel": "",
        "category": "基础设施:公共设施:公共厕所",
        "type": 0,
        "location": {
            "lat": 41.108143,
            "lng": 121.142727
        },
        "ad_info": {
            "adcode": 210703,
            "province": "辽宁省",
            "city": "锦州市",
            "district": "凌河区"
        }
    },
    {
        "id": "4711000445825265274",
        "title": "公共厕所",
        "address": "辽宁省锦州市古塔区新玛特锦西街教育局(儿童公园南门附近)",
        "tel": "",
        "category": "基础设施:公共设施:公共厕所",
        "type": 0,
        "location": {
            "lat": 41.120333,
            "lng": 121.132293
        },
        "ad_info": {
            "adcode": 210702,
            "province": "辽宁省",
            "city": "锦州市",
            "district": "古塔区"
        }
    },
    {
        "id": "15440033721700381630",
        "title": "公共厕所",
        "address": "辽宁省锦州市黑山县G230与人民路交叉口正西方向825米左右",
        "tel": "",
        "category": "基础设施:公共设施:公共厕所",
        "type": 0,
        "location": {
            "lat": 41.687476,
            "lng": 122.094025
        },
        "ad_info": {
            "adcode": 210726,
            "province": "辽宁省",
            "city": "锦州市",
            "district": "黑山县"
        }
    },
    {
        "id": "8429283867710995685",
        "title": "公共厕所",
        "address": "辽宁省锦州市黑山县宽广路与解放街交叉口正东方向119米左右",
        "tel": "",
        "category": "基础设施:公共设施:公共厕所",
        "type": 0,
        "location": {
            "lat": 41.68778,
            "lng": 122.120576
        },
        "ad_info": {
            "adcode": 210726,
            "province": "辽宁省",
            "city": "锦州市",
            "district": "黑山县"
        }
    },
    {
        "id": "123150515815004818",
        "title": "公共厕所",
        "address": "辽宁省锦州市凌海市锦东线",
        "tel": "",
        "category": "基础设施:公共设施:公共厕所",
        "type": 0,
        "location": {
            "lat": 41.220724,
            "lng": 121.056773
        },
        "ad_info": {
            "adcode": 210781,
            "province": "辽宁省",
            "city": "锦州市",
            "district": "凌海市"
        }
    },
    {
        "id": "15185889802227804765",
        "title": "公共厕所",
        "address": "辽宁省锦州市义县龙腾街与龙腾路交叉口正南方向50米左右",
        "tel": "",
        "category": "基础设施:公共设施:公共厕所",
        "type": 0,
        "location": {
            "lat": 41.403227,
            "lng": 121.056413
        },
        "ad_info": {
            "adcode": 210727,
            "province": "辽宁省",
            "city": "锦州市",
            "district": "义县"
        }
    },
    {
        "id": "359265956429872873",
        "title": "公共厕所",
        "address": "辽宁省锦州市凌河区南昌路与杭州街交叉口东南方向24米左右",
        "tel": "",
        "category": "基础设施:公共设施:公共厕所",
        "type": 0,
        "location": {
            "lat": 41.106482,
            "lng": 121.152877
        },
        "ad_info": {
            "adcode": 210703,
            "province": "辽宁省",
            "city": "锦州市",
            "district": "凌河区"
        }
    },
    {
        "id": "16470568850554271563",
        "title": "公共厕所",
        "address": "辽宁省锦州市凌河区北安路与明德街交叉口正南方向95米左右",
        "tel": "",
        "category": "基础设施:公共设施:公共厕所",
        "type": 0,
        "location": {
            "lat": 41.136577,
            "lng": 121.144915
        },
        "ad_info": {
            "adcode": 210703,
            "province": "辽宁省",
            "city": "锦州市",
            "district": "凌河区"
        }
    },
    {
        "id": "14741362972112242956",
        "title": "公共厕所",
        "address": "辽宁省锦州市太和区女儿河左岸南桥头",
        "tel": "",
        "category": "基础设施:公共设施:公共厕所",
        "type": 0,
        "location": {
            "lat": 41.089469,
            "lng": 121.139279
        },
        "ad_info": {
            "adcode": 210711,
            "province": "辽宁省",
            "city": "锦州市",
            "district": "太和区"
        }
    },
    {
        "id": "14490038634773035956",
        "title": "公共厕所",
        "address": "辽宁省锦州市黑山县S205与X718交叉口正北方向683米左右",
        "tel": "",
        "category": "基础设施:公共设施:公共厕所",
        "type": 0,
        "location": {
            "lat": 41.838274,
            "lng": 121.877758
        },
        "ad_info": {
            "adcode": 210726,
            "province": "辽宁省",
            "city": "锦州市",
            "district": "黑山县"
        }
    },
    {
        "id": "1286437995238475718",
        "title": "公共厕所",
        "address": "辽宁省锦州市太和区锦州南站售票处西北侧",
        "tel": "",
        "category": "基础设施:公共设施:公共厕所",
        "type": 0,
        "location": {
            "lat": 41.016956,
            "lng": 121.126468
        },
        "ad_info": {
            "adcode": 210711,
            "province": "辽宁省",
            "city": "锦州市",
            "district": "太和区"
        }
    },
    {
        "id": "18025252070101299201",
        "title": "公共厕所",
        "address": "辽宁省锦州市黑山县东外环路与南外环路交叉口西北方向128米左右",
        "tel": "",
        "category": "基础设施:公共设施:公共厕所",
        "type": 0,
        "location": {
            "lat": 41.6874,
            "lng": 122.127266
        },
        "ad_info": {
            "adcode": 210726,
            "province": "辽宁省",
            "city": "锦州市",
            "district": "黑山县"
        }
    },
    {
        "id": "688970809135237525",
        "title": "公共厕所",
        "address": "辽宁省锦州市黑山县S304与牛大线交叉口正东方向1172米左右",
        "tel": "",
        "category": "基础设施:公共设施:公共厕所",
        "type": 0,
        "location": {
            "lat": 41.650816,
            "lng": 122.319631
        },
        "ad_info": {
            "adcode": 210726,
            "province": "辽宁省",
            "city": "锦州市",
            "district": "黑山县"
        }
    },
    {
        "id": "1098552110670506486",
        "title": "公共厕所",
        "address": "辽宁省锦州市凌河区松坡路与行敏路交叉口东南方向51米左右",
        "tel": "",
        "category": "基础设施:公共设施:公共厕所",
        "type": 0,
        "location": {
            "lat": 41.148789,
            "lng": 121.13995
        },
        "ad_info": {
            "adcode": 210703,
            "province": "辽宁省",
            "city": "锦州市",
            "district": "凌河区"
        }
    },
    {
        "id": "10916759555226176333",
        "title": "公共厕所",
        "address": "辽宁省锦州市黑山县G230与S211交叉口东北方向175米左右",
        "tel": "",
        "category": "基础设施:公共设施:公共厕所",
        "type": 0,
        "location": {
            "lat": 41.769409,
            "lng": 122.21913
        },
        "ad_info": {
            "adcode": 210726,
            "province": "辽宁省",
            "city": "锦州市",
            "district": "黑山县"
        }
    },
    {
        "id": "5757477169793536821",
        "title": "公共厕所",
        "address": "辽宁省锦州市太和区凌西大街与解放西路交叉口正北方向152米左右",
        "tel": "",
        "category": "基础设施:公共设施:公共厕所",
        "type": 0,
        "location": {
            "lat": 41.110763,
            "lng": 121.10662
        },
        "ad_info": {
            "adcode": 210711,
            "province": "辽宁省",
            "city": "锦州市",
            "district": "太和区"
        }
    },
    {
        "id": "2166023294669090702",
        "title": "公共厕所",
        "address": "辽宁省锦州市黑山县启发路与黑稍线交叉口正西方向119米左右",
        "tel": "",
        "category": "基础设施:公共设施:公共厕所",
        "type": 0,
        "location": {
            "lat": 41.692951,
            "lng": 122.132995
        },
        "ad_info": {
            "adcode": 210726,
            "province": "辽宁省",
            "city": "锦州市",
            "district": "黑山县"
        }
    },
    {
        "id": "14960382238243672055",
        "title": "公共厕所",
        "address": "辽宁省锦州市凌河区北京路5号",
        "tel": "",
        "category": "基础设施:公共设施:公共厕所",
        "type": 0,
        "location": {
            "lat": 41.131989,
            "lng": 121.147445
        },
        "ad_info": {
            "adcode": 210703,
            "province": "辽宁省",
            "city": "锦州市",
            "district": "凌河区"
        }
    },
    {
        "id": "12288013657728530032",
        "title": "公共厕所",
        "address": "辽宁省锦州市太和区凌西农副产品物流园区西侧50米",
        "tel": "",
        "category": "基础设施:公共设施:公共厕所",
        "type": 0,
        "location": {
            "lat": 41.089357,
            "lng": 121.077627
        },
        "ad_info": {
            "adcode": 210711,
            "province": "辽宁省",
            "city": "锦州市",
            "district": "太和区"
        }
    },
    {
        "id": "1925514756232559770",
        "title": "公共厕所",
        "address": "辽宁省锦州市黑山县光荣路利鑫佳苑",
        "tel": "",
        "category": "基础设施:公共设施:公共厕所",
        "type": 0,
        "location": {
            "lat": 41.689362,
            "lng": 122.115775
        },
        "ad_info": {
            "adcode": 210726,
            "province": "辽宁省",
            "city": "锦州市",
            "district": "黑山县"
        }
    },
    {
        "id": "10858806143779157505",
        "title": "公共厕所",
        "address": "辽宁省锦州市北镇市北大街与挂钟小庙胡同交叉口正西方向35米左右",
        "tel": "",
        "category": "基础设施:公共设施:公共厕所",
        "type": 0,
        "location": {
            "lat": 41.600082,
            "lng": 121.796204
        },
        "ad_info": {
            "adcode": 210782,
            "province": "辽宁省",
            "city": "锦州市",
            "district": "北镇市"
        }
    },
    {
        "id": "16880098543800508472",
        "title": "公共厕所",
        "address": "辽宁省锦州市北镇市中兴街与挂钟小庙胡同交叉口正东方向50米左右",
        "tel": "",
        "category": "基础设施:公共设施:公共厕所",
        "type": 0,
        "location": {
            "lat": 41.600155,
            "lng": 121.794744
        },
        "ad_info": {
            "adcode": 210782,
            "province": "辽宁省",
            "city": "锦州市",
            "district": "北镇市"
        }
    },
    {
        "id": "18396308216348976529",
        "title": "公共厕所",
        "address": "辽宁省锦州市凌海市凌南街与商业路交叉口正西方向67米左右",
        "tel": "",
        "category": "基础设施:公共设施:公共厕所",
        "type": 0,
        "location": {
            "lat": 41.165366,
            "lng": 121.360598
        },
        "ad_info": {
            "adcode": 210781,
            "province": "辽宁省",
            "city": "锦州市",
            "district": "凌海市"
        }
    },
    {
        "id": "10420600197484820552",
        "title": "公共厕所",
        "address": "辽宁省锦州市太和区云飞南街与南广路交叉口西北方向238米左右",
        "tel": "",
        "category": "基础设施:公共设施:公共厕所",
        "type": 0,
        "location": {
            "lat": 41.086663,
            "lng": 121.147806
        },
        "ad_info": {
            "adcode": 210711,
            "province": "辽宁省",
            "city": "锦州市",
            "district": "太和区"
        }
    },
    {
        "id": "12754597839860239442",
        "title": "公共厕所",
        "address": "辽宁省锦州市北镇市307省道与二道壕胡同交叉口西420米",
        "tel": "",
        "category": "基础设施:公共设施:公共厕所",
        "type": 0,
        "location": {
            "lat": 41.587851,
            "lng": 121.786359
        },
        "ad_info": {
            "adcode": 210782,
            "province": "辽宁省",
            "city": "锦州市",
            "district": "北镇市"
        }
    },
    {
        "id": "4404178009436880316",
        "title": "公共厕所",
        "address": "辽宁省锦州市凌海市青年大街49A-122号正北方向40米",
        "tel": "",
        "category": "基础设施:公共设施:公共厕所",
        "type": 0,
        "location": {
            "lat": 41.175634,
            "lng": 121.355712
        },
        "ad_info": {
            "adcode": 210781,
            "province": "辽宁省",
            "city": "锦州市",
            "district": "凌海市"
        }
    },
    {
        "id": "11435418016170803593",
        "title": "公共厕所",
        "address": "辽宁省锦州市太和区吕梁山路与柳江街交叉口正南方向493米左右",
        "tel": "",
        "category": "基础设施:公共设施:公共厕所",
        "type": 0,
        "location": {
            "lat": 40.849151,
            "lng": 121.07387
        },
        "ad_info": {
            "adcode": 210711,
            "province": "辽宁省",
            "city": "锦州市",
            "district": "太和区"
        }
    },
    {
        "id": "13370897969622091844",
        "title": "公共厕所",
        "address": "辽宁省锦州市太和区凌西大街与锦兴路交叉口正南方向105米左右",
        "tel": "",
        "category": "基础设施:公共设施:公共厕所",
        "type": 0,
        "location": {
            "lat": 41.098123,
            "lng": 121.10825
        },
        "ad_info": {
            "adcode": 210711,
            "province": "辽宁省",
            "city": "锦州市",
            "district": "太和区"
        }
    },
    {
        "id": "22140357284907747",
        "title": "公共厕所",
        "address": "辽宁省锦州市凌河区南京东路与解放路交叉口南360米",
        "tel": "",
        "category": "基础设施:公共设施:公共厕所",
        "type": 0,
        "location": {
            "lat": 41.114033,
            "lng": 121.187051
        },
        "ad_info": {
            "adcode": 210703,
            "province": "辽宁省",
            "city": "锦州市",
            "district": "凌河区"
        }
    },
    {
        "id": "7328969319598005173",
        "title": "公共厕所",
        "address": "辽宁省锦州市义县G230与G305交叉口东南方向60米左右",
        "tel": "",
        "category": "基础设施:公共设施:公共厕所",
        "type": 0,
        "location": {
            "lat": 41.519826,
            "lng": 121.138786
        },
        "ad_info": {
            "adcode": 210727,
            "province": "辽宁省",
            "city": "锦州市",
            "district": "义县"
        }
    },
    {
        "id": "14584247828407748116",
        "title": "公共厕所",
        "address": "辽宁省锦州市北镇市塔南胡同与梁家胡同交叉口正南方向79米左右",
        "tel": "",
        "category": "基础设施:公共设施:公共厕所",
        "type": 0,
        "location": {
            "lat": 41.601564,
            "lng": 121.799697
        },
        "ad_info": {
            "adcode": 210782,
            "province": "辽宁省",
            "city": "锦州市",
            "district": "北镇市"
        }
    },
    {
        "id": "11604640617337707380",
        "title": "公共厕所",
        "address": "辽宁省锦州市古塔区延安路与西安街交叉口西南方向18米左右",
        "tel": "",
        "category": "基础设施:公共设施:公共厕所",
        "type": 0,
        "location": {
            "lat": 41.124643,
            "lng": 121.120925
        },
        "ad_info": {
            "adcode": 210702,
            "province": "辽宁省",
            "city": "锦州市",
            "district": "古塔区"
        }
    },
    {
        "id": "8497319903021621896",
        "title": "公共厕所",
        "address": "辽宁省锦州市太和区东海大道与中山路交叉口东南方向184米左右",
        "tel": "",
        "category": "基础设施:公共设施:公共厕所",
        "type": 0,
        "location": {
            "lat": 41.016989,
            "lng": 121.124528
        },
        "ad_info": {
            "adcode": 210711,
            "province": "辽宁省",
            "city": "锦州市",
            "district": "太和区"
        }
    },
    {
        "id": "9410693581517756973",
        "title": "公共厕所",
        "address": "辽宁省锦州市北镇市团结街与大佛寺胡同交叉口西北方向151米左右",
        "tel": "",
        "category": "基础设施:公共设施:公共厕所",
        "type": 0,
        "location": {
            "lat": 41.59322,
            "lng": 121.800289
        },
        "ad_info": {
            "adcode": 210782,
            "province": "辽宁省",
            "city": "锦州市",
            "district": "北镇市"
        }
    },
    {
        "id": "1737828097590231044",
        "title": "公共厕所",
        "address": "辽宁省锦州市北镇市北阁路与广宁西路交叉口正北方向45米左右",
        "tel": "",
        "category": "基础设施:公共设施:公共厕所",
        "type": 0,
        "location": {
            "lat": 41.596936,
            "lng": 121.785931
        },
        "ad_info": {
            "adcode": 210782,
            "province": "辽宁省",
            "city": "锦州市",
            "district": "北镇市"
        }
    },
    {
        "id": "5259153603436957673",
        "title": "公共厕所",
        "address": "辽宁省锦州市太和区富华逸墅东侧160米",
        "tel": "",
        "category": "基础设施:公共设施:公共厕所",
        "type": 0,
        "location": {
            "lat": 41.110805,
            "lng": 121.10388
        },
        "ad_info": {
            "adcode": 210711,
            "province": "辽宁省",
            "city": "锦州市",
            "district": "太和区"
        }
    },
    {
        "id": "4801349125351200340",
        "title": "公共厕所",
        "address": "辽宁省锦州市凌河区南京东路与解放路交叉口西北方向384米左右",
        "tel": "",
        "category": "基础设施:公共设施:公共厕所",
        "type": 0,
        "location": {
            "lat": 41.120137,
            "lng": 121.184339
        },
        "ad_info": {
            "adcode": 210703,
            "province": "辽宁省",
            "city": "锦州市",
            "district": "凌河区"
        }
    },
    {
        "id": "13949806090535595651",
        "title": "公共厕所",
        "address": "辽宁省锦州市太和区双何线",
        "tel": "",
        "category": "基础设施:公共设施:公共厕所",
        "type": 0,
        "location": {
            "lat": 41.018098,
            "lng": 121.289147
        },
        "ad_info": {
            "adcode": 210711,
            "province": "辽宁省",
            "city": "锦州市",
            "district": "太和区"
        }
    },
    {
        "id": "11353678163461567412",
        "title": "公共厕所",
        "address": "辽宁省锦州市古塔区北京路与汉口街交叉口正东方向189米左右",
        "tel": "",
        "category": "基础设施:公共设施:公共厕所",
        "type": 0,
        "location": {
            "lat": 41.13368,
            "lng": 121.128484
        },
        "ad_info": {
            "adcode": 210702,
            "province": "辽宁省",
            "city": "锦州市",
            "district": "古塔区"
        }
    },
    {
        "id": "12047571976523799184",
        "title": "公共厕所",
        "address": "辽宁省锦州市黑山县东外环路与南外环路交叉口正西方向178米左右",
        "tel": "",
        "category": "基础设施:公共设施:公共厕所",
        "type": 0,
        "location": {
            "lat": 41.68724,
            "lng": 122.126581
        },
        "ad_info": {
            "adcode": 210726,
            "province": "辽宁省",
            "city": "锦州市",
            "district": "黑山县"
        }
    },
    {
        "id": "7086519236202324229",
        "title": "凌河夜市公共厕所",
        "address": "辽宁省锦州市凌河区南宁路4段7号(锦州市第五中学附近)",
        "tel": "",
        "category": "基础设施:公共设施:公共厕所",
        "type": 0,
        "location": {
            "lat": 41.113239,
            "lng": 121.141881
        },
        "ad_info": {
            "adcode": 210703,
            "province": "辽宁省",
            "city": "锦州市",
            "district": "凌河区"
        }
    },
    {
        "id": "17142600559844965491",
        "title": "公共厕所",
        "address": "辽宁省锦州市北镇市太和街与育才路交叉口西南方向36米左右",
        "tel": "",
        "category": "基础设施:公共设施:公共厕所",
        "type": 0,
        "location": {
            "lat": 41.600268,
            "lng": 121.797983
        },
        "ad_info": {
            "adcode": 210782,
            "province": "辽宁省",
            "city": "锦州市",
            "district": "北镇市"
        }
    },
    {
        "id": "11009739842779077900",
        "title": "公共厕所",
        "address": "辽宁省锦州市太和区南广路与滨河路交叉口西北方向64米左右",
        "tel": "",
        "category": "基础设施:公共设施:公共厕所",
        "type": 0,
        "location": {
            "lat": 41.107014,
            "lng": 121.19472
        },
        "ad_info": {
            "adcode": 210711,
            "province": "辽宁省",
            "city": "锦州市",
            "district": "太和区"
        }
    },
    {
        "id": "14874147045594309356",
        "title": "公共厕所",
        "address": "辽宁省锦州市北镇市市府路与祈福街交叉口东北方向66米左右",
        "tel": "",
        "category": "基础设施:公共设施:公共厕所",
        "type": 0,
        "location": {
            "lat": 41.587503,
            "lng": 121.764415
        },
        "ad_info": {
            "adcode": 210782,
            "province": "辽宁省",
            "city": "锦州市",
            "district": "北镇市"
        }
    },
    {
        "id": "8140497613352081219",
        "title": "公共厕所",
        "address": "辽宁省锦州市北镇市G102与G230交叉口正西方向108米左右",
        "tel": "",
        "category": "基础设施:公共设施:公共厕所",
        "type": 0,
        "location": {
            "lat": 41.594718,
            "lng": 121.825961
        },
        "ad_info": {
            "adcode": 210782,
            "province": "辽宁省",
            "city": "锦州市",
            "district": "北镇市"
        }
    },
    {
        "id": "7774110224971408349",
        "title": "公共厕所",
        "address": "辽宁省锦州市古塔区士英街与石油东街交叉口西北方向100米左右",
        "tel": "",
        "category": "基础设施:公共设施:公共厕所",
        "type": 0,
        "location": {
            "lat": 41.127894,
            "lng": 121.115677
        },
        "ad_info": {
            "adcode": 210702,
            "province": "辽宁省",
            "city": "锦州市",
            "district": "古塔区"
        }
    },
    {
        "id": "12326429768538982901",
        "title": "公共厕所",
        "address": "辽宁省锦州市北镇市北大街与北环东路交叉口西南方向46米左右",
        "tel": "",
        "category": "基础设施:公共设施:公共厕所",
        "type": 0,
        "location": {
            "lat": 41.607853,
            "lng": 121.796706
        },
        "ad_info": {
            "adcode": 210782,
            "province": "辽宁省",
            "city": "锦州市",
            "district": "北镇市"
        }
    },
    {
        "id": "14325314470123959699",
        "title": "公共厕所",
        "address": "辽宁省锦州市北镇市G230与S210交叉口正东方向328米左右",
        "tel": "",
        "category": "基础设施:公共设施:公共厕所",
        "type": 0,
        "location": {
            "lat": 41.603646,
            "lng": 121.962318
        },
        "ad_info": {
            "adcode": 210782,
            "province": "辽宁省",
            "city": "锦州市",
            "district": "北镇市"
        }
    },
    {
        "id": "11701025655896002850",
        "title": "公共厕所",
        "address": "辽宁省锦州市太和区井冈山路与滨海大街交叉口西北方向53米左右",
        "tel": "",
        "category": "基础设施:公共设施:公共厕所",
        "type": 0,
        "location": {
            "lat": 40.848095,
            "lng": 121.079481
        },
        "ad_info": {
            "adcode": 210711,
            "province": "辽宁省",
            "city": "锦州市",
            "district": "太和区"
        }
    },
    {
        "id": "5109392495787327163",
        "title": "公共厕所",
        "address": "辽宁省锦州市太和区大连路与工农路交叉口西北方向491米左右",
        "tel": "",
        "category": "基础设施:公共设施:公共厕所",
        "type": 0,
        "location": {
            "lat": 41.114011,
            "lng": 121.101086
        },
        "ad_info": {
            "adcode": 210711,
            "province": "辽宁省",
            "city": "锦州市",
            "district": "太和区"
        }
    },
    {
        "id": "15927668476242469784",
        "title": "公共厕所",
        "address": "辽宁省锦州市古塔区人民街",
        "tel": "",
        "category": "基础设施:公共设施:公共厕所",
        "type": 0,
        "location": {
            "lat": 41.11154,
            "lng": 121.13104
        },
        "ad_info": {
            "adcode": 210702,
            "province": "辽宁省",
            "city": "锦州市",
            "district": "古塔区"
        }
    },
    {
        "id": "13334791692540226700",
        "title": "公共厕所",
        "address": "辽宁省锦州市凌河区和平路与广东街交叉口正北方向21米左右",
        "tel": "",
        "category": "基础设施:公共设施:公共厕所",
        "type": 0,
        "location": {
            "lat": 41.121296,
            "lng": 121.141614
        },
        "ad_info": {
            "adcode": 210703,
            "province": "辽宁省",
            "city": "锦州市",
            "district": "凌河区"
        }
    },
    {
        "id": "2285261681242985213",
        "title": "肯德基(古塔店)-洗手间",
        "address": "辽宁省锦州市古塔区北二里18号大福源1层",
        "tel": "",
        "category": "基础设施:公共设施:公共厕所",
        "type": 0,
        "location": {
            "lat": 41.113576,
            "lng": 121.124687
        },
        "ad_info": {
            "adcode": 210702,
            "province": "辽宁省",
            "city": "锦州市",
            "district": "古塔区"
        }
    },
    {
        "id": "14498076210939210035",
        "title": "洗手间",
        "address": "辽宁省锦州市凌河区延安路4段4号锦州站B1层",
        "tel": "",
        "category": "基础设施:公共设施:公共厕所",
        "type": 0,
        "location": {
            "lat": 41.124529,
            "lng": 121.140471
        },
        "ad_info": {
            "adcode": 210703,
            "province": "辽宁省",
            "city": "锦州市",
            "district": "凌河区"
        }
    },
    {
        "id": "7637099289274025663",
        "title": "女洗手间(新玛特)",
        "address": "辽宁省锦州市古塔区人民街三段3号新玛特F5层",
        "tel": "",
        "category": "基础设施:公共设施:公共厕所",
        "type": 0,
        "location": {
            "lat": 41.119092,
            "lng": 121.129116
        },
        "ad_info": {
            "adcode": 210702,
            "province": "辽宁省",
            "city": "锦州市",
            "district": "古塔区"
        }
    },
    {
        "id": "9368859439453075370",
        "title": "无障碍公共厕所",
        "address": "辽宁省锦州市黑山县启发路与解放街交叉口西北方向16米左右",
        "tel": "",
        "category": "基础设施:公共设施:公共厕所",
        "type": 0,
        "location": {
            "lat": 41.691461,
            "lng": 122.11729
        },
        "ad_info": {
            "adcode": 210726,
            "province": "辽宁省",
            "city": "锦州市",
            "district": "黑山县"
        }
    },
    {
        "id": "6647907651444532332",
        "title": "男洗手间(千盛购物广场)",
        "address": "辽宁省锦州市凌河区上海路四段2号千盛购物广场F5层",
        "tel": "",
        "category": "基础设施:公共设施:公共厕所",
        "type": 0,
        "location": {
            "lat": 41.119841,
            "lng": 121.141319
        },
        "ad_info": {
            "adcode": 210703,
            "province": "辽宁省",
            "city": "锦州市",
            "district": "凌河区"
        }
    },
    {
        "id": "12194371732798568109",
        "title": "公共厕所",
        "address": "辽宁省锦州市凌河区人民街与北京路交叉口正东方向83米左右",
        "tel": "",
        "category": "基础设施:公共设施:公共厕所",
        "type": 0,
        "location": {
            "lat": 41.1337,
            "lng": 121.132605
        },
        "ad_info": {
            "adcode": 210703,
            "province": "辽宁省",
            "city": "锦州市",
            "district": "凌河区"
        }
    },
    {
        "id": "13054828046767512358",
        "title": "女洗手间(龙购广场)",
        "address": "辽宁省锦州市凌海市中兴大街与国庆路交叉口西北角龙购广场F3层",
        "tel": "",
        "category": "基础设施:公共设施:公共厕所",
        "type": 0,
        "location": {
            "lat": 41.174463,
            "lng": 121.357988
        },
        "ad_info": {
            "adcode": 210781,
            "province": "辽宁省",
            "city": "锦州市",
            "district": "凌海市"
        }
    },
    {
        "id": "14514509258858594211",
        "title": "凌海服务区公共厕所",
        "address": "辽宁省锦州市凌海市京哈高速凌海服务区",
        "tel": "",
        "category": "基础设施:公共设施:公共厕所",
        "type": 0,
        "location": {
            "lat": 41.065648,
            "lng": 121.291225
        },
        "ad_info": {
            "adcode": 210781,
            "province": "辽宁省",
            "city": "锦州市",
            "district": "凌海市"
        }
    },
    {
        "id": "16551013478111567798",
        "title": "公共厕所",
        "address": "辽宁省锦州市太和区中央南街与科技路交叉口东南方向129米左右",
        "tel": "",
        "category": "基础设施:公共设施:公共厕所",
        "type": 0,
        "location": {
            "lat": 41.089683,
            "lng": 121.139427
        },
        "ad_info": {
            "adcode": 210711,
            "province": "辽宁省",
            "city": "锦州市",
            "district": "太和区"
        }
    },
    {
        "id": "16474281699168106913",
        "title": "公共厕所",
        "address": "辽宁省锦州市凌河区北安路与锦义街交叉口正西方向26米左右",
        "tel": "",
        "category": "基础设施:公共设施:公共厕所",
        "type": 0,
        "location": {
            "lat": 41.135918,
            "lng": 121.150936
        },
        "ad_info": {
            "adcode": 210703,
            "province": "辽宁省",
            "city": "锦州市",
            "district": "凌河区"
        }
    },
    {
        "id": "2443193570734911998",
        "title": "西转盘公共厕所",
        "address": "辽宁省锦州市北镇市扁担胡同与西环北路交叉口正北方向50米左右",
        "tel": "",
        "category": "基础设施:公共设施:公共厕所",
        "type": 0,
        "location": {
            "lat": 41.597919,
            "lng": 121.786027
        },
        "ad_info": {
            "adcode": 210782,
            "province": "辽宁省",
            "city": "锦州市",
            "district": "北镇市"
        }
    },
    {
        "id": "16279704622609444103",
        "title": "公共厕所",
        "address": "辽宁省锦州市凌河区贵州街瑞盛家园西北侧",
        "tel": "",
        "category": "基础设施:公共设施:公共厕所",
        "type": 0,
        "location": {
            "lat": 41.119362,
            "lng": 121.169363
        },
        "ad_info": {
            "adcode": 210703,
            "province": "辽宁省",
            "city": "锦州市",
            "district": "凌河区"
        }
    },
    {
        "id": "16698118455050057319",
        "title": "女洗手间(新玛特)",
        "address": "辽宁省锦州市古塔区人民街三段3号新玛特F5层",
        "tel": "",
        "category": "基础设施:公共设施:公共厕所",
        "type": 0,
        "location": {
            "lat": 41.118961,
            "lng": 121.129883
        },
        "ad_info": {
            "adcode": 210702,
            "province": "辽宁省",
            "city": "锦州市",
            "district": "古塔区"
        }
    },
    {
        "id": "16071086789956321589",
        "title": "公共厕所",
        "address": "辽宁省锦州市凌河区广州街与解放路交叉口正南方向59米左右",
        "tel": "",
        "category": "基础设施:公共设施:公共厕所",
        "type": 0,
        "location": {
            "lat": 41.114349,
            "lng": 121.173649
        },
        "ad_info": {
            "adcode": 210703,
            "province": "辽宁省",
            "city": "锦州市",
            "district": "凌河区"
        }
    },
    {
        "id": "5412518696766825847",
        "title": "女洗手间(龙购广场)",
        "address": "辽宁省锦州市凌海市中兴大街与国庆路交叉口西北角龙购广场F1层",
        "tel": "",
        "category": "基础设施:公共设施:公共厕所",
        "type": 0,
        "location": {
            "lat": 41.174382,
            "lng": 121.35685
        },
        "ad_info": {
            "adcode": 210781,
            "province": "辽宁省",
            "city": "锦州市",
            "district": "凌海市"
        }
    },
    {
        "id": "12242504674299659715",
        "title": "公共厕所",
        "address": "辽宁省锦州市凌河区黎明东方园西北(延安路南)",
        "tel": "",
        "category": "基础设施:公共设施:公共厕所",
        "type": 0,
        "location": {
            "lat": 41.119868,
            "lng": 121.187911
        },
        "ad_info": {
            "adcode": 210703,
            "province": "辽宁省",
            "city": "锦州市",
            "district": "凌河区"
        }
    },
    {
        "id": "16583053560762187486",
        "title": "卫生间",
        "address": "辽宁省锦州市义县南关街与230国道交叉口西南120米",
        "tel": "",
        "category": "基础设施:公共设施:公共厕所",
        "type": 0,
        "location": {
            "lat": 41.538084,
            "lng": 121.242937
        },
        "ad_info": {
            "adcode": 210727,
            "province": "辽宁省",
            "city": "锦州市",
            "district": "义县"
        }
    },
    {
        "id": "14176157090617576151",
        "title": "义县服务区公共厕所",
        "address": "辽宁省锦州市义县景兴路与民望路交叉口东北方向1150米左右",
        "tel": "",
        "category": "基础设施:公共设施:公共厕所",
        "type": 0,
        "location": {
            "lat": 41.634109,
            "lng": 121.298357
        },
        "ad_info": {
            "adcode": 210727,
            "province": "辽宁省",
            "city": "锦州市",
            "district": "义县"
        }
    },
    {
        "id": "3183276819809447713",
        "title": "女洗手间(千盛购物广场)",
        "address": "辽宁省锦州市凌河区上海路四段2号千盛购物广场F3层",
        "tel": "",
        "category": "基础设施:公共设施:公共厕所",
        "type": 0,
        "location": {
            "lat": 41.119849,
            "lng": 121.141319
        },
        "ad_info": {
            "adcode": 210703,
            "province": "辽宁省",
            "city": "锦州市",
            "district": "凌河区"
        }
    },
    {
        "id": "1489838165800268301",
        "title": "公共厕所",
        "address": "辽宁省锦州市凌河区七六八街与安庆路交叉口正南方向48米左右",
        "tel": "",
        "category": "基础设施:公共设施:公共厕所",
        "type": 0,
        "location": {
            "lat": 41.123868,
            "lng": 121.17423
        },
        "ad_info": {
            "adcode": 210703,
            "province": "辽宁省",
            "city": "锦州市",
            "district": "凌河区"
        }
    },
    {
        "id": "17991192319692759198",
        "title": "北镇服务区公共厕所",
        "address": "辽宁省锦州市北镇市大屯乡大亮甲阜营高速公路北镇服务区",
        "tel": "",
        "category": "基础设施:公共设施:公共厕所",
        "type": 0,
        "location": {
            "lat": 41.497824,
            "lng": 121.827869
        },
        "ad_info": {
            "adcode": 210782,
            "province": "辽宁省",
            "city": "锦州市",
            "district": "北镇市"
        }
    },
    {
        "id": "17608189258707376811",
        "title": "辽沈战役纪念馆公共厕所",
        "address": "辽宁省锦州市凌河区爱民街辽沈战役纪念馆(东侧)",
        "tel": "",
        "category": "基础设施:公共设施:公共厕所",
        "type": 0,
        "location": {
            "lat": 41.13012,
            "lng": 121.150169
        },
        "ad_info": {
            "adcode": 210703,
            "province": "辽宁省",
            "city": "锦州市",
            "district": "凌河区"
        }
    },
    {
        "id": "16635315983408010164",
        "title": "女洗手间",
        "address": "辽宁省锦州市黑山县解放南街27号福山时代购物广场(黑山店)F4",
        "tel": "",
        "category": "基础设施:公共设施:女洗手间",
        "type": 0,
        "location": {
            "lat": 41.683414,
            "lng": 122.11925
        },
        "ad_info": {
            "adcode": 210726,
            "province": "辽宁省",
            "city": "锦州市",
            "district": "黑山县"
        }
    },
    {
        "id": "3942895053556429137",
        "title": "男洗手间(福山时代购物广场)",
        "address": "辽宁省锦州市黑山县解放南街27号福山时代购物广场(黑山店)F2",
        "tel": "",
        "category": "基础设施:公共设施:男洗手间",
        "type": 0,
        "location": {
            "lat": 41.683416,
            "lng": 122.119248
        },
        "ad_info": {
            "adcode": 210726,
            "province": "辽宁省",
            "city": "锦州市",
            "district": "黑山县"
        }
    },
    {
        "id": "16556838887452622939",
        "title": "公共厕所",
        "address": "辽宁省锦州市太和区中央南街与河口巷交叉口西南方向41米左右",
        "tel": "",
        "category": "基础设施:公共设施:公共厕所",
        "type": 0,
        "location": {
            "lat": 41.09965,
            "lng": 121.13835
        },
        "ad_info": {
            "adcode": 210711,
            "province": "辽宁省",
            "city": "锦州市",
            "district": "太和区"
        }
    },
    {
        "id": "8455924047143638898",
        "title": "凯旋一号公共厕所",
        "address": "辽宁省锦州市黑山县东内环路与人民路交叉口正北方向294米左右",
        "tel": "",
        "category": "基础设施:公共设施:公共厕所",
        "type": 0,
        "location": {
            "lat": 41.697797,
            "lng": 122.122386
        },
        "ad_info": {
            "adcode": 210726,
            "province": "辽宁省",
            "city": "锦州市",
            "district": "黑山县"
        }
    },
    {
        "id": "10654833619682605148",
        "title": "公共厕所",
        "address": "辽宁省锦州市义县凌河大街与奉国寺路交叉口东北方向53米左右",
        "tel": "",
        "category": "基础设施:公共设施:公共厕所",
        "type": 0,
        "location": {
            "lat": 41.542883,
            "lng": 121.254315
        },
        "ad_info": {
            "adcode": 210727,
            "province": "辽宁省",
            "city": "锦州市",
            "district": "义县"
        }
    },
    {
        "id": "10701071286909284541",
        "title": "满族高中公共厕所",
        "address": "辽宁省锦州市北镇市X707与北阁路交叉口东南方向69米左右",
        "tel": "",
        "category": "基础设施:公共设施:公共厕所",
        "type": 0,
        "location": {
            "lat": 41.596411,
            "lng": 121.769223
        },
        "ad_info": {
            "adcode": 210782,
            "province": "辽宁省",
            "city": "锦州市",
            "district": "北镇市"
        }
    },
    {
        "id": "13558614218403137941",
        "title": "公共厕所",
        "address": "辽宁省锦州市凌海市国庆路135号",
        "tel": "",
        "category": "基础设施:公共设施:公共厕所",
        "type": 0,
        "location": {
            "lat": 41.158381,
            "lng": 121.339248
        },
        "ad_info": {
            "adcode": 210781,
            "province": "辽宁省",
            "city": "锦州市",
            "district": "凌海市"
        }
    },
    {
        "id": "18152376763513348401",
        "title": "公共厕所",
        "address": "辽宁省锦州市凌河区松坡路与重庆路交叉口西南方向42米左右",
        "tel": "",
        "category": "基础设施:公共设施:公共厕所",
        "type": 0,
        "location": {
            "lat": 41.128587,
            "lng": 121.169459
        },
        "ad_info": {
            "adcode": 210703,
            "province": "辽宁省",
            "city": "锦州市",
            "district": "凌河区"
        }
    },
    {
        "id": "533469737203350",
        "title": "女洗手间(千盛购物广场)",
        "address": "辽宁省锦州市凌河区上海路四段2号千盛购物广场F2层",
        "tel": "",
        "category": "基础设施:公共设施:公共厕所",
        "type": 0,
        "location": {
            "lat": 41.119845,
            "lng": 121.141334
        },
        "ad_info": {
            "adcode": 210703,
            "province": "辽宁省",
            "city": "锦州市",
            "district": "凌河区"
        }
    },
    {
        "id": "11154483583444188509",
        "title": "男洗手间(锦州站)",
        "address": "辽宁省锦州市凌河区延安路4段4号锦州站1F层",
        "tel": "",
        "category": "基础设施:公共设施:公共厕所",
        "type": 0,
        "location": {
            "lat": 41.124548,
            "lng": 121.140821
        },
        "ad_info": {
            "adcode": 210703,
            "province": "辽宁省",
            "city": "锦州市",
            "district": "凌河区"
        }
    },
    {
        "id": "8585400246402732462",
        "title": "公共厕所",
        "address": "辽宁省锦州市义县城关乡凌北新区",
        "tel": "",
        "category": "基础设施:公共设施:公共厕所",
        "type": 0,
        "location": {
            "lat": 41.568454,
            "lng": 121.182675
        },
        "ad_info": {
            "adcode": 210727,
            "province": "辽宁省",
            "city": "锦州市",
            "district": "义县"
        }
    },
    {
        "id": "14868022273753192583",
        "title": "石油宾馆-洗手间",
        "address": "辽宁省锦州市古塔区石油东街与红旗路交叉口西北方向87米左右",
        "tel": "",
        "category": "基础设施:公共设施:公共厕所",
        "type": 0,
        "location": {
            "lat": 41.134689,
            "lng": 121.112782
        },
        "ad_info": {
            "adcode": 210702,
            "province": "辽宁省",
            "city": "锦州市",
            "district": "古塔区"
        }
    },
    {
        "id": "8113655965327241848",
        "title": "公共厕所",
        "address": "辽宁省锦州市黑山县南内环路黑山客运站",
        "tel": "",
        "category": "基础设施:公共设施:公共厕所",
        "type": 0,
        "location": {
            "lat": 41.686801,
            "lng": 122.123389
        },
        "ad_info": {
            "adcode": 210726,
            "province": "辽宁省",
            "city": "锦州市",
            "district": "黑山县"
        }
    },
    {
        "id": "2127337327128359890",
        "title": "公共厕所",
        "address": "辽宁省锦州市黑山县西内环路与人民路交叉口东北320米",
        "tel": "",
        "category": "基础设施:公共设施:公共厕所",
        "type": 0,
        "location": {
            "lat": 41.694606,
            "lng": 122.114075
        },
        "ad_info": {
            "adcode": 210726,
            "province": "辽宁省",
            "city": "锦州市",
            "district": "黑山县"
        }
    },
    {
        "id": "16286492089462068625",
        "title": "公共厕所",
        "address": "辽宁省锦州市黑山县莲花湖景区",
        "tel": "",
        "category": "基础设施:公共设施:公共厕所",
        "type": 0,
        "location": {
            "lat": 41.723199,
            "lng": 122.445207
        },
        "ad_info": {
            "adcode": 210726,
            "province": "辽宁省",
            "city": "锦州市",
            "district": "黑山县"
        }
    },
    {
        "id": "11218189199650023926",
        "title": "公共卫生间",
        "address": "辽宁省锦州市凌河区七六八街与安庆路交叉口东北方向62米左右",
        "tel": "",
        "category": "基础设施:公共设施:公共厕所",
        "type": 0,
        "location": {
            "lat": 41.124653,
            "lng": 121.174955
        },
        "ad_info": {
            "adcode": 210703,
            "province": "辽宁省",
            "city": "锦州市",
            "district": "凌河区"
        }
    },
    {
        "id": "11369584630827125403",
        "title": "公共厕所(LN-JZ-0028)",
        "address": "辽宁省锦州市太和区小凌河左岸东湖湾",
        "tel": "",
        "category": "基础设施:公共设施:公共厕所",
        "type": 0,
        "location": {
            "lat": 41.099596,
            "lng": 121.147724
        },
        "ad_info": {
            "adcode": 210711,
            "province": "辽宁省",
            "city": "锦州市",
            "district": "太和区"
        }
    },
    {
        "id": "3292716533969808484",
        "title": "公共厕所",
        "address": "辽宁省锦州市凌河区北京路与锦义街交叉口西南方向37米左右",
        "tel": "",
        "category": "基础设施:公共设施:公共厕所",
        "type": 0,
        "location": {
            "lat": 41.131896,
            "lng": 121.147104
        },
        "ad_info": {
            "adcode": 210703,
            "province": "辽宁省",
            "city": "锦州市",
            "district": "凌河区"
        }
    },
    {
        "id": "5060282808878912428",
        "title": "义县图书馆旅游厕所",
        "address": "辽宁省锦州市义县中兴街义县高级中学",
        "tel": "",
        "category": "基础设施:公共设施:公共厕所",
        "type": 0,
        "location": {
            "lat": 41.51962,
            "lng": 121.240435
        },
        "ad_info": {
            "adcode": 210727,
            "province": "辽宁省",
            "city": "锦州市",
            "district": "义县"
        }
    },
    {
        "id": "878701838882810498",
        "title": "公共厕所",
        "address": "辽宁省锦州市古塔区松坡路与锦朝街交叉口东南方向63米左右",
        "tel": "",
        "category": "基础设施:公共设施:公共厕所",
        "type": 0,
        "location": {
            "lat": 41.150352,
            "lng": 121.106389
        },
        "ad_info": {
            "adcode": 210702,
            "province": "辽宁省",
            "city": "锦州市",
            "district": "古塔区"
        }
    },
    {
        "id": "6513543489916423504",
        "title": "公共厕所",
        "address": "辽宁省锦州市义县青塔禅寺南侧190米",
        "tel": "",
        "category": "基础设施:公共设施:公共厕所",
        "type": 0,
        "location": {
            "lat": 41.373237,
            "lng": 121.253431
        },
        "ad_info": {
            "adcode": 210727,
            "province": "辽宁省",
            "city": "锦州市",
            "district": "义县"
        }
    },
    {
        "id": "1192654329109746508",
        "title": "公共厕所(尖山子村)",
        "address": "辽宁省锦州市义县G230与富民街交叉口东北方向1633米左右",
        "tel": "",
        "category": "基础设施:公共设施:公共厕所",
        "type": 0,
        "location": {
            "lat": 41.551452,
            "lng": 121.463864
        },
        "ad_info": {
            "adcode": 210727,
            "province": "辽宁省",
            "city": "锦州市",
            "district": "义县"
        }
    },
    {
        "id": "2721979633955024111",
        "title": "公共厕所",
        "address": "辽宁省锦州市古塔区林西街锦州市妇婴医院",
        "tel": "",
        "category": "基础设施:公共设施:公共厕所",
        "type": 0,
        "location": {
            "lat": 41.11717,
            "lng": 121.129623
        },
        "ad_info": {
            "adcode": 210702,
            "province": "辽宁省",
            "city": "锦州市",
            "district": "古塔区"
        }
    },
    {
        "id": "15427383748678352420",
        "title": "公共厕所",
        "address": "辽宁省锦州市义县高老庄东侧90米",
        "tel": "",
        "category": "基础设施:公共设施:公共厕所",
        "type": 0,
        "location": {
            "lat": 41.515291,
            "lng": 120.955196
        },
        "ad_info": {
            "adcode": 210727,
            "province": "辽宁省",
            "city": "锦州市",
            "district": "义县"
        }
    },
    {
        "id": "12333947124610788889",
        "title": "女洗手间(锦州站)",
        "address": "辽宁省锦州市凌河区延安路4段4号锦州站1F层",
        "tel": "",
        "category": "基础设施:公共设施:公共厕所",
        "type": 0,
        "location": {
            "lat": 41.124504,
            "lng": 121.140816
        },
        "ad_info": {
            "adcode": 210703,
            "province": "辽宁省",
            "city": "锦州市",
            "district": "凌河区"
        }
    },
    {
        "id": "10315163974583230479",
        "title": "公共厕所",
        "address": "辽宁省锦州市义县凌河大街与奉国寺路交叉口正南方向128米左右",
        "tel": "",
        "category": "基础设施:公共设施:公共厕所",
        "type": 0,
        "location": {
            "lat": 41.541348,
            "lng": 121.253684
        },
        "ad_info": {
            "adcode": 210727,
            "province": "辽宁省",
            "city": "锦州市",
            "district": "义县"
        }
    },
    {
        "id": "15800442715660508242",
        "title": "公共厕所",
        "address": "辽宁省锦州市凌河区春晖街与解放路交叉口东北方向95米左右",
        "tel": "",
        "category": "基础设施:公共设施:公共厕所",
        "type": 0,
        "location": {
            "lat": 41.117817,
            "lng": 121.188066
        },
        "ad_info": {
            "adcode": 210703,
            "province": "辽宁省",
            "city": "锦州市",
            "district": "凌河区"
        }
    },
    {
        "id": "11852493389842966934",
        "title": "公共厕所",
        "address": "辽宁省锦州市凌河区云飞大桥与云飞街交叉口正东方向107米左右",
        "tel": "",
        "category": "基础设施:公共设施:公共厕所",
        "type": 0,
        "location": {
            "lat": 41.105008,
            "lng": 121.148352
        },
        "ad_info": {
            "adcode": 210703,
            "province": "辽宁省",
            "city": "锦州市",
            "district": "凌河区"
        }
    },
    {
        "id": "6508198787501777945",
        "title": "公共厕所",
        "address": "辽宁省锦州市凌海市锦凌路与新村街交叉口西360米",
        "tel": "",
        "category": "基础设施:公共设施:公共厕所",
        "type": 0,
        "location": {
            "lat": 41.178979,
            "lng": 121.368478
        },
        "ad_info": {
            "adcode": 210781,
            "province": "辽宁省",
            "city": "锦州市",
            "district": "凌海市"
        }
    },
    {
        "id": "15633846384621838312",
        "title": "公共厕所",
        "address": "辽宁省锦州市义县西南环路与西街交叉口西北方向532米左右",
        "tel": "",
        "category": "基础设施:公共设施:公共厕所",
        "type": 0,
        "location": {
            "lat": 41.548327,
            "lng": 121.234107
        },
        "ad_info": {
            "adcode": 210727,
            "province": "辽宁省",
            "city": "锦州市",
            "district": "义县"
        }
    },
    {
        "id": "624646422173450682",
        "title": "女洗手间(锦州站)",
        "address": "辽宁省锦州市凌河区延安路4段4号锦州站1F层",
        "tel": "",
        "category": "基础设施:公共设施:公共厕所",
        "type": 0,
        "location": {
            "lat": 41.124764,
            "lng": 121.140019
        },
        "ad_info": {
            "adcode": 210703,
            "province": "辽宁省",
            "city": "锦州市",
            "district": "凌河区"
        }
    },
    {
        "id": "1091109906998014458",
        "title": "公共厕所",
        "address": "辽宁省锦州市凌河区北京路4号",
        "tel": "",
        "category": "基础设施:公共设施:公共厕所",
        "type": 0,
        "location": {
            "lat": 41.133168,
            "lng": 121.142051
        },
        "ad_info": {
            "adcode": 210703,
            "province": "辽宁省",
            "city": "锦州市",
            "district": "凌河区"
        }
    },
    {
        "id": "1301468846345810181",
        "title": "公共厕所",
        "address": "辽宁省锦州市凌河区云飞街与宜昌路交叉口正南方向73米左右",
        "tel": "",
        "category": "基础设施:公共设施:公共厕所",
        "type": 0,
        "location": {
            "lat": 41.116745,
            "lng": 121.147041
        },
        "ad_info": {
            "adcode": 210703,
            "province": "辽宁省",
            "city": "锦州市",
            "district": "凌河区"
        }
    },
    {
        "id": "14403791855420837677",
        "title": "无障碍公共厕所",
        "address": "辽宁省锦州市黑山县G230与人民路交叉口东南方向248米左右",
        "tel": "",
        "category": "基础设施:公共设施:公共厕所",
        "type": 0,
        "location": {
            "lat": 41.697898,
            "lng": 122.130667
        },
        "ad_info": {
            "adcode": 210726,
            "province": "辽宁省",
            "city": "锦州市",
            "district": "黑山县"
        }
    },
    {
        "id": "5149239464572179717",
        "title": "卫生间",
        "address": "辽宁省锦州市古塔区东街与南街交叉口东南方向168米左右",
        "tel": "",
        "category": "基础设施:公共设施:公共厕所",
        "type": 0,
        "location": {
            "lat": 41.109634,
            "lng": 121.127733
        },
        "ad_info": {
            "adcode": 210702,
            "province": "辽宁省",
            "city": "锦州市",
            "district": "古塔区"
        }
    },
    {
        "id": "2277820031518589187",
        "title": "公共厕所",
        "address": "辽宁省锦州市太和区苹果廉政文化广场北侧约110米",
        "tel": "",
        "category": "基础设施:公共设施:公共厕所",
        "type": 0,
        "location": {
            "lat": 41.086173,
            "lng": 121.212704
        },
        "ad_info": {
            "adcode": 210711,
            "province": "辽宁省",
            "city": "锦州市",
            "district": "太和区"
        }
    },
    {
        "id": "2377452690273978660",
        "title": "公共厕所(王翰林屯村)",
        "address": "辽宁省锦州市义县S325与富民街交叉口东北方向1939米左右",
        "tel": "",
        "category": "基础设施:公共设施:公共厕所",
        "type": 0,
        "location": {
            "lat": 41.532751,
            "lng": 121.476434
        },
        "ad_info": {
            "adcode": 210727,
            "province": "辽宁省",
            "city": "锦州市",
            "district": "义县"
        }
    },
    {
        "id": "11818069320035484136",
        "title": "一高中公共厕所",
        "address": "辽宁省锦州市黑山县X704与北外环路交叉口西南方向125米左右",
        "tel": "",
        "category": "基础设施:公共设施:公共厕所",
        "type": 0,
        "location": {
            "lat": 41.697374,
            "lng": 122.110158
        },
        "ad_info": {
            "adcode": 210726,
            "province": "辽宁省",
            "city": "锦州市",
            "district": "黑山县"
        }
    },
    {
        "id": "13156019664222892902",
        "title": "东小河子公共厕所",
        "address": "辽宁省锦州市黑山县光荣路与启发路交叉口正北方向240米左右",
        "tel": "",
        "category": "基础设施:公共设施:公共厕所",
        "type": 0,
        "location": {
            "lat": 41.694983,
            "lng": 122.129908
        },
        "ad_info": {
            "adcode": 210726,
            "province": "辽宁省",
            "city": "锦州市",
            "district": "黑山县"
        }
    },
    {
        "id": "11717493256633299821",
        "title": "公共厕所",
        "address": "辽宁省锦州市黑山县北外环路与陵园路交叉口西北方向491米左右",
        "tel": "",
        "category": "基础设施:公共设施:公共厕所",
        "type": 0,
        "location": {
            "lat": 41.70354,
            "lng": 122.1145
        },
        "ad_info": {
            "adcode": 210726,
            "province": "辽宁省",
            "city": "锦州市",
            "district": "黑山县"
        }
    },
    {
        "id": "7272419823831319612",
        "title": "公共厕所",
        "address": "辽宁省锦州市凌河区北湖公园内街道1号",
        "tel": "",
        "category": "基础设施:公共设施:公共厕所",
        "type": 0,
        "location": {
            "lat": 41.137548,
            "lng": 121.133079
        },
        "ad_info": {
            "adcode": 210703,
            "province": "辽宁省",
            "city": "锦州市",
            "district": "凌河区"
        }
    },
    {
        "id": "11853156594407239416",
        "title": "东湖公园-公共厕所",
        "address": "辽宁省锦州市凌河区南阳路与卫东街交叉口西南方向168米左右",
        "tel": "",
        "category": "基础设施:公共设施:公共厕所",
        "type": 0,
        "location": {
            "lat": 41.103695,
            "lng": 121.152586
        },
        "ad_info": {
            "adcode": 210703,
            "province": "辽宁省",
            "city": "锦州市",
            "district": "凌河区"
        }
    },
    {
        "id": "14141438124887454866",
        "title": "公共厕所",
        "address": "辽宁省锦州市黑山县第二人民医院南侧140米",
        "tel": "",
        "category": "基础设施:公共设施:公共厕所",
        "type": 0,
        "location": {
            "lat": 42.000721,
            "lng": 122.168642
        },
        "ad_info": {
            "adcode": 210726,
            "province": "辽宁省",
            "city": "锦州市",
            "district": "黑山县"
        }
    },
    {
        "id": "2724766746145197667",
        "title": "公共厕所",
        "address": "辽宁省锦州市黑山县北外环路黑山县中医院",
        "tel": "",
        "category": "基础设施:公共设施:公共厕所",
        "type": 0,
        "location": {
            "lat": 41.69829,
            "lng": 122.126726
        },
        "ad_info": {
            "adcode": 210726,
            "province": "辽宁省",
            "city": "锦州市",
            "district": "黑山县"
        }
    },
    {
        "id": "7914585663101639482",
        "title": "碧乐城-洗手间",
        "address": "辽宁省锦州市凌河区解放路五段33号碧乐城B1",
        "tel": "",
        "category": "基础设施:公共设施:公共厕所",
        "type": 0,
        "location": {
            "lat": 41.11409,
            "lng": 121.159049
        },
        "ad_info": {
            "adcode": 210703,
            "province": "辽宁省",
            "city": "锦州市",
            "district": "凌河区"
        }
    },
    {
        "id": "759900924578973381",
        "title": "男洗手间(锦州站)",
        "address": "辽宁省锦州市凌河区延安路4段4号锦州站1F层",
        "tel": "",
        "category": "基础设施:公共设施:公共厕所",
        "type": 0,
        "location": {
            "lat": 41.124708,
            "lng": 121.140258
        },
        "ad_info": {
            "adcode": 210703,
            "province": "辽宁省",
            "city": "锦州市",
            "district": "凌河区"
        }
    },
    {
        "id": "5128392690965468995",
        "title": "公共厕所",
        "address": "辽宁省锦州市古塔区人民街与松坡路交叉口正西方向88米左右",
        "tel": "",
        "category": "基础设施:公共设施:公共厕所",
        "type": 0,
        "location": {
            "lat": 41.149194,
            "lng": 121.128983
        },
        "ad_info": {
            "adcode": 210702,
            "province": "辽宁省",
            "city": "锦州市",
            "district": "古塔区"
        }
    },
    {
        "id": "11140518070167434873",
        "title": "公共厕所",
        "address": "辽宁省锦州市古塔区怀英路与滨河路交叉口正东方向152米左右",
        "tel": "",
        "category": "基础设施:公共设施:公共厕所",
        "type": 0,
        "location": {
            "lat": 41.124514,
            "lng": 121.107662
        },
        "ad_info": {
            "adcode": 210702,
            "province": "辽宁省",
            "city": "锦州市",
            "district": "古塔区"
        }
    },
    {
        "id": "8724984008247212278",
        "title": "公共厕所",
        "address": "辽宁省锦州市北镇市滨河街与钟秀街交叉口西南方向107米左右",
        "tel": "",
        "category": "基础设施:公共设施:公共厕所",
        "type": 0,
        "location": {
            "lat": 41.586709,
            "lng": 121.790089
        },
        "ad_info": {
            "adcode": 210782,
            "province": "辽宁省",
            "city": "锦州市",
            "district": "北镇市"
        }
    },
    {
        "id": "3998911863117502256",
        "title": "公共厕所",
        "address": "辽宁省锦州市太和区209省道与G1京哈高速出口交叉口西北100米",
        "tel": "",
        "category": "基础设施:公共设施:公共厕所",
        "type": 0,
        "location": {
            "lat": 41.035766,
            "lng": 121.213095
        },
        "ad_info": {
            "adcode": 210711,
            "province": "辽宁省",
            "city": "锦州市",
            "district": "太和区"
        }
    },
    {
        "id": "399328038099747827",
        "title": "公共厕所",
        "address": "辽宁省锦州市义县S304与S325交叉口正东方向282米左右",
        "tel": "",
        "category": "基础设施:公共设施:公共厕所",
        "type": 0,
        "location": {
            "lat": 41.739959,
            "lng": 121.535772
        },
        "ad_info": {
            "adcode": 210727,
            "province": "辽宁省",
            "city": "锦州市",
            "district": "义县"
        }
    },
    {
        "id": "9535917703048424025",
        "title": "东一雅阁璞邸酒店-洗手间",
        "address": "辽宁省锦州市太和区经济技术开发区富海街8号",
        "tel": "",
        "category": "基础设施:公共设施:公共厕所",
        "type": 0,
        "location": {
            "lat": 40.864961,
            "lng": 121.07591
        },
        "ad_info": {
            "adcode": 210711,
            "province": "辽宁省",
            "city": "锦州市",
            "district": "太和区"
        }
    },
    {
        "id": "5184405758697093813",
        "title": "公共厕所",
        "address": "辽宁省锦州市太和区嫩江街与滨海大街交叉口正南方向574米左右",
        "tel": "",
        "category": "基础设施:公共设施:公共厕所",
        "type": 0,
        "location": {
            "lat": 40.831406,
            "lng": 121.078745
        },
        "ad_info": {
            "adcode": 210711,
            "province": "辽宁省",
            "city": "锦州市",
            "district": "太和区"
        }
    },
    {
        "id": "15125572065586384394",
        "title": "公共厕所",
        "address": "辽宁省锦州市凌海市保康街与集兴路交叉口正南方向215米左右",
        "tel": "",
        "category": "基础设施:公共设施:公共厕所",
        "type": 0,
        "location": {
            "lat": 41.168316,
            "lng": 121.37134
        },
        "ad_info": {
            "adcode": 210781,
            "province": "辽宁省",
            "city": "锦州市",
            "district": "凌海市"
        }
    },
    {
        "id": "1473518036332297168",
        "title": "公共厕所",
        "address": "辽宁省锦州市凌海市国庆路与集贸街交叉口西200米",
        "tel": "",
        "category": "基础设施:公共设施:公共厕所",
        "type": 0,
        "location": {
            "lat": 41.1743,
            "lng": 121.366618
        },
        "ad_info": {
            "adcode": 210781,
            "province": "辽宁省",
            "city": "锦州市",
            "district": "凌海市"
        }
    },
    {
        "id": "13750061862432103354",
        "title": "公共厕所",
        "address": "辽宁省锦州市凌海市凌南街与双凌路交叉口正南方向184米左右",
        "tel": "",
        "category": "基础设施:公共设施:公共厕所",
        "type": 0,
        "location": {
            "lat": 41.166931,
            "lng": 121.361215
        },
        "ad_info": {
            "adcode": 210781,
            "province": "辽宁省",
            "city": "锦州市",
            "district": "凌海市"
        }
    },
    {
        "id": "4578428144254937857",
        "title": "公共厕所",
        "address": "辽宁省锦州市太和区凌川路与长沙街交叉口正南方向121米左右",
        "tel": "",
        "category": "基础设施:公共设施:公共厕所",
        "type": 0,
        "location": {
            "lat": 41.096424,
            "lng": 121.141915
        },
        "ad_info": {
            "adcode": 210711,
            "province": "辽宁省",
            "city": "锦州市",
            "district": "太和区"
        }
    },
    {
        "id": "11697694804050241469",
        "title": "公共厕所",
        "address": "辽宁省锦州市黑山县人民路与启发路交叉口西北方向46米左右",
        "tel": "",
        "category": "基础设施:公共设施:公共厕所",
        "type": 0,
        "location": {
            "lat": 41.691335,
            "lng": 122.109954
        },
        "ad_info": {
            "adcode": 210726,
            "province": "辽宁省",
            "city": "锦州市",
            "district": "黑山县"
        }
    },
    {
        "id": "13740408234079474850",
        "title": "公共厕所",
        "address": "辽宁省锦州市太和区凌西大街与解放西路交叉口西北方向99米左右",
        "tel": "",
        "category": "基础设施:公共设施:公共厕所",
        "type": 0,
        "location": {
            "lat": 41.110261,
            "lng": 121.106651
        },
        "ad_info": {
            "adcode": 210711,
            "province": "辽宁省",
            "city": "锦州市",
            "district": "太和区"
        }
    },
    {
        "id": "15364870900412358326",
        "title": "公共厕所",
        "address": "辽宁省锦州市北镇市扁担胡同与西环北路交叉口正西方向225米左右",
        "tel": "",
        "category": "基础设施:公共设施:公共厕所",
        "type": 0,
        "location": {
            "lat": 41.597198,
            "lng": 121.783456
        },
        "ad_info": {
            "adcode": 210782,
            "province": "辽宁省",
            "city": "锦州市",
            "district": "北镇市"
        }
    },
    {
        "id": "17334269408272046946",
        "title": "公共厕所",
        "address": "辽宁省锦州市古塔区南京路与山西街交叉口东南方向110米左右",
        "tel": "",
        "category": "基础设施:公共设施:公共厕所",
        "type": 0,
        "location": {
            "lat": 41.106273,
            "lng": 121.135401
        },
        "ad_info": {
            "adcode": 210702,
            "province": "辽宁省",
            "city": "锦州市",
            "district": "古塔区"
        }
    },
    {
        "id": "9492904871455954450",
        "title": "公共厕所",
        "address": "辽宁省锦州市黑山县S307与X721交叉口东南方向291米左右",
        "tel": "",
        "category": "基础设施:公共设施:公共厕所",
        "type": 0,
        "location": {
            "lat": 41.542703,
            "lng": 122.2298
        },
        "ad_info": {
            "adcode": 210726,
            "province": "辽宁省",
            "city": "锦州市",
            "district": "黑山县"
        }
    },
    {
        "id": "15379865668101102528",
        "title": "公共厕所",
        "address": "辽宁省锦州市古塔区南宁路3段15-17号",
        "tel": "",
        "category": "基础设施:公共设施:公共厕所",
        "type": 0,
        "location": {
            "lat": 41.11373,
            "lng": 121.136756
        },
        "ad_info": {
            "adcode": 210702,
            "province": "辽宁省",
            "city": "锦州市",
            "district": "古塔区"
        }
    },
    {
        "id": "4774881272513134047",
        "title": "公共厕所",
        "address": "辽宁省锦州市太和区S204与金山路交叉口正南方向211米左右",
        "tel": "",
        "category": "基础设施:公共设施:公共厕所",
        "type": 0,
        "location": {
            "lat": 40.880742,
            "lng": 121.049523
        },
        "ad_info": {
            "adcode": 210711,
            "province": "辽宁省",
            "city": "锦州市",
            "district": "太和区"
        }
    },
    {
        "id": "13707598940134652672",
        "title": "公共厕所",
        "address": "辽宁省锦州市黑山县X705与黑大公路交叉口西南方向534米左右",
        "tel": "",
        "category": "基础设施:公共设施:公共厕所",
        "type": 0,
        "location": {
            "lat": 41.615013,
            "lng": 122.144821
        },
        "ad_info": {
            "adcode": 210726,
            "province": "辽宁省",
            "city": "锦州市",
            "district": "黑山县"
        }
    },
    {
        "id": "4243021718050723685",
        "title": "公共厕所",
        "address": "辽宁省锦州市凌海市健康路与青年大街交叉口正北方向42米左右",
        "tel": "",
        "category": "基础设施:公共设施:公共厕所",
        "type": 0,
        "location": {
            "lat": 41.170835,
            "lng": 121.356377
        },
        "ad_info": {
            "adcode": 210781,
            "province": "辽宁省",
            "city": "锦州市",
            "district": "凌海市"
        }
    },
    {
        "id": "6885387329046292513",
        "title": "公共厕所",
        "address": "辽宁省锦州市北镇市北大街与太和街交叉口正北方向107米左右",
        "tel": "",
        "category": "基础设施:公共设施:公共厕所",
        "type": 0,
        "location": {
            "lat": 41.59769,
            "lng": 121.795801
        },
        "ad_info": {
            "adcode": 210782,
            "province": "辽宁省",
            "city": "锦州市",
            "district": "北镇市"
        }
    },
    {
        "id": "13721570511212593455",
        "title": "公共厕所",
        "address": "辽宁省锦州市古塔区北宁路与汉口街交叉口正北方向74米左右",
        "tel": "",
        "category": "基础设施:公共设施:公共厕所",
        "type": 0,
        "location": {
            "lat": 41.142511,
            "lng": 121.127758
        },
        "ad_info": {
            "adcode": 210702,
            "province": "辽宁省",
            "city": "锦州市",
            "district": "古塔区"
        }
    },
    {
        "id": "4597350242374622591",
        "title": "公共厕所",
        "address": "辽宁省锦州市义县凌河大街与迎宾路交叉口西北方向199米左右",
        "tel": "",
        "category": "基础设施:公共设施:公共厕所",
        "type": 0,
        "location": {
            "lat": 41.525507,
            "lng": 121.255318
        },
        "ad_info": {
            "adcode": 210727,
            "province": "辽宁省",
            "city": "锦州市",
            "district": "义县"
        }
    },
    {
        "id": "7099622002149373367",
        "title": "公共厕所",
        "address": "辽宁省锦州市黑山县解放街与警民街交叉口西北方向245米左右",
        "tel": "",
        "category": "基础设施:公共设施:公共厕所",
        "type": 0,
        "location": {
            "lat": 41.695155,
            "lng": 122.114061
        },
        "ad_info": {
            "adcode": 210726,
            "province": "辽宁省",
            "city": "锦州市",
            "district": "黑山县"
        }
    },
    {
        "id": "10241810418175538236",
        "title": "公共厕所",
        "address": "辽宁省锦州市太和区渤海大道与羽源路交叉口正南方向225米左右",
        "tel": "",
        "category": "基础设施:公共设施:公共厕所",
        "type": 0,
        "location": {
            "lat": 41.003494,
            "lng": 121.103794
        },
        "ad_info": {
            "adcode": 210711,
            "province": "辽宁省",
            "city": "锦州市",
            "district": "太和区"
        }
    },
    {
        "id": "3756245453247743446",
        "title": "公共厕所",
        "address": "辽宁省锦州市黑山县文商街帝王府邸",
        "tel": "",
        "category": "基础设施:公共设施:公共厕所",
        "type": 0,
        "location": {
            "lat": 41.693194,
            "lng": 122.117385
        },
        "ad_info": {
            "adcode": 210726,
            "province": "辽宁省",
            "city": "锦州市",
            "district": "黑山县"
        }
    },
    {
        "id": "16915682571665847548",
        "title": "公共厕所",
        "address": "辽宁省锦州市凌海市商业路与集贸街交叉口正南方向203米左右",
        "tel": "",
        "category": "基础设施:公共设施:公共厕所",
        "type": 0,
        "location": {
            "lat": 41.164011,
            "lng": 121.369742
        },
        "ad_info": {
            "adcode": 210781,
            "province": "辽宁省",
            "city": "锦州市",
            "district": "凌海市"
        }
    },
    {
        "id": "7649944816349996626",
        "title": "公共厕所",
        "address": "辽宁省锦州市凌海市凌海大街与铁南路交叉口正东方向39米左右",
        "tel": "",
        "category": "基础设施:公共设施:公共厕所",
        "type": 0,
        "location": {
            "lat": 41.180598,
            "lng": 121.363354
        },
        "ad_info": {
            "adcode": 210781,
            "province": "辽宁省",
            "city": "锦州市",
            "district": "凌海市"
        }
    },
    {
        "id": "14473372365466020294",
        "title": "公共厕所",
        "address": "辽宁省锦州市黑山县G230与人民路交叉口西南方向131米左右",
        "tel": "",
        "category": "基础设施:公共设施:公共厕所",
        "type": 0,
        "location": {
            "lat": 41.698849,
            "lng": 122.128815
        },
        "ad_info": {
            "adcode": 210726,
            "province": "辽宁省",
            "city": "锦州市",
            "district": "黑山县"
        }
    },
    {
        "id": "316646018098005928",
        "title": "秀水公园公共厕所",
        "address": "辽宁省锦州市北镇市中平路与秀水东路交叉口正北方向23米左右",
        "tel": "",
        "category": "基础设施:公共设施:公共厕所",
        "type": 0,
        "location": {
            "lat": 41.371843,
            "lng": 121.771361
        },
        "ad_info": {
            "adcode": 210782,
            "province": "辽宁省",
            "city": "锦州市",
            "district": "北镇市"
        }
    },
    {
        "id": "17128219552228685238",
        "title": "公共厕所",
        "address": "辽宁省锦州市凌海市国庆路与大锦线交叉口西南方向256米左右",
        "tel": "",
        "category": "基础设施:公共设施:公共厕所",
        "type": 0,
        "location": {
            "lat": 41.170697,
            "lng": 121.341634
        },
        "ad_info": {
            "adcode": 210781,
            "province": "辽宁省",
            "city": "锦州市",
            "district": "凌海市"
        }
    },
    {
        "id": "5793063758269547527",
        "title": "公共厕所",
        "address": "辽宁省锦州市凌河区广州街与延安路交叉口正南方向76米左右",
        "tel": "",
        "category": "基础设施:公共设施:公共厕所",
        "type": 0,
        "location": {
            "lat": 41.12004,
            "lng": 121.173603
        },
        "ad_info": {
            "adcode": 210703,
            "province": "辽宁省",
            "city": "锦州市",
            "district": "凌河区"
        }
    },
    {
        "id": "15306197417944916599",
        "title": "公共厕所",
        "address": "辽宁省锦州市凌海市新胜街与锦凌路交叉口正北方向85米左右",
        "tel": "",
        "category": "基础设施:公共设施:公共厕所",
        "type": 0,
        "location": {
            "lat": 41.180389,
            "lng": 121.374163
        },
        "ad_info": {
            "adcode": 210781,
            "province": "辽宁省",
            "city": "锦州市",
            "district": "凌海市"
        }
    },
    {
        "id": "1590389987921439013",
        "title": "公共厕所",
        "address": "辽宁省锦州市北镇市北大街与太平胡同交叉口正西方向39米左右",
        "tel": "",
        "category": "基础设施:公共设施:公共厕所",
        "type": 0,
        "location": {
            "lat": 41.604994,
            "lng": 121.796546
        },
        "ad_info": {
            "adcode": 210782,
            "province": "辽宁省",
            "city": "锦州市",
            "district": "北镇市"
        }
    },
    {
        "id": "14819941432566509679",
        "title": "公共厕所",
        "address": "辽宁省锦州市凌海市国庆路与西四街交叉口正南方向463米左右",
        "tel": "",
        "category": "基础设施:公共设施:公共厕所",
        "type": 0,
        "location": {
            "lat": 41.168541,
            "lng": 121.349413
        },
        "ad_info": {
            "adcode": 210781,
            "province": "辽宁省",
            "city": "锦州市",
            "district": "凌海市"
        }
    },
    {
        "id": "6830341382187813233",
        "title": "公共厕所",
        "address": "辽宁省锦州市凌河区云飞大桥与云飞街交叉口东南方向97米左右",
        "tel": "",
        "category": "基础设施:公共设施:公共厕所",
        "type": 0,
        "location": {
            "lat": 41.104559,
            "lng": 121.147794
        },
        "ad_info": {
            "adcode": 210703,
            "province": "辽宁省",
            "city": "锦州市",
            "district": "凌河区"
        }
    },
    {
        "id": "7906678096518159703",
        "title": "公共厕所",
        "address": "辽宁省锦州市凌河区湖北路辽沈战役纪念馆(南侧)",
        "tel": "",
        "category": "基础设施:公共设施:公共厕所",
        "type": 0,
        "location": {
            "lat": 41.127546,
            "lng": 121.147429
        },
        "ad_info": {
            "adcode": 210703,
            "province": "辽宁省",
            "city": "锦州市",
            "district": "凌河区"
        }
    },
    {
        "id": "4774881272513134047",
        "title": "公共厕所",
        "address": "辽宁省锦州市太和区S204与金山路交叉口正南方向211米左右",
        "tel": "",
        "category": "基础设施:公共设施:公共厕所",
        "type": 0,
        "location": {
            "lat": 40.880742,
            "lng": 121.049523
        },
        "ad_info": {
            "adcode": 210711,
            "province": "辽宁省",
            "city": "锦州市",
            "district": "太和区"
        }
    },
    {
        "id": "13707598940134652672",
        "title": "公共厕所",
        "address": "辽宁省锦州市黑山县X705与黑大公路交叉口西南方向534米左右",
        "tel": "",
        "category": "基础设施:公共设施:公共厕所",
        "type": 0,
        "location": {
            "lat": 41.615013,
            "lng": 122.144821
        },
        "ad_info": {
            "adcode": 210726,
            "province": "辽宁省",
            "city": "锦州市",
            "district": "黑山县"
        }
    },
    {
        "id": "4243021718050723685",
        "title": "公共厕所",
        "address": "辽宁省锦州市凌海市健康路与青年大街交叉口正北方向42米左右",
        "tel": "",
        "category": "基础设施:公共设施:公共厕所",
        "type": 0,
        "location": {
            "lat": 41.170835,
            "lng": 121.356377
        },
        "ad_info": {
            "adcode": 210781,
            "province": "辽宁省",
            "city": "锦州市",
            "district": "凌海市"
        }
    },
    {
        "id": "6885387329046292513",
        "title": "公共厕所",
        "address": "辽宁省锦州市北镇市北大街与太和街交叉口正北方向107米左右",
        "tel": "",
        "category": "基础设施:公共设施:公共厕所",
        "type": 0,
        "location": {
            "lat": 41.59769,
            "lng": 121.795801
        },
        "ad_info": {
            "adcode": 210782,
            "province": "辽宁省",
            "city": "锦州市",
            "district": "北镇市"
        }
    },
    {
        "id": "13721570511212593455",
        "title": "公共厕所",
        "address": "辽宁省锦州市古塔区北宁路与汉口街交叉口正北方向74米左右",
        "tel": "",
        "category": "基础设施:公共设施:公共厕所",
        "type": 0,
        "location": {
            "lat": 41.142511,
            "lng": 121.127758
        },
        "ad_info": {
            "adcode": 210702,
            "province": "辽宁省",
            "city": "锦州市",
            "district": "古塔区"
        }
    },
    {
        "id": "4597350242374622591",
        "title": "公共厕所",
        "address": "辽宁省锦州市义县凌河大街与迎宾路交叉口西北方向199米左右",
        "tel": "",
        "category": "基础设施:公共设施:公共厕所",
        "type": 0,
        "location": {
            "lat": 41.525507,
            "lng": 121.255318
        },
        "ad_info": {
            "adcode": 210727,
            "province": "辽宁省",
            "city": "锦州市",
            "district": "义县"
        }
    },
    {
        "id": "7099622002149373367",
        "title": "公共厕所",
        "address": "辽宁省锦州市黑山县解放街与警民街交叉口西北方向245米左右",
        "tel": "",
        "category": "基础设施:公共设施:公共厕所",
        "type": 0,
        "location": {
            "lat": 41.695155,
            "lng": 122.114061
        },
        "ad_info": {
            "adcode": 210726,
            "province": "辽宁省",
            "city": "锦州市",
            "district": "黑山县"
        }
    },
    {
        "id": "10241810418175538236",
        "title": "公共厕所",
        "address": "辽宁省锦州市太和区渤海大道与羽源路交叉口正南方向225米左右",
        "tel": "",
        "category": "基础设施:公共设施:公共厕所",
        "type": 0,
        "location": {
            "lat": 41.003494,
            "lng": 121.103794
        },
        "ad_info": {
            "adcode": 210711,
            "province": "辽宁省",
            "city": "锦州市",
            "district": "太和区"
        }
    },
    {
        "id": "3756245453247743446",
        "title": "公共厕所",
        "address": "辽宁省锦州市黑山县文商街帝王府邸",
        "tel": "",
        "category": "基础设施:公共设施:公共厕所",
        "type": 0,
        "location": {
            "lat": 41.693194,
            "lng": 122.117385
        },
        "ad_info": {
            "adcode": 210726,
            "province": "辽宁省",
            "city": "锦州市",
            "district": "黑山县"
        }
    },
    {
        "id": "16915682571665847548",
        "title": "公共厕所",
        "address": "辽宁省锦州市凌海市商业路与集贸街交叉口正南方向203米左右",
        "tel": "",
        "category": "基础设施:公共设施:公共厕所",
        "type": 0,
        "location": {
            "lat": 41.164011,
            "lng": 121.369742
        },
        "ad_info": {
            "adcode": 210781,
            "province": "辽宁省",
            "city": "锦州市",
            "district": "凌海市"
        }
    },
    {
        "id": "7649944816349996626",
        "title": "公共厕所",
        "address": "辽宁省锦州市凌海市凌海大街与铁南路交叉口正东方向39米左右",
        "tel": "",
        "category": "基础设施:公共设施:公共厕所",
        "type": 0,
        "location": {
            "lat": 41.180598,
            "lng": 121.363354
        },
        "ad_info": {
            "adcode": 210781,
            "province": "辽宁省",
            "city": "锦州市",
            "district": "凌海市"
        }
    },
    {
        "id": "14473372365466020294",
        "title": "公共厕所",
        "address": "辽宁省锦州市黑山县G230与人民路交叉口西南方向131米左右",
        "tel": "",
        "category": "基础设施:公共设施:公共厕所",
        "type": 0,
        "location": {
            "lat": 41.698849,
            "lng": 122.128815
        },
        "ad_info": {
            "adcode": 210726,
            "province": "辽宁省",
            "city": "锦州市",
            "district": "黑山县"
        }
    },
    {
        "id": "316646018098005928",
        "title": "秀水公园公共厕所",
        "address": "辽宁省锦州市北镇市中平路与秀水东路交叉口正北方向23米左右",
        "tel": "",
        "category": "基础设施:公共设施:公共厕所",
        "type": 0,
        "location": {
            "lat": 41.371843,
            "lng": 121.771361
        },
        "ad_info": {
            "adcode": 210782,
            "province": "辽宁省",
            "city": "锦州市",
            "district": "北镇市"
        }
    },
    {
        "id": "17128219552228685238",
        "title": "公共厕所",
        "address": "辽宁省锦州市凌海市国庆路与大锦线交叉口西南方向256米左右",
        "tel": "",
        "category": "基础设施:公共设施:公共厕所",
        "type": 0,
        "location": {
            "lat": 41.170697,
            "lng": 121.341634
        },
        "ad_info": {
            "adcode": 210781,
            "province": "辽宁省",
            "city": "锦州市",
            "district": "凌海市"
        }
    },
    {
        "id": "5793063758269547527",
        "title": "公共厕所",
        "address": "辽宁省锦州市凌河区广州街与延安路交叉口正南方向76米左右",
        "tel": "",
        "category": "基础设施:公共设施:公共厕所",
        "type": 0,
        "location": {
            "lat": 41.12004,
            "lng": 121.173603
        },
        "ad_info": {
            "adcode": 210703,
            "province": "辽宁省",
            "city": "锦州市",
            "district": "凌河区"
        }
    },
    {
        "id": "15306197417944916599",
        "title": "公共厕所",
        "address": "辽宁省锦州市凌海市新胜街与锦凌路交叉口正北方向85米左右",
        "tel": "",
        "category": "基础设施:公共设施:公共厕所",
        "type": 0,
        "location": {
            "lat": 41.180389,
            "lng": 121.374163
        },
        "ad_info": {
            "adcode": 210781,
            "province": "辽宁省",
            "city": "锦州市",
            "district": "凌海市"
        }
    },
    {
        "id": "1590389987921439013",
        "title": "公共厕所",
        "address": "辽宁省锦州市北镇市北大街与太平胡同交叉口正西方向39米左右",
        "tel": "",
        "category": "基础设施:公共设施:公共厕所",
        "type": 0,
        "location": {
            "lat": 41.604994,
            "lng": 121.796546
        },
        "ad_info": {
            "adcode": 210782,
            "province": "辽宁省",
            "city": "锦州市",
            "district": "北镇市"
        }
    },
    {
        "id": "14819941432566509679",
        "title": "公共厕所",
        "address": "辽宁省锦州市凌海市国庆路与西四街交叉口正南方向463米左右",
        "tel": "",
        "category": "基础设施:公共设施:公共厕所",
        "type": 0,
        "location": {
            "lat": 41.168541,
            "lng": 121.349413
        },
        "ad_info": {
            "adcode": 210781,
            "province": "辽宁省",
            "city": "锦州市",
            "district": "凌海市"
        }
    },
    {
        "id": "6830341382187813233",
        "title": "公共厕所",
        "address": "辽宁省锦州市凌河区云飞大桥与云飞街交叉口东南方向97米左右",
        "tel": "",
        "category": "基础设施:公共设施:公共厕所",
        "type": 0,
        "location": {
            "lat": 41.104559,
            "lng": 121.147794
        },
        "ad_info": {
            "adcode": 210703,
            "province": "辽宁省",
            "city": "锦州市",
            "district": "凌河区"
        }
    },
    {
        "id": "7906678096518159703",
        "title": "公共厕所",
        "address": "辽宁省锦州市凌河区湖北路辽沈战役纪念馆(南侧)",
        "tel": "",
        "category": "基础设施:公共设施:公共厕所",
        "type": 0,
        "location": {
            "lat": 41.127546,
            "lng": 121.147429
        },
        "ad_info": {
            "adcode": 210703,
            "province": "辽宁省",
            "city": "锦州市",
            "district": "凌河区"
        }
    }
]