[
    {
        "id": "16840660908502753453",
        "title": "公共厕所",
        "address": "山西省长治市潞州区淮海街长治市公安局五马分局",
        "tel": "",
        "category": "基础设施:公共设施:公共厕所",
        "type": 0,
        "location": {
            "lat": 36.160916,
            "lng": 113.117923
        },
        "ad_info": {
            "adcode": 140403,
            "province": "山西省",
            "city": "长治市",
            "district": "潞州区"
        }
    },
    {
        "id": "2578539314650933521",
        "title": "公共厕所",
        "address": "山西省长治市潞州区太行东街与太行西街交叉口东北方向96米左右",
        "tel": "",
        "category": "基础设施:公共设施:公共厕所",
        "type": 0,
        "location": {
            "lat": 36.205531,
            "lng": 113.119329
        },
        "ad_info": {
            "adcode": 140403,
            "province": "山西省",
            "city": "长治市",
            "district": "潞州区"
        }
    },
    {
        "id": "13527155258929326532",
        "title": "公共厕所",
        "address": "山西省长治市潞州区东大街与长兴中路交叉口东北方向124米左右",
        "tel": "",
        "category": "基础设施:公共设施:公共厕所",
        "type": 0,
        "location": {
            "lat": 36.182233,
            "lng": 113.11563
        },
        "ad_info": {
            "adcode": 140403,
            "province": "山西省",
            "city": "长治市",
            "district": "潞州区"
        }
    },
    {
        "id": "11446596393094208468",
        "title": "公共厕所",
        "address": "山西省长治市襄垣县创业路与潞安大街交叉口正北方向163米左右",
        "tel": "",
        "category": "基础设施:公共设施:公共厕所",
        "type": 0,
        "location": {
            "lat": 36.443503,
            "lng": 112.976704
        },
        "ad_info": {
            "adcode": 140423,
            "province": "山西省",
            "city": "长治市",
            "district": "襄垣县"
        }
    },
    {
        "id": "15868378067558224526",
        "title": "公共厕所",
        "address": "山西省长治市襄垣县府前路与开元东街交叉口东南方向138米左右",
        "tel": "",
        "category": "基础设施:公共设施:公共厕所",
        "type": 0,
        "location": {
            "lat": 36.520172,
            "lng": 113.049693
        },
        "ad_info": {
            "adcode": 140423,
            "province": "山西省",
            "city": "长治市",
            "district": "襄垣县"
        }
    },
    {
        "id": "8253515142653236294",
        "title": "公共厕所",
        "address": "山西省长治市潞州区威远门北路与010乡道交叉口东50米",
        "tel": "",
        "category": "基础设施:公共设施:公共厕所",
        "type": 0,
        "location": {
            "lat": 36.226008,
            "lng": 113.114332
        },
        "ad_info": {
            "adcode": 140403,
            "province": "山西省",
            "city": "长治市",
            "district": "潞州区"
        }
    },
    {
        "id": "1925813340863290300",
        "title": "公共厕所",
        "address": "山西省长治市潞州区Y004与大学路交叉口正北方向532米左右",
        "tel": "",
        "category": "基础设施:公共设施:公共厕所",
        "type": 0,
        "location": {
            "lat": 36.292868,
            "lng": 113.083381
        },
        "ad_info": {
            "adcode": 140403,
            "province": "山西省",
            "city": "长治市",
            "district": "潞州区"
        }
    },
    {
        "id": "15103973342371850819",
        "title": "公共厕所",
        "address": "山西省长治市潞州区太行南路与府后西街交叉口西北方向59米左右",
        "tel": "",
        "category": "基础设施:公共设施:公共厕所",
        "type": 0,
        "location": {
            "lat": 36.197709,
            "lng": 113.094692
        },
        "ad_info": {
            "adcode": 140403,
            "province": "山西省",
            "city": "长治市",
            "district": "潞州区"
        }
    },
    {
        "id": "2126602819368499427",
        "title": "公共厕所",
        "address": "山西省长治市潞州区体育路与政通街交叉口西南方向153米左右",
        "tel": "",
        "category": "基础设施:公共设施:公共厕所",
        "type": 0,
        "location": {
            "lat": 36.218691,
            "lng": 113.082834
        },
        "ad_info": {
            "adcode": 140403,
            "province": "山西省",
            "city": "长治市",
            "district": "潞州区"
        }
    },
    {
        "id": "14693630383995688030",
        "title": "公共厕所",
        "address": "山西省长治市潞州区潞阳门南路与解放东街交叉口西南方向330米左右",
        "tel": "",
        "category": "基础设施:公共设施:公共厕所",
        "type": 0,
        "location": {
            "lat": 36.169341,
            "lng": 113.118801
        },
        "ad_info": {
            "adcode": 140403,
            "province": "山西省",
            "city": "长治市",
            "district": "潞州区"
        }
    },
    {
        "id": "18016235209993747078",
        "title": "公共厕所",
        "address": "山西省长治市襄垣县府西街襄垣县人民政府",
        "tel": "",
        "category": "基础设施:公共设施:公共厕所",
        "type": 0,
        "location": {
            "lat": 36.535516,
            "lng": 113.050659
        },
        "ad_info": {
            "adcode": 140423,
            "province": "山西省",
            "city": "长治市",
            "district": "襄垣县"
        }
    },
    {
        "id": "12886197393678233030",
        "title": "公共厕所",
        "address": "山西省长治市潞州区下梅辉坡与莲花巷交叉口正北方向26米左右",
        "tel": "",
        "category": "基础设施:公共设施:公共厕所",
        "type": 0,
        "location": {
            "lat": 36.184218,
            "lng": 113.107832
        },
        "ad_info": {
            "adcode": 140403,
            "province": "山西省",
            "city": "长治市",
            "district": "潞州区"
        }
    },
    {
        "id": "6343867650148027742",
        "title": "公共厕所",
        "address": "山西省长治市潞州区飞龙社区卫生服务站西侧",
        "tel": "",
        "category": "基础设施:公共设施:公共厕所",
        "type": 0,
        "location": {
            "lat": 36.209543,
            "lng": 113.11461
        },
        "ad_info": {
            "adcode": 140403,
            "province": "山西省",
            "city": "长治市",
            "district": "潞州区"
        }
    },
    {
        "id": "7793375671043783338",
        "title": "公共厕所",
        "address": "山西省长治市潞州区东华门街与石头街交叉口东南方向48米左右",
        "tel": "",
        "category": "基础设施:公共设施:公共厕所",
        "type": 0,
        "location": {
            "lat": 36.179188,
            "lng": 113.109414
        },
        "ad_info": {
            "adcode": 140403,
            "province": "山西省",
            "city": "长治市",
            "district": "潞州区"
        }
    },
    {
        "id": "17506434675049222221",
        "title": "公共厕所",
        "address": "山西省长治市潞州区太行西街与锻压西巷交叉口东北方向181米左右",
        "tel": "",
        "category": "基础设施:公共设施:公共厕所",
        "type": 0,
        "location": {
            "lat": 36.210547,
            "lng": 113.10067
        },
        "ad_info": {
            "adcode": 140403,
            "province": "山西省",
            "city": "长治市",
            "district": "潞州区"
        }
    },
    {
        "id": "8240166202549195416",
        "title": "公共厕所",
        "address": "山西省长治市平顺县兴华东街与甘泉巷交叉口东南方向87米左右",
        "tel": "",
        "category": "基础设施:公共设施:公共厕所",
        "type": 0,
        "location": {
            "lat": 36.199074,
            "lng": 113.439405
        },
        "ad_info": {
            "adcode": 140425,
            "province": "山西省",
            "city": "长治市",
            "district": "平顺县"
        }
    },
    {
        "id": "1435627376917372787",
        "title": "公共厕所",
        "address": "山西省长治市潞州区商校巷万博装饰广场",
        "tel": "",
        "category": "基础设施:公共设施:公共厕所",
        "type": 0,
        "location": {
            "lat": 36.180789,
            "lng": 113.129208
        },
        "ad_info": {
            "adcode": 140403,
            "province": "山西省",
            "city": "长治市",
            "district": "潞州区"
        }
    },
    {
        "id": "2853775441631921903",
        "title": "公共厕所",
        "address": "山西省长治市潞州区太行西街427号",
        "tel": "",
        "category": "基础设施:公共设施:公共厕所",
        "type": 0,
        "location": {
            "lat": 36.215624,
            "lng": 113.07709
        },
        "ad_info": {
            "adcode": 140403,
            "province": "山西省",
            "city": "长治市",
            "district": "潞州区"
        }
    },
    {
        "id": "11387241840933616576",
        "title": "公共厕所",
        "address": "山西省长治市潞州区角沿街玛钢小区",
        "tel": "",
        "category": "基础设施:公共设施:公共厕所",
        "type": 0,
        "location": {
            "lat": 36.197539,
            "lng": 113.104916
        },
        "ad_info": {
            "adcode": 140403,
            "province": "山西省",
            "city": "长治市",
            "district": "潞州区"
        }
    },
    {
        "id": "11623514265960542521",
        "title": "公共厕所",
        "address": "山西省长治市潞州区威远门北路辅路与010乡道交叉口西北220米",
        "tel": "",
        "category": "基础设施:公共设施:公共厕所",
        "type": 0,
        "location": {
            "lat": 36.22805,
            "lng": 113.112891
        },
        "ad_info": {
            "adcode": 140403,
            "province": "山西省",
            "city": "长治市",
            "district": "潞州区"
        }
    },
    {
        "id": "5453924151163243443",
        "title": "公共厕所",
        "address": "山西省长治市壶关县S302与S327交叉口正北方向1011米左右",
        "tel": "",
        "category": "基础设施:公共设施:公共厕所",
        "type": 0,
        "location": {
            "lat": 35.920817,
            "lng": 113.578971
        },
        "ad_info": {
            "adcode": 140427,
            "province": "山西省",
            "city": "长治市",
            "district": "壶关县"
        }
    },
    {
        "id": "8715888108318970561",
        "title": "公共厕所",
        "address": "山西省长治市壶关县西城路126号",
        "tel": "",
        "category": "基础设施:公共设施:公共厕所",
        "type": 0,
        "location": {
            "lat": 36.112684,
            "lng": 113.203542
        },
        "ad_info": {
            "adcode": 140427,
            "province": "山西省",
            "city": "长治市",
            "district": "壶关县"
        }
    },
    {
        "id": "12043313748644226958",
        "title": "公共厕所",
        "address": "山西省长治市襄垣县Y015与兴阳路交叉口东北方向265米左右",
        "tel": "",
        "category": "基础设施:公共设施:公共厕所",
        "type": 0,
        "location": {
            "lat": 36.507034,
            "lng": 113.075503
        },
        "ad_info": {
            "adcode": 140423,
            "province": "山西省",
            "city": "长治市",
            "district": "襄垣县"
        }
    },
    {
        "id": "9783094688788567788",
        "title": "公共厕所",
        "address": "山西省长治市潞州区分水岭巷与酱菜巷交叉口正西方向25米左右",
        "tel": "",
        "category": "基础设施:公共设施:公共厕所",
        "type": 0,
        "location": {
            "lat": 36.195912,
            "lng": 113.109809
        },
        "ad_info": {
            "adcode": 140403,
            "province": "山西省",
            "city": "长治市",
            "district": "潞州区"
        }
    },
    {
        "id": "18252220186558926920",
        "title": "公共厕所",
        "address": "山西省长治市潞州区安阳互通立交桥与青兰高速交叉口正西方向1467米左右",
        "tel": "",
        "category": "基础设施:公共设施:公共厕所",
        "type": 0,
        "location": {
            "lat": 36.342989,
            "lng": 113.086984
        },
        "ad_info": {
            "adcode": 140403,
            "province": "山西省",
            "city": "长治市",
            "district": "潞州区"
        }
    },
    {
        "id": "11778990839886542288",
        "title": "公共厕所",
        "address": "山西省长治市潞州区太行西街与飞龙巷交叉口正西方向172米左右",
        "tel": "",
        "category": "基础设施:公共设施:公共厕所",
        "type": 0,
        "location": {
            "lat": 36.205815,
            "lng": 113.113715
        },
        "ad_info": {
            "adcode": 140403,
            "province": "山西省",
            "city": "长治市",
            "district": "潞州区"
        }
    },
    {
        "id": "2284731365182865581",
        "title": "公共厕所",
        "address": "山西省长治市襄垣县学府路与新建西街交叉口正北方向84米左右",
        "tel": "",
        "category": "基础设施:公共设施:公共厕所",
        "type": 0,
        "location": {
            "lat": 36.531621,
            "lng": 113.033291
        },
        "ad_info": {
            "adcode": 140423,
            "province": "山西省",
            "city": "长治市",
            "district": "襄垣县"
        }
    },
    {
        "id": "1011504814025938389",
        "title": "公共厕所",
        "address": "山西省长治市潞州区丰恒路与惠诚街交叉口正东方向106米左右",
        "tel": "",
        "category": "基础设施:公共设施:公共厕所",
        "type": 0,
        "location": {
            "lat": 36.145578,
            "lng": 113.116209
        },
        "ad_info": {
            "adcode": 140403,
            "province": "山西省",
            "city": "长治市",
            "district": "潞州区"
        }
    },
    {
        "id": "17727765980323550296",
        "title": "洗手间",
        "address": "山西省长治市潞州区站前南路与站前路交叉口西北方向83米左右",
        "tel": "",
        "category": "基础设施:公共设施:公共厕所",
        "type": 0,
        "location": {
            "lat": 36.188501,
            "lng": 113.071004
        },
        "ad_info": {
            "adcode": 140403,
            "province": "山西省",
            "city": "长治市",
            "district": "潞州区"
        }
    },
    {
        "id": "1751517555031285774",
        "title": "公共厕所",
        "address": "山西省长治市襄垣县学府路与新建西街交叉口正南方向309米左右",
        "tel": "",
        "category": "基础设施:公共设施:公共厕所",
        "type": 0,
        "location": {
            "lat": 36.528072,
            "lng": 113.033325
        },
        "ad_info": {
            "adcode": 140423,
            "province": "山西省",
            "city": "长治市",
            "district": "襄垣县"
        }
    },
    {
        "id": "15562608868714315316",
        "title": "公共厕所",
        "address": "山西省长治市潞州区太行西街与锻压西巷交叉口东北方向189米左右",
        "tel": "",
        "category": "基础设施:公共设施:公共厕所",
        "type": 0,
        "location": {
            "lat": 36.211275,
            "lng": 113.099892
        },
        "ad_info": {
            "adcode": 140403,
            "province": "山西省",
            "city": "长治市",
            "district": "潞州区"
        }
    },
    {
        "id": "7727885948374731807",
        "title": "公共厕所",
        "address": "山西省长治市潞州区五针街与开元一巷交叉口正南方向305米左右",
        "tel": "",
        "category": "基础设施:公共设施:公共厕所",
        "type": 0,
        "location": {
            "lat": 36.160681,
            "lng": 113.100139
        },
        "ad_info": {
            "adcode": 140403,
            "province": "山西省",
            "city": "长治市",
            "district": "潞州区"
        }
    },
    {
        "id": "16736764462154455070",
        "title": "公共厕所",
        "address": "山西省长治市潞州区五针街辅路与小庄巷交叉口西南方向328米左右",
        "tel": "",
        "category": "基础设施:公共设施:公共厕所",
        "type": 0,
        "location": {
            "lat": 36.160439,
            "lng": 113.100212
        },
        "ad_info": {
            "adcode": 140403,
            "province": "山西省",
            "city": "长治市",
            "district": "潞州区"
        }
    },
    {
        "id": "5999558294184745266",
        "title": "公共厕所",
        "address": "山西省长治市潞州区世纪家园小区13号楼西北(西沟路西)",
        "tel": "",
        "category": "基础设施:公共设施:公共厕所",
        "type": 0,
        "location": {
            "lat": 36.368959,
            "lng": 113.05043
        },
        "ad_info": {
            "adcode": 140403,
            "province": "山西省",
            "city": "长治市",
            "district": "潞州区"
        }
    },
    {
        "id": "12319756857283245651",
        "title": "公共厕所",
        "address": "山西省长治市壶关县长平线中国石化长井加油站",
        "tel": "",
        "category": "基础设施:公共设施:公共厕所",
        "type": 0,
        "location": {
            "lat": 36.160892,
            "lng": 113.198821
        },
        "ad_info": {
            "adcode": 140427,
            "province": "山西省",
            "city": "长治市",
            "district": "壶关县"
        }
    },
    {
        "id": "11744047597734102239",
        "title": "公共厕所",
        "address": "山西省长治市潞州区淮海街与淮西二路交叉口正西方向160米左右",
        "tel": "",
        "category": "基础设施:公共设施:公共厕所",
        "type": 0,
        "location": {
            "lat": 36.160859,
            "lng": 113.11644
        },
        "ad_info": {
            "adcode": 140403,
            "province": "山西省",
            "city": "长治市",
            "district": "潞州区"
        }
    },
    {
        "id": "11788148297488775853",
        "title": "公共厕所",
        "address": "山西省长治市沁源县北园街与官渠巷交叉口正西方向120米左右",
        "tel": "",
        "category": "基础设施:公共设施:公共厕所",
        "type": 0,
        "location": {
            "lat": 36.511995,
            "lng": 112.342
        },
        "ad_info": {
            "adcode": 140431,
            "province": "山西省",
            "city": "长治市",
            "district": "沁源县"
        }
    },
    {
        "id": "2223997524390550982",
        "title": "公共厕所",
        "address": "山西省长治市潞州区西环路与跃进寺巷交叉口东北方向82米左右",
        "tel": "",
        "category": "基础设施:公共设施:公共厕所",
        "type": 0,
        "location": {
            "lat": 36.193214,
            "lng": 113.086432
        },
        "ad_info": {
            "adcode": 140403,
            "province": "山西省",
            "city": "长治市",
            "district": "潞州区"
        }
    },
    {
        "id": "1705057623158288895",
        "title": "公共厕所",
        "address": "山西省长治市潞州区太行东街长治医学院附属和济医院",
        "tel": "",
        "category": "基础设施:公共设施:公共厕所",
        "type": 0,
        "location": {
            "lat": 36.20078,
            "lng": 113.13786
        },
        "ad_info": {
            "adcode": 140403,
            "province": "山西省",
            "city": "长治市",
            "district": "潞州区"
        }
    },
    {
        "id": "10167446530473484113",
        "title": "公共厕所",
        "address": "山西省长治市潞州区德化门东街与潞阳门南路交叉口正东方向696米左右",
        "tel": "",
        "category": "基础设施:公共设施:公共厕所",
        "type": 0,
        "location": {
            "lat": 36.1669,
            "lng": 113.129626
        },
        "ad_info": {
            "adcode": 140403,
            "province": "山西省",
            "city": "长治市",
            "district": "潞州区"
        }
    },
    {
        "id": "15012658220718043160",
        "title": "公共厕所",
        "address": "山西省长治市襄垣县向阳西路与潞安大街交叉口正东方向84米左右",
        "tel": "",
        "category": "基础设施:公共设施:公共厕所",
        "type": 0,
        "location": {
            "lat": 36.442318,
            "lng": 112.985109
        },
        "ad_info": {
            "adcode": 140423,
            "province": "山西省",
            "city": "长治市",
            "district": "襄垣县"
        }
    },
    {
        "id": "14267226852467327720",
        "title": "公共厕所",
        "address": "山西省长治市潞州区东环路辅路与太行东街交叉口正南方向359米左右",
        "tel": "",
        "category": "基础设施:公共设施:公共厕所",
        "type": 0,
        "location": {
            "lat": 36.194449,
            "lng": 113.147375
        },
        "ad_info": {
            "adcode": 140403,
            "province": "山西省",
            "city": "长治市",
            "district": "潞州区"
        }
    },
    {
        "id": "254028604483423138",
        "title": "公共厕所",
        "address": "山西省长治市襄垣县府东街与金穗路交叉口西北方向55米左右",
        "tel": "",
        "category": "基础设施:公共设施:公共厕所",
        "type": 0,
        "location": {
            "lat": 36.53479,
            "lng": 113.054719
        },
        "ad_info": {
            "adcode": 140423,
            "province": "山西省",
            "city": "长治市",
            "district": "襄垣县"
        }
    },
    {
        "id": "10407077749469732709",
        "title": "公共厕所",
        "address": "山西省长治市沁源县官渠巷与桥西街交叉口东北方向89米左右",
        "tel": "",
        "category": "基础设施:公共设施:公共厕所",
        "type": 0,
        "location": {
            "lat": 36.500225,
            "lng": 112.342602
        },
        "ad_info": {
            "adcode": 140431,
            "province": "山西省",
            "city": "长治市",
            "district": "沁源县"
        }
    },
    {
        "id": "17101260611913363869",
        "title": "公共厕所",
        "address": "山西省长治市壶关县新建路106号",
        "tel": "",
        "category": "基础设施:公共设施:公共厕所",
        "type": 0,
        "location": {
            "lat": 36.116178,
            "lng": 113.209918
        },
        "ad_info": {
            "adcode": 140427,
            "province": "山西省",
            "city": "长治市",
            "district": "壶关县"
        }
    },
    {
        "id": "6298372801627344935",
        "title": "公共厕所",
        "address": "山西省长治市潞州区校北路与英雄南路交叉口东北方向106米左右",
        "tel": "",
        "category": "基础设施:公共设施:公共厕所",
        "type": 0,
        "location": {
            "lat": 36.166506,
            "lng": 113.10471
        },
        "ad_info": {
            "adcode": 140403,
            "province": "山西省",
            "city": "长治市",
            "district": "潞州区"
        }
    },
    {
        "id": "501529759178393378",
        "title": "公共厕所",
        "address": "山西省长治市潞州区市场路与广场街交叉口西南方向81米左右",
        "tel": "",
        "category": "基础设施:公共设施:公共厕所",
        "type": 0,
        "location": {
            "lat": 36.35883,
            "lng": 113.047954
        },
        "ad_info": {
            "adcode": 140403,
            "province": "山西省",
            "city": "长治市",
            "district": "潞州区"
        }
    },
    {
        "id": "15373028668298231257",
        "title": "公共厕所",
        "address": "山西省长治市潞州区中营街与英雄中路交叉口西南方向100米左右",
        "tel": "",
        "category": "基础设施:公共设施:公共厕所",
        "type": 0,
        "location": {
            "lat": 36.192454,
            "lng": 113.113954
        },
        "ad_info": {
            "adcode": 140403,
            "province": "山西省",
            "city": "长治市",
            "district": "潞州区"
        }
    },
    {
        "id": "4590033076599745963",
        "title": "公共厕所",
        "address": "山西省长治市平顺县兴华西街17号",
        "tel": "",
        "category": "基础设施:公共设施:公共厕所",
        "type": 0,
        "location": {
            "lat": 36.198452,
            "lng": 113.436306
        },
        "ad_info": {
            "adcode": 140425,
            "province": "山西省",
            "city": "长治市",
            "district": "平顺县"
        }
    },
    {
        "id": "10425645192677878518",
        "title": "公共厕所",
        "address": "山西省长治市襄垣县创业路与潞安大街交叉口正北方向316米左右",
        "tel": "",
        "category": "基础设施:公共设施:公共厕所",
        "type": 0,
        "location": {
            "lat": 36.444964,
            "lng": 112.976232
        },
        "ad_info": {
            "adcode": 140423,
            "province": "山西省",
            "city": "长治市",
            "district": "襄垣县"
        }
    },
    {
        "id": "12820651425172204143",
        "title": "公共厕所",
        "address": "山西省长治市潞州区分水岭巷与英雄中路交叉口西北方向29米左右",
        "tel": "",
        "category": "基础设施:公共设施:公共厕所",
        "type": 0,
        "location": {
            "lat": 36.19397,
            "lng": 113.11501
        },
        "ad_info": {
            "adcode": 140403,
            "province": "山西省",
            "city": "长治市",
            "district": "潞州区"
        }
    },
    {
        "id": "13876416173414112434",
        "title": "公共厕所",
        "address": "山西省长治市长子县东大街辅路与商贸街交叉口西南方向80米左右",
        "tel": "",
        "category": "基础设施:公共设施:公共厕所",
        "type": 0,
        "location": {
            "lat": 36.11828,
            "lng": 112.884177
        },
        "ad_info": {
            "adcode": 140428,
            "province": "山西省",
            "city": "长治市",
            "district": "长子县"
        }
    },
    {
        "id": "11634722065297645631",
        "title": "公共厕所",
        "address": "山西省长治市潞州区华丰北路长轴南苑",
        "tel": "",
        "category": "基础设施:公共设施:公共厕所",
        "type": 0,
        "location": {
            "lat": 36.188973,
            "lng": 113.094735
        },
        "ad_info": {
            "adcode": 140403,
            "province": "山西省",
            "city": "长治市",
            "district": "潞州区"
        }
    },
    {
        "id": "13211540169680664731",
        "title": "公共厕所",
        "address": "山西省长治市潞州区太行西街防爆集团广场西小区",
        "tel": "",
        "category": "基础设施:公共设施:公共厕所",
        "type": 0,
        "location": {
            "lat": 36.206753,
            "lng": 113.11409
        },
        "ad_info": {
            "adcode": 140403,
            "province": "山西省",
            "city": "长治市",
            "district": "潞州区"
        }
    },
    {
        "id": "116146304583888393",
        "title": "公共厕所",
        "address": "山西省长治市屯留区建设北路与获壁街交叉口东南方向184米左右",
        "tel": "",
        "category": "基础设施:公共设施:公共厕所",
        "type": 0,
        "location": {
            "lat": 36.312544,
            "lng": 112.891061
        },
        "ad_info": {
            "adcode": 140405,
            "province": "山西省",
            "city": "长治市",
            "district": "屯留区"
        }
    },
    {
        "id": "2476309057792128821",
        "title": "公共厕所",
        "address": "山西省长治市潞州区华东五巷与延安南路交叉口东南方向90米左右",
        "tel": "",
        "category": "基础设施:公共设施:公共厕所",
        "type": 0,
        "location": {
            "lat": 36.1648,
            "lng": 113.111656
        },
        "ad_info": {
            "adcode": 140403,
            "province": "山西省",
            "city": "长治市",
            "district": "潞州区"
        }
    },
    {
        "id": "12513904788056204687",
        "title": "公共厕所",
        "address": "山西省长治市黎城县Y015与乌海线交叉口西北方向38米左右",
        "tel": "",
        "category": "基础设施:公共设施:公共厕所",
        "type": 0,
        "location": {
            "lat": 36.684131,
            "lng": 113.398928
        },
        "ad_info": {
            "adcode": 140426,
            "province": "山西省",
            "city": "长治市",
            "district": "黎城县"
        }
    },
    {
        "id": "11091341832908942888",
        "title": "公共厕所",
        "address": "山西省长治市沁源县商业街与胜利路交叉口正南方向97米左右",
        "tel": "",
        "category": "基础设施:公共设施:公共厕所",
        "type": 0,
        "location": {
            "lat": 36.497753,
            "lng": 112.339055
        },
        "ad_info": {
            "adcode": 140431,
            "province": "山西省",
            "city": "长治市",
            "district": "沁源县"
        }
    },
    {
        "id": "13659008187449464117",
        "title": "公共厕所",
        "address": "山西省长治市屯留区翠屏北路与获壁街交叉口正东方向29米左右",
        "tel": "",
        "category": "基础设施:公共设施:公共厕所",
        "type": 0,
        "location": {
            "lat": 36.313088,
            "lng": 112.893835
        },
        "ad_info": {
            "adcode": 140405,
            "province": "山西省",
            "city": "长治市",
            "district": "屯留区"
        }
    },
    {
        "id": "10477901806275179840",
        "title": "公共卫生间",
        "address": "山西省长治市襄垣县建设北路与建设南路交叉口西北方向30米左右",
        "tel": "",
        "category": "基础设施:公共设施:公共厕所",
        "type": 0,
        "location": {
            "lat": 36.534133,
            "lng": 113.047241
        },
        "ad_info": {
            "adcode": 140423,
            "province": "山西省",
            "city": "长治市",
            "district": "襄垣县"
        }
    },
    {
        "id": "4291473044316126244",
        "title": "公共厕所",
        "address": "山西省长治市沁源县人民路与沁康街交叉口正西方向181米左右",
        "tel": "",
        "category": "基础设施:公共设施:公共厕所",
        "type": 0,
        "location": {
            "lat": 36.504833,
            "lng": 112.342314
        },
        "ad_info": {
            "adcode": 140431,
            "province": "山西省",
            "city": "长治市",
            "district": "沁源县"
        }
    },
    {
        "id": "8498443799206868703",
        "title": "公共厕所",
        "address": "山西省长治市屯留区建设北路与建设南路交叉口正东方向32米左右",
        "tel": "",
        "category": "基础设施:公共设施:公共厕所",
        "type": 0,
        "location": {
            "lat": 36.311909,
            "lng": 112.889416
        },
        "ad_info": {
            "adcode": 140405,
            "province": "山西省",
            "city": "长治市",
            "district": "屯留区"
        }
    },
    {
        "id": "352149945830659472",
        "title": "公共厕所",
        "address": "山西省长治市长子县丹朱西街与庆丰巷交叉口东南方向98米左右",
        "tel": "",
        "category": "基础设施:公共设施:公共厕所",
        "type": 0,
        "location": {
            "lat": 36.11524,
            "lng": 112.87738
        },
        "ad_info": {
            "adcode": 140428,
            "province": "山西省",
            "city": "长治市",
            "district": "长子县"
        }
    },
    {
        "id": "11963000754655088076",
        "title": "公共厕所",
        "address": "山西省长治市平顺县崇岩街与文卫路交叉口正北方向41米左右",
        "tel": "",
        "category": "基础设施:公共设施:公共厕所",
        "type": 0,
        "location": {
            "lat": 36.190995,
            "lng": 113.447323
        },
        "ad_info": {
            "adcode": 140425,
            "province": "山西省",
            "city": "长治市",
            "district": "平顺县"
        }
    },
    {
        "id": "2380804252936787385",
        "title": "公共厕所",
        "address": "山西省长治市壶关县乌海线与长陵线交叉口正东方向156米左右",
        "tel": "",
        "category": "基础设施:公共设施:公共厕所",
        "type": 0,
        "location": {
            "lat": 35.89733,
            "lng": 113.222846
        },
        "ad_info": {
            "adcode": 140427,
            "province": "山西省",
            "city": "长治市",
            "district": "壶关县"
        }
    },
    {
        "id": "9687001199986433943",
        "title": "公共卫生间",
        "address": "山西省长治市黎城县城东路与广邯街交叉口西北方向79米左右",
        "tel": "",
        "category": "基础设施:公共设施:公共厕所",
        "type": 0,
        "location": {
            "lat": 36.511445,
            "lng": 113.395871
        },
        "ad_info": {
            "adcode": 140426,
            "province": "山西省",
            "city": "长治市",
            "district": "黎城县"
        }
    },
    {
        "id": "15033109612286195826",
        "title": "公共厕所",
        "address": "山西省长治市黎城县城东路与广邯街交叉口正北方向55米左右",
        "tel": "",
        "category": "基础设施:公共设施:公共厕所",
        "type": 0,
        "location": {
            "lat": 36.511489,
            "lng": 113.396389
        },
        "ad_info": {
            "adcode": 140426,
            "province": "山西省",
            "city": "长治市",
            "district": "黎城县"
        }
    },
    {
        "id": "17381298943504114677",
        "title": "公共厕所",
        "address": "山西省长治市屯留区麟绛西大街屯留区人民医院",
        "tel": "",
        "category": "基础设施:公共设施:公共厕所",
        "type": 0,
        "location": {
            "lat": 36.317376,
            "lng": 112.882079
        },
        "ad_info": {
            "adcode": 140405,
            "province": "山西省",
            "city": "长治市",
            "district": "屯留区"
        }
    },
    {
        "id": "618582809864431594",
        "title": "公共厕所",
        "address": "山西省长治市平顺县S324与辛安桥交叉口东北方向1141米左右",
        "tel": "",
        "category": "基础设施:公共设施:公共厕所",
        "type": 0,
        "location": {
            "lat": 36.358674,
            "lng": 113.444814
        },
        "ad_info": {
            "adcode": 140425,
            "province": "山西省",
            "city": "长治市",
            "district": "平顺县"
        }
    },
    {
        "id": "3180669263963908871",
        "title": "公共厕所",
        "address": "山西省长治市平顺县S324与常辛线交叉口西南方向47米左右",
        "tel": "",
        "category": "基础设施:公共设施:公共厕所",
        "type": 0,
        "location": {
            "lat": 36.352011,
            "lng": 113.434337
        },
        "ad_info": {
            "adcode": 140425,
            "province": "山西省",
            "city": "长治市",
            "district": "平顺县"
        }
    },
    {
        "id": "8456669328467761818",
        "title": "公共厕所",
        "address": "山西省长治市屯留区拯民路与获壁街交叉口正东方向41米左右",
        "tel": "",
        "category": "基础设施:公共设施:公共厕所",
        "type": 0,
        "location": {
            "lat": 36.312075,
            "lng": 112.899547
        },
        "ad_info": {
            "adcode": 140405,
            "province": "山西省",
            "city": "长治市",
            "district": "屯留区"
        }
    },
    {
        "id": "15387630810771969947",
        "title": "公共厕所",
        "address": "山西省长治市武乡县太行东街与红旗路交叉口东南方向91米左右",
        "tel": "",
        "category": "基础设施:公共设施:公共厕所",
        "type": 0,
        "location": {
            "lat": 36.832965,
            "lng": 112.864259
        },
        "ad_info": {
            "adcode": 140429,
            "province": "山西省",
            "city": "长治市",
            "district": "武乡县"
        }
    },
    {
        "id": "18278192162677247703",
        "title": "公共厕所",
        "address": "山西省长治市武乡县民丰巷与迎宾街交叉口西北方向33米左右",
        "tel": "",
        "category": "基础设施:公共设施:公共厕所",
        "type": 0,
        "location": {
            "lat": 36.83474,
            "lng": 112.869605
        },
        "ad_info": {
            "adcode": 140429,
            "province": "山西省",
            "city": "长治市",
            "district": "武乡县"
        }
    },
    {
        "id": "15908195292257570969",
        "title": "公共厕所",
        "address": "山西省长治市武乡县丰华巷与宝塔街交叉口正东方向125米左右",
        "tel": "",
        "category": "基础设施:公共设施:公共厕所",
        "type": 0,
        "location": {
            "lat": 36.837132,
            "lng": 112.863138
        },
        "ad_info": {
            "adcode": 140429,
            "province": "山西省",
            "city": "长治市",
            "district": "武乡县"
        }
    },
    {
        "id": "6002901157155133726",
        "title": "公共厕所",
        "address": "山西省长治市武乡县太行东街与红旗路交叉口东北方向143米左右",
        "tel": "",
        "category": "基础设施:公共设施:公共厕所",
        "type": 0,
        "location": {
            "lat": 36.834636,
            "lng": 112.864193
        },
        "ad_info": {
            "adcode": 140429,
            "province": "山西省",
            "city": "长治市",
            "district": "武乡县"
        }
    },
    {
        "id": "1762235648352536612",
        "title": "公共厕所",
        "address": "山西省长治市沁源县G241",
        "tel": "",
        "category": "基础设施:公共设施:公共厕所",
        "type": 0,
        "location": {
            "lat": 37.008671,
            "lng": 112.211991
        },
        "ad_info": {
            "adcode": 140431,
            "province": "山西省",
            "city": "长治市",
            "district": "沁源县"
        }
    },
    {
        "id": "14164286930263556945",
        "title": "公共厕所",
        "address": "山西省长治市沁县S220与东新桥交叉口西北方向127米左右",
        "tel": "",
        "category": "基础设施:公共设施:公共厕所",
        "type": 0,
        "location": {
            "lat": 36.651469,
            "lng": 112.747384
        },
        "ad_info": {
            "adcode": 140430,
            "province": "山西省",
            "city": "长治市",
            "district": "沁县"
        }
    },
    {
        "id": "4633090738559344062",
        "title": "公共厕所",
        "address": "山西省长治市沁县杏花街与牡丹路交叉口正北方向689米左右",
        "tel": "",
        "category": "基础设施:公共设施:公共厕所",
        "type": 0,
        "location": {
            "lat": 36.955698,
            "lng": 112.601519
        },
        "ad_info": {
            "adcode": 140430,
            "province": "山西省",
            "city": "长治市",
            "district": "沁县"
        }
    },
    {
        "id": "13486132659193855474",
        "title": "公共卫生间",
        "address": "山西省长治市上党区复兴街与大云路交叉口西北方向69米左右",
        "tel": "",
        "category": "基础设施:公共设施:公共厕所",
        "type": 0,
        "location": {
            "lat": 35.956492,
            "lng": 113.118377
        },
        "ad_info": {
            "adcode": 140404,
            "province": "山西省",
            "city": "长治市",
            "district": "上党区"
        }
    },
    {
        "id": "7812911990481753408",
        "title": "公共厕所",
        "address": "山西省长治市武乡县丰州路与学府东街交叉口东南方向101米左右",
        "tel": "",
        "category": "基础设施:公共设施:公共厕所",
        "type": 0,
        "location": {
            "lat": 36.830509,
            "lng": 112.863303
        },
        "ad_info": {
            "adcode": 140429,
            "province": "山西省",
            "city": "长治市",
            "district": "武乡县"
        }
    },
    {
        "id": "18013226314449469552",
        "title": "公共厕所",
        "address": "山西省长治市潞城区南华西街与站前路交叉口正南方向440米左右",
        "tel": "",
        "category": "基础设施:公共设施:公共厕所",
        "type": 0,
        "location": {
            "lat": 36.320823,
            "lng": 113.221694
        },
        "ad_info": {
            "adcode": 140406,
            "province": "山西省",
            "city": "长治市",
            "district": "潞城区"
        }
    },
    {
        "id": "13169944555297410352",
        "title": "公共厕所",
        "address": "山西省长治市长子县府前街与钟楼街交叉口正南方向132米左右",
        "tel": "",
        "category": "基础设施:公共设施:公共厕所",
        "type": 0,
        "location": {
            "lat": 36.118788,
            "lng": 112.877394
        },
        "ad_info": {
            "adcode": 140428,
            "province": "山西省",
            "city": "长治市",
            "district": "长子县"
        }
    },
    {
        "id": "13887013136303501960",
        "title": "公共厕所",
        "address": "山西省长治市武乡县鱼优味南侧",
        "tel": "",
        "category": "基础设施:公共设施:公共厕所",
        "type": 0,
        "location": {
            "lat": 36.83424,
            "lng": 112.884636
        },
        "ad_info": {
            "adcode": 140429,
            "province": "山西省",
            "city": "长治市",
            "district": "武乡县"
        }
    },
    {
        "id": "3876853908105405028",
        "title": "无障碍公共厕所",
        "address": "山西省长治市潞州区演武北巷与演武巷交叉口南100米",
        "tel": "",
        "category": "基础设施:公共设施:公共厕所",
        "type": 0,
        "location": {
            "lat": 36.17683,
            "lng": 113.110353
        },
        "ad_info": {
            "adcode": 140403,
            "province": "山西省",
            "city": "长治市",
            "district": "潞州区"
        }
    },
    {
        "id": "5243861781748013400",
        "title": "公共厕所",
        "address": "山西省长治市武乡县太行东街与太行街交叉口正南方向26米左右",
        "tel": "",
        "category": "基础设施:公共设施:公共厕所",
        "type": 0,
        "location": {
            "lat": 36.831837,
            "lng": 112.868912
        },
        "ad_info": {
            "adcode": 140429,
            "province": "山西省",
            "city": "长治市",
            "district": "武乡县"
        }
    },
    {
        "id": "13033705243494853413",
        "title": "公共厕所",
        "address": "山西省长治市上党区正大北路与正大南路交叉口正东方向207米左右",
        "tel": "",
        "category": "基础设施:公共设施:公共厕所",
        "type": 0,
        "location": {
            "lat": 36.05044,
            "lng": 113.068896
        },
        "ad_info": {
            "adcode": 140404,
            "province": "山西省",
            "city": "长治市",
            "district": "上党区"
        }
    },
    {
        "id": "6763525055840231501",
        "title": "公共厕所",
        "address": "山西省长治市长子县丹朱东街辅路与学园北一巷交叉口正南方向34米左右",
        "tel": "",
        "category": "基础设施:公共设施:公共厕所",
        "type": 0,
        "location": {
            "lat": 36.115135,
            "lng": 112.88788
        },
        "ad_info": {
            "adcode": 140428,
            "province": "山西省",
            "city": "长治市",
            "district": "长子县"
        }
    },
    {
        "id": "3911792040530978996",
        "title": "公共厕所",
        "address": "山西省长治市上党区东华北路与黎都东街交叉口西北方向52米左右",
        "tel": "",
        "category": "基础设施:公共设施:公共厕所",
        "type": 0,
        "location": {
            "lat": 36.055636,
            "lng": 113.061014
        },
        "ad_info": {
            "adcode": 140404,
            "province": "山西省",
            "city": "长治市",
            "district": "上党区"
        }
    },
    {
        "id": "2670181282369879244",
        "title": "公共厕所",
        "address": "山西省长治市长子县S326与长安线交叉口正西方向24米",
        "tel": "",
        "category": "基础设施:公共设施:公共厕所",
        "type": 0,
        "location": {
            "lat": 36.148778,
            "lng": 112.573219
        },
        "ad_info": {
            "adcode": 140428,
            "province": "山西省",
            "city": "长治市",
            "district": "长子县"
        }
    },
    {
        "id": "7759708455733823461",
        "title": "公共厕所",
        "address": "山西省长治市上党区Y004与光明路交叉口正西方向146米左右",
        "tel": "",
        "category": "基础设施:公共设施:公共厕所",
        "type": 0,
        "location": {
            "lat": 36.099208,
            "lng": 113.059289
        },
        "ad_info": {
            "adcode": 140404,
            "province": "山西省",
            "city": "长治市",
            "district": "上党区"
        }
    },
    {
        "id": "9807788468322882581",
        "title": "公共厕所",
        "address": "山西省长治市上党区X681与二淅线交叉口西南方向799米左右",
        "tel": "",
        "category": "基础设施:公共设施:公共厕所",
        "type": 0,
        "location": {
            "lat": 35.927128,
            "lng": 113.019472
        },
        "ad_info": {
            "adcode": 140404,
            "province": "山西省",
            "city": "长治市",
            "district": "上党区"
        }
    },
    {
        "id": "12117610691351219906",
        "title": "公共厕所",
        "address": "山西省长治市潞州区英雄南路246号",
        "tel": "",
        "category": "基础设施:公共设施:公共厕所",
        "type": 0,
        "location": {
            "lat": 36.170415,
            "lng": 113.105767
        },
        "ad_info": {
            "adcode": 140403,
            "province": "山西省",
            "city": "长治市",
            "district": "潞州区"
        }
    },
    {
        "id": "54626633864233874",
        "title": "公共厕所",
        "address": "山西省长治市武乡县学府东街与建安巷交叉口正南方向340米左右",
        "tel": "",
        "category": "基础设施:公共设施:公共厕所",
        "type": 0,
        "location": {
            "lat": 36.82654,
            "lng": 112.86636
        },
        "ad_info": {
            "adcode": 140429,
            "province": "山西省",
            "city": "长治市",
            "district": "武乡县"
        }
    },
    {
        "id": "15579994949536428140",
        "title": "公共厕所",
        "address": "山西省长治市潞州区英雄中路公交小区",
        "tel": "",
        "category": "基础设施:公共设施:公共厕所",
        "type": 0,
        "location": {
            "lat": 36.200311,
            "lng": 113.118613
        },
        "ad_info": {
            "adcode": 140403,
            "province": "山西省",
            "city": "长治市",
            "district": "潞州区"
        }
    },
    {
        "id": "13742567475769344429",
        "title": "公共厕所",
        "address": "山西省长治市潞城区凤桥街与微子路交叉口正东方向26米左右",
        "tel": "",
        "category": "基础设施:公共设施:公共厕所",
        "type": 0,
        "location": {
            "lat": 36.331119,
            "lng": 113.303737
        },
        "ad_info": {
            "adcode": 140406,
            "province": "山西省",
            "city": "长治市",
            "district": "潞城区"
        }
    },
    {
        "id": "12691936034229187964",
        "title": "公共厕所",
        "address": "山西省长治市潞城区南华西街辅路与商贸广场惠民苑小区交叉口正东方向208米左右",
        "tel": "",
        "category": "基础设施:公共设施:公共厕所",
        "type": 0,
        "location": {
            "lat": 36.326346,
            "lng": 113.216841
        },
        "ad_info": {
            "adcode": 140406,
            "province": "山西省",
            "city": "长治市",
            "district": "潞城区"
        }
    },
    {
        "id": "759872833013083549",
        "title": "公共厕所",
        "address": "山西省长治市潞城区G309与青兰线交叉口正东方向1219米左右",
        "tel": "",
        "category": "基础设施:公共设施:公共厕所",
        "type": 0,
        "location": {
            "lat": 36.346623,
            "lng": 113.170521
        },
        "ad_info": {
            "adcode": 140406,
            "province": "山西省",
            "city": "长治市",
            "district": "潞城区"
        }
    },
    {
        "id": "6027318265108425262",
        "title": "公共厕所",
        "address": "山西省长治市潞州区东大街与安康巷交叉口正东方向265米左右",
        "tel": "",
        "category": "基础设施:公共设施:公共厕所",
        "type": 0,
        "location": {
            "lat": 36.175889,
            "lng": 113.134617
        },
        "ad_info": {
            "adcode": 140403,
            "province": "山西省",
            "city": "长治市",
            "district": "潞州区"
        }
    },
    {
        "id": "6177115781248879484",
        "title": "公共厕所",
        "address": "山西省长治市潞城区合意街与府西南路交叉口西南方向62米左右",
        "tel": "",
        "category": "基础设施:公共设施:公共厕所",
        "type": 0,
        "location": {
            "lat": 36.328162,
            "lng": 113.22485
        },
        "ad_info": {
            "adcode": 140406,
            "province": "山西省",
            "city": "长治市",
            "district": "潞城区"
        }
    },
    {
        "id": "1130768141591992908",
        "title": "公共厕所",
        "address": "山西省长治市潞城区光辉大道与能源路交叉口正北方向479米左右",
        "tel": "",
        "category": "基础设施:公共设施:公共厕所",
        "type": 0,
        "location": {
            "lat": 36.451112,
            "lng": 113.110838
        },
        "ad_info": {
            "adcode": 140406,
            "province": "山西省",
            "city": "长治市",
            "district": "潞城区"
        }
    },
    {
        "id": "11198410890186287993",
        "title": "公共厕所",
        "address": "山西省长治市潞州区延东一巷与延安中路交叉口东南方向40米左右",
        "tel": "",
        "category": "基础设施:公共设施:公共厕所",
        "type": 0,
        "location": {
            "lat": 36.191061,
            "lng": 113.124013
        },
        "ad_info": {
            "adcode": 140403,
            "province": "山西省",
            "city": "长治市",
            "district": "潞州区"
        }
    },
    {
        "id": "14312920411497522514",
        "title": "公共厕所",
        "address": "山西省长治市潞城区",
        "tel": "",
        "category": "基础设施:公共设施:公共厕所",
        "type": 0,
        "location": {
            "lat": 36.306524,
            "lng": 113.367877
        },
        "ad_info": {
            "adcode": 140406,
            "province": "山西省",
            "city": "长治市",
            "district": "潞城区"
        }
    },
    {
        "id": "18205633296774247994",
        "title": "无障碍公共厕所",
        "address": "山西省长治市潞州区紫坊村校后街与西环路交叉口东北方向49米左右",
        "tel": "",
        "category": "基础设施:公共设施:公共厕所",
        "type": 0,
        "location": {
            "lat": 36.205924,
            "lng": 113.090624
        },
        "ad_info": {
            "adcode": 140403,
            "province": "山西省",
            "city": "长治市",
            "district": "潞州区"
        }
    },
    {
        "id": "12712335872407209385",
        "title": "八一广场公共厕所",
        "address": "山西省长治市潞州区广场东巷与英雄中路交叉口正东方向76米左右",
        "tel": "",
        "category": "基础设施:公共设施:公共厕所",
        "type": 0,
        "location": {
            "lat": 36.202602,
            "lng": 113.120793
        },
        "ad_info": {
            "adcode": 140403,
            "province": "山西省",
            "city": "长治市",
            "district": "潞州区"
        }
    },
    {
        "id": "1646843861898785875",
        "title": "旅游公共厕所",
        "address": "山西省长治市潞州区东环路辅路与规划路交叉口正东方向1680米左右",
        "tel": "",
        "category": "基础设施:公共设施:公共厕所",
        "type": 0,
        "location": {
            "lat": 36.142374,
            "lng": 113.148879
        },
        "ad_info": {
            "adcode": 140403,
            "province": "山西省",
            "city": "长治市",
            "district": "潞州区"
        }
    },
    {
        "id": "12505014028151910398",
        "title": "无障碍公共厕所",
        "address": "山西省长治市屯留区翠屏北路与获壁街交叉口西北方向69米左右",
        "tel": "",
        "category": "基础设施:公共设施:公共厕所",
        "type": 0,
        "location": {
            "lat": 36.313274,
            "lng": 112.892846
        },
        "ad_info": {
            "adcode": 140405,
            "province": "山西省",
            "city": "长治市",
            "district": "屯留区"
        }
    },
    {
        "id": "2782092641813384520",
        "title": "无障碍公共厕所",
        "address": "山西省长治市潞州区庙道巷与长兴中路交叉口正东方向98米左右",
        "tel": "",
        "category": "基础设施:公共设施:公共厕所",
        "type": 0,
        "location": {
            "lat": 36.183268,
            "lng": 113.115593
        },
        "ad_info": {
            "adcode": 140403,
            "province": "山西省",
            "city": "长治市",
            "district": "潞州区"
        }
    },
    {
        "id": "7992210533521087733",
        "title": "免费公共厕所",
        "address": "山西省长治市潞城区二桥北巷与学府东街交叉口东南方向71米左右",
        "tel": "",
        "category": "基础设施:公共设施:公共厕所",
        "type": 0,
        "location": {
            "lat": 36.334458,
            "lng": 113.236201
        },
        "ad_info": {
            "adcode": 140406,
            "province": "山西省",
            "city": "长治市",
            "district": "潞城区"
        }
    },
    {
        "id": "8518936413799536529",
        "title": "黎城服务区公共厕所",
        "address": "山西省长治市黎城县左黎高速",
        "tel": "",
        "category": "基础设施:公共设施:公共厕所",
        "type": 0,
        "location": {
            "lat": 36.585552,
            "lng": 113.441529
        },
        "ad_info": {
            "adcode": 140426,
            "province": "山西省",
            "city": "长治市",
            "district": "黎城县"
        }
    },
    {
        "id": "11720014074384911844",
        "title": "东阳关服务区公共厕所",
        "address": "山西省长治市黎城县阳关西街与青兰线交叉口西南方向840米左右",
        "tel": "",
        "category": "基础设施:公共设施:公共厕所",
        "type": 0,
        "location": {
            "lat": 36.534861,
            "lng": 113.470466
        },
        "ad_info": {
            "adcode": 140426,
            "province": "山西省",
            "city": "长治市",
            "district": "黎城县"
        }
    },
    {
        "id": "15452262688450815513",
        "title": "长治服务区-公共厕所",
        "address": "山西省长治市屯留区X694与屯东线交叉口西南方向738米左右",
        "tel": "",
        "category": "基础设施:公共设施:公共厕所",
        "type": 0,
        "location": {
            "lat": 36.262326,
            "lng": 112.992827
        },
        "ad_info": {
            "adcode": 140405,
            "province": "山西省",
            "city": "长治市",
            "district": "屯留区"
        }
    },
    {
        "id": "8662624353174463951",
        "title": "无障碍公共厕所",
        "address": "山西省长治市上党区东华南路东一巷与向阳街北二巷交叉口正北方向27米左右",
        "tel": "",
        "category": "基础设施:公共设施:公共厕所",
        "type": 0,
        "location": {
            "lat": 36.050686,
            "lng": 113.061809
        },
        "ad_info": {
            "adcode": 140404,
            "province": "山西省",
            "city": "长治市",
            "district": "上党区"
        }
    },
    {
        "id": "1545310058433577450",
        "title": "长治服务区第二公共厕所",
        "address": "山西省长治市屯留区X694与屯东线交叉口正西方向627米左右",
        "tel": "",
        "category": "基础设施:公共设施:公共厕所",
        "type": 0,
        "location": {
            "lat": 36.262858,
            "lng": 112.993896
        },
        "ad_info": {
            "adcode": 140405,
            "province": "山西省",
            "city": "长治市",
            "district": "屯留区"
        }
    },
    {
        "id": "8093869288016123687",
        "title": "武乡服务区公共厕所",
        "address": "山西省长治市武乡县武乡服务区与G55二广高速入口交叉口西北150米",
        "tel": "",
        "category": "基础设施:公共设施:公共厕所",
        "type": 0,
        "location": {
            "lat": 36.839036,
            "lng": 112.884167
        },
        "ad_info": {
            "adcode": 140429,
            "province": "山西省",
            "city": "长治市",
            "district": "武乡县"
        }
    },
    {
        "id": "12160597508123933835",
        "title": "武乡服务区第二公共厕所",
        "address": "山西省长治市武乡县G55二广高速出口与武乡服务区交叉口西南120米",
        "tel": "",
        "category": "基础设施:公共设施:公共厕所",
        "type": 0,
        "location": {
            "lat": 36.839838,
            "lng": 112.882286
        },
        "ad_info": {
            "adcode": 140429,
            "province": "山西省",
            "city": "长治市",
            "district": "武乡县"
        }
    },
    {
        "id": "3792173007944831535",
        "title": "公共厕所",
        "address": "山西省长治市潞州区长兴中路与长邯南路交叉口正东方向113米左右",
        "tel": "",
        "category": "基础设施:公共设施:公共厕所",
        "type": 0,
        "location": {
            "lat": 36.19941,
            "lng": 113.12498
        },
        "ad_info": {
            "adcode": 140403,
            "province": "山西省",
            "city": "长治市",
            "district": "潞州区"
        }
    },
    {
        "id": "3707051503994952507",
        "title": "无障碍公共厕所",
        "address": "山西省长治市潞州区威远门中路回化小区",
        "tel": "",
        "category": "基础设施:公共设施:公共厕所",
        "type": 0,
        "location": {
            "lat": 36.193956,
            "lng": 113.10111
        },
        "ad_info": {
            "adcode": 140403,
            "province": "山西省",
            "city": "长治市",
            "district": "潞州区"
        }
    },
    {
        "id": "12959395245275325816",
        "title": "公共厕所",
        "address": "山西省长治市襄垣县新建东街与花园路交叉口正南方向78米左右",
        "tel": "",
        "category": "基础设施:公共设施:公共厕所",
        "type": 0,
        "location": {
            "lat": 36.529783,
            "lng": 113.045361
        },
        "ad_info": {
            "adcode": 140423,
            "province": "山西省",
            "city": "长治市",
            "district": "襄垣县"
        }
    },
    {
        "id": "4297925006583302216",
        "title": "公共厕所",
        "address": "山西省长治市长子县永旺巷与鹿谷东街交叉口正西方向114米左右",
        "tel": "",
        "category": "基础设施:公共设施:公共厕所",
        "type": 0,
        "location": {
            "lat": 36.108404,
            "lng": 112.881954
        },
        "ad_info": {
            "adcode": 140428,
            "province": "山西省",
            "city": "长治市",
            "district": "长子县"
        }
    },
    {
        "id": "1308942530870951451",
        "title": "公共厕所",
        "address": "山西省长治市潞州区长治五中西北侧230米",
        "tel": "",
        "category": "基础设施:公共设施:公共厕所",
        "type": 0,
        "location": {
            "lat": 36.167916,
            "lng": 113.130627
        },
        "ad_info": {
            "adcode": 140403,
            "province": "山西省",
            "city": "长治市",
            "district": "潞州区"
        }
    },
    {
        "id": "1732076973102232709",
        "title": "公共厕所",
        "address": "山西省长治市上党区光明北路与学府街交叉口西北方向413米左右",
        "tel": "",
        "category": "基础设施:公共设施:公共厕所",
        "type": 0,
        "location": {
            "lat": 36.090907,
            "lng": 113.065537
        },
        "ad_info": {
            "adcode": 140404,
            "province": "山西省",
            "city": "长治市",
            "district": "上党区"
        }
    },
    {
        "id": "11560435761923693261",
        "title": "公共厕所",
        "address": "山西省长治市襄垣县环湖路与阳舒巷交叉口正西方向289米左右",
        "tel": "",
        "category": "基础设施:公共设施:公共厕所",
        "type": 0,
        "location": {
            "lat": 36.527069,
            "lng": 113.052153
        },
        "ad_info": {
            "adcode": 140423,
            "province": "山西省",
            "city": "长治市",
            "district": "襄垣县"
        }
    },
    {
        "id": "7470873057552881936",
        "title": "公共厕所",
        "address": "山西省长治市潞城区乌海线与青兰线交叉口正南方向1846米左右",
        "tel": "",
        "category": "基础设施:公共设施:公共厕所",
        "type": 0,
        "location": {
            "lat": 36.374509,
            "lng": 113.327155
        },
        "ad_info": {
            "adcode": 140406,
            "province": "山西省",
            "city": "长治市",
            "district": "潞城区"
        }
    },
    {
        "id": "8610334079865919309",
        "title": "公共厕所",
        "address": "山西省长治市上党区X680与英雄南路交叉口正北方向518米左右",
        "tel": "",
        "category": "基础设施:公共设施:公共厕所",
        "type": 0,
        "location": {
            "lat": 36.129822,
            "lng": 113.09425
        },
        "ad_info": {
            "adcode": 140404,
            "province": "山西省",
            "city": "长治市",
            "district": "上党区"
        }
    },
    {
        "id": "14705575770870630339",
        "title": "公共厕所",
        "address": "山西省长治市潞州区英雄中路15号",
        "tel": "",
        "category": "基础设施:公共设施:公共厕所",
        "type": 0,
        "location": {
            "lat": 36.201031,
            "lng": 113.11776
        },
        "ad_info": {
            "adcode": 140403,
            "province": "山西省",
            "city": "长治市",
            "district": "潞州区"
        }
    },
    {
        "id": "18010713706822274229",
        "title": "公共厕所",
        "address": "山西省长治市沁源县惠民小区南侧120米",
        "tel": "",
        "category": "基础设施:公共设施:公共厕所",
        "type": 0,
        "location": {
            "lat": 36.521542,
            "lng": 112.346354
        },
        "ad_info": {
            "adcode": 140431,
            "province": "山西省",
            "city": "长治市",
            "district": "沁源县"
        }
    },
    {
        "id": "7281082166258300476",
        "title": "公共厕所",
        "address": "山西省长治市沁源县沁河镇人民路实验小学",
        "tel": "",
        "category": "基础设施:公共设施:公共厕所",
        "type": 0,
        "location": {
            "lat": 36.507205,
            "lng": 112.345058
        },
        "ad_info": {
            "adcode": 140431,
            "province": "山西省",
            "city": "长治市",
            "district": "沁源县"
        }
    },
    {
        "id": "2260061028503442805",
        "title": "公共厕所",
        "address": "山西省长治市上党区Y004与英雄南路交叉口正南方向223米左右",
        "tel": "",
        "category": "基础设施:公共设施:公共厕所",
        "type": 0,
        "location": {
            "lat": 36.095058,
            "lng": 113.084255
        },
        "ad_info": {
            "adcode": 140404,
            "province": "山西省",
            "city": "长治市",
            "district": "上党区"
        }
    },
    {
        "id": "15080425463127117381",
        "title": "中医研究所附属医院-洗手间",
        "address": "山西省长治市潞州区紫坊巷2号",
        "tel": "",
        "category": "基础设施:公共设施:公共厕所",
        "type": 0,
        "location": {
            "lat": 36.173441,
            "lng": 113.104549
        },
        "ad_info": {
            "adcode": 140403,
            "province": "山西省",
            "city": "长治市",
            "district": "潞州区"
        }
    },
    {
        "id": "17194204710438422091",
        "title": "公共厕所",
        "address": "山西省长治市平顺县劳模东路与小东峪街交叉口东北方向58米左右",
        "tel": "",
        "category": "基础设施:公共设施:公共厕所",
        "type": 0,
        "location": {
            "lat": 36.204806,
            "lng": 113.444775
        },
        "ad_info": {
            "adcode": 140425,
            "province": "山西省",
            "city": "长治市",
            "district": "平顺县"
        }
    },
    {
        "id": "3390238408603386474",
        "title": "公共厕所",
        "address": "山西省长治市襄垣县府前路辅路与迎宾西街交叉口正西方向290米左右",
        "tel": "",
        "category": "基础设施:公共设施:公共厕所",
        "type": 0,
        "location": {
            "lat": 36.516747,
            "lng": 113.0441
        },
        "ad_info": {
            "adcode": 140423,
            "province": "山西省",
            "city": "长治市",
            "district": "襄垣县"
        }
    },
    {
        "id": "9538053070393798718",
        "title": "公共厕所",
        "address": "山西省长治市武乡县东长线与二淅线交叉口正南方向1100米左右",
        "tel": "",
        "category": "基础设施:公共设施:公共厕所",
        "type": 0,
        "location": {
            "lat": 37.121593,
            "lng": 112.517292
        },
        "ad_info": {
            "adcode": 140429,
            "province": "山西省",
            "city": "长治市",
            "district": "武乡县"
        }
    },
    {
        "id": "8180064043453172583",
        "title": "公共厕所",
        "address": "山西省长治市潞州区Y010与东环路辅路交叉口东北方向391米左右",
        "tel": "",
        "category": "基础设施:公共设施:公共厕所",
        "type": 0,
        "location": {
            "lat": 36.228232,
            "lng": 113.159178
        },
        "ad_info": {
            "adcode": 140403,
            "province": "山西省",
            "city": "长治市",
            "district": "潞州区"
        }
    },
    {
        "id": "11881277511430604892",
        "title": "公共洗手间",
        "address": "山西省长治市潞州区漳村煤矿展览馆东侧60米",
        "tel": "",
        "category": "基础设施:公共设施:公共厕所",
        "type": 0,
        "location": {
            "lat": 36.434356,
            "lng": 113.063411
        },
        "ad_info": {
            "adcode": 140403,
            "province": "山西省",
            "city": "长治市",
            "district": "潞州区"
        }
    },
    {
        "id": "11149258092852187441",
        "title": "公共厕所",
        "address": "山西省长治市潞州区太行西街与锻压西巷交叉口东北方向140米左右",
        "tel": "",
        "category": "基础设施:公共设施:公共厕所",
        "type": 0,
        "location": {
            "lat": 36.210751,
            "lng": 113.099874
        },
        "ad_info": {
            "adcode": 140403,
            "province": "山西省",
            "city": "长治市",
            "district": "潞州区"
        }
    },
    {
        "id": "10448603498577219741",
        "title": "公共厕所",
        "address": "山西省长治市上党区光明北路长治县体育训练馆",
        "tel": "",
        "category": "基础设施:公共设施:公共厕所",
        "type": 0,
        "location": {
            "lat": 36.060752,
            "lng": 113.061453
        },
        "ad_info": {
            "adcode": 140404,
            "province": "山西省",
            "city": "长治市",
            "district": "上党区"
        }
    },
    {
        "id": "14808053419325641411",
        "title": "公共厕所",
        "address": "山西省长治市武乡县S322与槐安街交叉口正东方向237米左右",
        "tel": "",
        "category": "基础设施:公共设施:公共厕所",
        "type": 0,
        "location": {
            "lat": 36.866198,
            "lng": 113.228777
        },
        "ad_info": {
            "adcode": 140429,
            "province": "山西省",
            "city": "长治市",
            "district": "武乡县"
        }
    },
    {
        "id": "14041900005261225040",
        "title": "公共卫生间",
        "address": "山西省长治市潞州区新营街4号",
        "tel": "",
        "category": "基础设施:公共设施:公共厕所",
        "type": 0,
        "location": {
            "lat": 36.193403,
            "lng": 113.115735
        },
        "ad_info": {
            "adcode": 140403,
            "province": "山西省",
            "city": "长治市",
            "district": "潞州区"
        }
    },
    {
        "id": "15753597328934265582",
        "title": "公共厕所",
        "address": "山西省长治市壶关县乌海线与西城路交叉口正南方向175米左右",
        "tel": "",
        "category": "基础设施:公共设施:公共厕所",
        "type": 0,
        "location": {
            "lat": 36.1342,
            "lng": 113.207652
        },
        "ad_info": {
            "adcode": 140427,
            "province": "山西省",
            "city": "长治市",
            "district": "壶关县"
        }
    },
    {
        "id": "4013101738534358172",
        "title": "公共厕所",
        "address": "山西省长治市黎城县东环路与青兰线交叉口东北方向299米左右",
        "tel": "",
        "category": "基础设施:公共设施:公共厕所",
        "type": 0,
        "location": {
            "lat": 36.476105,
            "lng": 113.375161
        },
        "ad_info": {
            "adcode": 140426,
            "province": "山西省",
            "city": "长治市",
            "district": "黎城县"
        }
    },
    {
        "id": "956544102996399823",
        "title": "公共厕所",
        "address": "山西省长治市襄垣县Y007与二淅线交叉口东南方向410米左右",
        "tel": "",
        "category": "基础设施:公共设施:公共厕所",
        "type": 0,
        "location": {
            "lat": 36.539345,
            "lng": 112.852572
        },
        "ad_info": {
            "adcode": 140423,
            "province": "山西省",
            "city": "长治市",
            "district": "襄垣县"
        }
    },
    {
        "id": "9523562320550993662",
        "title": "公共厕所",
        "address": "山西省长治市武乡县泰安巷武乡县人民医院",
        "tel": "",
        "category": "基础设施:公共设施:公共厕所",
        "type": 0,
        "location": {
            "lat": 36.836008,
            "lng": 112.867534
        },
        "ad_info": {
            "adcode": 140429,
            "province": "山西省",
            "city": "长治市",
            "district": "武乡县"
        }
    },
    {
        "id": "7026554946543793882",
        "title": "公共厕所",
        "address": "山西省长治市襄垣县向阳西路与潞安大街交叉口正西方向335米左右",
        "tel": "",
        "category": "基础设施:公共设施:公共厕所",
        "type": 0,
        "location": {
            "lat": 36.440977,
            "lng": 112.980728
        },
        "ad_info": {
            "adcode": 140423,
            "province": "山西省",
            "city": "长治市",
            "district": "襄垣县"
        }
    },
    {
        "id": "10096671476939565465",
        "title": "公共厕所",
        "address": "山西省长治市壶关县X676与北大街交叉口正北方向234米左右",
        "tel": "",
        "category": "基础设施:公共设施:公共厕所",
        "type": 0,
        "location": {
            "lat": 36.121493,
            "lng": 113.207408
        },
        "ad_info": {
            "adcode": 140427,
            "province": "山西省",
            "city": "长治市",
            "district": "壶关县"
        }
    },
    {
        "id": "12954345940647561344",
        "title": "公共厕所",
        "address": "山西省长治市襄垣县环湖路与阳舒东巷交叉口东南方向709米左右",
        "tel": "",
        "category": "基础设施:公共设施:公共厕所",
        "type": 0,
        "location": {
            "lat": 36.522651,
            "lng": 113.062269
        },
        "ad_info": {
            "adcode": 140423,
            "province": "山西省",
            "city": "长治市",
            "district": "襄垣县"
        }
    },
    {
        "id": "2059822625495902260",
        "title": "公共厕所",
        "address": "山西省长治市平顺县长治纵横野战户外拓展基地西北侧50米",
        "tel": "",
        "category": "基础设施:公共设施:公共厕所",
        "type": 0,
        "location": {
            "lat": 36.338671,
            "lng": 113.517367
        },
        "ad_info": {
            "adcode": 140425,
            "province": "山西省",
            "city": "长治市",
            "district": "平顺县"
        }
    },
    {
        "id": "14259168764659127327",
        "title": "公共厕所",
        "address": "山西省长治市沁县明德小学西侧180米",
        "tel": "",
        "category": "基础设施:公共设施:公共厕所",
        "type": 0,
        "location": {
            "lat": 36.74423,
            "lng": 112.709983
        },
        "ad_info": {
            "adcode": 140430,
            "province": "山西省",
            "city": "长治市",
            "district": "沁县"
        }
    },
    {
        "id": "17155674748027841939",
        "title": "公共厕所",
        "address": "山西省长治市屯留区建设北路与白云街交叉口西南方向61米左右",
        "tel": "",
        "category": "基础设施:公共设施:公共厕所",
        "type": 0,
        "location": {
            "lat": 36.320227,
            "lng": 112.891117
        },
        "ad_info": {
            "adcode": 140405,
            "province": "山西省",
            "city": "长治市",
            "district": "屯留区"
        }
    },
    {
        "id": "3133352289123309054",
        "title": "公共厕所",
        "address": "山西省长治市长子县东大街与长子宾馆东路交叉口东南方向26米左右",
        "tel": "",
        "category": "基础设施:公共设施:公共厕所",
        "type": 0,
        "location": {
            "lat": 36.119162,
            "lng": 112.894106
        },
        "ad_info": {
            "adcode": 140428,
            "province": "山西省",
            "city": "长治市",
            "district": "长子县"
        }
    },
    {
        "id": "3590217131495466928",
        "title": "公共厕所",
        "address": "山西省长治市潞州区东大街与长平线交叉口正西方向70米左右",
        "tel": "",
        "category": "基础设施:公共设施:公共厕所",
        "type": 0,
        "location": {
            "lat": 36.174737,
            "lng": 113.142226
        },
        "ad_info": {
            "adcode": 140403,
            "province": "山西省",
            "city": "长治市",
            "district": "潞州区"
        }
    },
    {
        "id": "4973026879829358457",
        "title": "无障碍公共厕所",
        "address": "山西省长治市潞州区王庄光明路社区卫生服务中心东南侧",
        "tel": "",
        "category": "基础设施:公共设施:公共厕所",
        "type": 0,
        "location": {
            "lat": 36.364996,
            "lng": 113.043022
        },
        "ad_info": {
            "adcode": 140403,
            "province": "山西省",
            "city": "长治市",
            "district": "潞州区"
        }
    },
    {
        "id": "9398885177210429386",
        "title": "公共厕所",
        "address": "山西省长治市上党区S227与Y003交叉口东南方向550米左右",
        "tel": "",
        "category": "基础设施:公共设施:公共厕所",
        "type": 0,
        "location": {
            "lat": 36.072261,
            "lng": 113.002576
        },
        "ad_info": {
            "adcode": 140404,
            "province": "山西省",
            "city": "长治市",
            "district": "上党区"
        }
    },
    {
        "id": "13264516029209163401",
        "title": "公共厕所",
        "address": "山西省长治市沁源县胶海线与郭下线交叉口正西方向1981米左右",
        "tel": "",
        "category": "基础设施:公共设施:公共厕所",
        "type": 0,
        "location": {
            "lat": 36.579718,
            "lng": 112.186462
        },
        "ad_info": {
            "adcode": 140431,
            "province": "山西省",
            "city": "长治市",
            "district": "沁源县"
        }
    },
    {
        "id": "8112080925078924819",
        "title": "公共厕所",
        "address": "山西省长治市黎城县阳关西街与青兰线交叉口正东方向101米左右",
        "tel": "",
        "category": "基础设施:公共设施:公共厕所",
        "type": 0,
        "location": {
            "lat": 36.540083,
            "lng": 113.478211
        },
        "ad_info": {
            "adcode": 140426,
            "province": "山西省",
            "city": "长治市",
            "district": "黎城县"
        }
    },
    {
        "id": "598691806904163400",
        "title": "公共厕所",
        "address": "山西省长治市襄垣县太行路与府西街交叉口西南方向75米左右",
        "tel": "",
        "category": "基础设施:公共设施:公共厕所",
        "type": 0,
        "location": {
            "lat": 36.535865,
            "lng": 113.041868
        },
        "ad_info": {
            "adcode": 140423,
            "province": "山西省",
            "city": "长治市",
            "district": "襄垣县"
        }
    },
    {
        "id": "5643495363270978044",
        "title": "公共厕所",
        "address": "山西省长治市武乡县学府东街与建安巷交叉口东南方向61米左右",
        "tel": "",
        "category": "基础设施:公共设施:公共厕所",
        "type": 0,
        "location": {
            "lat": 36.829095,
            "lng": 112.868308
        },
        "ad_info": {
            "adcode": 140429,
            "province": "山西省",
            "city": "长治市",
            "district": "武乡县"
        }
    },
    {
        "id": "6008492724426221855",
        "title": "公共厕所",
        "address": "山西省长治市潞州区兵工街与广场街交叉口正南方向1238米左右",
        "tel": "",
        "category": "基础设施:公共设施:公共厕所",
        "type": 0,
        "location": {
            "lat": 36.347002,
            "lng": 113.045126
        },
        "ad_info": {
            "adcode": 140403,
            "province": "山西省",
            "city": "长治市",
            "district": "潞州区"
        }
    },
    {
        "id": "4419578159089293472",
        "title": "公共厕所",
        "address": "山西省长治市沁县X659与二淅线交叉口东北方向63米左右",
        "tel": "",
        "category": "基础设施:公共设施:公共厕所",
        "type": 0,
        "location": {
            "lat": 36.656684,
            "lng": 112.748463
        },
        "ad_info": {
            "adcode": 140430,
            "province": "山西省",
            "city": "长治市",
            "district": "沁县"
        }
    },
    {
        "id": "11627451542299471310",
        "title": "公共厕所",
        "address": "山西省长治市沁源县兴安路与盛达街交叉口东南方向103米左右",
        "tel": "",
        "category": "基础设施:公共设施:公共厕所",
        "type": 0,
        "location": {
            "lat": 36.779601,
            "lng": 112.228317
        },
        "ad_info": {
            "adcode": 140431,
            "province": "山西省",
            "city": "长治市",
            "district": "沁源县"
        }
    },
    {
        "id": "6277976244282300410",
        "title": "公共厕所",
        "address": "山西省长治市壶关县X676与北大街交叉口正南方向51米左右",
        "tel": "",
        "category": "基础设施:公共设施:公共厕所",
        "type": 0,
        "location": {
            "lat": 36.118996,
            "lng": 113.20682
        },
        "ad_info": {
            "adcode": 140427,
            "province": "山西省",
            "city": "长治市",
            "district": "壶关县"
        }
    },
    {
        "id": "10333992704008175631",
        "title": "公共厕所",
        "address": "山西省长治市潞州区东环路与南环东街交叉口西南方向236米左右",
        "tel": "",
        "category": "基础设施:公共设施:公共厕所",
        "type": 0,
        "location": {
            "lat": 36.135344,
            "lng": 113.128208
        },
        "ad_info": {
            "adcode": 140403,
            "province": "山西省",
            "city": "长治市",
            "district": "潞州区"
        }
    },
    {
        "id": "13196254072074819834",
        "title": "公共厕所",
        "address": "山西省长治市壶关县S302与S327交叉口正东方向1407米左右",
        "tel": "",
        "category": "基础设施:公共设施:公共厕所",
        "type": 0,
        "location": {
            "lat": 35.930182,
            "lng": 113.626298
        },
        "ad_info": {
            "adcode": 140427,
            "province": "山西省",
            "city": "长治市",
            "district": "壶关县"
        }
    },
    {
        "id": "17801976041853306565",
        "title": "公共厕所",
        "address": "山西省长治市潞州区南环东街与潞阳门南路交叉口正东方向295米左右",
        "tel": "",
        "category": "基础设施:公共设施:公共厕所",
        "type": 0,
        "location": {
            "lat": 36.134769,
            "lng": 113.126633
        },
        "ad_info": {
            "adcode": 140403,
            "province": "山西省",
            "city": "长治市",
            "district": "潞州区"
        }
    },
    {
        "id": "3129052133548175517",
        "title": "公共厕所",
        "address": "山西省长治市沁源县胶海线与郭下线交叉口东北方向91米左右",
        "tel": "",
        "category": "基础设施:公共设施:公共厕所",
        "type": 0,
        "location": {
            "lat": 36.583002,
            "lng": 112.209223
        },
        "ad_info": {
            "adcode": 140431,
            "province": "山西省",
            "city": "长治市",
            "district": "沁源县"
        }
    },
    {
        "id": "17124566423585532190",
        "title": "公共厕所",
        "address": "山西省长治市沁县Y009与二淅线交叉口东北方向29米左右",
        "tel": "",
        "category": "基础设施:公共设施:公共厕所",
        "type": 0,
        "location": {
            "lat": 36.70535,
            "lng": 112.709417
        },
        "ad_info": {
            "adcode": 140430,
            "province": "山西省",
            "city": "长治市",
            "district": "沁县"
        }
    },
    {
        "id": "6751692897866370153",
        "title": "公共厕所",
        "address": "山西省长治市上党区兴盛路与振东西街交叉口正西方向43米左右",
        "tel": "",
        "category": "基础设施:公共设施:公共厕所",
        "type": 0,
        "location": {
            "lat": 36.043676,
            "lng": 113.052669
        },
        "ad_info": {
            "adcode": 140404,
            "province": "山西省",
            "city": "长治市",
            "district": "上党区"
        }
    },
    {
        "id": "12191149461336315854",
        "title": "公共厕所",
        "address": "山西省长治市上党区光明南路与民和巷交叉口东北方向23米左右",
        "tel": "",
        "category": "基础设施:公共设施:公共厕所",
        "type": 0,
        "location": {
            "lat": 36.045627,
            "lng": 113.056592
        },
        "ad_info": {
            "adcode": 140404,
            "province": "山西省",
            "city": "长治市",
            "district": "上党区"
        }
    },
    {
        "id": "4552534373405137205",
        "title": "公共厕所",
        "address": "山西省长治市长子县S326与张下线交叉口正东方向79米左右",
        "tel": "",
        "category": "基础设施:公共设施:公共厕所",
        "type": 0,
        "location": {
            "lat": 36.137978,
            "lng": 112.951105
        },
        "ad_info": {
            "adcode": 140428,
            "province": "山西省",
            "city": "长治市",
            "district": "长子县"
        }
    },
    {
        "id": "10560892778565494668",
        "title": "公共厕所",
        "address": "山西省长治市黎城县正街与鼓楼街交叉口正东方向103米左右",
        "tel": "",
        "category": "基础设施:公共设施:公共厕所",
        "type": 0,
        "location": {
            "lat": 36.499275,
            "lng": 113.386998
        },
        "ad_info": {
            "adcode": 140426,
            "province": "山西省",
            "city": "长治市",
            "district": "黎城县"
        }
    },
    {
        "id": "13563537096521977051",
        "title": "公共厕所",
        "address": "山西省长治市潞州区城市生活家小区对面",
        "tel": "",
        "category": "基础设施:公共设施:公共厕所",
        "type": 0,
        "location": {
            "lat": 36.196914,
            "lng": 113.124439
        },
        "ad_info": {
            "adcode": 140403,
            "province": "山西省",
            "city": "长治市",
            "district": "潞州区"
        }
    },
    {
        "id": "2931294341703898398",
        "title": "壶关服务区公共厕所",
        "address": "山西省长治市壶关县S225与四家池立交桥交叉口正南方向448米左右",
        "tel": "",
        "category": "基础设施:公共设施:公共厕所",
        "type": 0,
        "location": {
            "lat": 36.06559,
            "lng": 113.199198
        },
        "ad_info": {
            "adcode": 140427,
            "province": "山西省",
            "city": "长治市",
            "district": "壶关县"
        }
    },
    {
        "id": "4327511872143948047",
        "title": "公共厕所",
        "address": "山西省长治市平顺县324省道附近",
        "tel": "",
        "category": "基础设施:公共设施:公共厕所",
        "type": 0,
        "location": {
            "lat": 36.351241,
            "lng": 113.623891
        },
        "ad_info": {
            "adcode": 140425,
            "province": "山西省",
            "city": "长治市",
            "district": "平顺县"
        }
    },
    {
        "id": "5916748818639257092",
        "title": "公共厕所",
        "address": "山西省长治市沁源县人民路与桥西街交叉口东南方向44米左右",
        "tel": "",
        "category": "基础设施:公共设施:公共厕所",
        "type": 0,
        "location": {
            "lat": 36.49912,
            "lng": 112.34395
        },
        "ad_info": {
            "adcode": 140431,
            "province": "山西省",
            "city": "长治市",
            "district": "沁源县"
        }
    },
    {
        "id": "11324902085010401939",
        "title": "公共厕所",
        "address": "山西省长治市壶关县健康街与古城路交叉口西北方向49米左右",
        "tel": "",
        "category": "基础设施:公共设施:公共厕所",
        "type": 0,
        "location": {
            "lat": 36.107218,
            "lng": 113.202966
        },
        "ad_info": {
            "adcode": 140427,
            "province": "山西省",
            "city": "长治市",
            "district": "壶关县"
        }
    },
    {
        "id": "16254907410291757306",
        "title": "武乡服务区公共厕所",
        "address": "山西省长治市武乡县武乡服务区与G55二广高速出口交叉口南120米",
        "tel": "",
        "category": "基础设施:公共设施:公共厕所",
        "type": 0,
        "location": {
            "lat": 36.839393,
            "lng": 112.883063
        },
        "ad_info": {
            "adcode": 140429,
            "province": "山西省",
            "city": "长治市",
            "district": "武乡县"
        }
    },
    {
        "id": "9285436779825569262",
        "title": "鲍店服务区公共厕所",
        "address": "山西省长治市长子县Y006与田兴街交叉口西北方向1441米左右",
        "tel": "",
        "category": "基础设施:公共设施:公共厕所",
        "type": 0,
        "location": {
            "lat": 36.243778,
            "lng": 112.788073
        },
        "ad_info": {
            "adcode": 140428,
            "province": "山西省",
            "city": "长治市",
            "district": "长子县"
        }
    },
    {
        "id": "10066619208332649037",
        "title": "公共厕所",
        "address": "山西省长治市壶关县S302与S327交叉口东南方向1231米左右",
        "tel": "",
        "category": "基础设施:公共设施:公共厕所",
        "type": 0,
        "location": {
            "lat": 35.938411,
            "lng": 113.470344
        },
        "ad_info": {
            "adcode": 140427,
            "province": "山西省",
            "city": "长治市",
            "district": "壶关县"
        }
    },
    {
        "id": "13260030363634689134",
        "title": "公共厕所",
        "address": "山西省长治市潞州区紫金东街长治市交通安全主题公园(东南角)",
        "tel": "",
        "category": "基础设施:公共设施:公共厕所",
        "type": 0,
        "location": {
            "lat": 36.19656,
            "lng": 113.127771
        },
        "ad_info": {
            "adcode": 140403,
            "province": "山西省",
            "city": "长治市",
            "district": "潞州区"
        }
    },
    {
        "id": "339904678428517270",
        "title": "旅游公共厕所",
        "address": "山西省长治市平顺县档案馆西北侧100米",
        "tel": "",
        "category": "基础设施:公共设施:公共厕所",
        "type": 0,
        "location": {
            "lat": 36.19636,
            "lng": 113.431284
        },
        "ad_info": {
            "adcode": 140425,
            "province": "山西省",
            "city": "长治市",
            "district": "平顺县"
        }
    },
    {
        "id": "17747299285172265286",
        "title": "公共厕所",
        "address": "山西省长治市潞城区北华西街与府西北路交叉口正西方向257米左右",
        "tel": "",
        "category": "基础设施:公共设施:公共厕所",
        "type": 0,
        "location": {
            "lat": 36.341835,
            "lng": 113.227665
        },
        "ad_info": {
            "adcode": 140406,
            "province": "山西省",
            "city": "长治市",
            "district": "潞城区"
        }
    },
    {
        "id": "17312519612240510599",
        "title": "公共厕所",
        "address": "山西省长治市潞州区紫坊村西二路与紫金西街交叉口正南方向164米左右",
        "tel": "",
        "category": "基础设施:公共设施:公共厕所",
        "type": 0,
        "location": {
            "lat": 36.200584,
            "lng": 113.09155
        },
        "ad_info": {
            "adcode": 140403,
            "province": "山西省",
            "city": "长治市",
            "district": "潞州区"
        }
    },
    {
        "id": "14737066780932623255",
        "title": "无障碍公共厕所",
        "address": "山西省长治市潞州区丰园路与惠泽街交叉口正东方向22米左右",
        "tel": "",
        "category": "基础设施:公共设施:公共厕所",
        "type": 0,
        "location": {
            "lat": 36.142283,
            "lng": 113.117758
        },
        "ad_info": {
            "adcode": 140403,
            "province": "山西省",
            "city": "长治市",
            "district": "潞州区"
        }
    },
    {
        "id": "15218747540505921818",
        "title": "公共厕所",
        "address": "山西省长治市沁源县桃园街与桃园西街交叉口正北方向194米左右",
        "tel": "",
        "category": "基础设施:公共设施:公共厕所",
        "type": 0,
        "location": {
            "lat": 36.517903,
            "lng": 112.341289
        },
        "ad_info": {
            "adcode": 140431,
            "province": "山西省",
            "city": "长治市",
            "district": "沁源县"
        }
    },
    {
        "id": "9684204166403034945",
        "title": "公共厕所",
        "address": "山西省长治市潞州区西环路与长安街交叉口正东方向225米左右",
        "tel": "",
        "category": "基础设施:公共设施:公共厕所",
        "type": 0,
        "location": {
            "lat": 36.182888,
            "lng": 113.085567
        },
        "ad_info": {
            "adcode": 140403,
            "province": "山西省",
            "city": "长治市",
            "district": "潞州区"
        }
    },
    {
        "id": "16475934048603995316",
        "title": "公共厕所",
        "address": "山西省长治市潞州区东环路辅路与五针街交叉口东南方向1560米左右",
        "tel": "",
        "category": "基础设施:公共设施:公共厕所",
        "type": 0,
        "location": {
            "lat": 36.152072,
            "lng": 113.1493
        },
        "ad_info": {
            "adcode": 140403,
            "province": "山西省",
            "city": "长治市",
            "district": "潞州区"
        }
    },
    {
        "id": "6189932196315921982",
        "title": "公共厕所",
        "address": "山西省长治市潞城区中华西街274号",
        "tel": "",
        "category": "基础设施:公共设施:公共厕所",
        "type": 0,
        "location": {
            "lat": 36.331093,
            "lng": 113.224189
        },
        "ad_info": {
            "adcode": 140406,
            "province": "山西省",
            "city": "长治市",
            "district": "潞城区"
        }
    },
    {
        "id": "5047283289297523076",
        "title": "公共厕所",
        "address": "山西省长治市潞州区威远门中路与威远门南路交叉口正西方向235米左右",
        "tel": "",
        "category": "基础设施:公共设施:公共厕所",
        "type": 0,
        "location": {
            "lat": 36.190693,
            "lng": 113.09557
        },
        "ad_info": {
            "adcode": 140403,
            "province": "山西省",
            "city": "长治市",
            "district": "潞州区"
        }
    },
    {
        "id": "2783314341226398818",
        "title": "公共厕所",
        "address": "山西省长治市平顺县S324与赤壁桥交叉口东南方向1978米左右",
        "tel": "",
        "category": "基础设施:公共设施:公共厕所",
        "type": 0,
        "location": {
            "lat": 36.354567,
            "lng": 113.558903
        },
        "ad_info": {
            "adcode": 140425,
            "province": "山西省",
            "city": "长治市",
            "district": "平顺县"
        }
    },
    {
        "id": "646767306522900453",
        "title": "公共厕所",
        "address": "山西省长治市屯留区欢笑动物园东北侧70米",
        "tel": "",
        "category": "基础设施:公共设施:公共厕所",
        "type": 0,
        "location": {
            "lat": 36.254939,
            "lng": 112.744067
        },
        "ad_info": {
            "adcode": 140405,
            "province": "山西省",
            "city": "长治市",
            "district": "屯留区"
        }
    },
    {
        "id": "15744022791394464968",
        "title": "公共厕所",
        "address": "山西省长治市上党区新市西街与银桥巷交叉口正西方向66米左右",
        "tel": "",
        "category": "基础设施:公共设施:公共厕所",
        "type": 0,
        "location": {
            "lat": 36.050227,
            "lng": 113.055913
        },
        "ad_info": {
            "adcode": 140404,
            "province": "山西省",
            "city": "长治市",
            "district": "上党区"
        }
    },
    {
        "id": "12260583424331580399",
        "title": "公共厕所",
        "address": "山西省长治市上党区体园巷与光明北路交叉口东北方向22米左右",
        "tel": "",
        "category": "基础设施:公共设施:公共厕所",
        "type": 0,
        "location": {
            "lat": 36.056987,
            "lng": 113.060169
        },
        "ad_info": {
            "adcode": 140404,
            "province": "山西省",
            "city": "长治市",
            "district": "上党区"
        }
    },
    {
        "id": "13391444810892061181",
        "title": "公共厕所",
        "address": "山西省长治市壶关县西城路177号",
        "tel": "",
        "category": "基础设施:公共设施:公共厕所",
        "type": 0,
        "location": {
            "lat": 36.107819,
            "lng": 113.200894
        },
        "ad_info": {
            "adcode": 140427,
            "province": "山西省",
            "city": "长治市",
            "district": "壶关县"
        }
    },
    {
        "id": "6592845304056606348",
        "title": "公共厕所",
        "address": "山西省长治市潞州区永易青年汇北侧270米",
        "tel": "",
        "category": "基础设施:公共设施:公共厕所",
        "type": 0,
        "location": {
            "lat": 36.192487,
            "lng": 113.058143
        },
        "ad_info": {
            "adcode": 140403,
            "province": "山西省",
            "city": "长治市",
            "district": "潞州区"
        }
    },
    {
        "id": "1985200556234806372",
        "title": "公共厕所",
        "address": "山西省长治市武乡县太行东街与红旗路交叉口西北方向138米左右",
        "tel": "",
        "category": "基础设施:公共设施:公共厕所",
        "type": 0,
        "location": {
            "lat": 36.834051,
            "lng": 112.862084
        },
        "ad_info": {
            "adcode": 140429,
            "province": "山西省",
            "city": "长治市",
            "district": "武乡县"
        }
    },
    {
        "id": "10361369971470689694",
        "title": "公共厕所",
        "address": "山西省长治市上党区永丰小学西北侧80米",
        "tel": "",
        "category": "基础设施:公共设施:公共厕所",
        "type": 0,
        "location": {
            "lat": 35.90198,
            "lng": 113.058441
        },
        "ad_info": {
            "adcode": 140404,
            "province": "山西省",
            "city": "长治市",
            "district": "上党区"
        }
    },
    {
        "id": "17424856693401423299",
        "title": "公共厕所",
        "address": "山西省长治市长子县东大街与神农路交叉口正西方向79米左右",
        "tel": "",
        "category": "基础设施:公共设施:公共厕所",
        "type": 0,
        "location": {
            "lat": 36.119768,
            "lng": 112.898249
        },
        "ad_info": {
            "adcode": 140428,
            "province": "山西省",
            "city": "长治市",
            "district": "长子县"
        }
    },
    {
        "id": "12630025335454768824",
        "title": "公共厕所",
        "address": "山西省长治市武乡县102省道北50米",
        "tel": "",
        "category": "基础设施:公共设施:公共厕所",
        "type": 0,
        "location": {
            "lat": 36.966258,
            "lng": 112.876124
        },
        "ad_info": {
            "adcode": 140429,
            "province": "山西省",
            "city": "长治市",
            "district": "武乡县"
        }
    },
    {
        "id": "14024523638168488114",
        "title": "公共厕所",
        "address": "山西省长治市上党区迎宾西街与银桥巷交叉口正北方向21米左右",
        "tel": "",
        "category": "基础设施:公共设施:公共厕所",
        "type": 0,
        "location": {
            "lat": 36.052325,
            "lng": 113.055643
        },
        "ad_info": {
            "adcode": 140404,
            "province": "山西省",
            "city": "长治市",
            "district": "上党区"
        }
    },
    {
        "id": "3663054317595575173",
        "title": "公共厕所",
        "address": "山西省长治市潞州区Y007与北环东街辅路交叉口东北方向441米左右",
        "tel": "",
        "category": "基础设施:公共设施:公共厕所",
        "type": 0,
        "location": {
            "lat": 36.229509,
            "lng": 113.138466
        },
        "ad_info": {
            "adcode": 140403,
            "province": "山西省",
            "city": "长治市",
            "district": "潞州区"
        }
    },
    {
        "id": "5315585416848733371",
        "title": "公共厕所",
        "address": "山西省长治市黎城县乌海线与金元街交叉口西南方向121米左右",
        "tel": "",
        "category": "基础设施:公共设施:公共厕所",
        "type": 0,
        "location": {
            "lat": 36.468499,
            "lng": 113.361299
        },
        "ad_info": {
            "adcode": 140426,
            "province": "山西省",
            "city": "长治市",
            "district": "黎城县"
        }
    },
    {
        "id": "17312519612240510599",
        "title": "公共厕所",
        "address": "山西省长治市潞州区紫坊村西二路与紫金西街交叉口正南方向164米左右",
        "tel": "",
        "category": "基础设施:公共设施:公共厕所",
        "type": 0,
        "location": {
            "lat": 36.200584,
            "lng": 113.09155
        },
        "ad_info": {
            "adcode": 140403,
            "province": "山西省",
            "city": "长治市",
            "district": "潞州区"
        }
    },
    {
        "id": "14737066780932623255",
        "title": "无障碍公共厕所",
        "address": "山西省长治市潞州区丰园路与惠泽街交叉口正东方向22米左右",
        "tel": "",
        "category": "基础设施:公共设施:公共厕所",
        "type": 0,
        "location": {
            "lat": 36.142283,
            "lng": 113.117758
        },
        "ad_info": {
            "adcode": 140403,
            "province": "山西省",
            "city": "长治市",
            "district": "潞州区"
        }
    },
    {
        "id": "15218747540505921818",
        "title": "公共厕所",
        "address": "山西省长治市沁源县桃园街与桃园西街交叉口正北方向194米左右",
        "tel": "",
        "category": "基础设施:公共设施:公共厕所",
        "type": 0,
        "location": {
            "lat": 36.517903,
            "lng": 112.341289
        },
        "ad_info": {
            "adcode": 140431,
            "province": "山西省",
            "city": "长治市",
            "district": "沁源县"
        }
    },
    {
        "id": "9684204166403034945",
        "title": "公共厕所",
        "address": "山西省长治市潞州区西环路与长安街交叉口正东方向225米左右",
        "tel": "",
        "category": "基础设施:公共设施:公共厕所",
        "type": 0,
        "location": {
            "lat": 36.182888,
            "lng": 113.085567
        },
        "ad_info": {
            "adcode": 140403,
            "province": "山西省",
            "city": "长治市",
            "district": "潞州区"
        }
    },
    {
        "id": "16475934048603995316",
        "title": "公共厕所",
        "address": "山西省长治市潞州区东环路辅路与五针街交叉口东南方向1560米左右",
        "tel": "",
        "category": "基础设施:公共设施:公共厕所",
        "type": 0,
        "location": {
            "lat": 36.152072,
            "lng": 113.1493
        },
        "ad_info": {
            "adcode": 140403,
            "province": "山西省",
            "city": "长治市",
            "district": "潞州区"
        }
    },
    {
        "id": "6189932196315921982",
        "title": "公共厕所",
        "address": "山西省长治市潞城区中华西街274号",
        "tel": "",
        "category": "基础设施:公共设施:公共厕所",
        "type": 0,
        "location": {
            "lat": 36.331093,
            "lng": 113.224189
        },
        "ad_info": {
            "adcode": 140406,
            "province": "山西省",
            "city": "长治市",
            "district": "潞城区"
        }
    },
    {
        "id": "5047283289297523076",
        "title": "公共厕所",
        "address": "山西省长治市潞州区威远门中路与威远门南路交叉口正西方向235米左右",
        "tel": "",
        "category": "基础设施:公共设施:公共厕所",
        "type": 0,
        "location": {
            "lat": 36.190693,
            "lng": 113.09557
        },
        "ad_info": {
            "adcode": 140403,
            "province": "山西省",
            "city": "长治市",
            "district": "潞州区"
        }
    },
    {
        "id": "2783314341226398818",
        "title": "公共厕所",
        "address": "山西省长治市平顺县S324与赤壁桥交叉口东南方向1978米左右",
        "tel": "",
        "category": "基础设施:公共设施:公共厕所",
        "type": 0,
        "location": {
            "lat": 36.354567,
            "lng": 113.558903
        },
        "ad_info": {
            "adcode": 140425,
            "province": "山西省",
            "city": "长治市",
            "district": "平顺县"
        }
    },
    {
        "id": "646767306522900453",
        "title": "公共厕所",
        "address": "山西省长治市屯留区欢笑动物园东北侧70米",
        "tel": "",
        "category": "基础设施:公共设施:公共厕所",
        "type": 0,
        "location": {
            "lat": 36.254939,
            "lng": 112.744067
        },
        "ad_info": {
            "adcode": 140405,
            "province": "山西省",
            "city": "长治市",
            "district": "屯留区"
        }
    },
    {
        "id": "15744022791394464968",
        "title": "公共厕所",
        "address": "山西省长治市上党区新市西街与银桥巷交叉口正西方向66米左右",
        "tel": "",
        "category": "基础设施:公共设施:公共厕所",
        "type": 0,
        "location": {
            "lat": 36.050227,
            "lng": 113.055913
        },
        "ad_info": {
            "adcode": 140404,
            "province": "山西省",
            "city": "长治市",
            "district": "上党区"
        }
    },
    {
        "id": "12260583424331580399",
        "title": "公共厕所",
        "address": "山西省长治市上党区体园巷与光明北路交叉口东北方向22米左右",
        "tel": "",
        "category": "基础设施:公共设施:公共厕所",
        "type": 0,
        "location": {
            "lat": 36.056987,
            "lng": 113.060169
        },
        "ad_info": {
            "adcode": 140404,
            "province": "山西省",
            "city": "长治市",
            "district": "上党区"
        }
    },
    {
        "id": "13391444810892061181",
        "title": "公共厕所",
        "address": "山西省长治市壶关县西城路177号",
        "tel": "",
        "category": "基础设施:公共设施:公共厕所",
        "type": 0,
        "location": {
            "lat": 36.107819,
            "lng": 113.200894
        },
        "ad_info": {
            "adcode": 140427,
            "province": "山西省",
            "city": "长治市",
            "district": "壶关县"
        }
    },
    {
        "id": "6592845304056606348",
        "title": "公共厕所",
        "address": "山西省长治市潞州区永易青年汇北侧270米",
        "tel": "",
        "category": "基础设施:公共设施:公共厕所",
        "type": 0,
        "location": {
            "lat": 36.192487,
            "lng": 113.058143
        },
        "ad_info": {
            "adcode": 140403,
            "province": "山西省",
            "city": "长治市",
            "district": "潞州区"
        }
    },
    {
        "id": "1985200556234806372",
        "title": "公共厕所",
        "address": "山西省长治市武乡县太行东街与红旗路交叉口西北方向138米左右",
        "tel": "",
        "category": "基础设施:公共设施:公共厕所",
        "type": 0,
        "location": {
            "lat": 36.834051,
            "lng": 112.862084
        },
        "ad_info": {
            "adcode": 140429,
            "province": "山西省",
            "city": "长治市",
            "district": "武乡县"
        }
    },
    {
        "id": "10361369971470689694",
        "title": "公共厕所",
        "address": "山西省长治市上党区永丰小学西北侧80米",
        "tel": "",
        "category": "基础设施:公共设施:公共厕所",
        "type": 0,
        "location": {
            "lat": 35.90198,
            "lng": 113.058441
        },
        "ad_info": {
            "adcode": 140404,
            "province": "山西省",
            "city": "长治市",
            "district": "上党区"
        }
    },
    {
        "id": "17424856693401423299",
        "title": "公共厕所",
        "address": "山西省长治市长子县东大街与神农路交叉口正西方向79米左右",
        "tel": "",
        "category": "基础设施:公共设施:公共厕所",
        "type": 0,
        "location": {
            "lat": 36.119768,
            "lng": 112.898249
        },
        "ad_info": {
            "adcode": 140428,
            "province": "山西省",
            "city": "长治市",
            "district": "长子县"
        }
    },
    {
        "id": "12630025335454768824",
        "title": "公共厕所",
        "address": "山西省长治市武乡县102省道北50米",
        "tel": "",
        "category": "基础设施:公共设施:公共厕所",
        "type": 0,
        "location": {
            "lat": 36.966258,
            "lng": 112.876124
        },
        "ad_info": {
            "adcode": 140429,
            "province": "山西省",
            "city": "长治市",
            "district": "武乡县"
        }
    },
    {
        "id": "14024523638168488114",
        "title": "公共厕所",
        "address": "山西省长治市上党区迎宾西街与银桥巷交叉口正北方向21米左右",
        "tel": "",
        "category": "基础设施:公共设施:公共厕所",
        "type": 0,
        "location": {
            "lat": 36.052325,
            "lng": 113.055643
        },
        "ad_info": {
            "adcode": 140404,
            "province": "山西省",
            "city": "长治市",
            "district": "上党区"
        }
    },
    {
        "id": "3663054317595575173",
        "title": "公共厕所",
        "address": "山西省长治市潞州区Y007与北环东街辅路交叉口东北方向441米左右",
        "tel": "",
        "category": "基础设施:公共设施:公共厕所",
        "type": 0,
        "location": {
            "lat": 36.229509,
            "lng": 113.138466
        },
        "ad_info": {
            "adcode": 140403,
            "province": "山西省",
            "city": "长治市",
            "district": "潞州区"
        }
    },
    {
        "id": "5315585416848733371",
        "title": "公共厕所",
        "address": "山西省长治市黎城县乌海线与金元街交叉口西南方向121米左右",
        "tel": "",
        "category": "基础设施:公共设施:公共厕所",
        "type": 0,
        "location": {
            "lat": 36.468499,
            "lng": 113.361299
        },
        "ad_info": {
            "adcode": 140426,
            "province": "山西省",
            "city": "长治市",
            "district": "黎城县"
        }
    },
    {
        "id": "17312519612240510599",
        "title": "公共厕所",
        "address": "山西省长治市潞州区紫坊村西二路与紫金西街交叉口正南方向164米左右",
        "tel": "",
        "category": "基础设施:公共设施:公共厕所",
        "type": 0,
        "location": {
            "lat": 36.200584,
            "lng": 113.09155
        },
        "ad_info": {
            "adcode": 140403,
            "province": "山西省",
            "city": "长治市",
            "district": "潞州区"
        }
    },
    {
        "id": "14737066780932623255",
        "title": "无障碍公共厕所",
        "address": "山西省长治市潞州区丰园路与惠泽街交叉口正东方向22米左右",
        "tel": "",
        "category": "基础设施:公共设施:公共厕所",
        "type": 0,
        "location": {
            "lat": 36.142283,
            "lng": 113.117758
        },
        "ad_info": {
            "adcode": 140403,
            "province": "山西省",
            "city": "长治市",
            "district": "潞州区"
        }
    },
    {
        "id": "15218747540505921818",
        "title": "公共厕所",
        "address": "山西省长治市沁源县桃园街与桃园西街交叉口正北方向194米左右",
        "tel": "",
        "category": "基础设施:公共设施:公共厕所",
        "type": 0,
        "location": {
            "lat": 36.517903,
            "lng": 112.341289
        },
        "ad_info": {
            "adcode": 140431,
            "province": "山西省",
            "city": "长治市",
            "district": "沁源县"
        }
    },
    {
        "id": "9684204166403034945",
        "title": "公共厕所",
        "address": "山西省长治市潞州区西环路与长安街交叉口正东方向225米左右",
        "tel": "",
        "category": "基础设施:公共设施:公共厕所",
        "type": 0,
        "location": {
            "lat": 36.182888,
            "lng": 113.085567
        },
        "ad_info": {
            "adcode": 140403,
            "province": "山西省",
            "city": "长治市",
            "district": "潞州区"
        }
    },
    {
        "id": "16475934048603995316",
        "title": "公共厕所",
        "address": "山西省长治市潞州区东环路辅路与五针街交叉口东南方向1560米左右",
        "tel": "",
        "category": "基础设施:公共设施:公共厕所",
        "type": 0,
        "location": {
            "lat": 36.152072,
            "lng": 113.1493
        },
        "ad_info": {
            "adcode": 140403,
            "province": "山西省",
            "city": "长治市",
            "district": "潞州区"
        }
    },
    {
        "id": "6189932196315921982",
        "title": "公共厕所",
        "address": "山西省长治市潞城区中华西街274号",
        "tel": "",
        "category": "基础设施:公共设施:公共厕所",
        "type": 0,
        "location": {
            "lat": 36.331093,
            "lng": 113.224189
        },
        "ad_info": {
            "adcode": 140406,
            "province": "山西省",
            "city": "长治市",
            "district": "潞城区"
        }
    },
    {
        "id": "5047283289297523076",
        "title": "公共厕所",
        "address": "山西省长治市潞州区威远门中路与威远门南路交叉口正西方向235米左右",
        "tel": "",
        "category": "基础设施:公共设施:公共厕所",
        "type": 0,
        "location": {
            "lat": 36.190693,
            "lng": 113.09557
        },
        "ad_info": {
            "adcode": 140403,
            "province": "山西省",
            "city": "长治市",
            "district": "潞州区"
        }
    },
    {
        "id": "2783314341226398818",
        "title": "公共厕所",
        "address": "山西省长治市平顺县S324与赤壁桥交叉口东南方向1978米左右",
        "tel": "",
        "category": "基础设施:公共设施:公共厕所",
        "type": 0,
        "location": {
            "lat": 36.354567,
            "lng": 113.558903
        },
        "ad_info": {
            "adcode": 140425,
            "province": "山西省",
            "city": "长治市",
            "district": "平顺县"
        }
    },
    {
        "id": "646767306522900453",
        "title": "公共厕所",
        "address": "山西省长治市屯留区欢笑动物园东北侧70米",
        "tel": "",
        "category": "基础设施:公共设施:公共厕所",
        "type": 0,
        "location": {
            "lat": 36.254939,
            "lng": 112.744067
        },
        "ad_info": {
            "adcode": 140405,
            "province": "山西省",
            "city": "长治市",
            "district": "屯留区"
        }
    },
    {
        "id": "15744022791394464968",
        "title": "公共厕所",
        "address": "山西省长治市上党区新市西街与银桥巷交叉口正西方向66米左右",
        "tel": "",
        "category": "基础设施:公共设施:公共厕所",
        "type": 0,
        "location": {
            "lat": 36.050227,
            "lng": 113.055913
        },
        "ad_info": {
            "adcode": 140404,
            "province": "山西省",
            "city": "长治市",
            "district": "上党区"
        }
    },
    {
        "id": "12260583424331580399",
        "title": "公共厕所",
        "address": "山西省长治市上党区体园巷与光明北路交叉口东北方向22米左右",
        "tel": "",
        "category": "基础设施:公共设施:公共厕所",
        "type": 0,
        "location": {
            "lat": 36.056987,
            "lng": 113.060169
        },
        "ad_info": {
            "adcode": 140404,
            "province": "山西省",
            "city": "长治市",
            "district": "上党区"
        }
    },
    {
        "id": "13391444810892061181",
        "title": "公共厕所",
        "address": "山西省长治市壶关县西城路177号",
        "tel": "",
        "category": "基础设施:公共设施:公共厕所",
        "type": 0,
        "location": {
            "lat": 36.107819,
            "lng": 113.200894
        },
        "ad_info": {
            "adcode": 140427,
            "province": "山西省",
            "city": "长治市",
            "district": "壶关县"
        }
    },
    {
        "id": "6592845304056606348",
        "title": "公共厕所",
        "address": "山西省长治市潞州区永易青年汇北侧270米",
        "tel": "",
        "category": "基础设施:公共设施:公共厕所",
        "type": 0,
        "location": {
            "lat": 36.192487,
            "lng": 113.058143
        },
        "ad_info": {
            "adcode": 140403,
            "province": "山西省",
            "city": "长治市",
            "district": "潞州区"
        }
    },
    {
        "id": "1985200556234806372",
        "title": "公共厕所",
        "address": "山西省长治市武乡县太行东街与红旗路交叉口西北方向138米左右",
        "tel": "",
        "category": "基础设施:公共设施:公共厕所",
        "type": 0,
        "location": {
            "lat": 36.834051,
            "lng": 112.862084
        },
        "ad_info": {
            "adcode": 140429,
            "province": "山西省",
            "city": "长治市",
            "district": "武乡县"
        }
    },
    {
        "id": "10361369971470689694",
        "title": "公共厕所",
        "address": "山西省长治市上党区永丰小学西北侧80米",
        "tel": "",
        "category": "基础设施:公共设施:公共厕所",
        "type": 0,
        "location": {
            "lat": 35.90198,
            "lng": 113.058441
        },
        "ad_info": {
            "adcode": 140404,
            "province": "山西省",
            "city": "长治市",
            "district": "上党区"
        }
    },
    {
        "id": "17424856693401423299",
        "title": "公共厕所",
        "address": "山西省长治市长子县东大街与神农路交叉口正西方向79米左右",
        "tel": "",
        "category": "基础设施:公共设施:公共厕所",
        "type": 0,
        "location": {
            "lat": 36.119768,
            "lng": 112.898249
        },
        "ad_info": {
            "adcode": 140428,
            "province": "山西省",
            "city": "长治市",
            "district": "长子县"
        }
    },
    {
        "id": "12630025335454768824",
        "title": "公共厕所",
        "address": "山西省长治市武乡县102省道北50米",
        "tel": "",
        "category": "基础设施:公共设施:公共厕所",
        "type": 0,
        "location": {
            "lat": 36.966258,
            "lng": 112.876124
        },
        "ad_info": {
            "adcode": 140429,
            "province": "山西省",
            "city": "长治市",
            "district": "武乡县"
        }
    },
    {
        "id": "14024523638168488114",
        "title": "公共厕所",
        "address": "山西省长治市上党区迎宾西街与银桥巷交叉口正北方向21米左右",
        "tel": "",
        "category": "基础设施:公共设施:公共厕所",
        "type": 0,
        "location": {
            "lat": 36.052325,
            "lng": 113.055643
        },
        "ad_info": {
            "adcode": 140404,
            "province": "山西省",
            "city": "长治市",
            "district": "上党区"
        }
    },
    {
        "id": "3663054317595575173",
        "title": "公共厕所",
        "address": "山西省长治市潞州区Y007与北环东街辅路交叉口东北方向441米左右",
        "tel": "",
        "category": "基础设施:公共设施:公共厕所",
        "type": 0,
        "location": {
            "lat": 36.229509,
            "lng": 113.138466
        },
        "ad_info": {
            "adcode": 140403,
            "province": "山西省",
            "city": "长治市",
            "district": "潞州区"
        }
    },
    {
        "id": "5315585416848733371",
        "title": "公共厕所",
        "address": "山西省长治市黎城县乌海线与金元街交叉口西南方向121米左右",
        "tel": "",
        "category": "基础设施:公共设施:公共厕所",
        "type": 0,
        "location": {
            "lat": 36.468499,
            "lng": 113.361299
        },
        "ad_info": {
            "adcode": 140426,
            "province": "山西省",
            "city": "长治市",
            "district": "黎城县"
        }
    },
    {
        "id": "17312519612240510599",
        "title": "公共厕所",
        "address": "山西省长治市潞州区紫坊村西二路与紫金西街交叉口正南方向164米左右",
        "tel": "",
        "category": "基础设施:公共设施:公共厕所",
        "type": 0,
        "location": {
            "lat": 36.200584,
            "lng": 113.09155
        },
        "ad_info": {
            "adcode": 140403,
            "province": "山西省",
            "city": "长治市",
            "district": "潞州区"
        }
    },
    {
        "id": "14737066780932623255",
        "title": "无障碍公共厕所",
        "address": "山西省长治市潞州区丰园路与惠泽街交叉口正东方向22米左右",
        "tel": "",
        "category": "基础设施:公共设施:公共厕所",
        "type": 0,
        "location": {
            "lat": 36.142283,
            "lng": 113.117758
        },
        "ad_info": {
            "adcode": 140403,
            "province": "山西省",
            "city": "长治市",
            "district": "潞州区"
        }
    },
    {
        "id": "15218747540505921818",
        "title": "公共厕所",
        "address": "山西省长治市沁源县桃园街与桃园西街交叉口正北方向194米左右",
        "tel": "",
        "category": "基础设施:公共设施:公共厕所",
        "type": 0,
        "location": {
            "lat": 36.517903,
            "lng": 112.341289
        },
        "ad_info": {
            "adcode": 140431,
            "province": "山西省",
            "city": "长治市",
            "district": "沁源县"
        }
    },
    {
        "id": "9684204166403034945",
        "title": "公共厕所",
        "address": "山西省长治市潞州区西环路与长安街交叉口正东方向225米左右",
        "tel": "",
        "category": "基础设施:公共设施:公共厕所",
        "type": 0,
        "location": {
            "lat": 36.182888,
            "lng": 113.085567
        },
        "ad_info": {
            "adcode": 140403,
            "province": "山西省",
            "city": "长治市",
            "district": "潞州区"
        }
    },
    {
        "id": "16475934048603995316",
        "title": "公共厕所",
        "address": "山西省长治市潞州区东环路辅路与五针街交叉口东南方向1560米左右",
        "tel": "",
        "category": "基础设施:公共设施:公共厕所",
        "type": 0,
        "location": {
            "lat": 36.152072,
            "lng": 113.1493
        },
        "ad_info": {
            "adcode": 140403,
            "province": "山西省",
            "city": "长治市",
            "district": "潞州区"
        }
    },
    {
        "id": "6189932196315921982",
        "title": "公共厕所",
        "address": "山西省长治市潞城区中华西街274号",
        "tel": "",
        "category": "基础设施:公共设施:公共厕所",
        "type": 0,
        "location": {
            "lat": 36.331093,
            "lng": 113.224189
        },
        "ad_info": {
            "adcode": 140406,
            "province": "山西省",
            "city": "长治市",
            "district": "潞城区"
        }
    },
    {
        "id": "5047283289297523076",
        "title": "公共厕所",
        "address": "山西省长治市潞州区威远门中路与威远门南路交叉口正西方向235米左右",
        "tel": "",
        "category": "基础设施:公共设施:公共厕所",
        "type": 0,
        "location": {
            "lat": 36.190693,
            "lng": 113.09557
        },
        "ad_info": {
            "adcode": 140403,
            "province": "山西省",
            "city": "长治市",
            "district": "潞州区"
        }
    },
    {
        "id": "2783314341226398818",
        "title": "公共厕所",
        "address": "山西省长治市平顺县S324与赤壁桥交叉口东南方向1978米左右",
        "tel": "",
        "category": "基础设施:公共设施:公共厕所",
        "type": 0,
        "location": {
            "lat": 36.354567,
            "lng": 113.558903
        },
        "ad_info": {
            "adcode": 140425,
            "province": "山西省",
            "city": "长治市",
            "district": "平顺县"
        }
    },
    {
        "id": "646767306522900453",
        "title": "公共厕所",
        "address": "山西省长治市屯留区欢笑动物园东北侧70米",
        "tel": "",
        "category": "基础设施:公共设施:公共厕所",
        "type": 0,
        "location": {
            "lat": 36.254939,
            "lng": 112.744067
        },
        "ad_info": {
            "adcode": 140405,
            "province": "山西省",
            "city": "长治市",
            "district": "屯留区"
        }
    },
    {
        "id": "15744022791394464968",
        "title": "公共厕所",
        "address": "山西省长治市上党区新市西街与银桥巷交叉口正西方向66米左右",
        "tel": "",
        "category": "基础设施:公共设施:公共厕所",
        "type": 0,
        "location": {
            "lat": 36.050227,
            "lng": 113.055913
        },
        "ad_info": {
            "adcode": 140404,
            "province": "山西省",
            "city": "长治市",
            "district": "上党区"
        }
    },
    {
        "id": "12260583424331580399",
        "title": "公共厕所",
        "address": "山西省长治市上党区体园巷与光明北路交叉口东北方向22米左右",
        "tel": "",
        "category": "基础设施:公共设施:公共厕所",
        "type": 0,
        "location": {
            "lat": 36.056987,
            "lng": 113.060169
        },
        "ad_info": {
            "adcode": 140404,
            "province": "山西省",
            "city": "长治市",
            "district": "上党区"
        }
    },
    {
        "id": "13391444810892061181",
        "title": "公共厕所",
        "address": "山西省长治市壶关县西城路177号",
        "tel": "",
        "category": "基础设施:公共设施:公共厕所",
        "type": 0,
        "location": {
            "lat": 36.107819,
            "lng": 113.200894
        },
        "ad_info": {
            "adcode": 140427,
            "province": "山西省",
            "city": "长治市",
            "district": "壶关县"
        }
    },
    {
        "id": "6592845304056606348",
        "title": "公共厕所",
        "address": "山西省长治市潞州区永易青年汇北侧270米",
        "tel": "",
        "category": "基础设施:公共设施:公共厕所",
        "type": 0,
        "location": {
            "lat": 36.192487,
            "lng": 113.058143
        },
        "ad_info": {
            "adcode": 140403,
            "province": "山西省",
            "city": "长治市",
            "district": "潞州区"
        }
    },
    {
        "id": "1985200556234806372",
        "title": "公共厕所",
        "address": "山西省长治市武乡县太行东街与红旗路交叉口西北方向138米左右",
        "tel": "",
        "category": "基础设施:公共设施:公共厕所",
        "type": 0,
        "location": {
            "lat": 36.834051,
            "lng": 112.862084
        },
        "ad_info": {
            "adcode": 140429,
            "province": "山西省",
            "city": "长治市",
            "district": "武乡县"
        }
    },
    {
        "id": "10361369971470689694",
        "title": "公共厕所",
        "address": "山西省长治市上党区永丰小学西北侧80米",
        "tel": "",
        "category": "基础设施:公共设施:公共厕所",
        "type": 0,
        "location": {
            "lat": 35.90198,
            "lng": 113.058441
        },
        "ad_info": {
            "adcode": 140404,
            "province": "山西省",
            "city": "长治市",
            "district": "上党区"
        }
    },
    {
        "id": "17424856693401423299",
        "title": "公共厕所",
        "address": "山西省长治市长子县东大街与神农路交叉口正西方向79米左右",
        "tel": "",
        "category": "基础设施:公共设施:公共厕所",
        "type": 0,
        "location": {
            "lat": 36.119768,
            "lng": 112.898249
        },
        "ad_info": {
            "adcode": 140428,
            "province": "山西省",
            "city": "长治市",
            "district": "长子县"
        }
    },
    {
        "id": "12630025335454768824",
        "title": "公共厕所",
        "address": "山西省长治市武乡县102省道北50米",
        "tel": "",
        "category": "基础设施:公共设施:公共厕所",
        "type": 0,
        "location": {
            "lat": 36.966258,
            "lng": 112.876124
        },
        "ad_info": {
            "adcode": 140429,
            "province": "山西省",
            "city": "长治市",
            "district": "武乡县"
        }
    },
    {
        "id": "14024523638168488114",
        "title": "公共厕所",
        "address": "山西省长治市上党区迎宾西街与银桥巷交叉口正北方向21米左右",
        "tel": "",
        "category": "基础设施:公共设施:公共厕所",
        "type": 0,
        "location": {
            "lat": 36.052325,
            "lng": 113.055643
        },
        "ad_info": {
            "adcode": 140404,
            "province": "山西省",
            "city": "长治市",
            "district": "上党区"
        }
    },
    {
        "id": "3663054317595575173",
        "title": "公共厕所",
        "address": "山西省长治市潞州区Y007与北环东街辅路交叉口东北方向441米左右",
        "tel": "",
        "category": "基础设施:公共设施:公共厕所",
        "type": 0,
        "location": {
            "lat": 36.229509,
            "lng": 113.138466
        },
        "ad_info": {
            "adcode": 140403,
            "province": "山西省",
            "city": "长治市",
            "district": "潞州区"
        }
    },
    {
        "id": "5315585416848733371",
        "title": "公共厕所",
        "address": "山西省长治市黎城县乌海线与金元街交叉口西南方向121米左右",
        "tel": "",
        "category": "基础设施:公共设施:公共厕所",
        "type": 0,
        "location": {
            "lat": 36.468499,
            "lng": 113.361299
        },
        "ad_info": {
            "adcode": 140426,
            "province": "山西省",
            "city": "长治市",
            "district": "黎城县"
        }
    },
    {
        "id": "17312519612240510599",
        "title": "公共厕所",
        "address": "山西省长治市潞州区紫坊村西二路与紫金西街交叉口正南方向164米左右",
        "tel": "",
        "category": "基础设施:公共设施:公共厕所",
        "type": 0,
        "location": {
            "lat": 36.200584,
            "lng": 113.09155
        },
        "ad_info": {
            "adcode": 140403,
            "province": "山西省",
            "city": "长治市",
            "district": "潞州区"
        }
    },
    {
        "id": "14737066780932623255",
        "title": "无障碍公共厕所",
        "address": "山西省长治市潞州区丰园路与惠泽街交叉口正东方向22米左右",
        "tel": "",
        "category": "基础设施:公共设施:公共厕所",
        "type": 0,
        "location": {
            "lat": 36.142283,
            "lng": 113.117758
        },
        "ad_info": {
            "adcode": 140403,
            "province": "山西省",
            "city": "长治市",
            "district": "潞州区"
        }
    },
    {
        "id": "15218747540505921818",
        "title": "公共厕所",
        "address": "山西省长治市沁源县桃园街与桃园西街交叉口正北方向194米左右",
        "tel": "",
        "category": "基础设施:公共设施:公共厕所",
        "type": 0,
        "location": {
            "lat": 36.517903,
            "lng": 112.341289
        },
        "ad_info": {
            "adcode": 140431,
            "province": "山西省",
            "city": "长治市",
            "district": "沁源县"
        }
    },
    {
        "id": "9684204166403034945",
        "title": "公共厕所",
        "address": "山西省长治市潞州区西环路与长安街交叉口正东方向225米左右",
        "tel": "",
        "category": "基础设施:公共设施:公共厕所",
        "type": 0,
        "location": {
            "lat": 36.182888,
            "lng": 113.085567
        },
        "ad_info": {
            "adcode": 140403,
            "province": "山西省",
            "city": "长治市",
            "district": "潞州区"
        }
    },
    {
        "id": "16475934048603995316",
        "title": "公共厕所",
        "address": "山西省长治市潞州区东环路辅路与五针街交叉口东南方向1560米左右",
        "tel": "",
        "category": "基础设施:公共设施:公共厕所",
        "type": 0,
        "location": {
            "lat": 36.152072,
            "lng": 113.1493
        },
        "ad_info": {
            "adcode": 140403,
            "province": "山西省",
            "city": "长治市",
            "district": "潞州区"
        }
    },
    {
        "id": "6189932196315921982",
        "title": "公共厕所",
        "address": "山西省长治市潞城区中华西街274号",
        "tel": "",
        "category": "基础设施:公共设施:公共厕所",
        "type": 0,
        "location": {
            "lat": 36.331093,
            "lng": 113.224189
        },
        "ad_info": {
            "adcode": 140406,
            "province": "山西省",
            "city": "长治市",
            "district": "潞城区"
        }
    },
    {
        "id": "5047283289297523076",
        "title": "公共厕所",
        "address": "山西省长治市潞州区威远门中路与威远门南路交叉口正西方向235米左右",
        "tel": "",
        "category": "基础设施:公共设施:公共厕所",
        "type": 0,
        "location": {
            "lat": 36.190693,
            "lng": 113.09557
        },
        "ad_info": {
            "adcode": 140403,
            "province": "山西省",
            "city": "长治市",
            "district": "潞州区"
        }
    },
    {
        "id": "2783314341226398818",
        "title": "公共厕所",
        "address": "山西省长治市平顺县S324与赤壁桥交叉口东南方向1978米左右",
        "tel": "",
        "category": "基础设施:公共设施:公共厕所",
        "type": 0,
        "location": {
            "lat": 36.354567,
            "lng": 113.558903
        },
        "ad_info": {
            "adcode": 140425,
            "province": "山西省",
            "city": "长治市",
            "district": "平顺县"
        }
    },
    {
        "id": "646767306522900453",
        "title": "公共厕所",
        "address": "山西省长治市屯留区欢笑动物园东北侧70米",
        "tel": "",
        "category": "基础设施:公共设施:公共厕所",
        "type": 0,
        "location": {
            "lat": 36.254939,
            "lng": 112.744067
        },
        "ad_info": {
            "adcode": 140405,
            "province": "山西省",
            "city": "长治市",
            "district": "屯留区"
        }
    },
    {
        "id": "15744022791394464968",
        "title": "公共厕所",
        "address": "山西省长治市上党区新市西街与银桥巷交叉口正西方向66米左右",
        "tel": "",
        "category": "基础设施:公共设施:公共厕所",
        "type": 0,
        "location": {
            "lat": 36.050227,
            "lng": 113.055913
        },
        "ad_info": {
            "adcode": 140404,
            "province": "山西省",
            "city": "长治市",
            "district": "上党区"
        }
    },
    {
        "id": "12260583424331580399",
        "title": "公共厕所",
        "address": "山西省长治市上党区体园巷与光明北路交叉口东北方向22米左右",
        "tel": "",
        "category": "基础设施:公共设施:公共厕所",
        "type": 0,
        "location": {
            "lat": 36.056987,
            "lng": 113.060169
        },
        "ad_info": {
            "adcode": 140404,
            "province": "山西省",
            "city": "长治市",
            "district": "上党区"
        }
    },
    {
        "id": "13391444810892061181",
        "title": "公共厕所",
        "address": "山西省长治市壶关县西城路177号",
        "tel": "",
        "category": "基础设施:公共设施:公共厕所",
        "type": 0,
        "location": {
            "lat": 36.107819,
            "lng": 113.200894
        },
        "ad_info": {
            "adcode": 140427,
            "province": "山西省",
            "city": "长治市",
            "district": "壶关县"
        }
    },
    {
        "id": "6592845304056606348",
        "title": "公共厕所",
        "address": "山西省长治市潞州区永易青年汇北侧270米",
        "tel": "",
        "category": "基础设施:公共设施:公共厕所",
        "type": 0,
        "location": {
            "lat": 36.192487,
            "lng": 113.058143
        },
        "ad_info": {
            "adcode": 140403,
            "province": "山西省",
            "city": "长治市",
            "district": "潞州区"
        }
    },
    {
        "id": "1985200556234806372",
        "title": "公共厕所",
        "address": "山西省长治市武乡县太行东街与红旗路交叉口西北方向138米左右",
        "tel": "",
        "category": "基础设施:公共设施:公共厕所",
        "type": 0,
        "location": {
            "lat": 36.834051,
            "lng": 112.862084
        },
        "ad_info": {
            "adcode": 140429,
            "province": "山西省",
            "city": "长治市",
            "district": "武乡县"
        }
    },
    {
        "id": "10361369971470689694",
        "title": "公共厕所",
        "address": "山西省长治市上党区永丰小学西北侧80米",
        "tel": "",
        "category": "基础设施:公共设施:公共厕所",
        "type": 0,
        "location": {
            "lat": 35.90198,
            "lng": 113.058441
        },
        "ad_info": {
            "adcode": 140404,
            "province": "山西省",
            "city": "长治市",
            "district": "上党区"
        }
    },
    {
        "id": "17424856693401423299",
        "title": "公共厕所",
        "address": "山西省长治市长子县东大街与神农路交叉口正西方向79米左右",
        "tel": "",
        "category": "基础设施:公共设施:公共厕所",
        "type": 0,
        "location": {
            "lat": 36.119768,
            "lng": 112.898249
        },
        "ad_info": {
            "adcode": 140428,
            "province": "山西省",
            "city": "长治市",
            "district": "长子县"
        }
    },
    {
        "id": "12630025335454768824",
        "title": "公共厕所",
        "address": "山西省长治市武乡县102省道北50米",
        "tel": "",
        "category": "基础设施:公共设施:公共厕所",
        "type": 0,
        "location": {
            "lat": 36.966258,
            "lng": 112.876124
        },
        "ad_info": {
            "adcode": 140429,
            "province": "山西省",
            "city": "长治市",
            "district": "武乡县"
        }
    },
    {
        "id": "14024523638168488114",
        "title": "公共厕所",
        "address": "山西省长治市上党区迎宾西街与银桥巷交叉口正北方向21米左右",
        "tel": "",
        "category": "基础设施:公共设施:公共厕所",
        "type": 0,
        "location": {
            "lat": 36.052325,
            "lng": 113.055643
        },
        "ad_info": {
            "adcode": 140404,
            "province": "山西省",
            "city": "长治市",
            "district": "上党区"
        }
    },
    {
        "id": "3663054317595575173",
        "title": "公共厕所",
        "address": "山西省长治市潞州区Y007与北环东街辅路交叉口东北方向441米左右",
        "tel": "",
        "category": "基础设施:公共设施:公共厕所",
        "type": 0,
        "location": {
            "lat": 36.229509,
            "lng": 113.138466
        },
        "ad_info": {
            "adcode": 140403,
            "province": "山西省",
            "city": "长治市",
            "district": "潞州区"
        }
    },
    {
        "id": "5315585416848733371",
        "title": "公共厕所",
        "address": "山西省长治市黎城县乌海线与金元街交叉口西南方向121米左右",
        "tel": "",
        "category": "基础设施:公共设施:公共厕所",
        "type": 0,
        "location": {
            "lat": 36.468499,
            "lng": 113.361299
        },
        "ad_info": {
            "adcode": 140426,
            "province": "山西省",
            "city": "长治市",
            "district": "黎城县"
        }
    },
    {
        "id": "17312519612240510599",
        "title": "公共厕所",
        "address": "山西省长治市潞州区紫坊村西二路与紫金西街交叉口正南方向164米左右",
        "tel": "",
        "category": "基础设施:公共设施:公共厕所",
        "type": 0,
        "location": {
            "lat": 36.200584,
            "lng": 113.09155
        },
        "ad_info": {
            "adcode": 140403,
            "province": "山西省",
            "city": "长治市",
            "district": "潞州区"
        }
    },
    {
        "id": "14737066780932623255",
        "title": "无障碍公共厕所",
        "address": "山西省长治市潞州区丰园路与惠泽街交叉口正东方向22米左右",
        "tel": "",
        "category": "基础设施:公共设施:公共厕所",
        "type": 0,
        "location": {
            "lat": 36.142283,
            "lng": 113.117758
        },
        "ad_info": {
            "adcode": 140403,
            "province": "山西省",
            "city": "长治市",
            "district": "潞州区"
        }
    },
    {
        "id": "15218747540505921818",
        "title": "公共厕所",
        "address": "山西省长治市沁源县桃园街与桃园西街交叉口正北方向194米左右",
        "tel": "",
        "category": "基础设施:公共设施:公共厕所",
        "type": 0,
        "location": {
            "lat": 36.517903,
            "lng": 112.341289
        },
        "ad_info": {
            "adcode": 140431,
            "province": "山西省",
            "city": "长治市",
            "district": "沁源县"
        }
    },
    {
        "id": "9684204166403034945",
        "title": "公共厕所",
        "address": "山西省长治市潞州区西环路与长安街交叉口正东方向225米左右",
        "tel": "",
        "category": "基础设施:公共设施:公共厕所",
        "type": 0,
        "location": {
            "lat": 36.182888,
            "lng": 113.085567
        },
        "ad_info": {
            "adcode": 140403,
            "province": "山西省",
            "city": "长治市",
            "district": "潞州区"
        }
    },
    {
        "id": "16475934048603995316",
        "title": "公共厕所",
        "address": "山西省长治市潞州区东环路辅路与五针街交叉口东南方向1560米左右",
        "tel": "",
        "category": "基础设施:公共设施:公共厕所",
        "type": 0,
        "location": {
            "lat": 36.152072,
            "lng": 113.1493
        },
        "ad_info": {
            "adcode": 140403,
            "province": "山西省",
            "city": "长治市",
            "district": "潞州区"
        }
    },
    {
        "id": "6189932196315921982",
        "title": "公共厕所",
        "address": "山西省长治市潞城区中华西街274号",
        "tel": "",
        "category": "基础设施:公共设施:公共厕所",
        "type": 0,
        "location": {
            "lat": 36.331093,
            "lng": 113.224189
        },
        "ad_info": {
            "adcode": 140406,
            "province": "山西省",
            "city": "长治市",
            "district": "潞城区"
        }
    },
    {
        "id": "5047283289297523076",
        "title": "公共厕所",
        "address": "山西省长治市潞州区威远门中路与威远门南路交叉口正西方向235米左右",
        "tel": "",
        "category": "基础设施:公共设施:公共厕所",
        "type": 0,
        "location": {
            "lat": 36.190693,
            "lng": 113.09557
        },
        "ad_info": {
            "adcode": 140403,
            "province": "山西省",
            "city": "长治市",
            "district": "潞州区"
        }
    },
    {
        "id": "2783314341226398818",
        "title": "公共厕所",
        "address": "山西省长治市平顺县S324与赤壁桥交叉口东南方向1978米左右",
        "tel": "",
        "category": "基础设施:公共设施:公共厕所",
        "type": 0,
        "location": {
            "lat": 36.354567,
            "lng": 113.558903
        },
        "ad_info": {
            "adcode": 140425,
            "province": "山西省",
            "city": "长治市",
            "district": "平顺县"
        }
    },
    {
        "id": "646767306522900453",
        "title": "公共厕所",
        "address": "山西省长治市屯留区欢笑动物园东北侧70米",
        "tel": "",
        "category": "基础设施:公共设施:公共厕所",
        "type": 0,
        "location": {
            "lat": 36.254939,
            "lng": 112.744067
        },
        "ad_info": {
            "adcode": 140405,
            "province": "山西省",
            "city": "长治市",
            "district": "屯留区"
        }
    },
    {
        "id": "15744022791394464968",
        "title": "公共厕所",
        "address": "山西省长治市上党区新市西街与银桥巷交叉口正西方向66米左右",
        "tel": "",
        "category": "基础设施:公共设施:公共厕所",
        "type": 0,
        "location": {
            "lat": 36.050227,
            "lng": 113.055913
        },
        "ad_info": {
            "adcode": 140404,
            "province": "山西省",
            "city": "长治市",
            "district": "上党区"
        }
    },
    {
        "id": "12260583424331580399",
        "title": "公共厕所",
        "address": "山西省长治市上党区体园巷与光明北路交叉口东北方向22米左右",
        "tel": "",
        "category": "基础设施:公共设施:公共厕所",
        "type": 0,
        "location": {
            "lat": 36.056987,
            "lng": 113.060169
        },
        "ad_info": {
            "adcode": 140404,
            "province": "山西省",
            "city": "长治市",
            "district": "上党区"
        }
    },
    {
        "id": "13391444810892061181",
        "title": "公共厕所",
        "address": "山西省长治市壶关县西城路177号",
        "tel": "",
        "category": "基础设施:公共设施:公共厕所",
        "type": 0,
        "location": {
            "lat": 36.107819,
            "lng": 113.200894
        },
        "ad_info": {
            "adcode": 140427,
            "province": "山西省",
            "city": "长治市",
            "district": "壶关县"
        }
    },
    {
        "id": "6592845304056606348",
        "title": "公共厕所",
        "address": "山西省长治市潞州区永易青年汇北侧270米",
        "tel": "",
        "category": "基础设施:公共设施:公共厕所",
        "type": 0,
        "location": {
            "lat": 36.192487,
            "lng": 113.058143
        },
        "ad_info": {
            "adcode": 140403,
            "province": "山西省",
            "city": "长治市",
            "district": "潞州区"
        }
    },
    {
        "id": "1985200556234806372",
        "title": "公共厕所",
        "address": "山西省长治市武乡县太行东街与红旗路交叉口西北方向138米左右",
        "tel": "",
        "category": "基础设施:公共设施:公共厕所",
        "type": 0,
        "location": {
            "lat": 36.834051,
            "lng": 112.862084
        },
        "ad_info": {
            "adcode": 140429,
            "province": "山西省",
            "city": "长治市",
            "district": "武乡县"
        }
    },
    {
        "id": "10361369971470689694",
        "title": "公共厕所",
        "address": "山西省长治市上党区永丰小学西北侧80米",
        "tel": "",
        "category": "基础设施:公共设施:公共厕所",
        "type": 0,
        "location": {
            "lat": 35.90198,
            "lng": 113.058441
        },
        "ad_info": {
            "adcode": 140404,
            "province": "山西省",
            "city": "长治市",
            "district": "上党区"
        }
    },
    {
        "id": "17424856693401423299",
        "title": "公共厕所",
        "address": "山西省长治市长子县东大街与神农路交叉口正西方向79米左右",
        "tel": "",
        "category": "基础设施:公共设施:公共厕所",
        "type": 0,
        "location": {
            "lat": 36.119768,
            "lng": 112.898249
        },
        "ad_info": {
            "adcode": 140428,
            "province": "山西省",
            "city": "长治市",
            "district": "长子县"
        }
    },
    {
        "id": "12630025335454768824",
        "title": "公共厕所",
        "address": "山西省长治市武乡县102省道北50米",
        "tel": "",
        "category": "基础设施:公共设施:公共厕所",
        "type": 0,
        "location": {
            "lat": 36.966258,
            "lng": 112.876124
        },
        "ad_info": {
            "adcode": 140429,
            "province": "山西省",
            "city": "长治市",
            "district": "武乡县"
        }
    },
    {
        "id": "14024523638168488114",
        "title": "公共厕所",
        "address": "山西省长治市上党区迎宾西街与银桥巷交叉口正北方向21米左右",
        "tel": "",
        "category": "基础设施:公共设施:公共厕所",
        "type": 0,
        "location": {
            "lat": 36.052325,
            "lng": 113.055643
        },
        "ad_info": {
            "adcode": 140404,
            "province": "山西省",
            "city": "长治市",
            "district": "上党区"
        }
    },
    {
        "id": "3663054317595575173",
        "title": "公共厕所",
        "address": "山西省长治市潞州区Y007与北环东街辅路交叉口东北方向441米左右",
        "tel": "",
        "category": "基础设施:公共设施:公共厕所",
        "type": 0,
        "location": {
            "lat": 36.229509,
            "lng": 113.138466
        },
        "ad_info": {
            "adcode": 140403,
            "province": "山西省",
            "city": "长治市",
            "district": "潞州区"
        }
    },
    {
        "id": "5315585416848733371",
        "title": "公共厕所",
        "address": "山西省长治市黎城县乌海线与金元街交叉口西南方向121米左右",
        "tel": "",
        "category": "基础设施:公共设施:公共厕所",
        "type": 0,
        "location": {
            "lat": 36.468499,
            "lng": 113.361299
        },
        "ad_info": {
            "adcode": 140426,
            "province": "山西省",
            "city": "长治市",
            "district": "黎城县"
        }
    },
    {
        "id": "17312519612240510599",
        "title": "公共厕所",
        "address": "山西省长治市潞州区紫坊村西二路与紫金西街交叉口正南方向164米左右",
        "tel": "",
        "category": "基础设施:公共设施:公共厕所",
        "type": 0,
        "location": {
            "lat": 36.200584,
            "lng": 113.09155
        },
        "ad_info": {
            "adcode": 140403,
            "province": "山西省",
            "city": "长治市",
            "district": "潞州区"
        }
    },
    {
        "id": "14737066780932623255",
        "title": "无障碍公共厕所",
        "address": "山西省长治市潞州区丰园路与惠泽街交叉口正东方向22米左右",
        "tel": "",
        "category": "基础设施:公共设施:公共厕所",
        "type": 0,
        "location": {
            "lat": 36.142283,
            "lng": 113.117758
        },
        "ad_info": {
            "adcode": 140403,
            "province": "山西省",
            "city": "长治市",
            "district": "潞州区"
        }
    },
    {
        "id": "15218747540505921818",
        "title": "公共厕所",
        "address": "山西省长治市沁源县桃园街与桃园西街交叉口正北方向194米左右",
        "tel": "",
        "category": "基础设施:公共设施:公共厕所",
        "type": 0,
        "location": {
            "lat": 36.517903,
            "lng": 112.341289
        },
        "ad_info": {
            "adcode": 140431,
            "province": "山西省",
            "city": "长治市",
            "district": "沁源县"
        }
    },
    {
        "id": "9684204166403034945",
        "title": "公共厕所",
        "address": "山西省长治市潞州区西环路与长安街交叉口正东方向225米左右",
        "tel": "",
        "category": "基础设施:公共设施:公共厕所",
        "type": 0,
        "location": {
            "lat": 36.182888,
            "lng": 113.085567
        },
        "ad_info": {
            "adcode": 140403,
            "province": "山西省",
            "city": "长治市",
            "district": "潞州区"
        }
    },
    {
        "id": "16475934048603995316",
        "title": "公共厕所",
        "address": "山西省长治市潞州区东环路辅路与五针街交叉口东南方向1560米左右",
        "tel": "",
        "category": "基础设施:公共设施:公共厕所",
        "type": 0,
        "location": {
            "lat": 36.152072,
            "lng": 113.1493
        },
        "ad_info": {
            "adcode": 140403,
            "province": "山西省",
            "city": "长治市",
            "district": "潞州区"
        }
    },
    {
        "id": "6189932196315921982",
        "title": "公共厕所",
        "address": "山西省长治市潞城区中华西街274号",
        "tel": "",
        "category": "基础设施:公共设施:公共厕所",
        "type": 0,
        "location": {
            "lat": 36.331093,
            "lng": 113.224189
        },
        "ad_info": {
            "adcode": 140406,
            "province": "山西省",
            "city": "长治市",
            "district": "潞城区"
        }
    },
    {
        "id": "5047283289297523076",
        "title": "公共厕所",
        "address": "山西省长治市潞州区威远门中路与威远门南路交叉口正西方向235米左右",
        "tel": "",
        "category": "基础设施:公共设施:公共厕所",
        "type": 0,
        "location": {
            "lat": 36.190693,
            "lng": 113.09557
        },
        "ad_info": {
            "adcode": 140403,
            "province": "山西省",
            "city": "长治市",
            "district": "潞州区"
        }
    },
    {
        "id": "2783314341226398818",
        "title": "公共厕所",
        "address": "山西省长治市平顺县S324与赤壁桥交叉口东南方向1978米左右",
        "tel": "",
        "category": "基础设施:公共设施:公共厕所",
        "type": 0,
        "location": {
            "lat": 36.354567,
            "lng": 113.558903
        },
        "ad_info": {
            "adcode": 140425,
            "province": "山西省",
            "city": "长治市",
            "district": "平顺县"
        }
    },
    {
        "id": "646767306522900453",
        "title": "公共厕所",
        "address": "山西省长治市屯留区欢笑动物园东北侧70米",
        "tel": "",
        "category": "基础设施:公共设施:公共厕所",
        "type": 0,
        "location": {
            "lat": 36.254939,
            "lng": 112.744067
        },
        "ad_info": {
            "adcode": 140405,
            "province": "山西省",
            "city": "长治市",
            "district": "屯留区"
        }
    },
    {
        "id": "15744022791394464968",
        "title": "公共厕所",
        "address": "山西省长治市上党区新市西街与银桥巷交叉口正西方向66米左右",
        "tel": "",
        "category": "基础设施:公共设施:公共厕所",
        "type": 0,
        "location": {
            "lat": 36.050227,
            "lng": 113.055913
        },
        "ad_info": {
            "adcode": 140404,
            "province": "山西省",
            "city": "长治市",
            "district": "上党区"
        }
    },
    {
        "id": "12260583424331580399",
        "title": "公共厕所",
        "address": "山西省长治市上党区体园巷与光明北路交叉口东北方向22米左右",
        "tel": "",
        "category": "基础设施:公共设施:公共厕所",
        "type": 0,
        "location": {
            "lat": 36.056987,
            "lng": 113.060169
        },
        "ad_info": {
            "adcode": 140404,
            "province": "山西省",
            "city": "长治市",
            "district": "上党区"
        }
    },
    {
        "id": "13391444810892061181",
        "title": "公共厕所",
        "address": "山西省长治市壶关县西城路177号",
        "tel": "",
        "category": "基础设施:公共设施:公共厕所",
        "type": 0,
        "location": {
            "lat": 36.107819,
            "lng": 113.200894
        },
        "ad_info": {
            "adcode": 140427,
            "province": "山西省",
            "city": "长治市",
            "district": "壶关县"
        }
    },
    {
        "id": "6592845304056606348",
        "title": "公共厕所",
        "address": "山西省长治市潞州区永易青年汇北侧270米",
        "tel": "",
        "category": "基础设施:公共设施:公共厕所",
        "type": 0,
        "location": {
            "lat": 36.192487,
            "lng": 113.058143
        },
        "ad_info": {
            "adcode": 140403,
            "province": "山西省",
            "city": "长治市",
            "district": "潞州区"
        }
    },
    {
        "id": "1985200556234806372",
        "title": "公共厕所",
        "address": "山西省长治市武乡县太行东街与红旗路交叉口西北方向138米左右",
        "tel": "",
        "category": "基础设施:公共设施:公共厕所",
        "type": 0,
        "location": {
            "lat": 36.834051,
            "lng": 112.862084
        },
        "ad_info": {
            "adcode": 140429,
            "province": "山西省",
            "city": "长治市",
            "district": "武乡县"
        }
    },
    {
        "id": "10361369971470689694",
        "title": "公共厕所",
        "address": "山西省长治市上党区永丰小学西北侧80米",
        "tel": "",
        "category": "基础设施:公共设施:公共厕所",
        "type": 0,
        "location": {
            "lat": 35.90198,
            "lng": 113.058441
        },
        "ad_info": {
            "adcode": 140404,
            "province": "山西省",
            "city": "长治市",
            "district": "上党区"
        }
    },
    {
        "id": "17424856693401423299",
        "title": "公共厕所",
        "address": "山西省长治市长子县东大街与神农路交叉口正西方向79米左右",
        "tel": "",
        "category": "基础设施:公共设施:公共厕所",
        "type": 0,
        "location": {
            "lat": 36.119768,
            "lng": 112.898249
        },
        "ad_info": {
            "adcode": 140428,
            "province": "山西省",
            "city": "长治市",
            "district": "长子县"
        }
    },
    {
        "id": "12630025335454768824",
        "title": "公共厕所",
        "address": "山西省长治市武乡县102省道北50米",
        "tel": "",
        "category": "基础设施:公共设施:公共厕所",
        "type": 0,
        "location": {
            "lat": 36.966258,
            "lng": 112.876124
        },
        "ad_info": {
            "adcode": 140429,
            "province": "山西省",
            "city": "长治市",
            "district": "武乡县"
        }
    },
    {
        "id": "14024523638168488114",
        "title": "公共厕所",
        "address": "山西省长治市上党区迎宾西街与银桥巷交叉口正北方向21米左右",
        "tel": "",
        "category": "基础设施:公共设施:公共厕所",
        "type": 0,
        "location": {
            "lat": 36.052325,
            "lng": 113.055643
        },
        "ad_info": {
            "adcode": 140404,
            "province": "山西省",
            "city": "长治市",
            "district": "上党区"
        }
    },
    {
        "id": "3663054317595575173",
        "title": "公共厕所",
        "address": "山西省长治市潞州区Y007与北环东街辅路交叉口东北方向441米左右",
        "tel": "",
        "category": "基础设施:公共设施:公共厕所",
        "type": 0,
        "location": {
            "lat": 36.229509,
            "lng": 113.138466
        },
        "ad_info": {
            "adcode": 140403,
            "province": "山西省",
            "city": "长治市",
            "district": "潞州区"
        }
    },
    {
        "id": "5315585416848733371",
        "title": "公共厕所",
        "address": "山西省长治市黎城县乌海线与金元街交叉口西南方向121米左右",
        "tel": "",
        "category": "基础设施:公共设施:公共厕所",
        "type": 0,
        "location": {
            "lat": 36.468499,
            "lng": 113.361299
        },
        "ad_info": {
            "adcode": 140426,
            "province": "山西省",
            "city": "长治市",
            "district": "黎城县"
        }
    },
    {
        "id": "17312519612240510599",
        "title": "公共厕所",
        "address": "山西省长治市潞州区紫坊村西二路与紫金西街交叉口正南方向164米左右",
        "tel": "",
        "category": "基础设施:公共设施:公共厕所",
        "type": 0,
        "location": {
            "lat": 36.200584,
            "lng": 113.09155
        },
        "ad_info": {
            "adcode": 140403,
            "province": "山西省",
            "city": "长治市",
            "district": "潞州区"
        }
    },
    {
        "id": "14737066780932623255",
        "title": "无障碍公共厕所",
        "address": "山西省长治市潞州区丰园路与惠泽街交叉口正东方向22米左右",
        "tel": "",
        "category": "基础设施:公共设施:公共厕所",
        "type": 0,
        "location": {
            "lat": 36.142283,
            "lng": 113.117758
        },
        "ad_info": {
            "adcode": 140403,
            "province": "山西省",
            "city": "长治市",
            "district": "潞州区"
        }
    },
    {
        "id": "15218747540505921818",
        "title": "公共厕所",
        "address": "山西省长治市沁源县桃园街与桃园西街交叉口正北方向194米左右",
        "tel": "",
        "category": "基础设施:公共设施:公共厕所",
        "type": 0,
        "location": {
            "lat": 36.517903,
            "lng": 112.341289
        },
        "ad_info": {
            "adcode": 140431,
            "province": "山西省",
            "city": "长治市",
            "district": "沁源县"
        }
    },
    {
        "id": "9684204166403034945",
        "title": "公共厕所",
        "address": "山西省长治市潞州区西环路与长安街交叉口正东方向225米左右",
        "tel": "",
        "category": "基础设施:公共设施:公共厕所",
        "type": 0,
        "location": {
            "lat": 36.182888,
            "lng": 113.085567
        },
        "ad_info": {
            "adcode": 140403,
            "province": "山西省",
            "city": "长治市",
            "district": "潞州区"
        }
    },
    {
        "id": "16475934048603995316",
        "title": "公共厕所",
        "address": "山西省长治市潞州区东环路辅路与五针街交叉口东南方向1560米左右",
        "tel": "",
        "category": "基础设施:公共设施:公共厕所",
        "type": 0,
        "location": {
            "lat": 36.152072,
            "lng": 113.1493
        },
        "ad_info": {
            "adcode": 140403,
            "province": "山西省",
            "city": "长治市",
            "district": "潞州区"
        }
    },
    {
        "id": "6189932196315921982",
        "title": "公共厕所",
        "address": "山西省长治市潞城区中华西街274号",
        "tel": "",
        "category": "基础设施:公共设施:公共厕所",
        "type": 0,
        "location": {
            "lat": 36.331093,
            "lng": 113.224189
        },
        "ad_info": {
            "adcode": 140406,
            "province": "山西省",
            "city": "长治市",
            "district": "潞城区"
        }
    },
    {
        "id": "5047283289297523076",
        "title": "公共厕所",
        "address": "山西省长治市潞州区威远门中路与威远门南路交叉口正西方向235米左右",
        "tel": "",
        "category": "基础设施:公共设施:公共厕所",
        "type": 0,
        "location": {
            "lat": 36.190693,
            "lng": 113.09557
        },
        "ad_info": {
            "adcode": 140403,
            "province": "山西省",
            "city": "长治市",
            "district": "潞州区"
        }
    },
    {
        "id": "2783314341226398818",
        "title": "公共厕所",
        "address": "山西省长治市平顺县S324与赤壁桥交叉口东南方向1978米左右",
        "tel": "",
        "category": "基础设施:公共设施:公共厕所",
        "type": 0,
        "location": {
            "lat": 36.354567,
            "lng": 113.558903
        },
        "ad_info": {
            "adcode": 140425,
            "province": "山西省",
            "city": "长治市",
            "district": "平顺县"
        }
    },
    {
        "id": "646767306522900453",
        "title": "公共厕所",
        "address": "山西省长治市屯留区欢笑动物园东北侧70米",
        "tel": "",
        "category": "基础设施:公共设施:公共厕所",
        "type": 0,
        "location": {
            "lat": 36.254939,
            "lng": 112.744067
        },
        "ad_info": {
            "adcode": 140405,
            "province": "山西省",
            "city": "长治市",
            "district": "屯留区"
        }
    },
    {
        "id": "15744022791394464968",
        "title": "公共厕所",
        "address": "山西省长治市上党区新市西街与银桥巷交叉口正西方向66米左右",
        "tel": "",
        "category": "基础设施:公共设施:公共厕所",
        "type": 0,
        "location": {
            "lat": 36.050227,
            "lng": 113.055913
        },
        "ad_info": {
            "adcode": 140404,
            "province": "山西省",
            "city": "长治市",
            "district": "上党区"
        }
    },
    {
        "id": "12260583424331580399",
        "title": "公共厕所",
        "address": "山西省长治市上党区体园巷与光明北路交叉口东北方向22米左右",
        "tel": "",
        "category": "基础设施:公共设施:公共厕所",
        "type": 0,
        "location": {
            "lat": 36.056987,
            "lng": 113.060169
        },
        "ad_info": {
            "adcode": 140404,
            "province": "山西省",
            "city": "长治市",
            "district": "上党区"
        }
    },
    {
        "id": "13391444810892061181",
        "title": "公共厕所",
        "address": "山西省长治市壶关县西城路177号",
        "tel": "",
        "category": "基础设施:公共设施:公共厕所",
        "type": 0,
        "location": {
            "lat": 36.107819,
            "lng": 113.200894
        },
        "ad_info": {
            "adcode": 140427,
            "province": "山西省",
            "city": "长治市",
            "district": "壶关县"
        }
    },
    {
        "id": "6592845304056606348",
        "title": "公共厕所",
        "address": "山西省长治市潞州区永易青年汇北侧270米",
        "tel": "",
        "category": "基础设施:公共设施:公共厕所",
        "type": 0,
        "location": {
            "lat": 36.192487,
            "lng": 113.058143
        },
        "ad_info": {
            "adcode": 140403,
            "province": "山西省",
            "city": "长治市",
            "district": "潞州区"
        }
    },
    {
        "id": "1985200556234806372",
        "title": "公共厕所",
        "address": "山西省长治市武乡县太行东街与红旗路交叉口西北方向138米左右",
        "tel": "",
        "category": "基础设施:公共设施:公共厕所",
        "type": 0,
        "location": {
            "lat": 36.834051,
            "lng": 112.862084
        },
        "ad_info": {
            "adcode": 140429,
            "province": "山西省",
            "city": "长治市",
            "district": "武乡县"
        }
    },
    {
        "id": "10361369971470689694",
        "title": "公共厕所",
        "address": "山西省长治市上党区永丰小学西北侧80米",
        "tel": "",
        "category": "基础设施:公共设施:公共厕所",
        "type": 0,
        "location": {
            "lat": 35.90198,
            "lng": 113.058441
        },
        "ad_info": {
            "adcode": 140404,
            "province": "山西省",
            "city": "长治市",
            "district": "上党区"
        }
    },
    {
        "id": "17424856693401423299",
        "title": "公共厕所",
        "address": "山西省长治市长子县东大街与神农路交叉口正西方向79米左右",
        "tel": "",
        "category": "基础设施:公共设施:公共厕所",
        "type": 0,
        "location": {
            "lat": 36.119768,
            "lng": 112.898249
        },
        "ad_info": {
            "adcode": 140428,
            "province": "山西省",
            "city": "长治市",
            "district": "长子县"
        }
    },
    {
        "id": "12630025335454768824",
        "title": "公共厕所",
        "address": "山西省长治市武乡县102省道北50米",
        "tel": "",
        "category": "基础设施:公共设施:公共厕所",
        "type": 0,
        "location": {
            "lat": 36.966258,
            "lng": 112.876124
        },
        "ad_info": {
            "adcode": 140429,
            "province": "山西省",
            "city": "长治市",
            "district": "武乡县"
        }
    },
    {
        "id": "14024523638168488114",
        "title": "公共厕所",
        "address": "山西省长治市上党区迎宾西街与银桥巷交叉口正北方向21米左右",
        "tel": "",
        "category": "基础设施:公共设施:公共厕所",
        "type": 0,
        "location": {
            "lat": 36.052325,
            "lng": 113.055643
        },
        "ad_info": {
            "adcode": 140404,
            "province": "山西省",
            "city": "长治市",
            "district": "上党区"
        }
    },
    {
        "id": "3663054317595575173",
        "title": "公共厕所",
        "address": "山西省长治市潞州区Y007与北环东街辅路交叉口东北方向441米左右",
        "tel": "",
        "category": "基础设施:公共设施:公共厕所",
        "type": 0,
        "location": {
            "lat": 36.229509,
            "lng": 113.138466
        },
        "ad_info": {
            "adcode": 140403,
            "province": "山西省",
            "city": "长治市",
            "district": "潞州区"
        }
    },
    {
        "id": "5315585416848733371",
        "title": "公共厕所",
        "address": "山西省长治市黎城县乌海线与金元街交叉口西南方向121米左右",
        "tel": "",
        "category": "基础设施:公共设施:公共厕所",
        "type": 0,
        "location": {
            "lat": 36.468499,
            "lng": 113.361299
        },
        "ad_info": {
            "adcode": 140426,
            "province": "山西省",
            "city": "长治市",
            "district": "黎城县"
        }
    },
    {
        "id": "17312519612240510599",
        "title": "公共厕所",
        "address": "山西省长治市潞州区紫坊村西二路与紫金西街交叉口正南方向164米左右",
        "tel": "",
        "category": "基础设施:公共设施:公共厕所",
        "type": 0,
        "location": {
            "lat": 36.200584,
            "lng": 113.09155
        },
        "ad_info": {
            "adcode": 140403,
            "province": "山西省",
            "city": "长治市",
            "district": "潞州区"
        }
    },
    {
        "id": "14737066780932623255",
        "title": "无障碍公共厕所",
        "address": "山西省长治市潞州区丰园路与惠泽街交叉口正东方向22米左右",
        "tel": "",
        "category": "基础设施:公共设施:公共厕所",
        "type": 0,
        "location": {
            "lat": 36.142283,
            "lng": 113.117758
        },
        "ad_info": {
            "adcode": 140403,
            "province": "山西省",
            "city": "长治市",
            "district": "潞州区"
        }
    },
    {
        "id": "15218747540505921818",
        "title": "公共厕所",
        "address": "山西省长治市沁源县桃园街与桃园西街交叉口正北方向194米左右",
        "tel": "",
        "category": "基础设施:公共设施:公共厕所",
        "type": 0,
        "location": {
            "lat": 36.517903,
            "lng": 112.341289
        },
        "ad_info": {
            "adcode": 140431,
            "province": "山西省",
            "city": "长治市",
            "district": "沁源县"
        }
    },
    {
        "id": "9684204166403034945",
        "title": "公共厕所",
        "address": "山西省长治市潞州区西环路与长安街交叉口正东方向225米左右",
        "tel": "",
        "category": "基础设施:公共设施:公共厕所",
        "type": 0,
        "location": {
            "lat": 36.182888,
            "lng": 113.085567
        },
        "ad_info": {
            "adcode": 140403,
            "province": "山西省",
            "city": "长治市",
            "district": "潞州区"
        }
    },
    {
        "id": "16475934048603995316",
        "title": "公共厕所",
        "address": "山西省长治市潞州区东环路辅路与五针街交叉口东南方向1560米左右",
        "tel": "",
        "category": "基础设施:公共设施:公共厕所",
        "type": 0,
        "location": {
            "lat": 36.152072,
            "lng": 113.1493
        },
        "ad_info": {
            "adcode": 140403,
            "province": "山西省",
            "city": "长治市",
            "district": "潞州区"
        }
    },
    {
        "id": "6189932196315921982",
        "title": "公共厕所",
        "address": "山西省长治市潞城区中华西街274号",
        "tel": "",
        "category": "基础设施:公共设施:公共厕所",
        "type": 0,
        "location": {
            "lat": 36.331093,
            "lng": 113.224189
        },
        "ad_info": {
            "adcode": 140406,
            "province": "山西省",
            "city": "长治市",
            "district": "潞城区"
        }
    },
    {
        "id": "5047283289297523076",
        "title": "公共厕所",
        "address": "山西省长治市潞州区威远门中路与威远门南路交叉口正西方向235米左右",
        "tel": "",
        "category": "基础设施:公共设施:公共厕所",
        "type": 0,
        "location": {
            "lat": 36.190693,
            "lng": 113.09557
        },
        "ad_info": {
            "adcode": 140403,
            "province": "山西省",
            "city": "长治市",
            "district": "潞州区"
        }
    },
    {
        "id": "2783314341226398818",
        "title": "公共厕所",
        "address": "山西省长治市平顺县S324与赤壁桥交叉口东南方向1978米左右",
        "tel": "",
        "category": "基础设施:公共设施:公共厕所",
        "type": 0,
        "location": {
            "lat": 36.354567,
            "lng": 113.558903
        },
        "ad_info": {
            "adcode": 140425,
            "province": "山西省",
            "city": "长治市",
            "district": "平顺县"
        }
    },
    {
        "id": "646767306522900453",
        "title": "公共厕所",
        "address": "山西省长治市屯留区欢笑动物园东北侧70米",
        "tel": "",
        "category": "基础设施:公共设施:公共厕所",
        "type": 0,
        "location": {
            "lat": 36.254939,
            "lng": 112.744067
        },
        "ad_info": {
            "adcode": 140405,
            "province": "山西省",
            "city": "长治市",
            "district": "屯留区"
        }
    },
    {
        "id": "15744022791394464968",
        "title": "公共厕所",
        "address": "山西省长治市上党区新市西街与银桥巷交叉口正西方向66米左右",
        "tel": "",
        "category": "基础设施:公共设施:公共厕所",
        "type": 0,
        "location": {
            "lat": 36.050227,
            "lng": 113.055913
        },
        "ad_info": {
            "adcode": 140404,
            "province": "山西省",
            "city": "长治市",
            "district": "上党区"
        }
    },
    {
        "id": "12260583424331580399",
        "title": "公共厕所",
        "address": "山西省长治市上党区体园巷与光明北路交叉口东北方向22米左右",
        "tel": "",
        "category": "基础设施:公共设施:公共厕所",
        "type": 0,
        "location": {
            "lat": 36.056987,
            "lng": 113.060169
        },
        "ad_info": {
            "adcode": 140404,
            "province": "山西省",
            "city": "长治市",
            "district": "上党区"
        }
    },
    {
        "id": "13391444810892061181",
        "title": "公共厕所",
        "address": "山西省长治市壶关县西城路177号",
        "tel": "",
        "category": "基础设施:公共设施:公共厕所",
        "type": 0,
        "location": {
            "lat": 36.107819,
            "lng": 113.200894
        },
        "ad_info": {
            "adcode": 140427,
            "province": "山西省",
            "city": "长治市",
            "district": "壶关县"
        }
    },
    {
        "id": "6592845304056606348",
        "title": "公共厕所",
        "address": "山西省长治市潞州区永易青年汇北侧270米",
        "tel": "",
        "category": "基础设施:公共设施:公共厕所",
        "type": 0,
        "location": {
            "lat": 36.192487,
            "lng": 113.058143
        },
        "ad_info": {
            "adcode": 140403,
            "province": "山西省",
            "city": "长治市",
            "district": "潞州区"
        }
    },
    {
        "id": "1985200556234806372",
        "title": "公共厕所",
        "address": "山西省长治市武乡县太行东街与红旗路交叉口西北方向138米左右",
        "tel": "",
        "category": "基础设施:公共设施:公共厕所",
        "type": 0,
        "location": {
            "lat": 36.834051,
            "lng": 112.862084
        },
        "ad_info": {
            "adcode": 140429,
            "province": "山西省",
            "city": "长治市",
            "district": "武乡县"
        }
    },
    {
        "id": "10361369971470689694",
        "title": "公共厕所",
        "address": "山西省长治市上党区永丰小学西北侧80米",
        "tel": "",
        "category": "基础设施:公共设施:公共厕所",
        "type": 0,
        "location": {
            "lat": 35.90198,
            "lng": 113.058441
        },
        "ad_info": {
            "adcode": 140404,
            "province": "山西省",
            "city": "长治市",
            "district": "上党区"
        }
    },
    {
        "id": "17424856693401423299",
        "title": "公共厕所",
        "address": "山西省长治市长子县东大街与神农路交叉口正西方向79米左右",
        "tel": "",
        "category": "基础设施:公共设施:公共厕所",
        "type": 0,
        "location": {
            "lat": 36.119768,
            "lng": 112.898249
        },
        "ad_info": {
            "adcode": 140428,
            "province": "山西省",
            "city": "长治市",
            "district": "长子县"
        }
    },
    {
        "id": "12630025335454768824",
        "title": "公共厕所",
        "address": "山西省长治市武乡县102省道北50米",
        "tel": "",
        "category": "基础设施:公共设施:公共厕所",
        "type": 0,
        "location": {
            "lat": 36.966258,
            "lng": 112.876124
        },
        "ad_info": {
            "adcode": 140429,
            "province": "山西省",
            "city": "长治市",
            "district": "武乡县"
        }
    },
    {
        "id": "14024523638168488114",
        "title": "公共厕所",
        "address": "山西省长治市上党区迎宾西街与银桥巷交叉口正北方向21米左右",
        "tel": "",
        "category": "基础设施:公共设施:公共厕所",
        "type": 0,
        "location": {
            "lat": 36.052325,
            "lng": 113.055643
        },
        "ad_info": {
            "adcode": 140404,
            "province": "山西省",
            "city": "长治市",
            "district": "上党区"
        }
    },
    {
        "id": "3663054317595575173",
        "title": "公共厕所",
        "address": "山西省长治市潞州区Y007与北环东街辅路交叉口东北方向441米左右",
        "tel": "",
        "category": "基础设施:公共设施:公共厕所",
        "type": 0,
        "location": {
            "lat": 36.229509,
            "lng": 113.138466
        },
        "ad_info": {
            "adcode": 140403,
            "province": "山西省",
            "city": "长治市",
            "district": "潞州区"
        }
    },
    {
        "id": "5315585416848733371",
        "title": "公共厕所",
        "address": "山西省长治市黎城县乌海线与金元街交叉口西南方向121米左右",
        "tel": "",
        "category": "基础设施:公共设施:公共厕所",
        "type": 0,
        "location": {
            "lat": 36.468499,
            "lng": 113.361299
        },
        "ad_info": {
            "adcode": 140426,
            "province": "山西省",
            "city": "长治市",
            "district": "黎城县"
        }
    },
    {
        "id": "17312519612240510599",
        "title": "公共厕所",
        "address": "山西省长治市潞州区紫坊村西二路与紫金西街交叉口正南方向164米左右",
        "tel": "",
        "category": "基础设施:公共设施:公共厕所",
        "type": 0,
        "location": {
            "lat": 36.200584,
            "lng": 113.09155
        },
        "ad_info": {
            "adcode": 140403,
            "province": "山西省",
            "city": "长治市",
            "district": "潞州区"
        }
    },
    {
        "id": "14737066780932623255",
        "title": "无障碍公共厕所",
        "address": "山西省长治市潞州区丰园路与惠泽街交叉口正东方向22米左右",
        "tel": "",
        "category": "基础设施:公共设施:公共厕所",
        "type": 0,
        "location": {
            "lat": 36.142283,
            "lng": 113.117758
        },
        "ad_info": {
            "adcode": 140403,
            "province": "山西省",
            "city": "长治市",
            "district": "潞州区"
        }
    },
    {
        "id": "15218747540505921818",
        "title": "公共厕所",
        "address": "山西省长治市沁源县桃园街与桃园西街交叉口正北方向194米左右",
        "tel": "",
        "category": "基础设施:公共设施:公共厕所",
        "type": 0,
        "location": {
            "lat": 36.517903,
            "lng": 112.341289
        },
        "ad_info": {
            "adcode": 140431,
            "province": "山西省",
            "city": "长治市",
            "district": "沁源县"
        }
    },
    {
        "id": "9684204166403034945",
        "title": "公共厕所",
        "address": "山西省长治市潞州区西环路与长安街交叉口正东方向225米左右",
        "tel": "",
        "category": "基础设施:公共设施:公共厕所",
        "type": 0,
        "location": {
            "lat": 36.182888,
            "lng": 113.085567
        },
        "ad_info": {
            "adcode": 140403,
            "province": "山西省",
            "city": "长治市",
            "district": "潞州区"
        }
    },
    {
        "id": "16475934048603995316",
        "title": "公共厕所",
        "address": "山西省长治市潞州区东环路辅路与五针街交叉口东南方向1560米左右",
        "tel": "",
        "category": "基础设施:公共设施:公共厕所",
        "type": 0,
        "location": {
            "lat": 36.152072,
            "lng": 113.1493
        },
        "ad_info": {
            "adcode": 140403,
            "province": "山西省",
            "city": "长治市",
            "district": "潞州区"
        }
    },
    {
        "id": "6189932196315921982",
        "title": "公共厕所",
        "address": "山西省长治市潞城区中华西街274号",
        "tel": "",
        "category": "基础设施:公共设施:公共厕所",
        "type": 0,
        "location": {
            "lat": 36.331093,
            "lng": 113.224189
        },
        "ad_info": {
            "adcode": 140406,
            "province": "山西省",
            "city": "长治市",
            "district": "潞城区"
        }
    },
    {
        "id": "5047283289297523076",
        "title": "公共厕所",
        "address": "山西省长治市潞州区威远门中路与威远门南路交叉口正西方向235米左右",
        "tel": "",
        "category": "基础设施:公共设施:公共厕所",
        "type": 0,
        "location": {
            "lat": 36.190693,
            "lng": 113.09557
        },
        "ad_info": {
            "adcode": 140403,
            "province": "山西省",
            "city": "长治市",
            "district": "潞州区"
        }
    },
    {
        "id": "2783314341226398818",
        "title": "公共厕所",
        "address": "山西省长治市平顺县S324与赤壁桥交叉口东南方向1978米左右",
        "tel": "",
        "category": "基础设施:公共设施:公共厕所",
        "type": 0,
        "location": {
            "lat": 36.354567,
            "lng": 113.558903
        },
        "ad_info": {
            "adcode": 140425,
            "province": "山西省",
            "city": "长治市",
            "district": "平顺县"
        }
    },
    {
        "id": "646767306522900453",
        "title": "公共厕所",
        "address": "山西省长治市屯留区欢笑动物园东北侧70米",
        "tel": "",
        "category": "基础设施:公共设施:公共厕所",
        "type": 0,
        "location": {
            "lat": 36.254939,
            "lng": 112.744067
        },
        "ad_info": {
            "adcode": 140405,
            "province": "山西省",
            "city": "长治市",
            "district": "屯留区"
        }
    },
    {
        "id": "15744022791394464968",
        "title": "公共厕所",
        "address": "山西省长治市上党区新市西街与银桥巷交叉口正西方向66米左右",
        "tel": "",
        "category": "基础设施:公共设施:公共厕所",
        "type": 0,
        "location": {
            "lat": 36.050227,
            "lng": 113.055913
        },
        "ad_info": {
            "adcode": 140404,
            "province": "山西省",
            "city": "长治市",
            "district": "上党区"
        }
    },
    {
        "id": "12260583424331580399",
        "title": "公共厕所",
        "address": "山西省长治市上党区体园巷与光明北路交叉口东北方向22米左右",
        "tel": "",
        "category": "基础设施:公共设施:公共厕所",
        "type": 0,
        "location": {
            "lat": 36.056987,
            "lng": 113.060169
        },
        "ad_info": {
            "adcode": 140404,
            "province": "山西省",
            "city": "长治市",
            "district": "上党区"
        }
    },
    {
        "id": "13391444810892061181",
        "title": "公共厕所",
        "address": "山西省长治市壶关县西城路177号",
        "tel": "",
        "category": "基础设施:公共设施:公共厕所",
        "type": 0,
        "location": {
            "lat": 36.107819,
            "lng": 113.200894
        },
        "ad_info": {
            "adcode": 140427,
            "province": "山西省",
            "city": "长治市",
            "district": "壶关县"
        }
    },
    {
        "id": "6592845304056606348",
        "title": "公共厕所",
        "address": "山西省长治市潞州区永易青年汇北侧270米",
        "tel": "",
        "category": "基础设施:公共设施:公共厕所",
        "type": 0,
        "location": {
            "lat": 36.192487,
            "lng": 113.058143
        },
        "ad_info": {
            "adcode": 140403,
            "province": "山西省",
            "city": "长治市",
            "district": "潞州区"
        }
    },
    {
        "id": "1985200556234806372",
        "title": "公共厕所",
        "address": "山西省长治市武乡县太行东街与红旗路交叉口西北方向138米左右",
        "tel": "",
        "category": "基础设施:公共设施:公共厕所",
        "type": 0,
        "location": {
            "lat": 36.834051,
            "lng": 112.862084
        },
        "ad_info": {
            "adcode": 140429,
            "province": "山西省",
            "city": "长治市",
            "district": "武乡县"
        }
    },
    {
        "id": "10361369971470689694",
        "title": "公共厕所",
        "address": "山西省长治市上党区永丰小学西北侧80米",
        "tel": "",
        "category": "基础设施:公共设施:公共厕所",
        "type": 0,
        "location": {
            "lat": 35.90198,
            "lng": 113.058441
        },
        "ad_info": {
            "adcode": 140404,
            "province": "山西省",
            "city": "长治市",
            "district": "上党区"
        }
    },
    {
        "id": "17424856693401423299",
        "title": "公共厕所",
        "address": "山西省长治市长子县东大街与神农路交叉口正西方向79米左右",
        "tel": "",
        "category": "基础设施:公共设施:公共厕所",
        "type": 0,
        "location": {
            "lat": 36.119768,
            "lng": 112.898249
        },
        "ad_info": {
            "adcode": 140428,
            "province": "山西省",
            "city": "长治市",
            "district": "长子县"
        }
    },
    {
        "id": "12630025335454768824",
        "title": "公共厕所",
        "address": "山西省长治市武乡县102省道北50米",
        "tel": "",
        "category": "基础设施:公共设施:公共厕所",
        "type": 0,
        "location": {
            "lat": 36.966258,
            "lng": 112.876124
        },
        "ad_info": {
            "adcode": 140429,
            "province": "山西省",
            "city": "长治市",
            "district": "武乡县"
        }
    },
    {
        "id": "14024523638168488114",
        "title": "公共厕所",
        "address": "山西省长治市上党区迎宾西街与银桥巷交叉口正北方向21米左右",
        "tel": "",
        "category": "基础设施:公共设施:公共厕所",
        "type": 0,
        "location": {
            "lat": 36.052325,
            "lng": 113.055643
        },
        "ad_info": {
            "adcode": 140404,
            "province": "山西省",
            "city": "长治市",
            "district": "上党区"
        }
    },
    {
        "id": "3663054317595575173",
        "title": "公共厕所",
        "address": "山西省长治市潞州区Y007与北环东街辅路交叉口东北方向441米左右",
        "tel": "",
        "category": "基础设施:公共设施:公共厕所",
        "type": 0,
        "location": {
            "lat": 36.229509,
            "lng": 113.138466
        },
        "ad_info": {
            "adcode": 140403,
            "province": "山西省",
            "city": "长治市",
            "district": "潞州区"
        }
    },
    {
        "id": "5315585416848733371",
        "title": "公共厕所",
        "address": "山西省长治市黎城县乌海线与金元街交叉口西南方向121米左右",
        "tel": "",
        "category": "基础设施:公共设施:公共厕所",
        "type": 0,
        "location": {
            "lat": 36.468499,
            "lng": 113.361299
        },
        "ad_info": {
            "adcode": 140426,
            "province": "山西省",
            "city": "长治市",
            "district": "黎城县"
        }
    },
    {
        "id": "17312519612240510599",
        "title": "公共厕所",
        "address": "山西省长治市潞州区紫坊村西二路与紫金西街交叉口正南方向164米左右",
        "tel": "",
        "category": "基础设施:公共设施:公共厕所",
        "type": 0,
        "location": {
            "lat": 36.200584,
            "lng": 113.09155
        },
        "ad_info": {
            "adcode": 140403,
            "province": "山西省",
            "city": "长治市",
            "district": "潞州区"
        }
    },
    {
        "id": "14737066780932623255",
        "title": "无障碍公共厕所",
        "address": "山西省长治市潞州区丰园路与惠泽街交叉口正东方向22米左右",
        "tel": "",
        "category": "基础设施:公共设施:公共厕所",
        "type": 0,
        "location": {
            "lat": 36.142283,
            "lng": 113.117758
        },
        "ad_info": {
            "adcode": 140403,
            "province": "山西省",
            "city": "长治市",
            "district": "潞州区"
        }
    },
    {
        "id": "15218747540505921818",
        "title": "公共厕所",
        "address": "山西省长治市沁源县桃园街与桃园西街交叉口正北方向194米左右",
        "tel": "",
        "category": "基础设施:公共设施:公共厕所",
        "type": 0,
        "location": {
            "lat": 36.517903,
            "lng": 112.341289
        },
        "ad_info": {
            "adcode": 140431,
            "province": "山西省",
            "city": "长治市",
            "district": "沁源县"
        }
    },
    {
        "id": "9684204166403034945",
        "title": "公共厕所",
        "address": "山西省长治市潞州区西环路与长安街交叉口正东方向225米左右",
        "tel": "",
        "category": "基础设施:公共设施:公共厕所",
        "type": 0,
        "location": {
            "lat": 36.182888,
            "lng": 113.085567
        },
        "ad_info": {
            "adcode": 140403,
            "province": "山西省",
            "city": "长治市",
            "district": "潞州区"
        }
    },
    {
        "id": "16475934048603995316",
        "title": "公共厕所",
        "address": "山西省长治市潞州区东环路辅路与五针街交叉口东南方向1560米左右",
        "tel": "",
        "category": "基础设施:公共设施:公共厕所",
        "type": 0,
        "location": {
            "lat": 36.152072,
            "lng": 113.1493
        },
        "ad_info": {
            "adcode": 140403,
            "province": "山西省",
            "city": "长治市",
            "district": "潞州区"
        }
    },
    {
        "id": "6189932196315921982",
        "title": "公共厕所",
        "address": "山西省长治市潞城区中华西街274号",
        "tel": "",
        "category": "基础设施:公共设施:公共厕所",
        "type": 0,
        "location": {
            "lat": 36.331093,
            "lng": 113.224189
        },
        "ad_info": {
            "adcode": 140406,
            "province": "山西省",
            "city": "长治市",
            "district": "潞城区"
        }
    },
    {
        "id": "5047283289297523076",
        "title": "公共厕所",
        "address": "山西省长治市潞州区威远门中路与威远门南路交叉口正西方向235米左右",
        "tel": "",
        "category": "基础设施:公共设施:公共厕所",
        "type": 0,
        "location": {
            "lat": 36.190693,
            "lng": 113.09557
        },
        "ad_info": {
            "adcode": 140403,
            "province": "山西省",
            "city": "长治市",
            "district": "潞州区"
        }
    },
    {
        "id": "2783314341226398818",
        "title": "公共厕所",
        "address": "山西省长治市平顺县S324与赤壁桥交叉口东南方向1978米左右",
        "tel": "",
        "category": "基础设施:公共设施:公共厕所",
        "type": 0,
        "location": {
            "lat": 36.354567,
            "lng": 113.558903
        },
        "ad_info": {
            "adcode": 140425,
            "province": "山西省",
            "city": "长治市",
            "district": "平顺县"
        }
    },
    {
        "id": "646767306522900453",
        "title": "公共厕所",
        "address": "山西省长治市屯留区欢笑动物园东北侧70米",
        "tel": "",
        "category": "基础设施:公共设施:公共厕所",
        "type": 0,
        "location": {
            "lat": 36.254939,
            "lng": 112.744067
        },
        "ad_info": {
            "adcode": 140405,
            "province": "山西省",
            "city": "长治市",
            "district": "屯留区"
        }
    },
    {
        "id": "15744022791394464968",
        "title": "公共厕所",
        "address": "山西省长治市上党区新市西街与银桥巷交叉口正西方向66米左右",
        "tel": "",
        "category": "基础设施:公共设施:公共厕所",
        "type": 0,
        "location": {
            "lat": 36.050227,
            "lng": 113.055913
        },
        "ad_info": {
            "adcode": 140404,
            "province": "山西省",
            "city": "长治市",
            "district": "上党区"
        }
    },
    {
        "id": "12260583424331580399",
        "title": "公共厕所",
        "address": "山西省长治市上党区体园巷与光明北路交叉口东北方向22米左右",
        "tel": "",
        "category": "基础设施:公共设施:公共厕所",
        "type": 0,
        "location": {
            "lat": 36.056987,
            "lng": 113.060169
        },
        "ad_info": {
            "adcode": 140404,
            "province": "山西省",
            "city": "长治市",
            "district": "上党区"
        }
    },
    {
        "id": "13391444810892061181",
        "title": "公共厕所",
        "address": "山西省长治市壶关县西城路177号",
        "tel": "",
        "category": "基础设施:公共设施:公共厕所",
        "type": 0,
        "location": {
            "lat": 36.107819,
            "lng": 113.200894
        },
        "ad_info": {
            "adcode": 140427,
            "province": "山西省",
            "city": "长治市",
            "district": "壶关县"
        }
    },
    {
        "id": "6592845304056606348",
        "title": "公共厕所",
        "address": "山西省长治市潞州区永易青年汇北侧270米",
        "tel": "",
        "category": "基础设施:公共设施:公共厕所",
        "type": 0,
        "location": {
            "lat": 36.192487,
            "lng": 113.058143
        },
        "ad_info": {
            "adcode": 140403,
            "province": "山西省",
            "city": "长治市",
            "district": "潞州区"
        }
    },
    {
        "id": "1985200556234806372",
        "title": "公共厕所",
        "address": "山西省长治市武乡县太行东街与红旗路交叉口西北方向138米左右",
        "tel": "",
        "category": "基础设施:公共设施:公共厕所",
        "type": 0,
        "location": {
            "lat": 36.834051,
            "lng": 112.862084
        },
        "ad_info": {
            "adcode": 140429,
            "province": "山西省",
            "city": "长治市",
            "district": "武乡县"
        }
    },
    {
        "id": "10361369971470689694",
        "title": "公共厕所",
        "address": "山西省长治市上党区永丰小学西北侧80米",
        "tel": "",
        "category": "基础设施:公共设施:公共厕所",
        "type": 0,
        "location": {
            "lat": 35.90198,
            "lng": 113.058441
        },
        "ad_info": {
            "adcode": 140404,
            "province": "山西省",
            "city": "长治市",
            "district": "上党区"
        }
    },
    {
        "id": "17424856693401423299",
        "title": "公共厕所",
        "address": "山西省长治市长子县东大街与神农路交叉口正西方向79米左右",
        "tel": "",
        "category": "基础设施:公共设施:公共厕所",
        "type": 0,
        "location": {
            "lat": 36.119768,
            "lng": 112.898249
        },
        "ad_info": {
            "adcode": 140428,
            "province": "山西省",
            "city": "长治市",
            "district": "长子县"
        }
    },
    {
        "id": "12630025335454768824",
        "title": "公共厕所",
        "address": "山西省长治市武乡县102省道北50米",
        "tel": "",
        "category": "基础设施:公共设施:公共厕所",
        "type": 0,
        "location": {
            "lat": 36.966258,
            "lng": 112.876124
        },
        "ad_info": {
            "adcode": 140429,
            "province": "山西省",
            "city": "长治市",
            "district": "武乡县"
        }
    },
    {
        "id": "14024523638168488114",
        "title": "公共厕所",
        "address": "山西省长治市上党区迎宾西街与银桥巷交叉口正北方向21米左右",
        "tel": "",
        "category": "基础设施:公共设施:公共厕所",
        "type": 0,
        "location": {
            "lat": 36.052325,
            "lng": 113.055643
        },
        "ad_info": {
            "adcode": 140404,
            "province": "山西省",
            "city": "长治市",
            "district": "上党区"
        }
    },
    {
        "id": "3663054317595575173",
        "title": "公共厕所",
        "address": "山西省长治市潞州区Y007与北环东街辅路交叉口东北方向441米左右",
        "tel": "",
        "category": "基础设施:公共设施:公共厕所",
        "type": 0,
        "location": {
            "lat": 36.229509,
            "lng": 113.138466
        },
        "ad_info": {
            "adcode": 140403,
            "province": "山西省",
            "city": "长治市",
            "district": "潞州区"
        }
    },
    {
        "id": "5315585416848733371",
        "title": "公共厕所",
        "address": "山西省长治市黎城县乌海线与金元街交叉口西南方向121米左右",
        "tel": "",
        "category": "基础设施:公共设施:公共厕所",
        "type": 0,
        "location": {
            "lat": 36.468499,
            "lng": 113.361299
        },
        "ad_info": {
            "adcode": 140426,
            "province": "山西省",
            "city": "长治市",
            "district": "黎城县"
        }
    },
    {
        "id": "17312519612240510599",
        "title": "公共厕所",
        "address": "山西省长治市潞州区紫坊村西二路与紫金西街交叉口正南方向164米左右",
        "tel": "",
        "category": "基础设施:公共设施:公共厕所",
        "type": 0,
        "location": {
            "lat": 36.200584,
            "lng": 113.09155
        },
        "ad_info": {
            "adcode": 140403,
            "province": "山西省",
            "city": "长治市",
            "district": "潞州区"
        }
    },
    {
        "id": "14737066780932623255",
        "title": "无障碍公共厕所",
        "address": "山西省长治市潞州区丰园路与惠泽街交叉口正东方向22米左右",
        "tel": "",
        "category": "基础设施:公共设施:公共厕所",
        "type": 0,
        "location": {
            "lat": 36.142283,
            "lng": 113.117758
        },
        "ad_info": {
            "adcode": 140403,
            "province": "山西省",
            "city": "长治市",
            "district": "潞州区"
        }
    },
    {
        "id": "15218747540505921818",
        "title": "公共厕所",
        "address": "山西省长治市沁源县桃园街与桃园西街交叉口正北方向194米左右",
        "tel": "",
        "category": "基础设施:公共设施:公共厕所",
        "type": 0,
        "location": {
            "lat": 36.517903,
            "lng": 112.341289
        },
        "ad_info": {
            "adcode": 140431,
            "province": "山西省",
            "city": "长治市",
            "district": "沁源县"
        }
    },
    {
        "id": "9684204166403034945",
        "title": "公共厕所",
        "address": "山西省长治市潞州区西环路与长安街交叉口正东方向225米左右",
        "tel": "",
        "category": "基础设施:公共设施:公共厕所",
        "type": 0,
        "location": {
            "lat": 36.182888,
            "lng": 113.085567
        },
        "ad_info": {
            "adcode": 140403,
            "province": "山西省",
            "city": "长治市",
            "district": "潞州区"
        }
    },
    {
        "id": "16475934048603995316",
        "title": "公共厕所",
        "address": "山西省长治市潞州区东环路辅路与五针街交叉口东南方向1560米左右",
        "tel": "",
        "category": "基础设施:公共设施:公共厕所",
        "type": 0,
        "location": {
            "lat": 36.152072,
            "lng": 113.1493
        },
        "ad_info": {
            "adcode": 140403,
            "province": "山西省",
            "city": "长治市",
            "district": "潞州区"
        }
    },
    {
        "id": "6189932196315921982",
        "title": "公共厕所",
        "address": "山西省长治市潞城区中华西街274号",
        "tel": "",
        "category": "基础设施:公共设施:公共厕所",
        "type": 0,
        "location": {
            "lat": 36.331093,
            "lng": 113.224189
        },
        "ad_info": {
            "adcode": 140406,
            "province": "山西省",
            "city": "长治市",
            "district": "潞城区"
        }
    },
    {
        "id": "5047283289297523076",
        "title": "公共厕所",
        "address": "山西省长治市潞州区威远门中路与威远门南路交叉口正西方向235米左右",
        "tel": "",
        "category": "基础设施:公共设施:公共厕所",
        "type": 0,
        "location": {
            "lat": 36.190693,
            "lng": 113.09557
        },
        "ad_info": {
            "adcode": 140403,
            "province": "山西省",
            "city": "长治市",
            "district": "潞州区"
        }
    },
    {
        "id": "2783314341226398818",
        "title": "公共厕所",
        "address": "山西省长治市平顺县S324与赤壁桥交叉口东南方向1978米左右",
        "tel": "",
        "category": "基础设施:公共设施:公共厕所",
        "type": 0,
        "location": {
            "lat": 36.354567,
            "lng": 113.558903
        },
        "ad_info": {
            "adcode": 140425,
            "province": "山西省",
            "city": "长治市",
            "district": "平顺县"
        }
    },
    {
        "id": "646767306522900453",
        "title": "公共厕所",
        "address": "山西省长治市屯留区欢笑动物园东北侧70米",
        "tel": "",
        "category": "基础设施:公共设施:公共厕所",
        "type": 0,
        "location": {
            "lat": 36.254939,
            "lng": 112.744067
        },
        "ad_info": {
            "adcode": 140405,
            "province": "山西省",
            "city": "长治市",
            "district": "屯留区"
        }
    },
    {
        "id": "15744022791394464968",
        "title": "公共厕所",
        "address": "山西省长治市上党区新市西街与银桥巷交叉口正西方向66米左右",
        "tel": "",
        "category": "基础设施:公共设施:公共厕所",
        "type": 0,
        "location": {
            "lat": 36.050227,
            "lng": 113.055913
        },
        "ad_info": {
            "adcode": 140404,
            "province": "山西省",
            "city": "长治市",
            "district": "上党区"
        }
    },
    {
        "id": "12260583424331580399",
        "title": "公共厕所",
        "address": "山西省长治市上党区体园巷与光明北路交叉口东北方向22米左右",
        "tel": "",
        "category": "基础设施:公共设施:公共厕所",
        "type": 0,
        "location": {
            "lat": 36.056987,
            "lng": 113.060169
        },
        "ad_info": {
            "adcode": 140404,
            "province": "山西省",
            "city": "长治市",
            "district": "上党区"
        }
    },
    {
        "id": "13391444810892061181",
        "title": "公共厕所",
        "address": "山西省长治市壶关县西城路177号",
        "tel": "",
        "category": "基础设施:公共设施:公共厕所",
        "type": 0,
        "location": {
            "lat": 36.107819,
            "lng": 113.200894
        },
        "ad_info": {
            "adcode": 140427,
            "province": "山西省",
            "city": "长治市",
            "district": "壶关县"
        }
    },
    {
        "id": "6592845304056606348",
        "title": "公共厕所",
        "address": "山西省长治市潞州区永易青年汇北侧270米",
        "tel": "",
        "category": "基础设施:公共设施:公共厕所",
        "type": 0,
        "location": {
            "lat": 36.192487,
            "lng": 113.058143
        },
        "ad_info": {
            "adcode": 140403,
            "province": "山西省",
            "city": "长治市",
            "district": "潞州区"
        }
    },
    {
        "id": "1985200556234806372",
        "title": "公共厕所",
        "address": "山西省长治市武乡县太行东街与红旗路交叉口西北方向138米左右",
        "tel": "",
        "category": "基础设施:公共设施:公共厕所",
        "type": 0,
        "location": {
            "lat": 36.834051,
            "lng": 112.862084
        },
        "ad_info": {
            "adcode": 140429,
            "province": "山西省",
            "city": "长治市",
            "district": "武乡县"
        }
    },
    {
        "id": "10361369971470689694",
        "title": "公共厕所",
        "address": "山西省长治市上党区永丰小学西北侧80米",
        "tel": "",
        "category": "基础设施:公共设施:公共厕所",
        "type": 0,
        "location": {
            "lat": 35.90198,
            "lng": 113.058441
        },
        "ad_info": {
            "adcode": 140404,
            "province": "山西省",
            "city": "长治市",
            "district": "上党区"
        }
    },
    {
        "id": "17424856693401423299",
        "title": "公共厕所",
        "address": "山西省长治市长子县东大街与神农路交叉口正西方向79米左右",
        "tel": "",
        "category": "基础设施:公共设施:公共厕所",
        "type": 0,
        "location": {
            "lat": 36.119768,
            "lng": 112.898249
        },
        "ad_info": {
            "adcode": 140428,
            "province": "山西省",
            "city": "长治市",
            "district": "长子县"
        }
    },
    {
        "id": "12630025335454768824",
        "title": "公共厕所",
        "address": "山西省长治市武乡县102省道北50米",
        "tel": "",
        "category": "基础设施:公共设施:公共厕所",
        "type": 0,
        "location": {
            "lat": 36.966258,
            "lng": 112.876124
        },
        "ad_info": {
            "adcode": 140429,
            "province": "山西省",
            "city": "长治市",
            "district": "武乡县"
        }
    },
    {
        "id": "14024523638168488114",
        "title": "公共厕所",
        "address": "山西省长治市上党区迎宾西街与银桥巷交叉口正北方向21米左右",
        "tel": "",
        "category": "基础设施:公共设施:公共厕所",
        "type": 0,
        "location": {
            "lat": 36.052325,
            "lng": 113.055643
        },
        "ad_info": {
            "adcode": 140404,
            "province": "山西省",
            "city": "长治市",
            "district": "上党区"
        }
    },
    {
        "id": "3663054317595575173",
        "title": "公共厕所",
        "address": "山西省长治市潞州区Y007与北环东街辅路交叉口东北方向441米左右",
        "tel": "",
        "category": "基础设施:公共设施:公共厕所",
        "type": 0,
        "location": {
            "lat": 36.229509,
            "lng": 113.138466
        },
        "ad_info": {
            "adcode": 140403,
            "province": "山西省",
            "city": "长治市",
            "district": "潞州区"
        }
    },
    {
        "id": "5315585416848733371",
        "title": "公共厕所",
        "address": "山西省长治市黎城县乌海线与金元街交叉口西南方向121米左右",
        "tel": "",
        "category": "基础设施:公共设施:公共厕所",
        "type": 0,
        "location": {
            "lat": 36.468499,
            "lng": 113.361299
        },
        "ad_info": {
            "adcode": 140426,
            "province": "山西省",
            "city": "长治市",
            "district": "黎城县"
        }
    },
    {
        "id": "17312519612240510599",
        "title": "公共厕所",
        "address": "山西省长治市潞州区紫坊村西二路与紫金西街交叉口正南方向164米左右",
        "tel": "",
        "category": "基础设施:公共设施:公共厕所",
        "type": 0,
        "location": {
            "lat": 36.200584,
            "lng": 113.09155
        },
        "ad_info": {
            "adcode": 140403,
            "province": "山西省",
            "city": "长治市",
            "district": "潞州区"
        }
    },
    {
        "id": "14737066780932623255",
        "title": "无障碍公共厕所",
        "address": "山西省长治市潞州区丰园路与惠泽街交叉口正东方向22米左右",
        "tel": "",
        "category": "基础设施:公共设施:公共厕所",
        "type": 0,
        "location": {
            "lat": 36.142283,
            "lng": 113.117758
        },
        "ad_info": {
            "adcode": 140403,
            "province": "山西省",
            "city": "长治市",
            "district": "潞州区"
        }
    },
    {
        "id": "15218747540505921818",
        "title": "公共厕所",
        "address": "山西省长治市沁源县桃园街与桃园西街交叉口正北方向194米左右",
        "tel": "",
        "category": "基础设施:公共设施:公共厕所",
        "type": 0,
        "location": {
            "lat": 36.517903,
            "lng": 112.341289
        },
        "ad_info": {
            "adcode": 140431,
            "province": "山西省",
            "city": "长治市",
            "district": "沁源县"
        }
    },
    {
        "id": "9684204166403034945",
        "title": "公共厕所",
        "address": "山西省长治市潞州区西环路与长安街交叉口正东方向225米左右",
        "tel": "",
        "category": "基础设施:公共设施:公共厕所",
        "type": 0,
        "location": {
            "lat": 36.182888,
            "lng": 113.085567
        },
        "ad_info": {
            "adcode": 140403,
            "province": "山西省",
            "city": "长治市",
            "district": "潞州区"
        }
    },
    {
        "id": "16475934048603995316",
        "title": "公共厕所",
        "address": "山西省长治市潞州区东环路辅路与五针街交叉口东南方向1560米左右",
        "tel": "",
        "category": "基础设施:公共设施:公共厕所",
        "type": 0,
        "location": {
            "lat": 36.152072,
            "lng": 113.1493
        },
        "ad_info": {
            "adcode": 140403,
            "province": "山西省",
            "city": "长治市",
            "district": "潞州区"
        }
    },
    {
        "id": "6189932196315921982",
        "title": "公共厕所",
        "address": "山西省长治市潞城区中华西街274号",
        "tel": "",
        "category": "基础设施:公共设施:公共厕所",
        "type": 0,
        "location": {
            "lat": 36.331093,
            "lng": 113.224189
        },
        "ad_info": {
            "adcode": 140406,
            "province": "山西省",
            "city": "长治市",
            "district": "潞城区"
        }
    },
    {
        "id": "5047283289297523076",
        "title": "公共厕所",
        "address": "山西省长治市潞州区威远门中路与威远门南路交叉口正西方向235米左右",
        "tel": "",
        "category": "基础设施:公共设施:公共厕所",
        "type": 0,
        "location": {
            "lat": 36.190693,
            "lng": 113.09557
        },
        "ad_info": {
            "adcode": 140403,
            "province": "山西省",
            "city": "长治市",
            "district": "潞州区"
        }
    },
    {
        "id": "2783314341226398818",
        "title": "公共厕所",
        "address": "山西省长治市平顺县S324与赤壁桥交叉口东南方向1978米左右",
        "tel": "",
        "category": "基础设施:公共设施:公共厕所",
        "type": 0,
        "location": {
            "lat": 36.354567,
            "lng": 113.558903
        },
        "ad_info": {
            "adcode": 140425,
            "province": "山西省",
            "city": "长治市",
            "district": "平顺县"
        }
    },
    {
        "id": "646767306522900453",
        "title": "公共厕所",
        "address": "山西省长治市屯留区欢笑动物园东北侧70米",
        "tel": "",
        "category": "基础设施:公共设施:公共厕所",
        "type": 0,
        "location": {
            "lat": 36.254939,
            "lng": 112.744067
        },
        "ad_info": {
            "adcode": 140405,
            "province": "山西省",
            "city": "长治市",
            "district": "屯留区"
        }
    },
    {
        "id": "15744022791394464968",
        "title": "公共厕所",
        "address": "山西省长治市上党区新市西街与银桥巷交叉口正西方向66米左右",
        "tel": "",
        "category": "基础设施:公共设施:公共厕所",
        "type": 0,
        "location": {
            "lat": 36.050227,
            "lng": 113.055913
        },
        "ad_info": {
            "adcode": 140404,
            "province": "山西省",
            "city": "长治市",
            "district": "上党区"
        }
    },
    {
        "id": "12260583424331580399",
        "title": "公共厕所",
        "address": "山西省长治市上党区体园巷与光明北路交叉口东北方向22米左右",
        "tel": "",
        "category": "基础设施:公共设施:公共厕所",
        "type": 0,
        "location": {
            "lat": 36.056987,
            "lng": 113.060169
        },
        "ad_info": {
            "adcode": 140404,
            "province": "山西省",
            "city": "长治市",
            "district": "上党区"
        }
    },
    {
        "id": "13391444810892061181",
        "title": "公共厕所",
        "address": "山西省长治市壶关县西城路177号",
        "tel": "",
        "category": "基础设施:公共设施:公共厕所",
        "type": 0,
        "location": {
            "lat": 36.107819,
            "lng": 113.200894
        },
        "ad_info": {
            "adcode": 140427,
            "province": "山西省",
            "city": "长治市",
            "district": "壶关县"
        }
    },
    {
        "id": "6592845304056606348",
        "title": "公共厕所",
        "address": "山西省长治市潞州区永易青年汇北侧270米",
        "tel": "",
        "category": "基础设施:公共设施:公共厕所",
        "type": 0,
        "location": {
            "lat": 36.192487,
            "lng": 113.058143
        },
        "ad_info": {
            "adcode": 140403,
            "province": "山西省",
            "city": "长治市",
            "district": "潞州区"
        }
    },
    {
        "id": "1985200556234806372",
        "title": "公共厕所",
        "address": "山西省长治市武乡县太行东街与红旗路交叉口西北方向138米左右",
        "tel": "",
        "category": "基础设施:公共设施:公共厕所",
        "type": 0,
        "location": {
            "lat": 36.834051,
            "lng": 112.862084
        },
        "ad_info": {
            "adcode": 140429,
            "province": "山西省",
            "city": "长治市",
            "district": "武乡县"
        }
    },
    {
        "id": "10361369971470689694",
        "title": "公共厕所",
        "address": "山西省长治市上党区永丰小学西北侧80米",
        "tel": "",
        "category": "基础设施:公共设施:公共厕所",
        "type": 0,
        "location": {
            "lat": 35.90198,
            "lng": 113.058441
        },
        "ad_info": {
            "adcode": 140404,
            "province": "山西省",
            "city": "长治市",
            "district": "上党区"
        }
    },
    {
        "id": "17424856693401423299",
        "title": "公共厕所",
        "address": "山西省长治市长子县东大街与神农路交叉口正西方向79米左右",
        "tel": "",
        "category": "基础设施:公共设施:公共厕所",
        "type": 0,
        "location": {
            "lat": 36.119768,
            "lng": 112.898249
        },
        "ad_info": {
            "adcode": 140428,
            "province": "山西省",
            "city": "长治市",
            "district": "长子县"
        }
    },
    {
        "id": "12630025335454768824",
        "title": "公共厕所",
        "address": "山西省长治市武乡县102省道北50米",
        "tel": "",
        "category": "基础设施:公共设施:公共厕所",
        "type": 0,
        "location": {
            "lat": 36.966258,
            "lng": 112.876124
        },
        "ad_info": {
            "adcode": 140429,
            "province": "山西省",
            "city": "长治市",
            "district": "武乡县"
        }
    },
    {
        "id": "14024523638168488114",
        "title": "公共厕所",
        "address": "山西省长治市上党区迎宾西街与银桥巷交叉口正北方向21米左右",
        "tel": "",
        "category": "基础设施:公共设施:公共厕所",
        "type": 0,
        "location": {
            "lat": 36.052325,
            "lng": 113.055643
        },
        "ad_info": {
            "adcode": 140404,
            "province": "山西省",
            "city": "长治市",
            "district": "上党区"
        }
    },
    {
        "id": "3663054317595575173",
        "title": "公共厕所",
        "address": "山西省长治市潞州区Y007与北环东街辅路交叉口东北方向441米左右",
        "tel": "",
        "category": "基础设施:公共设施:公共厕所",
        "type": 0,
        "location": {
            "lat": 36.229509,
            "lng": 113.138466
        },
        "ad_info": {
            "adcode": 140403,
            "province": "山西省",
            "city": "长治市",
            "district": "潞州区"
        }
    },
    {
        "id": "5315585416848733371",
        "title": "公共厕所",
        "address": "山西省长治市黎城县乌海线与金元街交叉口西南方向121米左右",
        "tel": "",
        "category": "基础设施:公共设施:公共厕所",
        "type": 0,
        "location": {
            "lat": 36.468499,
            "lng": 113.361299
        },
        "ad_info": {
            "adcode": 140426,
            "province": "山西省",
            "city": "长治市",
            "district": "黎城县"
        }
    }
]