[
    {
        "id": "5720590431504897198",
        "title": "公共厕所",
        "address": "辽宁省阜新市清河门区新昌路与清河大街交叉口正东方向35米左右",
        "tel": "",
        "category": "基础设施:公共设施:公共厕所",
        "type": 0,
        "location": {
            "lat": 41.778266,
            "lng": 121.419818
        },
        "ad_info": {
            "adcode": 210905,
            "province": "辽宁省",
            "city": "阜新市",
            "district": "清河门区"
        }
    },
    {
        "id": "11380239923715255031",
        "title": "公共厕所",
        "address": "辽宁省阜新市太平区太平东街与红树路交叉口东南方向50米左右",
        "tel": "",
        "category": "基础设施:公共设施:公共厕所",
        "type": 0,
        "location": {
            "lat": 42.014367,
            "lng": 121.685841
        },
        "ad_info": {
            "adcode": 210904,
            "province": "辽宁省",
            "city": "阜新市",
            "district": "太平区"
        }
    },
    {
        "id": "18368572063020470020",
        "title": "公共厕所",
        "address": "辽宁省阜新市清河门区乌龙坝邮政所东北侧50米",
        "tel": "",
        "category": "基础设施:公共设施:公共厕所",
        "type": 0,
        "location": {
            "lat": 41.758726,
            "lng": 121.463028
        },
        "ad_info": {
            "adcode": 210905,
            "province": "辽宁省",
            "city": "阜新市",
            "district": "清河门区"
        }
    },
    {
        "id": "6444486783758072615",
        "title": "公共厕所",
        "address": "辽宁省阜新市新邱区王老六洗车房东北侧290米",
        "tel": "",
        "category": "基础设施:公共设施:公共厕所",
        "type": 0,
        "location": {
            "lat": 42.09618,
            "lng": 121.790511
        },
        "ad_info": {
            "adcode": 210903,
            "province": "辽宁省",
            "city": "阜新市",
            "district": "新邱区"
        }
    },
    {
        "id": "12155738104909488817",
        "title": "公共厕所",
        "address": "辽宁省阜新市太平区人民大街与顺吉路交叉口正北方向35米左右",
        "tel": "",
        "category": "基础设施:公共设施:公共厕所",
        "type": 0,
        "location": {
            "lat": 42.014604,
            "lng": 121.675433
        },
        "ad_info": {
            "adcode": 210904,
            "province": "辽宁省",
            "city": "阜新市",
            "district": "太平区"
        }
    },
    {
        "id": "8279390769427519443",
        "title": "公共厕所",
        "address": "辽宁省阜新市新邱区盛鑫通讯南侧290米",
        "tel": "",
        "category": "基础设施:公共设施:公共厕所",
        "type": 0,
        "location": {
            "lat": 42.060867,
            "lng": 121.813716
        },
        "ad_info": {
            "adcode": 210903,
            "province": "辽宁省",
            "city": "阜新市",
            "district": "新邱区"
        }
    },
    {
        "id": "13853059354775266734",
        "title": "公共厕所",
        "address": "辽宁省阜新市太平区市环线与泉东大街交叉口正北方向107米左右",
        "tel": "",
        "category": "基础设施:公共设施:公共厕所",
        "type": 0,
        "location": {
            "lat": 42.012239,
            "lng": 121.769145
        },
        "ad_info": {
            "adcode": 210904,
            "province": "辽宁省",
            "city": "阜新市",
            "district": "太平区"
        }
    },
    {
        "id": "14524334359962925134",
        "title": "公共厕所",
        "address": "辽宁省阜新市太平区塔新路132号",
        "tel": "",
        "category": "基础设施:公共设施:公共厕所",
        "type": 0,
        "location": {
            "lat": 42.005602,
            "lng": 121.73646
        },
        "ad_info": {
            "adcode": 210904,
            "province": "辽宁省",
            "city": "阜新市",
            "district": "太平区"
        }
    },
    {
        "id": "14901556604212938300",
        "title": "公共厕所",
        "address": "辽宁省阜新市太平区煤城东路与煤城中路交叉口东北方向341米左右",
        "tel": "",
        "category": "基础设施:公共设施:公共厕所",
        "type": 0,
        "location": {
            "lat": 41.997773,
            "lng": 121.667426
        },
        "ad_info": {
            "adcode": 210904,
            "province": "辽宁省",
            "city": "阜新市",
            "district": "太平区"
        }
    },
    {
        "id": "12708658402931368447",
        "title": "公共厕所",
        "address": "辽宁省阜新市太平区市环线与爱民路交叉口正北方向228米左右",
        "tel": "",
        "category": "基础设施:公共设施:公共厕所",
        "type": 0,
        "location": {
            "lat": 41.994098,
            "lng": 121.759704
        },
        "ad_info": {
            "adcode": 210904,
            "province": "辽宁省",
            "city": "阜新市",
            "district": "太平区"
        }
    },
    {
        "id": "10583640938440651710",
        "title": "公共厕所",
        "address": "辽宁省阜新市太平区勿拉毛头路与红树三街交叉口正西方向9米左右",
        "tel": "",
        "category": "基础设施:公共设施:公共厕所",
        "type": 0,
        "location": {
            "lat": 42.010477,
            "lng": 121.668642
        },
        "ad_info": {
            "adcode": 210904,
            "province": "辽宁省",
            "city": "阜新市",
            "district": "太平区"
        }
    },
    {
        "id": "7309737384288427369",
        "title": "公共厕所",
        "address": "辽宁省阜新市太平区求索巷与海新路交叉口东北方向116米左右",
        "tel": "",
        "category": "基础设施:公共设施:公共厕所",
        "type": 0,
        "location": {
            "lat": 42.034701,
            "lng": 121.750643
        },
        "ad_info": {
            "adcode": 210904,
            "province": "辽宁省",
            "city": "阜新市",
            "district": "太平区"
        }
    },
    {
        "id": "12276320343734056534",
        "title": "公共厕所",
        "address": "辽宁省阜新市新邱区南部小学西南侧140米",
        "tel": "",
        "category": "基础设施:公共设施:公共厕所",
        "type": 0,
        "location": {
            "lat": 42.063018,
            "lng": 121.814204
        },
        "ad_info": {
            "adcode": 210903,
            "province": "辽宁省",
            "city": "阜新市",
            "district": "新邱区"
        }
    },
    {
        "id": "5023417735677583274",
        "title": "公共厕所",
        "address": "辽宁省阜新市太平区双山街与煤城东路交叉口东南方向427米左右",
        "tel": "",
        "category": "基础设施:公共设施:公共厕所",
        "type": 0,
        "location": {
            "lat": 42.007428,
            "lng": 121.695846
        },
        "ad_info": {
            "adcode": 210904,
            "province": "辽宁省",
            "city": "阜新市",
            "district": "太平区"
        }
    },
    {
        "id": "3227504455361536684",
        "title": "公共厕所",
        "address": "辽宁省阜新市太平区市环线与泉东大街交叉口东南方向150米左右",
        "tel": "",
        "category": "基础设施:公共设施:公共厕所",
        "type": 0,
        "location": {
            "lat": 42.018955,
            "lng": 121.768826
        },
        "ad_info": {
            "adcode": 210904,
            "province": "辽宁省",
            "city": "阜新市",
            "district": "太平区"
        }
    },
    {
        "id": "12115690127680495709",
        "title": "公共厕所",
        "address": "辽宁省阜新市彰武县人民大街与益民路交叉口西南方向142米左右",
        "tel": "",
        "category": "基础设施:公共设施:公共厕所",
        "type": 0,
        "location": {
            "lat": 42.385382,
            "lng": 122.539598
        },
        "ad_info": {
            "adcode": 210922,
            "province": "辽宁省",
            "city": "阜新市",
            "district": "彰武县"
        }
    },
    {
        "id": "8433366554622424885",
        "title": "公共厕所",
        "address": "辽宁省阜新市彰武县中华路与老城街交叉口西北方向86米左右",
        "tel": "",
        "category": "基础设施:公共设施:公共厕所",
        "type": 0,
        "location": {
            "lat": 42.382559,
            "lng": 122.534134
        },
        "ad_info": {
            "adcode": 210922,
            "province": "辽宁省",
            "city": "阜新市",
            "district": "彰武县"
        }
    },
    {
        "id": "11767078426037163924",
        "title": "公共厕所",
        "address": "辽宁省阜新市彰武县兴工路与彰武北互通交叉口正北方向61米左右",
        "tel": "",
        "category": "基础设施:公共设施:公共厕所",
        "type": 0,
        "location": {
            "lat": 42.41732,
            "lng": 122.551889
        },
        "ad_info": {
            "adcode": 210922,
            "province": "辽宁省",
            "city": "阜新市",
            "district": "彰武县"
        }
    },
    {
        "id": "11499310748394414546",
        "title": "公共厕所",
        "address": "辽宁省阜新市阜新蒙古族自治县南环路与团结街交叉口正南方向103米左右",
        "tel": "",
        "category": "基础设施:公共设施:公共厕所",
        "type": 0,
        "location": {
            "lat": 42.05462,
            "lng": 121.747994
        },
        "ad_info": {
            "adcode": 210921,
            "province": "辽宁省",
            "city": "阜新市",
            "district": "阜新蒙古族自治县"
        }
    },
    {
        "id": "12467036488576626420",
        "title": "公共厕所",
        "address": "辽宁省阜新市彰武县人民大街与灯塔路交叉口正北方向191米左右",
        "tel": "",
        "category": "基础设施:公共设施:公共厕所",
        "type": 0,
        "location": {
            "lat": 42.388551,
            "lng": 122.53814
        },
        "ad_info": {
            "adcode": 210922,
            "province": "辽宁省",
            "city": "阜新市",
            "district": "彰武县"
        }
    },
    {
        "id": "1808947869211996976",
        "title": "公共厕所",
        "address": "辽宁省阜新市阜新蒙古族自治县G101与王府互通交叉口西北方向444米左右",
        "tel": "",
        "category": "基础设施:公共设施:公共厕所",
        "type": 0,
        "location": {
            "lat": 42.076233,
            "lng": 121.491412
        },
        "ad_info": {
            "adcode": 210921,
            "province": "辽宁省",
            "city": "阜新市",
            "district": "阜新蒙古族自治县"
        }
    },
    {
        "id": "6076704206970101750",
        "title": "公共厕所",
        "address": "辽宁省阜新市细河区新建路与电工街交叉口东北方向117米左右",
        "tel": "",
        "category": "基础设施:公共设施:公共厕所",
        "type": 0,
        "location": {
            "lat": 42.019383,
            "lng": 121.65046
        },
        "ad_info": {
            "adcode": 210911,
            "province": "辽宁省",
            "city": "阜新市",
            "district": "细河区"
        }
    },
    {
        "id": "2438003444960240249",
        "title": "公共厕所",
        "address": "辽宁省阜新市彰武县兴工路与建华路交叉口正南方向280米左右",
        "tel": "",
        "category": "基础设施:公共设施:公共厕所",
        "type": 0,
        "location": {
            "lat": 42.407404,
            "lng": 122.54731
        },
        "ad_info": {
            "adcode": 210922,
            "province": "辽宁省",
            "city": "阜新市",
            "district": "彰武县"
        }
    },
    {
        "id": "2766920040694127192",
        "title": "公共厕所",
        "address": "辽宁省阜新市彰武县建华路与豪德街交叉口西南方向193米左右",
        "tel": "",
        "category": "基础设施:公共设施:公共厕所",
        "type": 0,
        "location": {
            "lat": 42.394231,
            "lng": 122.545024
        },
        "ad_info": {
            "adcode": 210922,
            "province": "辽宁省",
            "city": "阜新市",
            "district": "彰武县"
        }
    },
    {
        "id": "7033498128937828266",
        "title": "公共厕所",
        "address": "辽宁省阜新市彰武县东环路与北环路交叉口正北方向185米左右",
        "tel": "",
        "category": "基础设施:公共设施:公共厕所",
        "type": 0,
        "location": {
            "lat": 42.391544,
            "lng": 122.546381
        },
        "ad_info": {
            "adcode": 210922,
            "province": "辽宁省",
            "city": "阜新市",
            "district": "彰武县"
        }
    },
    {
        "id": "11297308200448819618",
        "title": "公共厕所",
        "address": "辽宁省阜新市阜新蒙古族自治县团结街与胜利路交叉口西南方向99米左右",
        "tel": "",
        "category": "基础设施:公共设施:公共厕所",
        "type": 0,
        "location": {
            "lat": 42.056779,
            "lng": 121.745343
        },
        "ad_info": {
            "adcode": 210921,
            "province": "辽宁省",
            "city": "阜新市",
            "district": "阜新蒙古族自治县"
        }
    },
    {
        "id": "2507221529801773466",
        "title": "公共厕所",
        "address": "辽宁省阜新市彰武县园林街与灯塔路交叉口西北方向156米左右",
        "tel": "",
        "category": "基础设施:公共设施:公共厕所",
        "type": 0,
        "location": {
            "lat": 42.393746,
            "lng": 122.538198
        },
        "ad_info": {
            "adcode": 210922,
            "province": "辽宁省",
            "city": "阜新市",
            "district": "彰武县"
        }
    },
    {
        "id": "14018198694794366970",
        "title": "公共厕所",
        "address": "辽宁省阜新市细河区工业街与银杏巷交叉口正南方向72米左右",
        "tel": "",
        "category": "基础设施:公共设施:公共厕所",
        "type": 0,
        "location": {
            "lat": 42.026395,
            "lng": 121.671938
        },
        "ad_info": {
            "adcode": 210911,
            "province": "辽宁省",
            "city": "阜新市",
            "district": "细河区"
        }
    },
    {
        "id": "13891850324619805127",
        "title": "公共厕所",
        "address": "辽宁省阜新市彰武县建设街7-2门",
        "tel": "",
        "category": "基础设施:公共设施:公共厕所",
        "type": 0,
        "location": {
            "lat": 42.380395,
            "lng": 122.539898
        },
        "ad_info": {
            "adcode": 210922,
            "province": "辽宁省",
            "city": "阜新市",
            "district": "彰武县"
        }
    },
    {
        "id": "2039408585777597383",
        "title": "公共厕所",
        "address": "辽宁省阜新市彰武县东环路与老城街交叉口正东方向140米左右",
        "tel": "",
        "category": "基础设施:公共设施:公共厕所",
        "type": 0,
        "location": {
            "lat": 42.381225,
            "lng": 122.544646
        },
        "ad_info": {
            "adcode": 210922,
            "province": "辽宁省",
            "city": "阜新市",
            "district": "彰武县"
        }
    },
    {
        "id": "822404241663566623",
        "title": "公共厕所",
        "address": "辽宁省阜新市细河区东风路与四合大街交叉口正南方向352米左右",
        "tel": "",
        "category": "基础设施:公共设施:公共厕所",
        "type": 0,
        "location": {
            "lat": 42.018498,
            "lng": 121.625043
        },
        "ad_info": {
            "adcode": 210911,
            "province": "辽宁省",
            "city": "阜新市",
            "district": "细河区"
        }
    },
    {
        "id": "6278458036256974060",
        "title": "公共厕所",
        "address": "辽宁省阜新市彰武县德力格尔草原生态开发有限公司东北侧60米",
        "tel": "",
        "category": "基础设施:公共设施:公共厕所",
        "type": 0,
        "location": {
            "lat": 42.584522,
            "lng": 122.63242
        },
        "ad_info": {
            "adcode": 210922,
            "province": "辽宁省",
            "city": "阜新市",
            "district": "彰武县"
        }
    },
    {
        "id": "8299997821323112690",
        "title": "公共厕所",
        "address": "辽宁省阜新市细河区北园街与玉龙路交叉口西北方向666米左右",
        "tel": "",
        "category": "基础设施:公共设施:公共厕所",
        "type": 0,
        "location": {
            "lat": 42.055834,
            "lng": 121.61426
        },
        "ad_info": {
            "adcode": 210911,
            "province": "辽宁省",
            "city": "阜新市",
            "district": "细河区"
        }
    },
    {
        "id": "1763293614875726473",
        "title": "公共厕所",
        "address": "辽宁省阜新市彰武县G101与S214交叉口正南方向54米左右",
        "tel": "",
        "category": "基础设施:公共设施:公共厕所",
        "type": 0,
        "location": {
            "lat": 42.358673,
            "lng": 122.500121
        },
        "ad_info": {
            "adcode": 210922,
            "province": "辽宁省",
            "city": "阜新市",
            "district": "彰武县"
        }
    },
    {
        "id": "2966840388675941212",
        "title": "公共厕所",
        "address": "辽宁省阜新市细河区八一路与莘铭路交叉口东北方向133米左右",
        "tel": "",
        "category": "基础设施:公共设施:公共厕所",
        "type": 0,
        "location": {
            "lat": 42.026485,
            "lng": 121.663411
        },
        "ad_info": {
            "adcode": 210911,
            "province": "辽宁省",
            "city": "阜新市",
            "district": "细河区"
        }
    },
    {
        "id": "4228785402731550669",
        "title": "公共厕所",
        "address": "辽宁省阜新市阜新蒙古族自治县G101与大七线交叉口正东方向60米左右",
        "tel": "",
        "category": "基础设施:公共设施:公共厕所",
        "type": 0,
        "location": {
            "lat": 42.038971,
            "lng": 121.335879
        },
        "ad_info": {
            "adcode": 210921,
            "province": "辽宁省",
            "city": "阜新市",
            "district": "阜新蒙古族自治县"
        }
    },
    {
        "id": "16794049809573500115",
        "title": "公共厕所",
        "address": "辽宁省阜新市阜新蒙古族自治县S204与东牛线交叉口正北方向60米左右",
        "tel": "",
        "category": "基础设施:公共设施:公共厕所",
        "type": 0,
        "location": {
            "lat": 41.939006,
            "lng": 121.550059
        },
        "ad_info": {
            "adcode": 210921,
            "province": "辽宁省",
            "city": "阜新市",
            "district": "阜新蒙古族自治县"
        }
    },
    {
        "id": "184336379626527322",
        "title": "公共厕所",
        "address": "辽宁省阜新市彰武县东环路与丹霍路交叉口东南方向228米左右",
        "tel": "",
        "category": "基础设施:公共设施:公共厕所",
        "type": 0,
        "location": {
            "lat": 42.377403,
            "lng": 122.544207
        },
        "ad_info": {
            "adcode": 210922,
            "province": "辽宁省",
            "city": "阜新市",
            "district": "彰武县"
        }
    },
    {
        "id": "15744133378911291346",
        "title": "公共厕所",
        "address": "辽宁省阜新市细河区东风路与四合大街交叉口西北方向185米左右",
        "tel": "",
        "category": "基础设施:公共设施:公共厕所",
        "type": 0,
        "location": {
            "lat": 42.022985,
            "lng": 121.624058
        },
        "ad_info": {
            "adcode": 210911,
            "province": "辽宁省",
            "city": "阜新市",
            "district": "细河区"
        }
    },
    {
        "id": "10038031160871036941",
        "title": "公共厕所",
        "address": "辽宁省阜新市阜新蒙古族自治县S304与旧清线交叉口西北方向437米左右",
        "tel": "",
        "category": "基础设施:公共设施:公共厕所",
        "type": 0,
        "location": {
            "lat": 41.791411,
            "lng": 121.399461
        },
        "ad_info": {
            "adcode": 210921,
            "province": "辽宁省",
            "city": "阜新市",
            "district": "阜新蒙古族自治县"
        }
    },
    {
        "id": "13820636471361705798",
        "title": "公共厕所",
        "address": "辽宁省阜新市阜新蒙古族自治县发展大街与繁荣大街交叉口西北方向235米左右",
        "tel": "",
        "category": "基础设施:公共设施:公共厕所",
        "type": 0,
        "location": {
            "lat": 42.054243,
            "lng": 121.754935
        },
        "ad_info": {
            "adcode": 210921,
            "province": "辽宁省",
            "city": "阜新市",
            "district": "阜新蒙古族自治县"
        }
    },
    {
        "id": "18025678195618444744",
        "title": "公共厕所",
        "address": "辽宁省阜新市彰武县北环路与铁东路交叉口正南方向151米左右",
        "tel": "",
        "category": "基础设施:公共设施:公共厕所",
        "type": 0,
        "location": {
            "lat": 42.390074,
            "lng": 122.535292
        },
        "ad_info": {
            "adcode": 210922,
            "province": "辽宁省",
            "city": "阜新市",
            "district": "彰武县"
        }
    },
    {
        "id": "15760682879155572653",
        "title": "公共厕所",
        "address": "辽宁省阜新市阜新蒙古族自治县中华路与南环路交叉口西南方向107米左右",
        "tel": "",
        "category": "基础设施:公共设施:公共厕所",
        "type": 0,
        "location": {
            "lat": 42.049396,
            "lng": 121.725544
        },
        "ad_info": {
            "adcode": 210921,
            "province": "辽宁省",
            "city": "阜新市",
            "district": "阜新蒙古族自治县"
        }
    },
    {
        "id": "8946401325790311755",
        "title": "公共厕所",
        "address": "辽宁省阜新市阜新蒙古族自治县G101与北舍线交叉口正东方向79米左右",
        "tel": "",
        "category": "基础设施:公共设施:公共厕所",
        "type": 0,
        "location": {
            "lat": 42.063186,
            "lng": 121.504325
        },
        "ad_info": {
            "adcode": 210921,
            "province": "辽宁省",
            "city": "阜新市",
            "district": "阜新蒙古族自治县"
        }
    },
    {
        "id": "6976852591424404290",
        "title": "公共厕所",
        "address": "辽宁省阜新市阜新蒙古族自治县S205与阿哈来桥交叉口西北方向584米左右",
        "tel": "",
        "category": "基础设施:公共设施:公共厕所",
        "type": 0,
        "location": {
            "lat": 42.341675,
            "lng": 121.639705
        },
        "ad_info": {
            "adcode": 210921,
            "province": "辽宁省",
            "city": "阜新市",
            "district": "阜新蒙古族自治县"
        }
    },
    {
        "id": "1436891998361063856",
        "title": "公共厕所",
        "address": "辽宁省阜新市阜新蒙古族自治县G101与海同线交叉口东南方向61米左右",
        "tel": "",
        "category": "基础设施:公共设施:公共厕所",
        "type": 0,
        "location": {
            "lat": 42.113833,
            "lng": 121.644802
        },
        "ad_info": {
            "adcode": 210921,
            "province": "辽宁省",
            "city": "阜新市",
            "district": "阜新蒙古族自治县"
        }
    },
    {
        "id": "13581189204486975069",
        "title": "公共厕所",
        "address": "辽宁省阜新市阜新蒙古族自治县S214与朱苍线交叉口东北方向242米左右",
        "tel": "",
        "category": "基础设施:公共设施:公共厕所",
        "type": 0,
        "location": {
            "lat": 42.052975,
            "lng": 122.131143
        },
        "ad_info": {
            "adcode": 210921,
            "province": "辽宁省",
            "city": "阜新市",
            "district": "阜新蒙古族自治县"
        }
    },
    {
        "id": "4952263604538241223",
        "title": "公共厕所",
        "address": "辽宁省阜新市阜新蒙古族自治县211省道西50米",
        "tel": "",
        "category": "基础设施:公共设施:公共厕所",
        "type": 0,
        "location": {
            "lat": 42.033884,
            "lng": 122.137238
        },
        "ad_info": {
            "adcode": 210921,
            "province": "辽宁省",
            "city": "阜新市",
            "district": "阜新蒙古族自治县"
        }
    },
    {
        "id": "18238839307983759355",
        "title": "公共厕所",
        "address": "辽宁省阜新市阜新蒙古族自治县G101与阜邱线交叉口东北方向52米左右",
        "tel": "",
        "category": "基础设施:公共设施:公共厕所",
        "type": 0,
        "location": {
            "lat": 42.128033,
            "lng": 121.80291
        },
        "ad_info": {
            "adcode": 210921,
            "province": "辽宁省",
            "city": "阜新市",
            "district": "阜新蒙古族自治县"
        }
    },
    {
        "id": "13775309557502879689",
        "title": "公共厕所",
        "address": "辽宁省阜新市细河区兴工路与民族街交叉口西南方向29米左右",
        "tel": "",
        "category": "基础设施:公共设施:公共厕所",
        "type": 0,
        "location": {
            "lat": 42.030865,
            "lng": 121.65261
        },
        "ad_info": {
            "adcode": 210911,
            "province": "辽宁省",
            "city": "阜新市",
            "district": "细河区"
        }
    },
    {
        "id": "15149790052947679192",
        "title": "公共厕所",
        "address": "辽宁省阜新市阜新蒙古族自治县工农路与电业路交叉口正东方向572米左右",
        "tel": "",
        "category": "基础设施:公共设施:公共厕所",
        "type": 0,
        "location": {
            "lat": 42.062824,
            "lng": 121.761436
        },
        "ad_info": {
            "adcode": 210921,
            "province": "辽宁省",
            "city": "阜新市",
            "district": "阜新蒙古族自治县"
        }
    },
    {
        "id": "9958485380999645400",
        "title": "公共厕所",
        "address": "辽宁省阜新市彰武县建华路中国石油(彰武建华路加油站)",
        "tel": "",
        "category": "基础设施:公共设施:公共厕所",
        "type": 0,
        "location": {
            "lat": 42.39449,
            "lng": 122.547432
        },
        "ad_info": {
            "adcode": 210922,
            "province": "辽宁省",
            "city": "阜新市",
            "district": "彰武县"
        }
    },
    {
        "id": "10497960849366978042",
        "title": "公共厕所",
        "address": "辽宁省阜新市阜新蒙古族自治县发展大街与繁荣大街交叉口东北方向511米左右",
        "tel": "",
        "category": "基础设施:公共设施:公共厕所",
        "type": 0,
        "location": {
            "lat": 42.056389,
            "lng": 121.761693
        },
        "ad_info": {
            "adcode": 210921,
            "province": "辽宁省",
            "city": "阜新市",
            "district": "阜新蒙古族自治县"
        }
    },
    {
        "id": "6619655417228437148",
        "title": "公共厕所",
        "address": "辽宁省阜新市彰武县G304与S303交叉口西北方向50米左右",
        "tel": "",
        "category": "基础设施:公共设施:公共厕所",
        "type": 0,
        "location": {
            "lat": 42.708249,
            "lng": 122.47385
        },
        "ad_info": {
            "adcode": 210922,
            "province": "辽宁省",
            "city": "阜新市",
            "district": "彰武县"
        }
    },
    {
        "id": "4447346543446927046",
        "title": "公共厕所",
        "address": "辽宁省阜新市阜新蒙古族自治县务泡线东50米",
        "tel": "",
        "category": "基础设施:公共设施:公共厕所",
        "type": 0,
        "location": {
            "lat": 42.2341,
            "lng": 122.291447
        },
        "ad_info": {
            "adcode": 210921,
            "province": "辽宁省",
            "city": "阜新市",
            "district": "阜新蒙古族自治县"
        }
    },
    {
        "id": "14886411898348552343",
        "title": "公共厕所",
        "address": "辽宁省阜新市太平区红树一街与红树路交叉口正南方向42米左右",
        "tel": "",
        "category": "基础设施:公共设施:公共厕所",
        "type": 0,
        "location": {
            "lat": 42.005967,
            "lng": 121.669303
        },
        "ad_info": {
            "adcode": 210904,
            "province": "辽宁省",
            "city": "阜新市",
            "district": "太平区"
        }
    },
    {
        "id": "6786504122639036634",
        "title": "公共厕所",
        "address": "辽宁省阜新市阜新蒙古族自治县发展大街与繁荣大街交叉口东南方向68米左右",
        "tel": "",
        "category": "基础设施:公共设施:公共厕所",
        "type": 0,
        "location": {
            "lat": 42.052801,
            "lng": 121.758059
        },
        "ad_info": {
            "adcode": 210921,
            "province": "辽宁省",
            "city": "阜新市",
            "district": "阜新蒙古族自治县"
        }
    },
    {
        "id": "2633515192475713772",
        "title": "公共厕所",
        "address": "辽宁省阜新市阜新蒙古族自治县S205与新兴路交叉口正南方向135米左右",
        "tel": "",
        "category": "基础设施:公共设施:公共厕所",
        "type": 0,
        "location": {
            "lat": 42.15447,
            "lng": 121.730836
        },
        "ad_info": {
            "adcode": 210921,
            "province": "辽宁省",
            "city": "阜新市",
            "district": "阜新蒙古族自治县"
        }
    },
    {
        "id": "5144211424144341009",
        "title": "公共厕所",
        "address": "辽宁省阜新市细河区北新路与电工街交叉口正西方向36米左右",
        "tel": "",
        "category": "基础设施:公共设施:公共厕所",
        "type": 0,
        "location": {
            "lat": 42.032689,
            "lng": 121.644196
        },
        "ad_info": {
            "adcode": 210911,
            "province": "辽宁省",
            "city": "阜新市",
            "district": "细河区"
        }
    },
    {
        "id": "3145340510578337708",
        "title": "公共厕所",
        "address": "辽宁省阜新市细河区北新路与常青街交叉口正西方向103米左右",
        "tel": "",
        "category": "基础设施:公共设施:公共厕所",
        "type": 0,
        "location": {
            "lat": 42.034555,
            "lng": 121.653351
        },
        "ad_info": {
            "adcode": 210911,
            "province": "辽宁省",
            "city": "阜新市",
            "district": "细河区"
        }
    },
    {
        "id": "5313020204146990772",
        "title": "公共厕所",
        "address": "辽宁省阜新市细河区民族街人民公园(西侧)",
        "tel": "",
        "category": "基础设施:公共设施:公共厕所",
        "type": 0,
        "location": {
            "lat": 42.021406,
            "lng": 121.656301
        },
        "ad_info": {
            "adcode": 210911,
            "province": "辽宁省",
            "city": "阜新市",
            "district": "细河区"
        }
    },
    {
        "id": "8585166980938512231",
        "title": "公共厕所",
        "address": "辽宁省阜新市细河区中华路与前进路交叉口西南方向79米左右",
        "tel": "",
        "category": "基础设施:公共设施:公共厕所",
        "type": 0,
        "location": {
            "lat": 42.024752,
            "lng": 121.68279
        },
        "ad_info": {
            "adcode": 210911,
            "province": "辽宁省",
            "city": "阜新市",
            "district": "细河区"
        }
    },
    {
        "id": "4765234043747292105",
        "title": "公共厕所",
        "address": "辽宁省阜新市细河区东风路与电工街交叉口正西方向155米左右",
        "tel": "",
        "category": "基础设施:公共设施:公共厕所",
        "type": 0,
        "location": {
            "lat": 42.02615,
            "lng": 121.644821
        },
        "ad_info": {
            "adcode": 210911,
            "province": "辽宁省",
            "city": "阜新市",
            "district": "细河区"
        }
    },
    {
        "id": "5908405379857669071",
        "title": "公共厕所",
        "address": "辽宁省阜新市细河区东风路与西新路交叉口西南方向394米左右",
        "tel": "",
        "category": "基础设施:公共设施:公共厕所",
        "type": 0,
        "location": {
            "lat": 42.022031,
            "lng": 121.630375
        },
        "ad_info": {
            "adcode": 210911,
            "province": "辽宁省",
            "city": "阜新市",
            "district": "细河区"
        }
    },
    {
        "id": "299520628873825792",
        "title": "公共厕所",
        "address": "辽宁省阜新市彰武县北山路与园林街交叉口正西方向86米左右",
        "tel": "",
        "category": "基础设施:公共设施:公共厕所",
        "type": 0,
        "location": {
            "lat": 42.391911,
            "lng": 122.542752
        },
        "ad_info": {
            "adcode": 210922,
            "province": "辽宁省",
            "city": "阜新市",
            "district": "彰武县"
        }
    },
    {
        "id": "7590957613402102166",
        "title": "公共厕所",
        "address": "辽宁省阜新市彰武县G304与富强路交叉口正东方向353米左右",
        "tel": "",
        "category": "基础设施:公共设施:公共厕所",
        "type": 0,
        "location": {
            "lat": 42.24918,
            "lng": 122.676974
        },
        "ad_info": {
            "adcode": 210922,
            "province": "辽宁省",
            "city": "阜新市",
            "district": "彰武县"
        }
    },
    {
        "id": "4203226359969646355",
        "title": "公共厕所",
        "address": "辽宁省阜新市彰武县人民大街与文化路交叉口正北方向135米左右",
        "tel": "",
        "category": "基础设施:公共设施:公共厕所",
        "type": 0,
        "location": {
            "lat": 42.38726,
            "lng": 122.543055
        },
        "ad_info": {
            "adcode": 210922,
            "province": "辽宁省",
            "city": "阜新市",
            "district": "彰武县"
        }
    },
    {
        "id": "13341557223129192820",
        "title": "公共厕所",
        "address": "辽宁省阜新市彰武县304线与G304交叉口正北方向764米左右",
        "tel": "",
        "category": "基础设施:公共设施:公共厕所",
        "type": 0,
        "location": {
            "lat": 42.841788,
            "lng": 122.42769
        },
        "ad_info": {
            "adcode": 210922,
            "province": "辽宁省",
            "city": "阜新市",
            "district": "彰武县"
        }
    },
    {
        "id": "519501189106543489",
        "title": "公共厕所",
        "address": "辽宁省阜新市彰武县S214与S303交叉口东北方向747米左右",
        "tel": "",
        "category": "基础设施:公共设施:公共厕所",
        "type": 0,
        "location": {
            "lat": 42.581208,
            "lng": 122.759378
        },
        "ad_info": {
            "adcode": 210922,
            "province": "辽宁省",
            "city": "阜新市",
            "district": "彰武县"
        }
    },
    {
        "id": "12074907803887319997",
        "title": "公共厕所",
        "address": "辽宁省阜新市细河区东风路与解放大街交叉口东北方向76米左右",
        "tel": "",
        "category": "基础设施:公共设施:公共厕所",
        "type": 0,
        "location": {
            "lat": 42.027248,
            "lng": 121.650646
        },
        "ad_info": {
            "adcode": 210911,
            "province": "辽宁省",
            "city": "阜新市",
            "district": "细河区"
        }
    },
    {
        "id": "15438456841773894711",
        "title": "公共厕所",
        "address": "辽宁省阜新市细河区阜新中顺工贸有限责任公司东北侧70米",
        "tel": "",
        "category": "基础设施:公共设施:公共厕所",
        "type": 0,
        "location": {
            "lat": 42.03288,
            "lng": 121.624235
        },
        "ad_info": {
            "adcode": 210911,
            "province": "辽宁省",
            "city": "阜新市",
            "district": "细河区"
        }
    },
    {
        "id": "6172190335747394387",
        "title": "公共卫生间",
        "address": "辽宁省阜新市太平区求索巷与群建路交叉口西南方向999米左右",
        "tel": "",
        "category": "基础设施:公共设施:公共厕所",
        "type": 0,
        "location": {
            "lat": 42.031509,
            "lng": 121.737184
        },
        "ad_info": {
            "adcode": 210904,
            "province": "辽宁省",
            "city": "阜新市",
            "district": "太平区"
        }
    },
    {
        "id": "254674990887512026",
        "title": "公共厕所",
        "address": "辽宁省阜新市细河区福地山庄公墓东南侧290米",
        "tel": "",
        "category": "基础设施:公共设施:公共厕所",
        "type": 0,
        "location": {
            "lat": 42.056217,
            "lng": 121.634755
        },
        "ad_info": {
            "adcode": 210911,
            "province": "辽宁省",
            "city": "阜新市",
            "district": "细河区"
        }
    },
    {
        "id": "3920409519577253434",
        "title": "公共厕所",
        "address": "辽宁省阜新市太平区建设广场与振兴路交叉口正南方向38米左右",
        "tel": "",
        "category": "基础设施:公共设施:公共厕所",
        "type": 0,
        "location": {
            "lat": 42.002103,
            "lng": 121.663987
        },
        "ad_info": {
            "adcode": 210904,
            "province": "辽宁省",
            "city": "阜新市",
            "district": "太平区"
        }
    },
    {
        "id": "4615882133094259075",
        "title": "公共厕所",
        "address": "辽宁省阜新市细河区八一路民族街小学",
        "tel": "",
        "category": "基础设施:公共设施:公共厕所",
        "type": 0,
        "location": {
            "lat": 42.022606,
            "lng": 121.654032
        },
        "ad_info": {
            "adcode": 210911,
            "province": "辽宁省",
            "city": "阜新市",
            "district": "细河区"
        }
    },
    {
        "id": "11047187735279354552",
        "title": "公共厕所",
        "address": "辽宁省阜新市细河区人民大街与北新路交叉口南60米",
        "tel": "",
        "category": "基础设施:公共设施:公共厕所",
        "type": 0,
        "location": {
            "lat": 42.035359,
            "lng": 121.659185
        },
        "ad_info": {
            "adcode": 210911,
            "province": "辽宁省",
            "city": "阜新市",
            "district": "细河区"
        }
    },
    {
        "id": "4951537624741797766",
        "title": "公共厕所",
        "address": "辽宁省阜新市细河区丹阳街与温馨巷交叉口正西方向24米左右",
        "tel": "",
        "category": "基础设施:公共设施:公共厕所",
        "type": 0,
        "location": {
            "lat": 42.029152,
            "lng": 121.635013
        },
        "ad_info": {
            "adcode": 210911,
            "province": "辽宁省",
            "city": "阜新市",
            "district": "细河区"
        }
    },
    {
        "id": "13421608735517620584",
        "title": "公共厕所",
        "address": "辽宁省阜新市细河区工业街宏运铂郡",
        "tel": "",
        "category": "基础设施:公共设施:公共厕所",
        "type": 0,
        "location": {
            "lat": 42.029482,
            "lng": 121.670473
        },
        "ad_info": {
            "adcode": 210911,
            "province": "辽宁省",
            "city": "阜新市",
            "district": "细河区"
        }
    },
    {
        "id": "3919329763708164027",
        "title": "公共厕所",
        "address": "辽宁省阜新市海州区矿工大街与运输路交叉口正东方向92米左右",
        "tel": "",
        "category": "基础设施:公共设施:公共厕所",
        "type": 0,
        "location": {
            "lat": 41.998597,
            "lng": 121.639362
        },
        "ad_info": {
            "adcode": 210902,
            "province": "辽宁省",
            "city": "阜新市",
            "district": "海州区"
        }
    },
    {
        "id": "8966018204838415334",
        "title": "公共厕所",
        "address": "辽宁省阜新市阜新蒙古族自治县光华街与南环路交叉口正南方向30米左右",
        "tel": "",
        "category": "基础设施:公共设施:公共厕所",
        "type": 0,
        "location": {
            "lat": 42.053129,
            "lng": 121.742626
        },
        "ad_info": {
            "adcode": 210921,
            "province": "辽宁省",
            "city": "阜新市",
            "district": "阜新蒙古族自治县"
        }
    },
    {
        "id": "1636791145478355781",
        "title": "公共厕所",
        "address": "辽宁省阜新市阜新蒙古族自治县人民大街与团结街交叉口东北方向145米左右",
        "tel": "",
        "category": "基础设施:公共设施:公共厕所",
        "type": 0,
        "location": {
            "lat": 42.068917,
            "lng": 121.73958
        },
        "ad_info": {
            "adcode": 210921,
            "province": "辽宁省",
            "city": "阜新市",
            "district": "阜新蒙古族自治县"
        }
    },
    {
        "id": "8915567920667351320",
        "title": "公共厕所",
        "address": "辽宁省阜新市海州区奥林匹克花园(滨河路)东南侧110米",
        "tel": "",
        "category": "基础设施:公共设施:公共厕所",
        "type": 0,
        "location": {
            "lat": 42.003861,
            "lng": 121.651052
        },
        "ad_info": {
            "adcode": 210902,
            "province": "辽宁省",
            "city": "阜新市",
            "district": "海州区"
        }
    },
    {
        "id": "2004538131969893414",
        "title": "公共厕所",
        "address": "辽宁省阜新市海州区煤城西路与西韩线交叉口正南方向858米左右",
        "tel": "",
        "category": "基础设施:公共设施:公共厕所",
        "type": 0,
        "location": {
            "lat": 41.957749,
            "lng": 121.608513
        },
        "ad_info": {
            "adcode": 210902,
            "province": "辽宁省",
            "city": "阜新市",
            "district": "海州区"
        }
    },
    {
        "id": "13247187963808654340",
        "title": "公共厕所",
        "address": "辽宁省阜新市细河区东风路与西新路交叉口东北方向48米左右",
        "tel": "",
        "category": "基础设施:公共设施:公共厕所",
        "type": 0,
        "location": {
            "lat": 42.023736,
            "lng": 121.635187
        },
        "ad_info": {
            "adcode": 210911,
            "province": "辽宁省",
            "city": "阜新市",
            "district": "细河区"
        }
    },
    {
        "id": "18443969888200942514",
        "title": "公共厕所",
        "address": "辽宁省阜新市彰武县化工路与南环路交叉口西北方向75米左右",
        "tel": "",
        "category": "基础设施:公共设施:公共厕所",
        "type": 0,
        "location": {
            "lat": 42.379658,
            "lng": 122.536015
        },
        "ad_info": {
            "adcode": 210922,
            "province": "辽宁省",
            "city": "阜新市",
            "district": "彰武县"
        }
    },
    {
        "id": "5613249414162658883",
        "title": "公共厕所",
        "address": "辽宁省阜新市海州区健康巷与滨河路交叉口正东方向105米左右",
        "tel": "",
        "category": "基础设施:公共设施:公共厕所",
        "type": 0,
        "location": {
            "lat": 42.004103,
            "lng": 121.651101
        },
        "ad_info": {
            "adcode": 210902,
            "province": "辽宁省",
            "city": "阜新市",
            "district": "海州区"
        }
    },
    {
        "id": "12121509068977750337",
        "title": "公共厕所",
        "address": "辽宁省阜新市细河区四合路与新渠路交叉口正东方向56米左右",
        "tel": "",
        "category": "基础设施:公共设施:公共厕所",
        "type": 0,
        "location": {
            "lat": 42.014732,
            "lng": 121.64279
        },
        "ad_info": {
            "adcode": 210911,
            "province": "辽宁省",
            "city": "阜新市",
            "district": "细河区"
        }
    },
    {
        "id": "4496732199594050322",
        "title": "阜新服务区公共厕所",
        "address": "辽宁省阜新市阜新蒙古族自治县阜新服务区(长深高速公路北)",
        "tel": "",
        "category": "基础设施:公共设施:公共厕所",
        "type": 0,
        "location": {
            "lat": 42.106867,
            "lng": 121.696307
        },
        "ad_info": {
            "adcode": 210921,
            "province": "辽宁省",
            "city": "阜新市",
            "district": "阜新蒙古族自治县"
        }
    },
    {
        "id": "13665138743529411232",
        "title": "阜新服务区公共厕所",
        "address": "辽宁省阜新市阜新蒙古族自治县长深高速公路服务区加油站西150米",
        "tel": "",
        "category": "基础设施:公共设施:公共厕所",
        "type": 0,
        "location": {
            "lat": 42.104407,
            "lng": 121.695963
        },
        "ad_info": {
            "adcode": 210921,
            "province": "辽宁省",
            "city": "阜新市",
            "district": "阜新蒙古族自治县"
        }
    },
    {
        "id": "4010289998819172841",
        "title": "公共厕所",
        "address": "辽宁省阜新市海州区五一路与矿山路交叉口正西方向522米左右",
        "tel": "",
        "category": "基础设施:公共设施:公共厕所",
        "type": 0,
        "location": {
            "lat": 41.967774,
            "lng": 121.640821
        },
        "ad_info": {
            "adcode": 210902,
            "province": "辽宁省",
            "city": "阜新市",
            "district": "海州区"
        }
    },
    {
        "id": "14022144670189834910",
        "title": "公共厕所",
        "address": "辽宁省阜新市彰武县人民大街与益民路交叉口正北方向195米左右",
        "tel": "",
        "category": "基础设施:公共设施:公共厕所",
        "type": 0,
        "location": {
            "lat": 42.388101,
            "lng": 122.541025
        },
        "ad_info": {
            "adcode": 210922,
            "province": "辽宁省",
            "city": "阜新市",
            "district": "彰武县"
        }
    },
    {
        "id": "23187664637725164",
        "title": "公共厕所",
        "address": "辽宁省阜新市海州区智能无人系统产业基地西侧",
        "tel": "",
        "category": "基础设施:公共设施:公共厕所",
        "type": 0,
        "location": {
            "lat": 41.931902,
            "lng": 121.580229
        },
        "ad_info": {
            "adcode": 210902,
            "province": "辽宁省",
            "city": "阜新市",
            "district": "海州区"
        }
    },
    {
        "id": "2816769568416214844",
        "title": "公共厕所",
        "address": "辽宁省阜新市细河区中华路与园林路交叉口正北方向51米左右",
        "tel": "",
        "category": "基础设施:公共设施:公共厕所",
        "type": 0,
        "location": {
            "lat": 42.018608,
            "lng": 121.661519
        },
        "ad_info": {
            "adcode": 210911,
            "province": "辽宁省",
            "city": "阜新市",
            "district": "细河区"
        }
    },
    {
        "id": "700568304706140406",
        "title": "公共厕所",
        "address": "辽宁省阜新市海州区三纬路与电工街交叉口西北方向35米左右",
        "tel": "",
        "category": "基础设施:公共设施:公共厕所",
        "type": 0,
        "location": {
            "lat": 42.013846,
            "lng": 121.650861
        },
        "ad_info": {
            "adcode": 210902,
            "province": "辽宁省",
            "city": "阜新市",
            "district": "海州区"
        }
    },
    {
        "id": "6395197867028234492",
        "title": "公共厕所",
        "address": "辽宁省阜新市细河区恒业馨居西侧160米",
        "tel": "",
        "category": "基础设施:公共设施:公共厕所",
        "type": 0,
        "location": {
            "lat": 42.023573,
            "lng": 121.647475
        },
        "ad_info": {
            "adcode": 210911,
            "province": "辽宁省",
            "city": "阜新市",
            "district": "细河区"
        }
    },
    {
        "id": "12720893616592866911",
        "title": "公共厕所",
        "address": "辽宁省阜新市彰武县中华路与建设街交叉口西北方向39米左右",
        "tel": "",
        "category": "基础设施:公共设施:公共厕所",
        "type": 0,
        "location": {
            "lat": 42.381245,
            "lng": 122.534288
        },
        "ad_info": {
            "adcode": 210922,
            "province": "辽宁省",
            "city": "阜新市",
            "district": "彰武县"
        }
    },
    {
        "id": "7820794289343210005",
        "title": "公共厕所",
        "address": "辽宁省阜新市海州区中华路与园圃街交叉口正东方向76米左右",
        "tel": "",
        "category": "基础设施:公共设施:公共厕所",
        "type": 0,
        "location": {
            "lat": 42.004987,
            "lng": 121.6298
        },
        "ad_info": {
            "adcode": 210902,
            "province": "辽宁省",
            "city": "阜新市",
            "district": "海州区"
        }
    },
    {
        "id": "1952001235886670156",
        "title": "公共厕所",
        "address": "辽宁省阜新市细河区八一路与西新路交叉口正东方向31米左右",
        "tel": "",
        "category": "基础设施:公共设施:公共厕所",
        "type": 0,
        "location": {
            "lat": 42.019362,
            "lng": 121.636461
        },
        "ad_info": {
            "adcode": 210911,
            "province": "辽宁省",
            "city": "阜新市",
            "district": "细河区"
        }
    },
    {
        "id": "7469653137643210403",
        "title": "公共厕所",
        "address": "辽宁省阜新市细河区八一路宏运华城",
        "tel": "",
        "category": "基础设施:公共设施:公共厕所",
        "type": 0,
        "location": {
            "lat": 42.021301,
            "lng": 121.646881
        },
        "ad_info": {
            "adcode": 210911,
            "province": "辽宁省",
            "city": "阜新市",
            "district": "细河区"
        }
    },
    {
        "id": "12834731010520667176",
        "title": "公共厕所",
        "address": "辽宁省阜新市海州区人民大街与和平路交叉口正北方向118米左右",
        "tel": "",
        "category": "基础设施:公共设施:公共厕所",
        "type": 0,
        "location": {
            "lat": 42.019492,
            "lng": 121.671243
        },
        "ad_info": {
            "adcode": 210902,
            "province": "辽宁省",
            "city": "阜新市",
            "district": "海州区"
        }
    },
    {
        "id": "11118105940056333299",
        "title": "公共厕所",
        "address": "辽宁省阜新市彰武县北环路与灯塔路交叉口正北方向41米左右",
        "tel": "",
        "category": "基础设施:公共设施:公共厕所",
        "type": 0,
        "location": {
            "lat": 42.391221,
            "lng": 122.53883
        },
        "ad_info": {
            "adcode": 210922,
            "province": "辽宁省",
            "city": "阜新市",
            "district": "彰武县"
        }
    },
    {
        "id": "11142621206534248087",
        "title": "公共厕所",
        "address": "辽宁省阜新市海州区振兴路与西阜二街交叉口正北方向28米左右",
        "tel": "",
        "category": "基础设施:公共设施:公共厕所",
        "type": 0,
        "location": {
            "lat": 41.984524,
            "lng": 121.630183
        },
        "ad_info": {
            "adcode": 210902,
            "province": "辽宁省",
            "city": "阜新市",
            "district": "海州区"
        }
    },
    {
        "id": "2026409663214489243",
        "title": "公共厕所",
        "address": "辽宁省阜新市海州区三纬路32号",
        "tel": "",
        "category": "基础设施:公共设施:公共厕所",
        "type": 0,
        "location": {
            "lat": 42.009271,
            "lng": 121.642481
        },
        "ad_info": {
            "adcode": 210902,
            "province": "辽宁省",
            "city": "阜新市",
            "district": "海州区"
        }
    },
    {
        "id": "10020598056534604300",
        "title": "公共厕所",
        "address": "辽宁省阜新市海州区迎宾大街95号阜新市长途客运站",
        "tel": "",
        "category": "基础设施:公共设施:公共厕所",
        "type": 0,
        "location": {
            "lat": 41.990939,
            "lng": 121.634266
        },
        "ad_info": {
            "adcode": 210902,
            "province": "辽宁省",
            "city": "阜新市",
            "district": "海州区"
        }
    },
    {
        "id": "3712519361410817359",
        "title": "公共厕所",
        "address": "辽宁省阜新市海州区新华路与海州街交叉口东南方向229米左右",
        "tel": "",
        "category": "基础设施:公共设施:公共厕所",
        "type": 0,
        "location": {
            "lat": 42.004911,
            "lng": 121.652449
        },
        "ad_info": {
            "adcode": 210902,
            "province": "辽宁省",
            "city": "阜新市",
            "district": "海州区"
        }
    },
    {
        "id": "15454487724650665368",
        "title": "冯家服务区公共厕所",
        "address": "辽宁省阜新市彰武县冯家镇新鲁高速公路冯家服务区",
        "tel": "",
        "category": "基础设施:公共设施:公共厕所",
        "type": 0,
        "location": {
            "lat": 42.576061,
            "lng": 122.539692
        },
        "ad_info": {
            "adcode": 210922,
            "province": "辽宁省",
            "city": "阜新市",
            "district": "彰武县"
        }
    },
    {
        "id": "17926768935462753323",
        "title": "冯家服务区公共厕所",
        "address": "辽宁省阜新市彰武县新鲁高速",
        "tel": "",
        "category": "基础设施:公共设施:公共厕所",
        "type": 0,
        "location": {
            "lat": 42.576529,
            "lng": 122.537007
        },
        "ad_info": {
            "adcode": 210922,
            "province": "辽宁省",
            "city": "阜新市",
            "district": "彰武县"
        }
    },
    {
        "id": "14904217763908916437",
        "title": "那四服务区公共厕所",
        "address": "辽宁省阜新市阜新蒙古族自治县那四服务区附近",
        "tel": "",
        "category": "基础设施:公共设施:公共厕所",
        "type": 0,
        "location": {
            "lat": 42.256487,
            "lng": 122.189527
        },
        "ad_info": {
            "adcode": 210921,
            "province": "辽宁省",
            "city": "阜新市",
            "district": "阜新蒙古族自治县"
        }
    },
    {
        "id": "10646930615051866014",
        "title": "三一八公园公共厕所",
        "address": "辽宁省阜新市海州区新华路与矿工大街交叉口正东方向168米左右",
        "tel": "",
        "category": "基础设施:公共设施:公共厕所",
        "type": 0,
        "location": {
            "lat": 42.001691,
            "lng": 121.639365
        },
        "ad_info": {
            "adcode": 210902,
            "province": "辽宁省",
            "city": "阜新市",
            "district": "海州区"
        }
    },
    {
        "id": "10678881103301084807",
        "title": "公共厕所",
        "address": "辽宁省阜新市海州区西山路与青年街交叉口正南方向59米左右",
        "tel": "",
        "category": "基础设施:公共设施:公共厕所",
        "type": 0,
        "location": {
            "lat": 42.002193,
            "lng": 121.633792
        },
        "ad_info": {
            "adcode": 210902,
            "province": "辽宁省",
            "city": "阜新市",
            "district": "海州区"
        }
    },
    {
        "id": "12329678803123582948",
        "title": "公共厕所",
        "address": "辽宁省阜新市海州区解放大街55号",
        "tel": "",
        "category": "基础设施:公共设施:公共厕所",
        "type": 0,
        "location": {
            "lat": 42.011213,
            "lng": 121.657246
        },
        "ad_info": {
            "adcode": 210902,
            "province": "辽宁省",
            "city": "阜新市",
            "district": "海州区"
        }
    },
    {
        "id": "14459931131759539596",
        "title": "公共卫生间",
        "address": "辽宁省阜新市海州区建设路与新民街交叉口正西方向17米左右",
        "tel": "",
        "category": "基础设施:公共设施:公共厕所",
        "type": 0,
        "location": {
            "lat": 42.010999,
            "lng": 121.658183
        },
        "ad_info": {
            "adcode": 210902,
            "province": "辽宁省",
            "city": "阜新市",
            "district": "海州区"
        }
    },
    {
        "id": "8155669083018603894",
        "title": "公共厕所",
        "address": "辽宁省阜新市海州区兴盛街与和平路交叉口正东方向58米左右",
        "tel": "",
        "category": "基础设施:公共设施:公共厕所",
        "type": 0,
        "location": {
            "lat": 42.015825,
            "lng": 121.665208
        },
        "ad_info": {
            "adcode": 210902,
            "province": "辽宁省",
            "city": "阜新市",
            "district": "海州区"
        }
    },
    {
        "id": "14098940460031297164",
        "title": "公共厕所",
        "address": "辽宁省阜新市海州区开原路与海州街交叉口东南方向39米左右",
        "tel": "",
        "category": "基础设施:公共设施:公共厕所",
        "type": 0,
        "location": {
            "lat": 42.008273,
            "lng": 121.648894
        },
        "ad_info": {
            "adcode": 210902,
            "province": "辽宁省",
            "city": "阜新市",
            "district": "海州区"
        }
    },
    {
        "id": "13768383593408581933",
        "title": "公共厕所",
        "address": "辽宁省阜新市海州区中华路与青年街交叉口正北方向43米左右",
        "tel": "",
        "category": "基础设施:公共设施:公共厕所",
        "type": 0,
        "location": {
            "lat": 42.005942,
            "lng": 121.630611
        },
        "ad_info": {
            "adcode": 210902,
            "province": "辽宁省",
            "city": "阜新市",
            "district": "海州区"
        }
    },
    {
        "id": "13425832559133282795",
        "title": "站前游园公共厕所",
        "address": "辽宁省阜新市海州区振兴路与站东街交叉口正南方向44米左右",
        "tel": "",
        "category": "基础设施:公共设施:公共厕所",
        "type": 0,
        "location": {
            "lat": 41.988897,
            "lng": 121.639926
        },
        "ad_info": {
            "adcode": 210902,
            "province": "辽宁省",
            "city": "阜新市",
            "district": "海州区"
        }
    },
    {
        "id": "13620363891643929333",
        "title": "彰武服务区公共厕所",
        "address": "辽宁省阜新市彰武县G25长深高速与彰武服务区交叉口东北460米",
        "tel": "",
        "category": "基础设施:公共设施:公共厕所",
        "type": 0,
        "location": {
            "lat": 42.428459,
            "lng": 122.709677
        },
        "ad_info": {
            "adcode": 210922,
            "province": "辽宁省",
            "city": "阜新市",
            "district": "彰武县"
        }
    },
    {
        "id": "3455550324344626340",
        "title": "旅游厕所",
        "address": "辽宁省阜新市海州区关山福祉东侧230米",
        "tel": "",
        "category": "基础设施:公共设施:公共厕所",
        "type": 0,
        "location": {
            "lat": 41.964152,
            "lng": 121.716933
        },
        "ad_info": {
            "adcode": 210902,
            "province": "辽宁省",
            "city": "阜新市",
            "district": "海州区"
        }
    },
    {
        "id": "11146817317395663277",
        "title": "公共厕所",
        "address": "辽宁省阜新市细河区园林路与园香巷交叉口正西方向59米左右",
        "tel": "",
        "category": "基础设施:公共设施:公共厕所",
        "type": 0,
        "location": {
            "lat": 42.018886,
            "lng": 121.658679
        },
        "ad_info": {
            "adcode": 210911,
            "province": "辽宁省",
            "city": "阜新市",
            "district": "细河区"
        }
    },
    {
        "id": "10006187352655045222",
        "title": "公共厕所",
        "address": "辽宁省阜新市海州区矿工大街与西新路交叉口西南方向69米左右",
        "tel": "",
        "category": "基础设施:公共设施:公共厕所",
        "type": 0,
        "location": {
            "lat": 42.011652,
            "lng": 121.630969
        },
        "ad_info": {
            "adcode": 210902,
            "province": "辽宁省",
            "city": "阜新市",
            "district": "海州区"
        }
    },
    {
        "id": "12917935840545188632",
        "title": "公共厕所",
        "address": "辽宁省阜新市海州区创西线与新美街交叉口东北方向322米左右",
        "tel": "",
        "category": "基础设施:公共设施:公共厕所",
        "type": 0,
        "location": {
            "lat": 41.983205,
            "lng": 121.609022
        },
        "ad_info": {
            "adcode": 210902,
            "province": "辽宁省",
            "city": "阜新市",
            "district": "海州区"
        }
    },
    {
        "id": "14456981679250180441",
        "title": "公共厕所",
        "address": "辽宁省阜新市细河区高铁站西侧",
        "tel": "",
        "category": "基础设施:公共设施:公共厕所",
        "type": 0,
        "location": {
            "lat": 42.057001,
            "lng": 121.657707
        },
        "ad_info": {
            "adcode": 210911,
            "province": "辽宁省",
            "city": "阜新市",
            "district": "细河区"
        }
    },
    {
        "id": "12535693436799286080",
        "title": "公共厕所",
        "address": "辽宁省阜新市太平区太平大街与煤城东路交叉口西南方向231米左右",
        "tel": "",
        "category": "基础设施:公共设施:公共厕所",
        "type": 0,
        "location": {
            "lat": 42.003847,
            "lng": 121.682083
        },
        "ad_info": {
            "adcode": 210904,
            "province": "辽宁省",
            "city": "阜新市",
            "district": "太平区"
        }
    },
    {
        "id": "750102278105367695",
        "title": "那四服务区公共厕所",
        "address": "辽宁省阜新市阜新蒙古族自治县G25长深高速附近",
        "tel": "",
        "category": "基础设施:公共设施:公共厕所",
        "type": 0,
        "location": {
            "lat": 42.254746,
            "lng": 122.190895
        },
        "ad_info": {
            "adcode": 210921,
            "province": "辽宁省",
            "city": "阜新市",
            "district": "阜新蒙古族自治县"
        }
    },
    {
        "id": "4884190845761656243",
        "title": "公共厕所",
        "address": "辽宁省阜新市清河门区勤学巷与新平路交叉口东南方向28米左右",
        "tel": "",
        "category": "基础设施:公共设施:公共厕所",
        "type": 0,
        "location": {
            "lat": 41.781298,
            "lng": 121.421101
        },
        "ad_info": {
            "adcode": 210905,
            "province": "辽宁省",
            "city": "阜新市",
            "district": "清河门区"
        }
    },
    {
        "id": "5289838223605252148",
        "title": "公共厕所",
        "address": "辽宁省阜新市彰武县304线与G304交叉口正北方向906米左右",
        "tel": "",
        "category": "基础设施:公共设施:公共厕所",
        "type": 0,
        "location": {
            "lat": 42.843126,
            "lng": 122.427407
        },
        "ad_info": {
            "adcode": 210922,
            "province": "辽宁省",
            "city": "阜新市",
            "district": "彰武县"
        }
    },
    {
        "id": "15892077386753791198",
        "title": "公共厕所",
        "address": "辽宁省阜新市彰武县西环路与解放大街交叉口正西方向269米左右",
        "tel": "",
        "category": "基础设施:公共设施:公共厕所",
        "type": 0,
        "location": {
            "lat": 42.385279,
            "lng": 122.527509
        },
        "ad_info": {
            "adcode": 210922,
            "province": "辽宁省",
            "city": "阜新市",
            "district": "彰武县"
        }
    },
    {
        "id": "6554208160415096936",
        "title": "公共厕所",
        "address": "辽宁省阜新市太平区海新路与煤城东路交叉口西南方向56米左右",
        "tel": "",
        "category": "基础设施:公共设施:公共厕所",
        "type": 0,
        "location": {
            "lat": 42.016243,
            "lng": 121.699072
        },
        "ad_info": {
            "adcode": 210904,
            "province": "辽宁省",
            "city": "阜新市",
            "district": "太平区"
        }
    },
    {
        "id": "1380784585572418081",
        "title": "公共厕所",
        "address": "辽宁省阜新市细河区工业街与晨曦巷交叉口西北方向119米左右",
        "tel": "",
        "category": "基础设施:公共设施:公共厕所",
        "type": 0,
        "location": {
            "lat": 42.036509,
            "lng": 121.665074
        },
        "ad_info": {
            "adcode": 210911,
            "province": "辽宁省",
            "city": "阜新市",
            "district": "细河区"
        }
    },
    {
        "id": "14838636509664355655",
        "title": "公共厕所",
        "address": "辽宁省阜新市细河区柳荫巷与正阳街交叉口正南方向133米左右",
        "tel": "",
        "category": "基础设施:公共设施:公共厕所",
        "type": 0,
        "location": {
            "lat": 42.028355,
            "lng": 121.678983
        },
        "ad_info": {
            "adcode": 210911,
            "province": "辽宁省",
            "city": "阜新市",
            "district": "细河区"
        }
    },
    {
        "id": "16231323950926510789",
        "title": "公共厕所",
        "address": "辽宁省阜新市海州区延安路与衡山街交叉口正南方向42米左右",
        "tel": "",
        "category": "基础设施:公共设施:公共厕所",
        "type": 0,
        "location": {
            "lat": 42.005449,
            "lng": 121.645256
        },
        "ad_info": {
            "adcode": 210902,
            "province": "辽宁省",
            "city": "阜新市",
            "district": "海州区"
        }
    },
    {
        "id": "6674437963562766834",
        "title": "公共厕所",
        "address": "辽宁省阜新市细河区园西路与潜龙路交叉口正北方向105米左右",
        "tel": "",
        "category": "基础设施:公共设施:公共厕所",
        "type": 0,
        "location": {
            "lat": 42.03681,
            "lng": 121.64344
        },
        "ad_info": {
            "adcode": 210911,
            "province": "辽宁省",
            "city": "阜新市",
            "district": "细河区"
        }
    },
    {
        "id": "11479051184805684445",
        "title": "公共厕所",
        "address": "辽宁省阜新市彰武县G101与丹霍线交叉口东南方向110米左右",
        "tel": "",
        "category": "基础设施:公共设施:公共厕所",
        "type": 0,
        "location": {
            "lat": 42.343629,
            "lng": 122.5728
        },
        "ad_info": {
            "adcode": 210922,
            "province": "辽宁省",
            "city": "阜新市",
            "district": "彰武县"
        }
    },
    {
        "id": "967413512812668874",
        "title": "公共厕所",
        "address": "辽宁省阜新市彰武县南环路与新兴路交叉口正北方向211米左右",
        "tel": "",
        "category": "基础设施:公共设施:公共厕所",
        "type": 0,
        "location": {
            "lat": 42.379527,
            "lng": 122.529167
        },
        "ad_info": {
            "adcode": 210922,
            "province": "辽宁省",
            "city": "阜新市",
            "district": "彰武县"
        }
    },
    {
        "id": "12346857352460640470",
        "title": "公共厕所",
        "address": "辽宁省阜新市阜新蒙古族自治县工农路与电业路交叉口正东方向410米左右",
        "tel": "",
        "category": "基础设施:公共设施:公共厕所",
        "type": 0,
        "location": {
            "lat": 42.062581,
            "lng": 121.759495
        },
        "ad_info": {
            "adcode": 210921,
            "province": "辽宁省",
            "city": "阜新市",
            "district": "阜新蒙古族自治县"
        }
    },
    {
        "id": "2695266705397710416",
        "title": "公共厕所",
        "address": "辽宁省阜新市阜新蒙古族自治县北环路与团结街交叉口东北方向60米左右",
        "tel": "",
        "category": "基础设施:公共设施:公共厕所",
        "type": 0,
        "location": {
            "lat": 42.062686,
            "lng": 121.743023
        },
        "ad_info": {
            "adcode": 210921,
            "province": "辽宁省",
            "city": "阜新市",
            "district": "阜新蒙古族自治县"
        }
    },
    {
        "id": "9406156072331559792",
        "title": "公共厕所",
        "address": "辽宁省阜新市细河区利民路与市环线交叉口正东方向386米左右",
        "tel": "",
        "category": "基础设施:公共设施:公共厕所",
        "type": 0,
        "location": {
            "lat": 42.026124,
            "lng": 121.603155
        },
        "ad_info": {
            "adcode": 210911,
            "province": "辽宁省",
            "city": "阜新市",
            "district": "细河区"
        }
    },
    {
        "id": "5355733316416863565",
        "title": "公共厕所",
        "address": "辽宁省阜新市彰武县兴旺路与政通街交叉口正东方向329米左右",
        "tel": "",
        "category": "基础设施:公共设施:公共厕所",
        "type": 0,
        "location": {
            "lat": 42.434359,
            "lng": 122.570379
        },
        "ad_info": {
            "adcode": 210922,
            "province": "辽宁省",
            "city": "阜新市",
            "district": "彰武县"
        }
    },
    {
        "id": "13097367887922643284",
        "title": "公共厕所",
        "address": "辽宁省阜新市太平区煤城东路与高孙路交叉口东南方向250米左右",
        "tel": "",
        "category": "基础设施:公共设施:公共厕所",
        "type": 0,
        "location": {
            "lat": 42.01208,
            "lng": 121.69961
        },
        "ad_info": {
            "adcode": 210904,
            "province": "辽宁省",
            "city": "阜新市",
            "district": "太平区"
        }
    },
    {
        "id": "14834756682389614448",
        "title": "公共厕所",
        "address": "辽宁省阜新市彰武县彰太线与老孤线交叉口西南方向679米左右",
        "tel": "",
        "category": "基础设施:公共设施:公共厕所",
        "type": 0,
        "location": {
            "lat": 42.406723,
            "lng": 122.78844
        },
        "ad_info": {
            "adcode": 210922,
            "province": "辽宁省",
            "city": "阜新市",
            "district": "彰武县"
        }
    },
    {
        "id": "2789044955169891248",
        "title": "公共厕所",
        "address": "辽宁省阜新市彰武县S214与石团线交叉口正西方向57米左右",
        "tel": "",
        "category": "基础设施:公共设施:公共厕所",
        "type": 0,
        "location": {
            "lat": 42.307447,
            "lng": 122.426904
        },
        "ad_info": {
            "adcode": 210922,
            "province": "辽宁省",
            "city": "阜新市",
            "district": "彰武县"
        }
    },
    {
        "id": "11857453474692781139",
        "title": "公共厕所",
        "address": "辽宁省阜新市彰武县G101与东彰线交叉口正西方向192米左右",
        "tel": "",
        "category": "基础设施:公共设施:公共厕所",
        "type": 0,
        "location": {
            "lat": 42.351053,
            "lng": 122.748419
        },
        "ad_info": {
            "adcode": 210922,
            "province": "辽宁省",
            "city": "阜新市",
            "district": "彰武县"
        }
    },
    {
        "id": "2220387038744609044",
        "title": "公共厕所",
        "address": "辽宁省阜新市阜新蒙古族自治县北环路与建新路交叉口东北方向251米左右",
        "tel": "",
        "category": "基础设施:公共设施:公共厕所",
        "type": 0,
        "location": {
            "lat": 42.068376,
            "lng": 121.754597
        },
        "ad_info": {
            "adcode": 210921,
            "province": "辽宁省",
            "city": "阜新市",
            "district": "阜新蒙古族自治县"
        }
    },
    {
        "id": "8304466843375982848",
        "title": "公共厕所",
        "address": "辽宁省阜新市海州区利民街与大众步行街交叉口正东方向122米左右",
        "tel": "",
        "category": "基础设施:公共设施:公共厕所",
        "type": 0,
        "location": {
            "lat": 42.011342,
            "lng": 121.664681
        },
        "ad_info": {
            "adcode": 210902,
            "province": "辽宁省",
            "city": "阜新市",
            "district": "海州区"
        }
    },
    {
        "id": "18252673524956619605",
        "title": "公共厕所",
        "address": "辽宁省阜新市新邱区中部路与宏运路交叉口正东方向409米左右",
        "tel": "",
        "category": "基础设施:公共设施:公共厕所",
        "type": 0,
        "location": {
            "lat": 42.086654,
            "lng": 121.800385
        },
        "ad_info": {
            "adcode": 210903,
            "province": "辽宁省",
            "city": "阜新市",
            "district": "新邱区"
        }
    },
    {
        "id": "5682852670367178709",
        "title": "公共厕所",
        "address": "辽宁省阜新市细河区北新路与解放大街交叉口正北方向92米左右",
        "tel": "",
        "category": "基础设施:公共设施:公共厕所",
        "type": 0,
        "location": {
            "lat": 42.0339,
            "lng": 121.648049
        },
        "ad_info": {
            "adcode": 210911,
            "province": "辽宁省",
            "city": "阜新市",
            "district": "细河区"
        }
    },
    {
        "id": "7121501257829731878",
        "title": "那四服务区第二公共厕所",
        "address": "辽宁省阜新市阜新蒙古族自治县G25长深高速附近",
        "tel": "",
        "category": "基础设施:公共设施:公共厕所",
        "type": 0,
        "location": {
            "lat": 42.255009,
            "lng": 122.191352
        },
        "ad_info": {
            "adcode": 210921,
            "province": "辽宁省",
            "city": "阜新市",
            "district": "阜新蒙古族自治县"
        }
    },
    {
        "id": "15697072095221503319",
        "title": "公共厕所",
        "address": "辽宁省阜新市太平区阜塔线与高原路交叉口正西方向692米左右",
        "tel": "",
        "category": "基础设施:公共设施:公共厕所",
        "type": 0,
        "location": {
            "lat": 42.011557,
            "lng": 121.724437
        },
        "ad_info": {
            "adcode": 210904,
            "province": "辽宁省",
            "city": "阜新市",
            "district": "太平区"
        }
    },
    {
        "id": "581159328177858770",
        "title": "公共厕所",
        "address": "辽宁省阜新市阜新蒙古族自治县东风路与教育路交叉口正南方向9米左右",
        "tel": "",
        "category": "基础设施:公共设施:公共厕所",
        "type": 0,
        "location": {
            "lat": 42.053677,
            "lng": 121.718185
        },
        "ad_info": {
            "adcode": 210921,
            "province": "辽宁省",
            "city": "阜新市",
            "district": "阜新蒙古族自治县"
        }
    },
    {
        "id": "3043893099381454559",
        "title": "公共厕所",
        "address": "辽宁省阜新市太平区高原路与高孙路交叉口正西方向174米左右",
        "tel": "",
        "category": "基础设施:公共设施:公共厕所",
        "type": 0,
        "location": {
            "lat": 42.006827,
            "lng": 121.701289
        },
        "ad_info": {
            "adcode": 210904,
            "province": "辽宁省",
            "city": "阜新市",
            "district": "太平区"
        }
    },
    {
        "id": "5710584879372940957",
        "title": "公共厕所",
        "address": "辽宁省阜新市海州区中华路与人民广场交叉口西南方向89米左右",
        "tel": "",
        "category": "基础设施:公共设施:公共厕所",
        "type": 0,
        "location": {
            "lat": 42.02034,
            "lng": 121.668258
        },
        "ad_info": {
            "adcode": 210902,
            "province": "辽宁省",
            "city": "阜新市",
            "district": "海州区"
        }
    },
    {
        "id": "12116214272496968264",
        "title": "公共厕所",
        "address": "辽宁省阜新市阜新蒙古族自治县S205与繁荣大街交叉口西北方向754米左右",
        "tel": "",
        "category": "基础设施:公共设施:公共厕所",
        "type": 0,
        "location": {
            "lat": 42.043577,
            "lng": 121.75448
        },
        "ad_info": {
            "adcode": 210921,
            "province": "辽宁省",
            "city": "阜新市",
            "district": "阜新蒙古族自治县"
        }
    },
    {
        "id": "10145855982024966670",
        "title": "公共厕所",
        "address": "辽宁省阜新市阜新蒙古族自治县蒙古贞广场东侧",
        "tel": "",
        "category": "基础设施:公共设施:公共厕所",
        "type": 0,
        "location": {
            "lat": 42.058156,
            "lng": 121.74051
        },
        "ad_info": {
            "adcode": 210921,
            "province": "辽宁省",
            "city": "阜新市",
            "district": "阜新蒙古族自治县"
        }
    },
    {
        "id": "16422272539984236900",
        "title": "公共厕所",
        "address": "辽宁省阜新市阜新蒙古族自治县阜新烟草仓储配送中心北侧140米",
        "tel": "",
        "category": "基础设施:公共设施:公共厕所",
        "type": 0,
        "location": {
            "lat": 42.046296,
            "lng": 121.7215
        },
        "ad_info": {
            "adcode": 210921,
            "province": "辽宁省",
            "city": "阜新市",
            "district": "阜新蒙古族自治县"
        }
    },
    {
        "id": "13335982633856178401",
        "title": "公共厕所",
        "address": "辽宁省阜新市彰武县化工路与建设街交叉口西南方向102米左右",
        "tel": "",
        "category": "基础设施:公共设施:公共厕所",
        "type": 0,
        "location": {
            "lat": 42.380159,
            "lng": 122.53618
        },
        "ad_info": {
            "adcode": 210922,
            "province": "辽宁省",
            "city": "阜新市",
            "district": "彰武县"
        }
    },
    {
        "id": "17314764337105999441",
        "title": "公共厕所",
        "address": "辽宁省阜新市细河区东风路与海州街交叉口西南方向106米左右",
        "tel": "",
        "category": "基础设施:公共设施:公共厕所",
        "type": 0,
        "location": {
            "lat": 42.024136,
            "lng": 121.63931
        },
        "ad_info": {
            "adcode": 210911,
            "province": "辽宁省",
            "city": "阜新市",
            "district": "细河区"
        }
    },
    {
        "id": "7285479123761770322",
        "title": "公共厕所",
        "address": "辽宁省阜新市海州区振兴路与迎宾大街交叉口西北方向45米左右",
        "tel": "",
        "category": "基础设施:公共设施:公共厕所",
        "type": 0,
        "location": {
            "lat": 41.98819,
            "lng": 121.63685
        },
        "ad_info": {
            "adcode": 210902,
            "province": "辽宁省",
            "city": "阜新市",
            "district": "海州区"
        }
    },
    {
        "id": "5021047009620182520",
        "title": "彰武服务区公共厕所",
        "address": "辽宁省阜新市彰武县G25长深高速与彰武服务区交叉口东460米",
        "tel": "",
        "category": "基础设施:公共设施:公共厕所",
        "type": 0,
        "location": {
            "lat": 42.426728,
            "lng": 122.711841
        },
        "ad_info": {
            "adcode": 210922,
            "province": "辽宁省",
            "city": "阜新市",
            "district": "彰武县"
        }
    },
    {
        "id": "13956603216480719076",
        "title": "公共厕所",
        "address": "辽宁省阜新市彰武县化工路与老城街交叉口正东方向100米左右",
        "tel": "",
        "category": "基础设施:公共设施:公共厕所",
        "type": 0,
        "location": {
            "lat": 42.381738,
            "lng": 122.538802
        },
        "ad_info": {
            "adcode": 210922,
            "province": "辽宁省",
            "city": "阜新市",
            "district": "彰武县"
        }
    },
    {
        "id": "11086700540916300730",
        "title": "公共厕所",
        "address": "辽宁省阜新市阜新蒙古族自治县光辉街与大众路交叉口正南方向58米左右",
        "tel": "",
        "category": "基础设施:公共设施:公共厕所",
        "type": 0,
        "location": {
            "lat": 42.059298,
            "lng": 121.738686
        },
        "ad_info": {
            "adcode": 210921,
            "province": "辽宁省",
            "city": "阜新市",
            "district": "阜新蒙古族自治县"
        }
    },
    {
        "id": "12512907503740054451",
        "title": "公共厕所",
        "address": "辽宁省阜新市海州区衡山街与西山路交叉口东南方向30米左右",
        "tel": "",
        "category": "基础设施:公共设施:公共厕所",
        "type": 0,
        "location": {
            "lat": 42.008065,
            "lng": 121.643524
        },
        "ad_info": {
            "adcode": 210902,
            "province": "辽宁省",
            "city": "阜新市",
            "district": "海州区"
        }
    },
    {
        "id": "6566251006518164806",
        "title": "公共厕所",
        "address": "辽宁省阜新市海州区山中街与新华路交叉口西南方向91米左右",
        "tel": "",
        "category": "基础设施:公共设施:公共厕所",
        "type": 0,
        "location": {
            "lat": 42.002034,
            "lng": 121.642618
        },
        "ad_info": {
            "adcode": 210902,
            "province": "辽宁省",
            "city": "阜新市",
            "district": "海州区"
        }
    },
    {
        "id": "14990879615288743732",
        "title": "公共厕所",
        "address": "辽宁省阜新市海州区新渠路与矿工大街交叉口东南方向90米左右",
        "tel": "",
        "category": "基础设施:公共设施:公共厕所",
        "type": 0,
        "location": {
            "lat": 42.009646,
            "lng": 121.633857
        },
        "ad_info": {
            "adcode": 210902,
            "province": "辽宁省",
            "city": "阜新市",
            "district": "海州区"
        }
    },
    {
        "id": "7922291746303777289",
        "title": "公共厕所",
        "address": "辽宁省阜新市海州区文化街31号",
        "tel": "",
        "category": "基础设施:公共设施:公共厕所",
        "type": 0,
        "location": {
            "lat": 42.006635,
            "lng": 121.659873
        },
        "ad_info": {
            "adcode": 210902,
            "province": "辽宁省",
            "city": "阜新市",
            "district": "海州区"
        }
    },
    {
        "id": "13678813611781275942",
        "title": "公共厕所",
        "address": "辽宁省阜新市海州区矿工大街与运输路交叉口西北方向91米左右",
        "tel": "",
        "category": "基础设施:公共设施:公共厕所",
        "type": 0,
        "location": {
            "lat": 41.999421,
            "lng": 121.637498
        },
        "ad_info": {
            "adcode": 210902,
            "province": "辽宁省",
            "city": "阜新市",
            "district": "海州区"
        }
    }
]