[
    {
        "id": "4414967858040046729",
        "title": "公共厕所",
        "address": "广西壮族自治区防城港市防城区防城港北站",
        "tel": "",
        "category": "基础设施:公共设施:公共厕所",
        "type": 0,
        "location": {
            "lat": 21.713191,
            "lng": 108.37671
        },
        "ad_info": {
            "adcode": 450603,
            "province": "广西壮族自治区",
            "city": "防城港市",
            "district": "防城区"
        }
    },
    {
        "id": "13264866374412392733",
        "title": "公共厕所",
        "address": "广西壮族自治区防城港市防城区防港路335号",
        "tel": "",
        "category": "基础设施:公共设施:公共厕所",
        "type": 0,
        "location": {
            "lat": 21.764861,
            "lng": 108.362571
        },
        "ad_info": {
            "adcode": 450603,
            "province": "广西壮族自治区",
            "city": "防城港市",
            "district": "防城区"
        }
    },
    {
        "id": "11612886403998898240",
        "title": "公共厕所",
        "address": "广西壮族自治区防城港市防城区人民路与教育路交叉口正东方向21米左右",
        "tel": "",
        "category": "基础设施:公共设施:公共厕所",
        "type": 0,
        "location": {
            "lat": 21.763969,
            "lng": 108.358315
        },
        "ad_info": {
            "adcode": 450603,
            "province": "广西壮族自治区",
            "city": "防城港市",
            "district": "防城区"
        }
    },
    {
        "id": "12709894988672827180",
        "title": "公共厕所",
        "address": "广西壮族自治区防城港市防城区板龙路与环岛东路交叉口正东方向1369米左右",
        "tel": "",
        "category": "基础设施:公共设施:公共厕所",
        "type": 0,
        "location": {
            "lat": 21.539601,
            "lng": 108.291905
        },
        "ad_info": {
            "adcode": 450603,
            "province": "广西壮族自治区",
            "city": "防城港市",
            "district": "防城区"
        }
    },
    {
        "id": "1857601814563558369",
        "title": "公共厕所",
        "address": "广西壮族自治区防城港市防城区财源二巷与财源路交叉口东南方向137米左右",
        "tel": "",
        "category": "基础设施:公共设施:公共厕所",
        "type": 0,
        "location": {
            "lat": 21.768252,
            "lng": 108.360796
        },
        "ad_info": {
            "adcode": 450603,
            "province": "广西壮族自治区",
            "city": "防城港市",
            "district": "防城区"
        }
    },
    {
        "id": "458410950906670511",
        "title": "公共厕所",
        "address": "广西壮族自治区防城港市防城区二桥东路与防港路交叉口西北方向60米左右",
        "tel": "",
        "category": "基础设施:公共设施:公共厕所",
        "type": 0,
        "location": {
            "lat": 21.757359,
            "lng": 108.363528
        },
        "ad_info": {
            "adcode": 450603,
            "province": "广西壮族自治区",
            "city": "防城港市",
            "district": "防城区"
        }
    },
    {
        "id": "15402817694977821104",
        "title": "公共厕所",
        "address": "广西壮族自治区防城港市防城区第一公路客运中心",
        "tel": "",
        "category": "基础设施:公共设施:公共厕所",
        "type": 0,
        "location": {
            "lat": 21.749711,
            "lng": 108.357301
        },
        "ad_info": {
            "adcode": 450603,
            "province": "广西壮族自治区",
            "city": "防城港市",
            "district": "防城区"
        }
    },
    {
        "id": "14909950557551384116",
        "title": "公共厕所",
        "address": "广西壮族自治区防城港市防城区中山路与新民路交叉口正西方向62米左右",
        "tel": "",
        "category": "基础设施:公共设施:公共厕所",
        "type": 0,
        "location": {
            "lat": 21.759722,
            "lng": 108.357412
        },
        "ad_info": {
            "adcode": 450603,
            "province": "广西壮族自治区",
            "city": "防城港市",
            "district": "防城区"
        }
    },
    {
        "id": "6485794981812171750",
        "title": "公共厕所",
        "address": "广西壮族自治区防城港市防城区沙埠横街与滨江路交叉口西北方向104米左右",
        "tel": "",
        "category": "基础设施:公共设施:公共厕所",
        "type": 0,
        "location": {
            "lat": 21.754592,
            "lng": 108.357121
        },
        "ad_info": {
            "adcode": 450603,
            "province": "广西壮族自治区",
            "city": "防城港市",
            "district": "防城区"
        }
    },
    {
        "id": "8209699029412432487",
        "title": "公共厕所",
        "address": "广西壮族自治区防城港市防城区爱居钢结构工程有限公司东北侧250米",
        "tel": "",
        "category": "基础设施:公共设施:公共厕所",
        "type": 0,
        "location": {
            "lat": 21.625416,
            "lng": 108.222521
        },
        "ad_info": {
            "adcode": 450603,
            "province": "广西壮族自治区",
            "city": "防城港市",
            "district": "防城区"
        }
    },
    {
        "id": "8232146908474682608",
        "title": "公共厕所",
        "address": "广西壮族自治区防城港市防城区防钦路与防钦路东六巷交叉口西南方向76米左右",
        "tel": "",
        "category": "基础设施:公共设施:公共厕所",
        "type": 0,
        "location": {
            "lat": 21.774733,
            "lng": 108.374642
        },
        "ad_info": {
            "adcode": 450603,
            "province": "广西壮族自治区",
            "city": "防城港市",
            "district": "防城区"
        }
    },
    {
        "id": "13023325179300331584",
        "title": "公共厕所",
        "address": "广西壮族自治区防城港市防城区团结路与群星大道交叉口正东方向121米左右",
        "tel": "",
        "category": "基础设施:公共设施:公共厕所",
        "type": 0,
        "location": {
            "lat": 21.765966,
            "lng": 108.369502
        },
        "ad_info": {
            "adcode": 450603,
            "province": "广西壮族自治区",
            "city": "防城港市",
            "district": "防城区"
        }
    },
    {
        "id": "10247615442902172499",
        "title": "公共厕所",
        "address": "广西壮族自治区防城港市港口区万鹤路与迎宾街交叉口正东方向46米左右",
        "tel": "",
        "category": "基础设施:公共设施:公共厕所",
        "type": 0,
        "location": {
            "lat": 21.68562,
            "lng": 108.3698
        },
        "ad_info": {
            "adcode": 450602,
            "province": "广西壮族自治区",
            "city": "防城港市",
            "district": "港口区"
        }
    },
    {
        "id": "15922379225464067979",
        "title": "公共厕所",
        "address": "广西壮族自治区防城港市防城区那梭",
        "tel": "",
        "category": "基础设施:公共设施:公共厕所",
        "type": 0,
        "location": {
            "lat": 21.701418,
            "lng": 108.038157
        },
        "ad_info": {
            "adcode": 450603,
            "province": "广西壮族自治区",
            "city": "防城港市",
            "district": "防城区"
        }
    },
    {
        "id": "2495023111366641655",
        "title": "公共厕所",
        "address": "广西壮族自治区防城港市防城区X696与珍珠大道交叉口正南方向81米左右",
        "tel": "",
        "category": "基础设施:公共设施:公共厕所",
        "type": 0,
        "location": {
            "lat": 21.787587,
            "lng": 108.392287
        },
        "ad_info": {
            "adcode": 450603,
            "province": "广西壮族自治区",
            "city": "防城港市",
            "district": "防城区"
        }
    },
    {
        "id": "1070468036500451451",
        "title": "公共厕所",
        "address": "广西壮族自治区防城港市防城区健民路南一里与防北路交叉口正西方向215米左右",
        "tel": "",
        "category": "基础设施:公共设施:公共厕所",
        "type": 0,
        "location": {
            "lat": 21.767707,
            "lng": 108.35173
        },
        "ad_info": {
            "adcode": 450603,
            "province": "广西壮族自治区",
            "city": "防城港市",
            "district": "防城区"
        }
    },
    {
        "id": "2835950282260418380",
        "title": "公共厕所",
        "address": "广西壮族自治区防城港市防城区三官路与防钦路东六巷交叉口正西方向168米左右",
        "tel": "",
        "category": "基础设施:公共设施:公共厕所",
        "type": 0,
        "location": {
            "lat": 21.776684,
            "lng": 108.372083
        },
        "ad_info": {
            "adcode": 450603,
            "province": "广西壮族自治区",
            "city": "防城港市",
            "district": "防城区"
        }
    },
    {
        "id": "16387182128521410571",
        "title": "公共厕所",
        "address": "广西壮族自治区防城港市防城区G219与X264交叉口正西方向150米左右",
        "tel": "",
        "category": "基础设施:公共设施:公共厕所",
        "type": 0,
        "location": {
            "lat": 21.661362,
            "lng": 107.779382
        },
        "ad_info": {
            "adcode": 450603,
            "province": "广西壮族自治区",
            "city": "防城港市",
            "district": "防城区"
        }
    },
    {
        "id": "6543184658554856827",
        "title": "公共厕所",
        "address": "广西壮族自治区防城港市防城区团结路与山海路交叉口东南方向38米左右",
        "tel": "",
        "category": "基础设施:公共设施:公共厕所",
        "type": 0,
        "location": {
            "lat": 21.767222,
            "lng": 108.369385
        },
        "ad_info": {
            "adcode": 450603,
            "province": "广西壮族自治区",
            "city": "防城港市",
            "district": "防城区"
        }
    },
    {
        "id": "6888736997194143874",
        "title": "公共厕所",
        "address": "广西壮族自治区防城港市防城区教育路与解放路交叉口东北方向54米左右",
        "tel": "",
        "category": "基础设施:公共设施:公共厕所",
        "type": 0,
        "location": {
            "lat": 21.761268,
            "lng": 108.359319
        },
        "ad_info": {
            "adcode": 450603,
            "province": "广西壮族自治区",
            "city": "防城港市",
            "district": "防城区"
        }
    },
    {
        "id": "8970625853044642741",
        "title": "公共厕所",
        "address": "广西壮族自治区防城港市港口区云南路与渔万路交叉口正南方向125米左右",
        "tel": "",
        "category": "基础设施:公共设施:公共厕所",
        "type": 0,
        "location": {
            "lat": 21.616808,
            "lng": 108.35107
        },
        "ad_info": {
            "adcode": 450602,
            "province": "广西壮族自治区",
            "city": "防城港市",
            "district": "港口区"
        }
    },
    {
        "id": "4291872844765682219",
        "title": "公共厕所",
        "address": "广西壮族自治区防城港市港口区港湾街1号",
        "tel": "",
        "category": "基础设施:公共设施:公共厕所",
        "type": 0,
        "location": {
            "lat": 21.69349,
            "lng": 108.366275
        },
        "ad_info": {
            "adcode": 450602,
            "province": "广西壮族自治区",
            "city": "防城港市",
            "district": "港口区"
        }
    },
    {
        "id": "15431838313719286062",
        "title": "公共厕所",
        "address": "广西壮族自治区防城港市港口区金海湾B2组团西北侧190米",
        "tel": "",
        "category": "基础设施:公共设施:公共厕所",
        "type": 0,
        "location": {
            "lat": 21.688292,
            "lng": 108.34712
        },
        "ad_info": {
            "adcode": 450602,
            "province": "广西壮族自治区",
            "city": "防城港市",
            "district": "港口区"
        }
    },
    {
        "id": "9459213409512005860",
        "title": "公共厕所",
        "address": "广西壮族自治区防城港市港口区凯乐路与北部湾大道交叉口东北方向66米左右",
        "tel": "",
        "category": "基础设施:公共设施:公共厕所",
        "type": 0,
        "location": {
            "lat": 21.628844,
            "lng": 108.348288
        },
        "ad_info": {
            "adcode": 450602,
            "province": "广西壮族自治区",
            "city": "防城港市",
            "district": "港口区"
        }
    },
    {
        "id": "6780523319476735702",
        "title": "公共厕所",
        "address": "广西壮族自治区防城港市港口区北湖街与长山路交叉口正南方向79米左右",
        "tel": "",
        "category": "基础设施:公共设施:公共厕所",
        "type": 0,
        "location": {
            "lat": 21.655035,
            "lng": 108.364846
        },
        "ad_info": {
            "adcode": 450602,
            "province": "广西壮族自治区",
            "city": "防城港市",
            "district": "港口区"
        }
    },
    {
        "id": "7546832151217901923",
        "title": "公共厕所",
        "address": "广西壮族自治区防城港市港口区公车镇西湾大道北部湾海洋文化公园(西北角)",
        "tel": "",
        "category": "基础设施:公共设施:公共厕所",
        "type": 0,
        "location": {
            "lat": 21.685,
            "lng": 108.352109
        },
        "ad_info": {
            "adcode": 450602,
            "province": "广西壮族自治区",
            "city": "防城港市",
            "district": "港口区"
        }
    },
    {
        "id": "1367314290168918036",
        "title": "白浪滩公共厕所",
        "address": "广西壮族自治区防城港市防城区板龙路与环岛东路交叉口正东方向1693米左右",
        "tel": "",
        "category": "基础设施:公共设施:公共厕所",
        "type": 0,
        "location": {
            "lat": 21.537315,
            "lng": 108.295025
        },
        "ad_info": {
            "adcode": 450603,
            "province": "广西壮族自治区",
            "city": "防城港市",
            "district": "防城区"
        }
    },
    {
        "id": "17066812816444266610",
        "title": "公共厕所",
        "address": "广西壮族自治区防城港市港口区独墩路与长泰路交叉口西南方向70米左右",
        "tel": "",
        "category": "基础设施:公共设施:公共厕所",
        "type": 0,
        "location": {
            "lat": 21.665029,
            "lng": 108.359743
        },
        "ad_info": {
            "adcode": 450602,
            "province": "广西壮族自治区",
            "city": "防城港市",
            "district": "港口区"
        }
    },
    {
        "id": "4642249121500947446",
        "title": "公共厕所",
        "address": "广西壮族自治区防城港市港口区北部湾大道与桃源街交叉口正北方向179米左右",
        "tel": "",
        "category": "基础设施:公共设施:公共厕所",
        "type": 0,
        "location": {
            "lat": 21.644304,
            "lng": 108.351547
        },
        "ad_info": {
            "adcode": 450602,
            "province": "广西壮族自治区",
            "city": "防城港市",
            "district": "港口区"
        }
    },
    {
        "id": "17061464903870125701",
        "title": "公共厕所",
        "address": "广西壮族自治区防城港市港口区富裕路98号",
        "tel": "",
        "category": "基础设施:公共设施:公共厕所",
        "type": 0,
        "location": {
            "lat": 21.611437,
            "lng": 108.340613
        },
        "ad_info": {
            "adcode": 450602,
            "province": "广西壮族自治区",
            "city": "防城港市",
            "district": "港口区"
        }
    },
    {
        "id": "13675923545391284037",
        "title": "公共厕所",
        "address": "广西壮族自治区防城港市港口区德城大道中国石化(企沙加油站)",
        "tel": "",
        "category": "基础设施:公共设施:公共厕所",
        "type": 0,
        "location": {
            "lat": 21.583395,
            "lng": 108.475149
        },
        "ad_info": {
            "adcode": 450602,
            "province": "广西壮族自治区",
            "city": "防城港市",
            "district": "港口区"
        }
    },
    {
        "id": "6618990025024985906",
        "title": "公共厕所",
        "address": "广西壮族自治区防城港市港口区东兴大道防城港站",
        "tel": "",
        "category": "基础设施:公共设施:公共厕所",
        "type": 0,
        "location": {
            "lat": 21.626823,
            "lng": 108.359938
        },
        "ad_info": {
            "adcode": 450602,
            "province": "广西壮族自治区",
            "city": "防城港市",
            "district": "港口区"
        }
    },
    {
        "id": "12102130928281239211",
        "title": "公共厕所",
        "address": "广西壮族自治区防城港市东兴市新华路华诚停车场旁边",
        "tel": "",
        "category": "基础设施:公共设施:公共厕所",
        "type": 0,
        "location": {
            "lat": 21.535317,
            "lng": 107.971487
        },
        "ad_info": {
            "adcode": 450681,
            "province": "广西壮族自治区",
            "city": "防城港市",
            "district": "东兴市"
        }
    },
    {
        "id": "14637434759326641925",
        "title": "公共厕所",
        "address": "广西壮族自治区防城港市港口区广场环路桃花湾广场篮球场旁边",
        "tel": "",
        "category": "基础设施:公共设施:公共厕所",
        "type": 0,
        "location": {
            "lat": 21.637207,
            "lng": 108.353174
        },
        "ad_info": {
            "adcode": 450602,
            "province": "广西壮族自治区",
            "city": "防城港市",
            "district": "港口区"
        }
    },
    {
        "id": "11902158763315153809",
        "title": "公共厕所",
        "address": "广西壮族自治区防城港市港口区北湖街辅路与长山路交叉口东南320米",
        "tel": "",
        "category": "基础设施:公共设施:公共厕所",
        "type": 0,
        "location": {
            "lat": 21.654027,
            "lng": 108.367736
        },
        "ad_info": {
            "adcode": 450602,
            "province": "广西壮族自治区",
            "city": "防城港市",
            "district": "港口区"
        }
    },
    {
        "id": "8344426724105607564",
        "title": "公共厕所",
        "address": "广西壮族自治区防城港市港口区北部湾大道桃花湾广场(西北角)",
        "tel": "",
        "category": "基础设施:公共设施:公共厕所",
        "type": 0,
        "location": {
            "lat": 21.636627,
            "lng": 108.349733
        },
        "ad_info": {
            "adcode": 450602,
            "province": "广西壮族自治区",
            "city": "防城港市",
            "district": "港口区"
        }
    },
    {
        "id": "2704864211913766370",
        "title": "公共厕所",
        "address": "广西壮族自治区防城港市港口区望海路与鱼峰路交叉口西南方向358米左右",
        "tel": "",
        "category": "基础设施:公共设施:公共厕所",
        "type": 0,
        "location": {
            "lat": 21.609004,
            "lng": 108.334705
        },
        "ad_info": {
            "adcode": 450602,
            "province": "广西壮族自治区",
            "city": "防城港市",
            "district": "港口区"
        }
    },
    {
        "id": "2449856410198420097",
        "title": "公共厕所",
        "address": "广西壮族自治区防城港市港口区中华路与四川路交叉口正东方向103米左右",
        "tel": "",
        "category": "基础设施:公共设施:公共厕所",
        "type": 0,
        "location": {
            "lat": 21.616847,
            "lng": 108.346833
        },
        "ad_info": {
            "adcode": 450602,
            "province": "广西壮族自治区",
            "city": "防城港市",
            "district": "港口区"
        }
    },
    {
        "id": "4108170219098243156",
        "title": "公共厕所",
        "address": "广西壮族自治区防城港市港口区簕山古渔村内",
        "tel": "",
        "category": "基础设施:公共设施:公共厕所",
        "type": 0,
        "location": {
            "lat": 21.609523,
            "lng": 108.530308
        },
        "ad_info": {
            "adcode": 450602,
            "province": "广西壮族自治区",
            "city": "防城港市",
            "district": "港口区"
        }
    },
    {
        "id": "678320977900306160",
        "title": "公共厕所",
        "address": "广西壮族自治区防城港市港口区北部湾大道仙人山公园(西北角)",
        "tel": "",
        "category": "基础设施:公共设施:公共厕所",
        "type": 0,
        "location": {
            "lat": 21.625743,
            "lng": 108.34832
        },
        "ad_info": {
            "adcode": 450602,
            "province": "广西壮族自治区",
            "city": "防城港市",
            "district": "港口区"
        }
    },
    {
        "id": "13198640372230663034",
        "title": "公共厕所",
        "address": "广西壮族自治区防城港市东兴市东兴环岛假日酒店南侧250米",
        "tel": "",
        "category": "基础设施:公共设施:公共厕所",
        "type": 0,
        "location": {
            "lat": 21.524201,
            "lng": 108.162203
        },
        "ad_info": {
            "adcode": 450681,
            "province": "广西壮族自治区",
            "city": "防城港市",
            "district": "东兴市"
        }
    },
    {
        "id": "15344034907034778575",
        "title": "公共厕所",
        "address": "广西壮族自治区防城港市东兴市兴贸路免税商城",
        "tel": "",
        "category": "基础设施:公共设施:公共厕所",
        "type": 0,
        "location": {
            "lat": 21.544596,
            "lng": 107.957811
        },
        "ad_info": {
            "adcode": 450681,
            "province": "广西壮族自治区",
            "city": "防城港市",
            "district": "东兴市"
        }
    },
    {
        "id": "12464422048282237359",
        "title": "公共厕所",
        "address": "广西壮族自治区防城港市东兴市中越友谊公园",
        "tel": "",
        "category": "基础设施:公共设施:公共厕所",
        "type": 0,
        "location": {
            "lat": 21.537341,
            "lng": 107.968791
        },
        "ad_info": {
            "adcode": 450681,
            "province": "广西壮族自治区",
            "city": "防城港市",
            "district": "东兴市"
        }
    },
    {
        "id": "17972277445118236355",
        "title": "公共厕所",
        "address": "广西壮族自治区防城港市东兴市振兴路与朝阳路交叉口正东方向454米左右",
        "tel": "",
        "category": "基础设施:公共设施:公共厕所",
        "type": 0,
        "location": {
            "lat": 21.588732,
            "lng": 108.139782
        },
        "ad_info": {
            "adcode": 450681,
            "province": "广西壮族自治区",
            "city": "防城港市",
            "district": "东兴市"
        }
    },
    {
        "id": "15447812828150036007",
        "title": "公共厕所",
        "address": "广西壮族自治区防城港市港口区兴港大道与海珍路交叉口西北方向114米左右",
        "tel": "",
        "category": "基础设施:公共设施:公共厕所",
        "type": 0,
        "location": {
            "lat": 21.612852,
            "lng": 108.343204
        },
        "ad_info": {
            "adcode": 450602,
            "province": "广西壮族自治区",
            "city": "防城港市",
            "district": "港口区"
        }
    },
    {
        "id": "10432666896073721956",
        "title": "公共厕所",
        "address": "广西壮族自治区防城港市东兴市竹山景区东北侧",
        "tel": "",
        "category": "基础设施:公共设施:公共厕所",
        "type": 0,
        "location": {
            "lat": 21.543199,
            "lng": 108.055576
        },
        "ad_info": {
            "adcode": 450681,
            "province": "广西壮族自治区",
            "city": "防城港市",
            "district": "东兴市"
        }
    },
    {
        "id": "10327847299687191191",
        "title": "公共厕所",
        "address": "广西壮族自治区防城港市东兴市万尾村十八队",
        "tel": "",
        "category": "基础设施:公共设施:公共厕所",
        "type": 0,
        "location": {
            "lat": 21.522061,
            "lng": 108.154194
        },
        "ad_info": {
            "adcode": 450681,
            "province": "广西壮族自治区",
            "city": "防城港市",
            "district": "东兴市"
        }
    },
    {
        "id": "11477730501662529843",
        "title": "公共厕所",
        "address": "广西壮族自治区防城港市东兴市天和路与民族路交叉口西南方向218米左右",
        "tel": "",
        "category": "基础设施:公共设施:公共厕所",
        "type": 0,
        "location": {
            "lat": 21.553,
            "lng": 107.972482
        },
        "ad_info": {
            "adcode": 450681,
            "province": "广西壮族自治区",
            "city": "防城港市",
            "district": "东兴市"
        }
    },
    {
        "id": "2983612111021501633",
        "title": "公共厕所",
        "address": "广西壮族自治区防城港市港口区兴港大道68号",
        "tel": "",
        "category": "基础设施:公共设施:公共厕所",
        "type": 0,
        "location": {
            "lat": 21.619009,
            "lng": 108.346314
        },
        "ad_info": {
            "adcode": 450602,
            "province": "广西壮族自治区",
            "city": "防城港市",
            "district": "港口区"
        }
    },
    {
        "id": "6525949921118748068",
        "title": "公共厕所",
        "address": "广西壮族自治区防城港市东兴市兴盛路与民族路交叉口正北方向177米左右",
        "tel": "",
        "category": "基础设施:公共设施:公共厕所",
        "type": 0,
        "location": {
            "lat": 21.55089,
            "lng": 107.975077
        },
        "ad_info": {
            "adcode": 450681,
            "province": "广西壮族自治区",
            "city": "防城港市",
            "district": "东兴市"
        }
    },
    {
        "id": "10532228307934611770",
        "title": "公共厕所",
        "address": "广西壮族自治区防城港市东兴市S312与马路交叉口西南方向260米左右",
        "tel": "",
        "category": "基础设施:公共设施:公共厕所",
        "type": 0,
        "location": {
            "lat": 21.65095,
            "lng": 107.966892
        },
        "ad_info": {
            "adcode": 450681,
            "province": "广西壮族自治区",
            "city": "防城港市",
            "district": "东兴市"
        }
    },
    {
        "id": "7605203918192821224",
        "title": "公共厕所",
        "address": "广西壮族自治区防城港市港口区北部湾大道辅路与凯乐路交叉口东南80米",
        "tel": "",
        "category": "基础设施:公共设施:公共厕所",
        "type": 0,
        "location": {
            "lat": 21.62759,
            "lng": 108.348638
        },
        "ad_info": {
            "adcode": 450602,
            "province": "广西壮族自治区",
            "city": "防城港市",
            "district": "港口区"
        }
    },
    {
        "id": "14876177520359116922",
        "title": "公共厕所",
        "address": "广西壮族自治区防城港市东兴市东盟风情街与劳动街交叉口正西方向23米左右",
        "tel": "",
        "category": "基础设施:公共设施:公共厕所",
        "type": 0,
        "location": {
            "lat": 21.538113,
            "lng": 107.97604
        },
        "ad_info": {
            "adcode": 450681,
            "province": "广西壮族自治区",
            "city": "防城港市",
            "district": "东兴市"
        }
    },
    {
        "id": "6319264090042852516",
        "title": "公共厕所",
        "address": "广西壮族自治区防城港市港口区迎宾街西湾旅游景区(东北角)",
        "tel": "",
        "category": "基础设施:公共设施:公共厕所",
        "type": 0,
        "location": {
            "lat": 21.684956,
            "lng": 108.356355
        },
        "ad_info": {
            "adcode": 450602,
            "province": "广西壮族自治区",
            "city": "防城港市",
            "district": "港口区"
        }
    },
    {
        "id": "15994539219588922587",
        "title": "公共厕所",
        "address": "广西壮族自治区防城港市东兴市江平镇横隘村冲姜组",
        "tel": "",
        "category": "基础设施:公共设施:公共厕所",
        "type": 0,
        "location": {
            "lat": 21.647773,
            "lng": 108.111315
        },
        "ad_info": {
            "adcode": 450681,
            "province": "广西壮族自治区",
            "city": "防城港市",
            "district": "东兴市"
        }
    },
    {
        "id": "7401830792627446389",
        "title": "公共厕所",
        "address": "广西壮族自治区防城港市东兴市滨海公路与高兴大道交叉口东北方向565米左右",
        "tel": "",
        "category": "基础设施:公共设施:公共厕所",
        "type": 0,
        "location": {
            "lat": 21.568987,
            "lng": 108.029677
        },
        "ad_info": {
            "adcode": 450681,
            "province": "广西壮族自治区",
            "city": "防城港市",
            "district": "东兴市"
        }
    },
    {
        "id": "17357245979070263267",
        "title": "公共厕所",
        "address": "广西壮族自治区防城港市上思县华嘉路与明江南路交叉口正北方向98米左右",
        "tel": "",
        "category": "基础设施:公共设施:公共厕所",
        "type": 0,
        "location": {
            "lat": 22.149681,
            "lng": 107.98865
        },
        "ad_info": {
            "adcode": 450621,
            "province": "广西壮族自治区",
            "city": "防城港市",
            "district": "上思县"
        }
    },
    {
        "id": "5911640552885070248",
        "title": "公共厕所",
        "address": "广西壮族自治区防城港市东兴市X274与钦东高速交叉口正北方向502米左右",
        "tel": "",
        "category": "基础设施:公共设施:公共厕所",
        "type": 0,
        "location": {
            "lat": 21.656789,
            "lng": 108.079414
        },
        "ad_info": {
            "adcode": 450681,
            "province": "广西壮族自治区",
            "city": "防城港市",
            "district": "东兴市"
        }
    },
    {
        "id": "12627272863070694694",
        "title": "公共厕所",
        "address": "广西壮族自治区防城港市东兴市X274与钦东高速交叉口正北方向336米左右",
        "tel": "",
        "category": "基础设施:公共设施:公共厕所",
        "type": 0,
        "location": {
            "lat": 21.649991,
            "lng": 108.082124
        },
        "ad_info": {
            "adcode": 450681,
            "province": "广西壮族自治区",
            "city": "防城港市",
            "district": "东兴市"
        }
    },
    {
        "id": "7258984475148504841",
        "title": "公共厕所",
        "address": "广西壮族自治区防城港市东兴市横二路与纵三路交叉口正北方向899米左右",
        "tel": "",
        "category": "基础设施:公共设施:公共厕所",
        "type": 0,
        "location": {
            "lat": 21.614865,
            "lng": 108.001423
        },
        "ad_info": {
            "adcode": 450681,
            "province": "广西壮族自治区",
            "city": "防城港市",
            "district": "东兴市"
        }
    },
    {
        "id": "10282216703580174940",
        "title": "公共厕所",
        "address": "广西壮族自治区防城港市港口区兴港大道与海珍路交叉口正北方向255米左右",
        "tel": "",
        "category": "基础设施:公共设施:公共厕所",
        "type": 0,
        "location": {
            "lat": 21.614402,
            "lng": 108.344298
        },
        "ad_info": {
            "adcode": 450602,
            "province": "广西壮族自治区",
            "city": "防城港市",
            "district": "港口区"
        }
    },
    {
        "id": "3155344525739375498",
        "title": "公共厕所",
        "address": "广西壮族自治区防城港市东兴市南园路与黄花岗路交叉口正北方向43米左右",
        "tel": "",
        "category": "基础设施:公共设施:公共厕所",
        "type": 0,
        "location": {
            "lat": 21.543026,
            "lng": 107.980406
        },
        "ad_info": {
            "adcode": 450681,
            "province": "广西壮族自治区",
            "city": "防城港市",
            "district": "东兴市"
        }
    },
    {
        "id": "17132414401715363239",
        "title": "公共厕所",
        "address": "广西壮族自治区防城港市防城区慈爱路与爱国路交叉口西南方向57米左右",
        "tel": "",
        "category": "基础设施:公共设施:公共厕所",
        "type": 0,
        "location": {
            "lat": 21.760901,
            "lng": 108.355933
        },
        "ad_info": {
            "adcode": 450603,
            "province": "广西壮族自治区",
            "city": "防城港市",
            "district": "防城区"
        }
    },
    {
        "id": "12666734999952084122",
        "title": "公共厕所",
        "address": "广西壮族自治区防城港市港口区红沙群岛渔猎人部落东南侧60米",
        "tel": "",
        "category": "基础设施:公共设施:公共厕所",
        "type": 0,
        "location": {
            "lat": 21.68428,
            "lng": 108.57453
        },
        "ad_info": {
            "adcode": 450602,
            "province": "广西壮族自治区",
            "city": "防城港市",
            "district": "港口区"
        }
    },
    {
        "id": "5090000291478014132",
        "title": "万尾金滩公共厕所",
        "address": "广西壮族自治区防城港市东兴市京岛旅游度假区万尾岛万尾金滩内(西南角)",
        "tel": "",
        "category": "基础设施:公共设施:公共厕所",
        "type": 0,
        "location": {
            "lat": 21.52473,
            "lng": 108.166147
        },
        "ad_info": {
            "adcode": 450681,
            "province": "广西壮族自治区",
            "city": "防城港市",
            "district": "东兴市"
        }
    },
    {
        "id": "73013818346155622",
        "title": "公共厕所",
        "address": "广西壮族自治区防城港市港口区西湾大道8号",
        "tel": "",
        "category": "基础设施:公共设施:公共厕所",
        "type": 0,
        "location": {
            "lat": 21.681261,
            "lng": 108.35902
        },
        "ad_info": {
            "adcode": 450602,
            "province": "广西壮族自治区",
            "city": "防城港市",
            "district": "港口区"
        }
    },
    {
        "id": "13110805045246890975",
        "title": "公共厕所",
        "address": "广西壮族自治区防城港市防城区人民路与教育路交叉口正南方向58米左右",
        "tel": "",
        "category": "基础设施:公共设施:公共厕所",
        "type": 0,
        "location": {
            "lat": 21.763422,
            "lng": 108.358265
        },
        "ad_info": {
            "adcode": 450603,
            "province": "广西壮族自治区",
            "city": "防城港市",
            "district": "防城区"
        }
    },
    {
        "id": "17300407126469153750",
        "title": "公共厕所",
        "address": "广西壮族自治区防城港市东兴市艺隆轩红木生产加工厂南侧220米",
        "tel": "",
        "category": "基础设施:公共设施:公共厕所",
        "type": 0,
        "location": {
            "lat": 21.587881,
            "lng": 108.006638
        },
        "ad_info": {
            "adcode": 450681,
            "province": "广西壮族自治区",
            "city": "防城港市",
            "district": "东兴市"
        }
    },
    {
        "id": "4974995317461704383",
        "title": "防城服务区公共厕所",
        "address": "广西壮族自治区防城港市防城区G210与X255交叉口正东方向1569米左右",
        "tel": "",
        "category": "基础设施:公共设施:公共厕所",
        "type": 0,
        "location": {
            "lat": 21.82456,
            "lng": 108.368328
        },
        "ad_info": {
            "adcode": 450603,
            "province": "广西壮族自治区",
            "city": "防城港市",
            "district": "防城区"
        }
    },
    {
        "id": "2981218836163112750",
        "title": "防城服务区公共厕所",
        "address": "广西壮族自治区防城港市防城区G210与X255交叉口正东方向1558米左右",
        "tel": "",
        "category": "基础设施:公共设施:公共厕所",
        "type": 0,
        "location": {
            "lat": 21.826158,
            "lng": 108.367962
        },
        "ad_info": {
            "adcode": 450603,
            "province": "广西壮族自治区",
            "city": "防城港市",
            "district": "防城区"
        }
    },
    {
        "id": "5380923982627477144",
        "title": "公共厕所",
        "address": "广西壮族自治区防城港市东兴市教育路与新华路交叉口西南方向55米左右",
        "tel": "",
        "category": "基础设施:公共设施:公共厕所",
        "type": 0,
        "location": {
            "lat": 21.539588,
            "lng": 107.968899
        },
        "ad_info": {
            "adcode": 450681,
            "province": "广西壮族自治区",
            "city": "防城港市",
            "district": "东兴市"
        }
    },
    {
        "id": "11716971259118186899",
        "title": "华石停车区公共厕所",
        "address": "广西壮族自治区防城港市防城区S85思防高速与华石停车区交叉口西北260米",
        "tel": "",
        "category": "基础设施:公共设施:公共厕所",
        "type": 0,
        "location": {
            "lat": 21.786585,
            "lng": 108.252881
        },
        "ad_info": {
            "adcode": 450603,
            "province": "广西壮族自治区",
            "city": "防城港市",
            "district": "防城区"
        }
    },
    {
        "id": "15855055017196818965",
        "title": "公共厕所",
        "address": "广西壮族自治区防城港市防城区板龙路1号",
        "tel": "",
        "category": "基础设施:公共设施:公共厕所",
        "type": 0,
        "location": {
            "lat": 21.537912,
            "lng": 108.276321
        },
        "ad_info": {
            "adcode": 450603,
            "province": "广西壮族自治区",
            "city": "防城港市",
            "district": "防城区"
        }
    },
    {
        "id": "11678711373683716834",
        "title": "公共厕所",
        "address": "广西壮族自治区防城港市上思县团结西路与民旺路交叉口东北方向46米左右",
        "tel": "",
        "category": "基础设施:公共设施:公共厕所",
        "type": 0,
        "location": {
            "lat": 22.152154,
            "lng": 107.972269
        },
        "ad_info": {
            "adcode": 450621,
            "province": "广西壮族自治区",
            "city": "防城港市",
            "district": "上思县"
        }
    },
    {
        "id": "13816287242723001471",
        "title": "公共厕所",
        "address": "广西壮族自治区防城港市港口区公车路与锦和大道交叉口正东方向403米左右",
        "tel": "",
        "category": "基础设施:公共设施:公共厕所",
        "type": 0,
        "location": {
            "lat": 21.695567,
            "lng": 108.407886
        },
        "ad_info": {
            "adcode": 450602,
            "province": "广西壮族自治区",
            "city": "防城港市",
            "district": "港口区"
        }
    },
    {
        "id": "2037315921419677578",
        "title": "公共厕所",
        "address": "广西壮族自治区防城港市东兴市北仑大道(冠都娱乐会所)对面",
        "tel": "",
        "category": "基础设施:公共设施:公共厕所",
        "type": 0,
        "location": {
            "lat": 21.549464,
            "lng": 107.98234
        },
        "ad_info": {
            "adcode": 450681,
            "province": "广西壮族自治区",
            "city": "防城港市",
            "district": "东兴市"
        }
    },
    {
        "id": "4242818608580650200",
        "title": "万尾金滩公共厕所",
        "address": "广西壮族自治区防城港市东兴市江平镇万尾20队旅游厕所",
        "tel": "",
        "category": "基础设施:公共设施:公共厕所",
        "type": 0,
        "location": {
            "lat": 21.519702,
            "lng": 108.146191
        },
        "ad_info": {
            "adcode": 450681,
            "province": "广西壮族自治区",
            "city": "防城港市",
            "district": "东兴市"
        }
    },
    {
        "id": "7182959321639006012",
        "title": "公共厕所",
        "address": "广西壮族自治区防城港市东兴市农商街与贵州路交叉口西南方向31米左右",
        "tel": "",
        "category": "基础设施:公共设施:公共厕所",
        "type": 0,
        "location": {
            "lat": 21.541653,
            "lng": 107.970917
        },
        "ad_info": {
            "adcode": 450681,
            "province": "广西壮族自治区",
            "city": "防城港市",
            "district": "东兴市"
        }
    },
    {
        "id": "2245171444543943030",
        "title": "东兴市体育中心旅游厕所",
        "address": "广西壮族自治区防城港市东兴市体育中心足球场4号门",
        "tel": "",
        "category": "基础设施:公共设施:公共厕所",
        "type": 0,
        "location": {
            "lat": 21.553303,
            "lng": 107.971705
        },
        "ad_info": {
            "adcode": 450681,
            "province": "广西壮族自治区",
            "city": "防城港市",
            "district": "东兴市"
        }
    },
    {
        "id": "17978641382586984907",
        "title": "东兴市啤酒广场旅游公共厕所",
        "address": "广西壮族自治区防城港市东兴市金冠路三巷与金冠路四巷交叉口西南方向70米",
        "tel": "",
        "category": "基础设施:公共设施:公共厕所",
        "type": 0,
        "location": {
            "lat": 21.544398,
            "lng": 107.971788
        },
        "ad_info": {
            "adcode": 450681,
            "province": "广西壮族自治区",
            "city": "防城港市",
            "district": "东兴市"
        }
    },
    {
        "id": "7876512350125442450",
        "title": "丽景广场公共厕所",
        "address": "广西壮族自治区防城港市东兴市丽景广场磨刀滩",
        "tel": "",
        "category": "基础设施:公共设施:公共厕所",
        "type": 0,
        "location": {
            "lat": 21.556395,
            "lng": 107.96488
        },
        "ad_info": {
            "adcode": 450681,
            "province": "广西壮族自治区",
            "city": "防城港市",
            "district": "东兴市"
        }
    },
    {
        "id": "9385413879148625243",
        "title": "东兴市带状公园旅游公共厕所",
        "address": "广西壮族自治区防城港市东兴市和谐路37号",
        "tel": "",
        "category": "基础设施:公共设施:公共厕所",
        "type": 0,
        "location": {
            "lat": 21.544958,
            "lng": 107.99542
        },
        "ad_info": {
            "adcode": 450681,
            "province": "广西壮族自治区",
            "city": "防城港市",
            "district": "东兴市"
        }
    },
    {
        "id": "7499936209315086503",
        "title": "公共厕所",
        "address": "广西壮族自治区防城港市东兴市富豪路10号",
        "tel": "",
        "category": "基础设施:公共设施:公共厕所",
        "type": 0,
        "location": {
            "lat": 21.548299,
            "lng": 107.972463
        },
        "ad_info": {
            "adcode": 450681,
            "province": "广西壮族自治区",
            "city": "防城港市",
            "district": "东兴市"
        }
    },
    {
        "id": "892314681227961982",
        "title": "公共厕所",
        "address": "广西壮族自治区防城港市港口区兴港大道立交桥与北部湾大道交叉口西南方向87米左右",
        "tel": "",
        "category": "基础设施:公共设施:公共厕所",
        "type": 0,
        "location": {
            "lat": 21.619546,
            "lng": 108.345483
        },
        "ad_info": {
            "adcode": 450602,
            "province": "广西壮族自治区",
            "city": "防城港市",
            "district": "港口区"
        }
    },
    {
        "id": "15983991173015634302",
        "title": "肯德基-洗手间",
        "address": "广西壮族自治区防城港市东兴市北仑大道与民族路交叉口西南方向62米左右",
        "tel": "",
        "category": "基础设施:公共设施:公共厕所",
        "type": 0,
        "location": {
            "lat": 21.543549,
            "lng": 107.975357
        },
        "ad_info": {
            "adcode": 450681,
            "province": "广西壮族自治区",
            "city": "防城港市",
            "district": "东兴市"
        }
    },
    {
        "id": "11737863518152343817",
        "title": "陈公馆旅游公共厕所",
        "address": "广西壮族自治区防城港市东兴市劳动街与永金路交叉口东南方向45米左右",
        "tel": "",
        "category": "基础设施:公共设施:公共厕所",
        "type": 0,
        "location": {
            "lat": 21.53871,
            "lng": 107.976501
        },
        "ad_info": {
            "adcode": 450681,
            "province": "广西壮族自治区",
            "city": "防城港市",
            "district": "东兴市"
        }
    },
    {
        "id": "16945713544581306285",
        "title": "东兴服务区第一公共厕所",
        "address": "广西壮族自治区防城港市东兴市滨海公路与钦东高速交叉口正北方向1127米左右",
        "tel": "",
        "category": "基础设施:公共设施:公共厕所",
        "type": 0,
        "location": {
            "lat": 21.583147,
            "lng": 108.032985
        },
        "ad_info": {
            "adcode": 450681,
            "province": "广西壮族自治区",
            "city": "防城港市",
            "district": "东兴市"
        }
    },
    {
        "id": "12548286167144297414",
        "title": "东兴服务区第二公共厕所",
        "address": "广西壮族自治区防城港市东兴市滨海公路与钦东高速交叉口正北方向1031米左右",
        "tel": "",
        "category": "基础设施:公共设施:公共厕所",
        "type": 0,
        "location": {
            "lat": 21.58222,
            "lng": 108.032332
        },
        "ad_info": {
            "adcode": 450681,
            "province": "广西壮族自治区",
            "city": "防城港市",
            "district": "东兴市"
        }
    },
    {
        "id": "17850164782303301951",
        "title": "东兴服务区第一公共厕所",
        "address": "广西壮族自治区防城港市东兴市滨海公路与钦东高速交叉口正北方向907米左右",
        "tel": "",
        "category": "基础设施:公共设施:公共厕所",
        "type": 0,
        "location": {
            "lat": 21.58118,
            "lng": 108.034061
        },
        "ad_info": {
            "adcode": 450681,
            "province": "广西壮族自治区",
            "city": "防城港市",
            "district": "东兴市"
        }
    },
    {
        "id": "6409189475550750436",
        "title": "防城港金钻大酒店-洗手间",
        "address": "广西壮族自治区防城港市港口区云南路16-8号(与渔万路交界,近林业局)",
        "tel": "",
        "category": "基础设施:公共设施:公共厕所",
        "type": 0,
        "location": {
            "lat": 21.61766,
            "lng": 108.352003
        },
        "ad_info": {
            "adcode": 450602,
            "province": "广西壮族自治区",
            "city": "防城港市",
            "district": "港口区"
        }
    },
    {
        "id": "10300491999548882954",
        "title": "东兴服务区第二公共厕所",
        "address": "广西壮族自治区防城港市东兴市滨海公路与钦东高速交叉口正北方向1027米左右",
        "tel": "",
        "category": "基础设施:公共设施:公共厕所",
        "type": 0,
        "location": {
            "lat": 21.582239,
            "lng": 108.034479
        },
        "ad_info": {
            "adcode": 450681,
            "province": "广西壮族自治区",
            "city": "防城港市",
            "district": "东兴市"
        }
    },
    {
        "id": "4655305761602368718",
        "title": "上思南服务区公共厕所",
        "address": "广西壮族自治区防城港市上思县S85思防高速入口与S85思防高速出口交叉口南60米",
        "tel": "",
        "category": "基础设施:公共设施:公共厕所",
        "type": 0,
        "location": {
            "lat": 22.052265,
            "lng": 108.141186
        },
        "ad_info": {
            "adcode": 450621,
            "province": "广西壮族自治区",
            "city": "防城港市",
            "district": "上思县"
        }
    },
    {
        "id": "18081974746017173584",
        "title": "百马公共厕所",
        "address": "广西壮族自治区防城港市上思县南屏百马梯田底部10米",
        "tel": "",
        "category": "基础设施:公共设施:公共厕所",
        "type": 0,
        "location": {
            "lat": 21.781042,
            "lng": 107.587367
        },
        "ad_info": {
            "adcode": 450621,
            "province": "广西壮族自治区",
            "city": "防城港市",
            "district": "上思县"
        }
    },
    {
        "id": "17146733873224948862",
        "title": "公正服务区公共厕所",
        "address": "广西壮族自治区防城港市上思县公正服务区与S60合那高速交叉口西北180米",
        "tel": "",
        "category": "基础设施:公共设施:公共厕所",
        "type": 0,
        "location": {
            "lat": 22.128204,
            "lng": 108.164617
        },
        "ad_info": {
            "adcode": 450621,
            "province": "广西壮族自治区",
            "city": "防城港市",
            "district": "上思县"
        }
    },
    {
        "id": "11935321879888521401",
        "title": "上思停车区公共厕所",
        "address": "广西壮族自治区防城港市上思县上思停车区与S60合那高速交叉口西240米",
        "tel": "",
        "category": "基础设施:公共设施:公共厕所",
        "type": 0,
        "location": {
            "lat": 22.153082,
            "lng": 107.953301
        },
        "ad_info": {
            "adcode": 450621,
            "province": "广西壮族自治区",
            "city": "防城港市",
            "district": "上思县"
        }
    },
    {
        "id": "14639214341975130977",
        "title": "上思南服务区公共厕所",
        "address": "广西壮族自治区防城港市上思县S85思防高速出口与S85思防高速入口交叉口南100米",
        "tel": "",
        "category": "基础设施:公共设施:公共厕所",
        "type": 0,
        "location": {
            "lat": 22.051607,
            "lng": 108.144838
        },
        "ad_info": {
            "adcode": 450621,
            "province": "广西壮族自治区",
            "city": "防城港市",
            "district": "上思县"
        }
    },
    {
        "id": "4929257142875732786",
        "title": "上思停车区公共厕所",
        "address": "广西壮族自治区防城港市上思县团结西路与团结路交叉口正西方向1582米左右",
        "tel": "",
        "category": "基础设施:公共设施:公共厕所",
        "type": 0,
        "location": {
            "lat": 22.151741,
            "lng": 107.953464
        },
        "ad_info": {
            "adcode": 450621,
            "province": "广西壮族自治区",
            "city": "防城港市",
            "district": "上思县"
        }
    },
    {
        "id": "17571579660298946254",
        "title": "公正服务区公共厕所",
        "address": "广西壮族自治区防城港市上思县南友高速与合那高速交叉口正西方向262米左右",
        "tel": "",
        "category": "基础设施:公共设施:公共厕所",
        "type": 0,
        "location": {
            "lat": 22.127646,
            "lng": 108.162795
        },
        "ad_info": {
            "adcode": 450621,
            "province": "广西壮族自治区",
            "city": "防城港市",
            "district": "上思县"
        }
    },
    {
        "id": "10513091843349123543",
        "title": "公正服务区第二公共厕所",
        "address": "广西壮族自治区防城港市上思县南友高速与合那高速交叉口正西方向159米左右",
        "tel": "",
        "category": "基础设施:公共设施:公共厕所",
        "type": 0,
        "location": {
            "lat": 22.127171,
            "lng": 108.163742
        },
        "ad_info": {
            "adcode": 450621,
            "province": "广西壮族自治区",
            "city": "防城港市",
            "district": "上思县"
        }
    },
    {
        "id": "14918170174038017853",
        "title": "东兴不老峰石斛基地旅游公共厕所",
        "address": "广西壮族自治区防城港市东兴市马路镇竹围村不老峰石斛基地",
        "tel": "",
        "category": "基础设施:公共设施:公共厕所",
        "type": 0,
        "location": {
            "lat": 21.631283,
            "lng": 108.049328
        },
        "ad_info": {
            "adcode": 450681,
            "province": "广西壮族自治区",
            "city": "防城港市",
            "district": "东兴市"
        }
    }
]