[
    {
        "id": "2137311163731384217",
        "title": "公共厕所",
        "address": "山西省阳泉市郊区平阳东街与平阳街交叉口西北方向227米左右",
        "tel": "",
        "category": "基础设施:公共设施:公共厕所",
        "type": 0,
        "location": {
            "lat": 37.884686,
            "lng": 113.580593
        },
        "ad_info": {
            "adcode": 140311,
            "province": "山西省",
            "city": "阳泉市",
            "district": "郊区"
        }
    },
    {
        "id": "1873449694004826468",
        "title": "公共厕所",
        "address": "山西省阳泉市盂县藏山北路与金龙东街交叉口东北方向39米左右",
        "tel": "",
        "category": "基础设施:公共设施:公共厕所",
        "type": 0,
        "location": {
            "lat": 38.091545,
            "lng": 113.403245
        },
        "ad_info": {
            "adcode": 140322,
            "province": "山西省",
            "city": "阳泉市",
            "district": "盂县"
        }
    },
    {
        "id": "839477647342013141",
        "title": "公共厕所",
        "address": "山西省阳泉市盂县藏山北路与金龙东街交叉口东南方向58米左右",
        "tel": "",
        "category": "基础设施:公共设施:公共厕所",
        "type": 0,
        "location": {
            "lat": 38.091059,
            "lng": 113.403413
        },
        "ad_info": {
            "adcode": 140322,
            "province": "山西省",
            "city": "阳泉市",
            "district": "盂县"
        }
    },
    {
        "id": "318783186799173109",
        "title": "公共厕所",
        "address": "山西省阳泉市盂县六上线与石阳线交叉口正南方向338米左右",
        "tel": "",
        "category": "基础设施:公共设施:公共厕所",
        "type": 0,
        "location": {
            "lat": 38.296185,
            "lng": 113.347804
        },
        "ad_info": {
            "adcode": 140322,
            "province": "山西省",
            "city": "阳泉市",
            "district": "盂县"
        }
    },
    {
        "id": "1941537504123016322",
        "title": "公共厕所",
        "address": "山西省阳泉市郊区复兴路与江正大街交叉口西北方向42米左右",
        "tel": "",
        "category": "基础设施:公共设施:公共厕所",
        "type": 0,
        "location": {
            "lat": 37.938611,
            "lng": 113.578909
        },
        "ad_info": {
            "adcode": 140311,
            "province": "山西省",
            "city": "阳泉市",
            "district": "郊区"
        }
    },
    {
        "id": "1059801112506765094",
        "title": "公共厕所",
        "address": "山西省阳泉市郊区桃林中路与魏家峪街交叉口西北方向997米左右",
        "tel": "",
        "category": "基础设施:公共设施:公共厕所",
        "type": 0,
        "location": {
            "lat": 37.899624,
            "lng": 113.561551
        },
        "ad_info": {
            "adcode": 140311,
            "province": "山西省",
            "city": "阳泉市",
            "district": "郊区"
        }
    },
    {
        "id": "13601338269440095866",
        "title": "公共厕所",
        "address": "山西省阳泉市盂县城隍庙巷与红楼巷交叉口正北方向99米左右",
        "tel": "",
        "category": "基础设施:公共设施:公共厕所",
        "type": 0,
        "location": {
            "lat": 38.087711,
            "lng": 113.411911
        },
        "ad_info": {
            "adcode": 140322,
            "province": "山西省",
            "city": "阳泉市",
            "district": "盂县"
        }
    },
    {
        "id": "2619661975502335631",
        "title": "公共厕所",
        "address": "山西省阳泉市盂县S314与洞门坡桥交叉口东北方向1041米左右",
        "tel": "",
        "category": "基础设施:公共设施:公共厕所",
        "type": 0,
        "location": {
            "lat": 38.093472,
            "lng": 113.506319
        },
        "ad_info": {
            "adcode": 140322,
            "province": "山西省",
            "city": "阳泉市",
            "district": "盂县"
        }
    },
    {
        "id": "11984923720453129274",
        "title": "公共厕所",
        "address": "山西省阳泉市盂县东太路与肖宋线交叉口正北方向65米左右",
        "tel": "",
        "category": "基础设施:公共设施:公共厕所",
        "type": 0,
        "location": {
            "lat": 38.343085,
            "lng": 113.187337
        },
        "ad_info": {
            "adcode": 140322,
            "province": "山西省",
            "city": "阳泉市",
            "district": "盂县"
        }
    },
    {
        "id": "6540069113283445975",
        "title": "公共厕所",
        "address": "山西省阳泉市盂县正阳线与石阳线交叉口西南方向44米左右",
        "tel": "",
        "category": "基础设施:公共设施:公共厕所",
        "type": 0,
        "location": {
            "lat": 38.136557,
            "lng": 113.389659
        },
        "ad_info": {
            "adcode": 140322,
            "province": "山西省",
            "city": "阳泉市",
            "district": "盂县"
        }
    },
    {
        "id": "4067025168461763330",
        "title": "公共厕所",
        "address": "山西省阳泉市郊区义平路与南边堰街交叉口正南方向189米左右",
        "tel": "",
        "category": "基础设施:公共设施:公共厕所",
        "type": 0,
        "location": {
            "lat": 37.837653,
            "lng": 113.620463
        },
        "ad_info": {
            "adcode": 140311,
            "province": "山西省",
            "city": "阳泉市",
            "district": "郊区"
        }
    },
    {
        "id": "3205856101482209304",
        "title": "公共厕所",
        "address": "山西省阳泉市盂县城隍庙巷与钟镇北路交叉口西北方向46米左右",
        "tel": "",
        "category": "基础设施:公共设施:公共厕所",
        "type": 0,
        "location": {
            "lat": 38.086743,
            "lng": 113.413113
        },
        "ad_info": {
            "adcode": 140322,
            "province": "山西省",
            "city": "阳泉市",
            "district": "盂县"
        }
    },
    {
        "id": "13590631737909847171",
        "title": "公共厕所",
        "address": "山西省阳泉市盂县水神山北路与站前路交叉口东北方向172米左右",
        "tel": "",
        "category": "基础设施:公共设施:公共厕所",
        "type": 0,
        "location": {
            "lat": 38.113628,
            "lng": 113.439695
        },
        "ad_info": {
            "adcode": 140322,
            "province": "山西省",
            "city": "阳泉市",
            "district": "盂县"
        }
    },
    {
        "id": "11251063990677127156",
        "title": "公共厕所",
        "address": "山西省阳泉市盂县和平路91号",
        "tel": "",
        "category": "基础设施:公共设施:公共厕所",
        "type": 0,
        "location": {
            "lat": 38.075981,
            "lng": 113.406485
        },
        "ad_info": {
            "adcode": 140322,
            "province": "山西省",
            "city": "阳泉市",
            "district": "盂县"
        }
    },
    {
        "id": "10184070627065409956",
        "title": "公共厕所",
        "address": "山西省阳泉市盂县秀水东街",
        "tel": "",
        "category": "基础设施:公共设施:公共厕所",
        "type": 0,
        "location": {
            "lat": 38.083958,
            "lng": 113.418654
        },
        "ad_info": {
            "adcode": 140322,
            "province": "山西省",
            "city": "阳泉市",
            "district": "盂县"
        }
    },
    {
        "id": "2492488732031407406",
        "title": "公共厕所",
        "address": "山西省阳泉市盂县柏管路",
        "tel": "",
        "category": "基础设施:公共设施:公共厕所",
        "type": 0,
        "location": {
            "lat": 38.226781,
            "lng": 113.294823
        },
        "ad_info": {
            "adcode": 140322,
            "province": "山西省",
            "city": "阳泉市",
            "district": "盂县"
        }
    },
    {
        "id": "375450403702642991",
        "title": "公共厕所",
        "address": "山西省阳泉市盂县娄皇线与石阳线交叉口正东方向774米左右",
        "tel": "",
        "category": "基础设施:公共设施:公共厕所",
        "type": 0,
        "location": {
            "lat": 38.067656,
            "lng": 113.459874
        },
        "ad_info": {
            "adcode": 140322,
            "province": "山西省",
            "city": "阳泉市",
            "district": "盂县"
        }
    },
    {
        "id": "5935418506898890663",
        "title": "公共厕所",
        "address": "山西省阳泉市盂县大黄沟桥与正阳线交叉口正北方向826米左右",
        "tel": "",
        "category": "基础设施:公共设施:公共厕所",
        "type": 0,
        "location": {
            "lat": 38.023399,
            "lng": 113.501943
        },
        "ad_info": {
            "adcode": 140322,
            "province": "山西省",
            "city": "阳泉市",
            "district": "盂县"
        }
    },
    {
        "id": "13701573548433791105",
        "title": "公共厕所",
        "address": "山西省阳泉市盂县314省道北50米",
        "tel": "",
        "category": "基础设施:公共设施:公共厕所",
        "type": 0,
        "location": {
            "lat": 38.100334,
            "lng": 113.281696
        },
        "ad_info": {
            "adcode": 140322,
            "province": "山西省",
            "city": "阳泉市",
            "district": "盂县"
        }
    },
    {
        "id": "9426624959249301925",
        "title": "公共厕所",
        "address": "山西省阳泉市盂县S214与闫贾线交叉口正东方向28米左右",
        "tel": "",
        "category": "基础设施:公共设施:公共厕所",
        "type": 0,
        "location": {
            "lat": 38.44904,
            "lng": 113.433183
        },
        "ad_info": {
            "adcode": 140322,
            "province": "山西省",
            "city": "阳泉市",
            "district": "盂县"
        }
    },
    {
        "id": "13500725542176061926",
        "title": "公共厕所",
        "address": "山西省阳泉市盂县314省道南50米",
        "tel": "",
        "category": "基础设施:公共设施:公共厕所",
        "type": 0,
        "location": {
            "lat": 38.120917,
            "lng": 113.55846
        },
        "ad_info": {
            "adcode": 140322,
            "province": "山西省",
            "city": "阳泉市",
            "district": "盂县"
        }
    },
    {
        "id": "16204451721036355863",
        "title": "公共厕所",
        "address": "山西省阳泉市盂县G338与闫贾线交叉口西北方向731米左右",
        "tel": "",
        "category": "基础设施:公共设施:公共厕所",
        "type": 0,
        "location": {
            "lat": 38.454647,
            "lng": 113.424114
        },
        "ad_info": {
            "adcode": 140322,
            "province": "山西省",
            "city": "阳泉市",
            "district": "盂县"
        }
    },
    {
        "id": "595731518347325915",
        "title": "公共厕所",
        "address": "山西省阳泉市盂县金龙东街与阳东公路交叉口西北方向103米左右",
        "tel": "",
        "category": "基础设施:公共设施:公共厕所",
        "type": 0,
        "location": {
            "lat": 38.092917,
            "lng": 113.434249
        },
        "ad_info": {
            "adcode": 140322,
            "province": "山西省",
            "city": "阳泉市",
            "district": "盂县"
        }
    },
    {
        "id": "7360287845452737214",
        "title": "公共厕所",
        "address": "山西省阳泉市盂县S314与洞门坡桥交叉口西南方向373米左右",
        "tel": "",
        "category": "基础设施:公共设施:公共厕所",
        "type": 0,
        "location": {
            "lat": 38.086187,
            "lng": 113.493081
        },
        "ad_info": {
            "adcode": 140322,
            "province": "山西省",
            "city": "阳泉市",
            "district": "盂县"
        }
    },
    {
        "id": "17513917350078768669",
        "title": "公共厕所",
        "address": "山西省阳泉市郊区宁波路与烟台街交叉口正西方向78米左右",
        "tel": "",
        "category": "基础设施:公共设施:公共厕所",
        "type": 0,
        "location": {
            "lat": 37.872564,
            "lng": 113.595471
        },
        "ad_info": {
            "adcode": 140311,
            "province": "山西省",
            "city": "阳泉市",
            "district": "郊区"
        }
    },
    {
        "id": "15972338509692772840",
        "title": "公共厕所",
        "address": "山西省阳泉市郊区中兴南路与李荫路交叉口西北方向640米左右",
        "tel": "",
        "category": "基础设施:公共设施:公共厕所",
        "type": 0,
        "location": {
            "lat": 37.939244,
            "lng": 113.565578
        },
        "ad_info": {
            "adcode": 140311,
            "province": "山西省",
            "city": "阳泉市",
            "district": "郊区"
        }
    },
    {
        "id": "4025863933907271713",
        "title": "公共厕所",
        "address": "山西省阳泉市郊区泉西路与甘河路东巷交叉口正东方向218米左右",
        "tel": "",
        "category": "基础设施:公共设施:公共厕所",
        "type": 0,
        "location": {
            "lat": 37.880189,
            "lng": 113.573553
        },
        "ad_info": {
            "adcode": 140311,
            "province": "山西省",
            "city": "阳泉市",
            "district": "郊区"
        }
    },
    {
        "id": "15972811993716378554",
        "title": "公共厕所",
        "address": "山西省阳泉市城区兴盛巷与华盛南路交叉口西南方向44米左右",
        "tel": "",
        "category": "基础设施:公共设施:公共厕所",
        "type": 0,
        "location": {
            "lat": 37.861808,
            "lng": 113.583953
        },
        "ad_info": {
            "adcode": 140302,
            "province": "山西省",
            "city": "阳泉市",
            "district": "城区"
        }
    },
    {
        "id": "10584197048407137446",
        "title": "公共厕所",
        "address": "山西省阳泉市矿区西河路馨康家园",
        "tel": "",
        "category": "基础设施:公共设施:公共厕所",
        "type": 0,
        "location": {
            "lat": 37.87071,
            "lng": 113.558717
        },
        "ad_info": {
            "adcode": 140303,
            "province": "山西省",
            "city": "阳泉市",
            "district": "矿区"
        }
    },
    {
        "id": "700635244603450967",
        "title": "公共厕所",
        "address": "山西省阳泉市矿区蔡洼东街二矿一号高层",
        "tel": "",
        "category": "基础设施:公共设施:公共厕所",
        "type": 0,
        "location": {
            "lat": 37.870595,
            "lng": 113.542179
        },
        "ad_info": {
            "adcode": 140303,
            "province": "山西省",
            "city": "阳泉市",
            "district": "矿区"
        }
    },
    {
        "id": "14983408504354610604",
        "title": "公共厕所",
        "address": "山西省阳泉市城区新建街与泉东路交叉口西南方向76米左右",
        "tel": "",
        "category": "基础设施:公共设施:公共厕所",
        "type": 0,
        "location": {
            "lat": 37.858034,
            "lng": 113.601001
        },
        "ad_info": {
            "adcode": 140302,
            "province": "山西省",
            "city": "阳泉市",
            "district": "城区"
        }
    },
    {
        "id": "11841776388878744907",
        "title": "公共厕所",
        "address": "山西省阳泉市城区泉中路美隆国际广场(西南角)",
        "tel": "",
        "category": "基础设施:公共设施:公共厕所",
        "type": 0,
        "location": {
            "lat": 37.86032,
            "lng": 113.580204
        },
        "ad_info": {
            "adcode": 140302,
            "province": "山西省",
            "city": "阳泉市",
            "district": "城区"
        }
    },
    {
        "id": "8465529697628215159",
        "title": "公共厕所",
        "address": "山西省阳泉市郊区旧后线与阳泉绕城高速交叉口西北方向1709米左右",
        "tel": "",
        "category": "基础设施:公共设施:公共厕所",
        "type": 0,
        "location": {
            "lat": 37.882016,
            "lng": 113.360781
        },
        "ad_info": {
            "adcode": 140311,
            "province": "山西省",
            "city": "阳泉市",
            "district": "郊区"
        }
    },
    {
        "id": "8114932850694868236",
        "title": "公共厕所",
        "address": "山西省阳泉市郊区中兴北路与中兴南路交叉口正东方向79米左右",
        "tel": "",
        "category": "基础设施:公共设施:公共厕所",
        "type": 0,
        "location": {
            "lat": 37.939,
            "lng": 113.574449
        },
        "ad_info": {
            "adcode": 140311,
            "province": "山西省",
            "city": "阳泉市",
            "district": "郊区"
        }
    },
    {
        "id": "5370458229120974985",
        "title": "公共厕所",
        "address": "山西省阳泉市城区体育东路与南大街交叉口西南方向35米左右",
        "tel": "",
        "category": "基础设施:公共设施:公共厕所",
        "type": 0,
        "location": {
            "lat": 37.844537,
            "lng": 113.609324
        },
        "ad_info": {
            "adcode": 140302,
            "province": "山西省",
            "city": "阳泉市",
            "district": "城区"
        }
    },
    {
        "id": "1044578256867500502",
        "title": "公共厕所",
        "address": "山西省阳泉市郊区义东沟西巷与义泉街交叉口东南方向110米左右",
        "tel": "",
        "category": "基础设施:公共设施:公共厕所",
        "type": 0,
        "location": {
            "lat": 37.841501,
            "lng": 113.610018
        },
        "ad_info": {
            "adcode": 140311,
            "province": "山西省",
            "city": "阳泉市",
            "district": "郊区"
        }
    },
    {
        "id": "8620336903929777683",
        "title": "公共厕所",
        "address": "山西省阳泉市郊区南庄街与广阳路交叉口正北方向238米左右",
        "tel": "",
        "category": "基础设施:公共设施:公共厕所",
        "type": 0,
        "location": {
            "lat": 37.837714,
            "lng": 113.594572
        },
        "ad_info": {
            "adcode": 140311,
            "province": "山西省",
            "city": "阳泉市",
            "district": "郊区"
        }
    },
    {
        "id": "8221941123885275098",
        "title": "公共厕所",
        "address": "山西省阳泉市城区南山南路与大阳泉街交叉口正北方向137米左右",
        "tel": "",
        "category": "基础设施:公共设施:公共厕所",
        "type": 0,
        "location": {
            "lat": 37.846797,
            "lng": 113.575367
        },
        "ad_info": {
            "adcode": 140302,
            "province": "山西省",
            "city": "阳泉市",
            "district": "城区"
        }
    },
    {
        "id": "8495846552376035927",
        "title": "公共卫生间",
        "address": "山西省阳泉市矿区平潭街与桃北中街一巷交叉口正西方向11米左右",
        "tel": "",
        "category": "基础设施:公共设施:公共厕所",
        "type": 0,
        "location": {
            "lat": 37.866576,
            "lng": 113.563453
        },
        "ad_info": {
            "adcode": 140303,
            "province": "山西省",
            "city": "阳泉市",
            "district": "矿区"
        }
    },
    {
        "id": "8281472672486548493",
        "title": "公共厕所",
        "address": "山西省阳泉市平定县城里街与金泰商贸步行街交叉口正西方向307米左右",
        "tel": "",
        "category": "基础设施:公共设施:公共厕所",
        "type": 0,
        "location": {
            "lat": 37.801198,
            "lng": 113.627347
        },
        "ad_info": {
            "adcode": 140321,
            "province": "山西省",
            "city": "阳泉市",
            "district": "平定县"
        }
    },
    {
        "id": "3197718763514387059",
        "title": "公共厕所",
        "address": "山西省阳泉市郊区石阳线与锡海线交叉口正南方向480米左右",
        "tel": "",
        "category": "基础设施:公共设施:公共厕所",
        "type": 0,
        "location": {
            "lat": 37.961293,
            "lng": 113.58537
        },
        "ad_info": {
            "adcode": 140311,
            "province": "山西省",
            "city": "阳泉市",
            "district": "郊区"
        }
    },
    {
        "id": "8290933458349069163",
        "title": "公共厕所",
        "address": "山西省阳泉市城区三角线街与观象台巷交叉口西北方向178米左右",
        "tel": "",
        "category": "基础设施:公共设施:公共厕所",
        "type": 0,
        "location": {
            "lat": 37.855453,
            "lng": 113.590234
        },
        "ad_info": {
            "adcode": 140302,
            "province": "山西省",
            "city": "阳泉市",
            "district": "城区"
        }
    },
    {
        "id": "8692722451780119697",
        "title": "公共厕所",
        "address": "山西省阳泉市郊区裕民中街与裕民路交叉口西北方向26米左右",
        "tel": "",
        "category": "基础设施:公共设施:公共厕所",
        "type": 0,
        "location": {
            "lat": 37.944113,
            "lng": 113.554154
        },
        "ad_info": {
            "adcode": 140311,
            "province": "山西省",
            "city": "阳泉市",
            "district": "郊区"
        }
    },
    {
        "id": "14600290734007610030",
        "title": "公共厕所",
        "address": "山西省阳泉市郊区大连街与晨曦巷交叉口正北方向86米左右",
        "tel": "",
        "category": "基础设施:公共设施:公共厕所",
        "type": 0,
        "location": {
            "lat": 37.867482,
            "lng": 113.597062
        },
        "ad_info": {
            "adcode": 140311,
            "province": "山西省",
            "city": "阳泉市",
            "district": "郊区"
        }
    },
    {
        "id": "13980481943389342790",
        "title": "公共厕所",
        "address": "山西省阳泉市郊区荫营西大街与裕民南街交叉口西北方向315米左右",
        "tel": "",
        "category": "基础设施:公共设施:公共厕所",
        "type": 0,
        "location": {
            "lat": 37.941699,
            "lng": 113.550851
        },
        "ad_info": {
            "adcode": 140311,
            "province": "山西省",
            "city": "阳泉市",
            "district": "郊区"
        }
    },
    {
        "id": "11161756876034056564",
        "title": "公共厕所",
        "address": "山西省阳泉市矿区西河路馨康家园",
        "tel": "",
        "category": "基础设施:公共设施:公共厕所",
        "type": 0,
        "location": {
            "lat": 37.872324,
            "lng": 113.556564
        },
        "ad_info": {
            "adcode": 140303,
            "province": "山西省",
            "city": "阳泉市",
            "district": "矿区"
        }
    },
    {
        "id": "14737168755071707829",
        "title": "公共厕所",
        "address": "山西省阳泉市郊区桃林中路与魏家峪街交叉口正西方向127米左右",
        "tel": "",
        "category": "基础设施:公共设施:公共厕所",
        "type": 0,
        "location": {
            "lat": 37.89197,
            "lng": 113.565173
        },
        "ad_info": {
            "adcode": 140311,
            "province": "山西省",
            "city": "阳泉市",
            "district": "郊区"
        }
    },
    {
        "id": "11282259931904222448",
        "title": "公共厕所",
        "address": "山西省阳泉市郊区李白路与运泉路交叉口东南方向215米左右",
        "tel": "",
        "category": "基础设施:公共设施:公共厕所",
        "type": 0,
        "location": {
            "lat": 37.879266,
            "lng": 113.614079
        },
        "ad_info": {
            "adcode": 140311,
            "province": "山西省",
            "city": "阳泉市",
            "district": "郊区"
        }
    },
    {
        "id": "14459219905887628098",
        "title": "公共厕所",
        "address": "山西省阳泉市矿区小南沟路与桃南西街交叉口东南方向508米左右",
        "tel": "",
        "category": "基础设施:公共设施:公共厕所",
        "type": 0,
        "location": {
            "lat": 37.872887,
            "lng": 113.523725
        },
        "ad_info": {
            "adcode": 140303,
            "province": "山西省",
            "city": "阳泉市",
            "district": "矿区"
        }
    },
    {
        "id": "8783444948656165111",
        "title": "公共厕所",
        "address": "山西省阳泉市郊区G207与石阳线交叉口正南方向246米左右",
        "tel": "",
        "category": "基础设施:公共设施:公共厕所",
        "type": 0,
        "location": {
            "lat": 37.96008,
            "lng": 113.591276
        },
        "ad_info": {
            "adcode": 140311,
            "province": "山西省",
            "city": "阳泉市",
            "district": "郊区"
        }
    },
    {
        "id": "13777764981845574523",
        "title": "公共厕所",
        "address": "山西省阳泉市城区泉西路与洪城路交叉口西北方向72米左右",
        "tel": "",
        "category": "基础设施:公共设施:公共厕所",
        "type": 0,
        "location": {
            "lat": 37.870614,
            "lng": 113.570327
        },
        "ad_info": {
            "adcode": 140302,
            "province": "山西省",
            "city": "阳泉市",
            "district": "城区"
        }
    },
    {
        "id": "2501269341999813806",
        "title": "公共厕所",
        "address": "山西省阳泉市郊区桃北西街与辛后线交叉口东南方向50米左右",
        "tel": "",
        "category": "基础设施:公共设施:公共厕所",
        "type": 0,
        "location": {
            "lat": 37.858358,
            "lng": 113.462648
        },
        "ad_info": {
            "adcode": 140311,
            "province": "山西省",
            "city": "阳泉市",
            "district": "郊区"
        }
    },
    {
        "id": "1167481937793360429",
        "title": "公共厕所",
        "address": "山西省阳泉市矿区段北街与煤山路交叉口正南方向305米左右",
        "tel": "",
        "category": "基础设施:公共设施:公共厕所",
        "type": 0,
        "location": {
            "lat": 37.881111,
            "lng": 113.549507
        },
        "ad_info": {
            "adcode": 140303,
            "province": "山西省",
            "city": "阳泉市",
            "district": "矿区"
        }
    },
    {
        "id": "13069766653038112348",
        "title": "公共厕所",
        "address": "山西省阳泉市郊区裕民中街与裕民路交叉口正北方向174米左右",
        "tel": "",
        "category": "基础设施:公共设施:公共厕所",
        "type": 0,
        "location": {
            "lat": 37.945562,
            "lng": 113.554535
        },
        "ad_info": {
            "adcode": 140311,
            "province": "山西省",
            "city": "阳泉市",
            "district": "郊区"
        }
    },
    {
        "id": "17975128249883934440",
        "title": "公共厕所(SXI-YQ-0148)",
        "address": "山西省阳泉市城区兴隆街28号",
        "tel": "",
        "category": "基础设施:公共设施:公共厕所",
        "type": 0,
        "location": {
            "lat": 37.860639,
            "lng": 113.586635
        },
        "ad_info": {
            "adcode": 140302,
            "province": "山西省",
            "city": "阳泉市",
            "district": "城区"
        }
    },
    {
        "id": "4124410610566521301",
        "title": "公共厕所",
        "address": "山西省阳泉市矿区育才路西一巷与育才路西二巷交叉口正西方向331米左右",
        "tel": "",
        "category": "基础设施:公共设施:公共厕所",
        "type": 0,
        "location": {
            "lat": 37.875603,
            "lng": 113.558571
        },
        "ad_info": {
            "adcode": 140303,
            "province": "山西省",
            "city": "阳泉市",
            "district": "矿区"
        }
    },
    {
        "id": "14015928147665837740",
        "title": "公共厕所",
        "address": "山西省阳泉市城区天成巷与德胜东街交叉口东南方向176米左右",
        "tel": "",
        "category": "基础设施:公共设施:公共厕所",
        "type": 0,
        "location": {
            "lat": 37.855854,
            "lng": 113.589813
        },
        "ad_info": {
            "adcode": 140302,
            "province": "山西省",
            "city": "阳泉市",
            "district": "城区"
        }
    },
    {
        "id": "1777800954816198310",
        "title": "公共厕所",
        "address": "山西省阳泉市矿区蔡东北路与蔡东南路交叉口正东方向62米左右",
        "tel": "",
        "category": "基础设施:公共设施:公共厕所",
        "type": 0,
        "location": {
            "lat": 37.861981,
            "lng": 113.549613
        },
        "ad_info": {
            "adcode": 140303,
            "province": "山西省",
            "city": "阳泉市",
            "district": "矿区"
        }
    },
    {
        "id": "14062403846513322517",
        "title": "公共厕所",
        "address": "山西省阳泉市城区华盛北路西巷与后底沟南巷交叉口西南方向24米左右",
        "tel": "",
        "category": "基础设施:公共设施:公共厕所",
        "type": 0,
        "location": {
            "lat": 37.865936,
            "lng": 113.580714
        },
        "ad_info": {
            "adcode": 140302,
            "province": "山西省",
            "city": "阳泉市",
            "district": "城区"
        }
    },
    {
        "id": "11112787045449541193",
        "title": "公共厕所",
        "address": "山西省阳泉市矿区蔡东北路与蔡东南路交叉口正东方向198米左右",
        "tel": "",
        "category": "基础设施:公共设施:公共厕所",
        "type": 0,
        "location": {
            "lat": 37.862126,
            "lng": 113.551162
        },
        "ad_info": {
            "adcode": 140303,
            "province": "山西省",
            "city": "阳泉市",
            "district": "矿区"
        }
    },
    {
        "id": "6334546446430527086",
        "title": "公共厕所",
        "address": "山西省阳泉市城区新建街铁路第二小区",
        "tel": "",
        "category": "基础设施:公共设施:公共厕所",
        "type": 0,
        "location": {
            "lat": 37.859221,
            "lng": 113.590475
        },
        "ad_info": {
            "adcode": 140302,
            "province": "山西省",
            "city": "阳泉市",
            "district": "城区"
        }
    },
    {
        "id": "7617114533360077912",
        "title": "公共厕所",
        "address": "山西省阳泉市矿区小南后巷与蔡洼西街交叉口西南方向40米左右",
        "tel": "",
        "category": "基础设施:公共设施:公共厕所",
        "type": 0,
        "location": {
            "lat": 37.873226,
            "lng": 113.529408
        },
        "ad_info": {
            "adcode": 140303,
            "province": "山西省",
            "city": "阳泉市",
            "district": "矿区"
        }
    },
    {
        "id": "12641132461649618452",
        "title": "公共厕所",
        "address": "山西省阳泉市城区保晋路与华盛北路交叉口正东方向215米左右",
        "tel": "",
        "category": "基础设施:公共设施:公共厕所",
        "type": 0,
        "location": {
            "lat": 37.867975,
            "lng": 113.585991
        },
        "ad_info": {
            "adcode": 140302,
            "province": "山西省",
            "city": "阳泉市",
            "district": "城区"
        }
    },
    {
        "id": "5203752005905521679",
        "title": "公共厕所",
        "address": "山西省阳泉市平定县东大街与大林山路交叉口东南方向73米左右",
        "tel": "",
        "category": "基础设施:公共设施:公共厕所",
        "type": 0,
        "location": {
            "lat": 37.789126,
            "lng": 113.642159
        },
        "ad_info": {
            "adcode": 140321,
            "province": "山西省",
            "city": "阳泉市",
            "district": "平定县"
        }
    },
    {
        "id": "3365195609151393258",
        "title": "公共卫生间",
        "address": "山西省阳泉市矿区平潭街与西河路交叉口东北方向79米左右",
        "tel": "",
        "category": "基础设施:公共设施:公共厕所",
        "type": 0,
        "location": {
            "lat": 37.868362,
            "lng": 113.560712
        },
        "ad_info": {
            "adcode": 140303,
            "province": "山西省",
            "city": "阳泉市",
            "district": "矿区"
        }
    },
    {
        "id": "5880068976059722452",
        "title": "公共厕所",
        "address": "山西省阳泉市矿区蔡东北路与蔡东南路交叉口东南方向178米左右",
        "tel": "",
        "category": "基础设施:公共设施:公共厕所",
        "type": 0,
        "location": {
            "lat": 37.861435,
            "lng": 113.550765
        },
        "ad_info": {
            "adcode": 140303,
            "province": "山西省",
            "city": "阳泉市",
            "district": "矿区"
        }
    },
    {
        "id": "14246839625131491901",
        "title": "公共厕所",
        "address": "山西省阳泉市矿区蔡洼沟西巷与蔡西南路交叉口正南方向170米左右",
        "tel": "",
        "category": "基础设施:公共设施:公共厕所",
        "type": 0,
        "location": {
            "lat": 37.86034,
            "lng": 113.545343
        },
        "ad_info": {
            "adcode": 140303,
            "province": "山西省",
            "city": "阳泉市",
            "district": "矿区"
        }
    },
    {
        "id": "5714564255344495667",
        "title": "公共厕所",
        "address": "山西省阳泉市矿区段北街一巷与段北街三巷交叉口正西方向295米左右",
        "tel": "",
        "category": "基础设施:公共设施:公共厕所",
        "type": 0,
        "location": {
            "lat": 37.885699,
            "lng": 113.543489
        },
        "ad_info": {
            "adcode": 140303,
            "province": "山西省",
            "city": "阳泉市",
            "district": "矿区"
        }
    },
    {
        "id": "1645310681235614049",
        "title": "公共厕所",
        "address": "山西省阳泉市矿区蔡洼沟西巷与蔡西北路交叉口东南方向68米左右",
        "tel": "",
        "category": "基础设施:公共设施:公共厕所",
        "type": 0,
        "location": {
            "lat": 37.862601,
            "lng": 113.543965
        },
        "ad_info": {
            "adcode": 140303,
            "province": "山西省",
            "city": "阳泉市",
            "district": "矿区"
        }
    },
    {
        "id": "2397926570184074838",
        "title": "公共厕所",
        "address": "山西省阳泉市矿区南外环路与南大街交叉口正北方向46米左右",
        "tel": "",
        "category": "基础设施:公共设施:公共厕所",
        "type": 0,
        "location": {
            "lat": 37.85886,
            "lng": 113.562701
        },
        "ad_info": {
            "adcode": 140303,
            "province": "山西省",
            "city": "阳泉市",
            "district": "矿区"
        }
    },
    {
        "id": "13757949729875369123",
        "title": "公共厕所",
        "address": "山西省阳泉市城区南大街与南新华巷交叉口东南方向289米左右",
        "tel": "",
        "category": "基础设施:公共设施:公共厕所",
        "type": 0,
        "location": {
            "lat": 37.847381,
            "lng": 113.597839
        },
        "ad_info": {
            "adcode": 140302,
            "province": "山西省",
            "city": "阳泉市",
            "district": "城区"
        }
    },
    {
        "id": "10330298183142696920",
        "title": "公共厕所",
        "address": "山西省阳泉市矿区直属镇段北街三巷段家背小学校东",
        "tel": "",
        "category": "基础设施:公共设施:公共厕所",
        "type": 0,
        "location": {
            "lat": 37.885293,
            "lng": 113.546362
        },
        "ad_info": {
            "adcode": 140303,
            "province": "山西省",
            "city": "阳泉市",
            "district": "矿区"
        }
    },
    {
        "id": "12268614117846549875",
        "title": "公共厕所",
        "address": "山西省阳泉市矿区矿山路与麻地巷交叉口正南方向20米左右",
        "tel": "",
        "category": "基础设施:公共设施:公共厕所",
        "type": 0,
        "location": {
            "lat": 37.884948,
            "lng": 113.513959
        },
        "ad_info": {
            "adcode": 140303,
            "province": "山西省",
            "city": "阳泉市",
            "district": "矿区"
        }
    },
    {
        "id": "9102431055006675459",
        "title": "公共厕所",
        "address": "山西省阳泉市城区南山南路与南山南路西一巷交叉口正东方向151米左右",
        "tel": "",
        "category": "基础设施:公共设施:公共厕所",
        "type": 0,
        "location": {
            "lat": 37.849722,
            "lng": 113.581925
        },
        "ad_info": {
            "adcode": 140302,
            "province": "山西省",
            "city": "阳泉市",
            "district": "城区"
        }
    },
    {
        "id": "17232260041276666048",
        "title": "公共厕所",
        "address": "山西省阳泉市城区南大街与厂区路交叉口东北方向213米左右",
        "tel": "",
        "category": "基础设施:公共设施:公共厕所",
        "type": 0,
        "location": {
            "lat": 37.85147,
            "lng": 113.596168
        },
        "ad_info": {
            "adcode": 140302,
            "province": "山西省",
            "city": "阳泉市",
            "district": "城区"
        }
    },
    {
        "id": "5309151618010049936",
        "title": "公共厕所",
        "address": "山西省阳泉市城区德胜东街130号阳泉站F1",
        "tel": "",
        "category": "基础设施:公共设施:公共厕所",
        "type": 0,
        "location": {
            "lat": 37.856331,
            "lng": 113.592637
        },
        "ad_info": {
            "adcode": 140302,
            "province": "山西省",
            "city": "阳泉市",
            "district": "城区"
        }
    },
    {
        "id": "810093405886139764",
        "title": "公共卫生间",
        "address": "山西省阳泉市城区新泉北路与桃北东街交叉口东北方向56米左右",
        "tel": "",
        "category": "基础设施:公共设施:公共厕所",
        "type": 0,
        "location": {
            "lat": 37.86425,
            "lng": 113.593944
        },
        "ad_info": {
            "adcode": 140302,
            "province": "山西省",
            "city": "阳泉市",
            "district": "城区"
        }
    },
    {
        "id": "18162311253643637624",
        "title": "公共厕所",
        "address": "山西省阳泉市城区德胜东街与泉中路交叉口东南方向89米左右",
        "tel": "",
        "category": "基础设施:公共设施:公共厕所",
        "type": 0,
        "location": {
            "lat": 37.858022,
            "lng": 113.582452
        },
        "ad_info": {
            "adcode": 140302,
            "province": "山西省",
            "city": "阳泉市",
            "district": "城区"
        }
    },
    {
        "id": "18276961667258088229",
        "title": "公共厕所",
        "address": "山西省阳泉市矿区子沟巷与桃北西街交叉口正西方向219米左右",
        "tel": "",
        "category": "基础设施:公共设施:公共厕所",
        "type": 0,
        "location": {
            "lat": 37.877878,
            "lng": 113.519827
        },
        "ad_info": {
            "adcode": 140303,
            "province": "山西省",
            "city": "阳泉市",
            "district": "矿区"
        }
    },
    {
        "id": "10091857075932620554",
        "title": "公共厕所",
        "address": "山西省阳泉市城区诚信路城市广场东北侧",
        "tel": "",
        "category": "基础设施:公共设施:公共厕所",
        "type": 0,
        "location": {
            "lat": 37.865424,
            "lng": 113.57644
        },
        "ad_info": {
            "adcode": 140302,
            "province": "山西省",
            "city": "阳泉市",
            "district": "城区"
        }
    },
    {
        "id": "6232640516131177283",
        "title": "公共厕所",
        "address": "山西省阳泉市城区小阳泉路市政府小区",
        "tel": "",
        "category": "基础设施:公共设施:公共厕所",
        "type": 0,
        "location": {
            "lat": 37.857843,
            "lng": 113.575495
        },
        "ad_info": {
            "adcode": 140302,
            "province": "山西省",
            "city": "阳泉市",
            "district": "城区"
        }
    },
    {
        "id": "7989607836954664662",
        "title": "公共厕所",
        "address": "山西省阳泉市盂县桃园路与金龙东街交叉口正东方向71米左右",
        "tel": "",
        "category": "基础设施:公共设施:公共厕所",
        "type": 0,
        "location": {
            "lat": 38.092213,
            "lng": 113.430326
        },
        "ad_info": {
            "adcode": 140322,
            "province": "山西省",
            "city": "阳泉市",
            "district": "盂县"
        }
    },
    {
        "id": "6771330968027535839",
        "title": "公共厕所",
        "address": "山西省阳泉市城区三角线路与德胜东街交叉口正南方向72米左右",
        "tel": "",
        "category": "基础设施:公共设施:公共厕所",
        "type": 0,
        "location": {
            "lat": 37.855691,
            "lng": 113.600836
        },
        "ad_info": {
            "adcode": 140302,
            "province": "山西省",
            "city": "阳泉市",
            "district": "城区"
        }
    },
    {
        "id": "6705246266474674343",
        "title": "公共厕所",
        "address": "山西省阳泉市城区北岭一巷与新华西街交叉口西北方向66米左右",
        "tel": "",
        "category": "基础设施:公共设施:公共厕所",
        "type": 0,
        "location": {
            "lat": 37.853,
            "lng": 113.578142
        },
        "ad_info": {
            "adcode": 140302,
            "province": "山西省",
            "city": "阳泉市",
            "district": "城区"
        }
    },
    {
        "id": "5303009712275754867",
        "title": "公共厕所",
        "address": "山西省阳泉市平定县东大街与评梅街交叉口正东方向73米左右",
        "tel": "",
        "category": "基础设施:公共设施:公共厕所",
        "type": 0,
        "location": {
            "lat": 37.804364,
            "lng": 113.632419
        },
        "ad_info": {
            "adcode": 140321,
            "province": "山西省",
            "city": "阳泉市",
            "district": "平定县"
        }
    },
    {
        "id": "17095812480839708378",
        "title": "公共厕所",
        "address": "山西省阳泉市盂县S216与七良线交叉口西南方向1788米左右",
        "tel": "",
        "category": "基础设施:公共设施:公共厕所",
        "type": 0,
        "location": {
            "lat": 38.037617,
            "lng": 113.381493
        },
        "ad_info": {
            "adcode": 140322,
            "province": "山西省",
            "city": "阳泉市",
            "district": "盂县"
        }
    },
    {
        "id": "1667308895967094482",
        "title": "公共厕所",
        "address": "山西省阳泉市矿区沙台二巷与矿山路交叉口正西方向59米左右",
        "tel": "",
        "category": "基础设施:公共设施:公共厕所",
        "type": 0,
        "location": {
            "lat": 37.887543,
            "lng": 113.513848
        },
        "ad_info": {
            "adcode": 140303,
            "province": "山西省",
            "city": "阳泉市",
            "district": "矿区"
        }
    },
    {
        "id": "9873176904515689639",
        "title": "公共厕所",
        "address": "山西省阳泉市平定县南大街与文兴路交叉口正西方向44米左右",
        "tel": "",
        "category": "基础设施:公共设施:公共厕所",
        "type": 0,
        "location": {
            "lat": 37.802936,
            "lng": 113.614983
        },
        "ad_info": {
            "adcode": 140321,
            "province": "山西省",
            "city": "阳泉市",
            "district": "平定县"
        }
    },
    {
        "id": "1805385315741983973",
        "title": "公共厕所",
        "address": "山西省阳泉市平定县廉政教育基地西北侧",
        "tel": "",
        "category": "基础设施:公共设施:公共厕所",
        "type": 0,
        "location": {
            "lat": 37.794676,
            "lng": 113.601286
        },
        "ad_info": {
            "adcode": 140321,
            "province": "山西省",
            "city": "阳泉市",
            "district": "平定县"
        }
    },
    {
        "id": "1772255081268636818",
        "title": "公共厕所",
        "address": "山西省阳泉市平定县宁南线西50米",
        "tel": "",
        "category": "基础设施:公共设施:公共厕所",
        "type": 0,
        "location": {
            "lat": 37.688449,
            "lng": 113.615301
        },
        "ad_info": {
            "adcode": 140321,
            "province": "山西省",
            "city": "阳泉市",
            "district": "平定县"
        }
    },
    {
        "id": "10126789935315627526",
        "title": "公共厕所",
        "address": "山西省阳泉市矿区桥东街2号楼",
        "tel": "",
        "category": "基础设施:公共设施:公共厕所",
        "type": 0,
        "location": {
            "lat": 37.873399,
            "lng": 113.545828
        },
        "ad_info": {
            "adcode": 140303,
            "province": "山西省",
            "city": "阳泉市",
            "district": "矿区"
        }
    },
    {
        "id": "4271396467415503225",
        "title": "公共厕所",
        "address": "山西省阳泉市平定县七一路与平赵线交叉口正西方向456米左右",
        "tel": "",
        "category": "基础设施:公共设施:公共厕所",
        "type": 0,
        "location": {
            "lat": 37.791523,
            "lng": 113.622392
        },
        "ad_info": {
            "adcode": 140321,
            "province": "山西省",
            "city": "阳泉市",
            "district": "平定县"
        }
    },
    {
        "id": "3090366999401111908",
        "title": "公共厕所",
        "address": "山西省阳泉市平定县七一路与平赵线交叉口东北方向219米左右",
        "tel": "",
        "category": "基础设施:公共设施:公共厕所",
        "type": 0,
        "location": {
            "lat": 37.793805,
            "lng": 113.629379
        },
        "ad_info": {
            "adcode": 140321,
            "province": "山西省",
            "city": "阳泉市",
            "district": "平定县"
        }
    },
    {
        "id": "9375658895490674547",
        "title": "公共厕所",
        "address": "山西省阳泉市平定县平定路与环城东路交叉口正南方向83米左右",
        "tel": "",
        "category": "基础设施:公共设施:公共厕所",
        "type": 0,
        "location": {
            "lat": 37.79105,
            "lng": 113.654968
        },
        "ad_info": {
            "adcode": 140321,
            "province": "山西省",
            "city": "阳泉市",
            "district": "平定县"
        }
    },
    {
        "id": "10652147552013936956",
        "title": "公共厕所",
        "address": "山西省阳泉市平定县东大街与步行街交叉口正东方向103米左右",
        "tel": "",
        "category": "基础设施:公共设施:公共厕所",
        "type": 0,
        "location": {
            "lat": 37.79859,
            "lng": 113.634161
        },
        "ad_info": {
            "adcode": 140321,
            "province": "山西省",
            "city": "阳泉市",
            "district": "平定县"
        }
    },
    {
        "id": "12240615482546354603",
        "title": "盂县服务区公共厕所",
        "address": "山西省阳泉市盂县G239与周家沟桥交叉口正西方向833米左右",
        "tel": "",
        "category": "基础设施:公共设施:公共厕所",
        "type": 0,
        "location": {
            "lat": 38.049412,
            "lng": 113.475676
        },
        "ad_info": {
            "adcode": 140322,
            "province": "山西省",
            "city": "阳泉市",
            "district": "盂县"
        }
    },
    {
        "id": "16197643556851806574",
        "title": "公共厕所",
        "address": "山西省阳泉市平定县七一路与南大街交叉口东北方向127米左右",
        "tel": "",
        "category": "基础设施:公共设施:公共厕所",
        "type": 0,
        "location": {
            "lat": 37.798584,
            "lng": 113.629723
        },
        "ad_info": {
            "adcode": 140321,
            "province": "山西省",
            "city": "阳泉市",
            "district": "平定县"
        }
    },
    {
        "id": "15591363488092670689",
        "title": "公共厕所",
        "address": "山西省阳泉市平定县歧银线与黄山线交叉口西南方向923米左右",
        "tel": "",
        "category": "基础设施:公共设施:公共厕所",
        "type": 0,
        "location": {
            "lat": 37.81243,
            "lng": 113.789156
        },
        "ad_info": {
            "adcode": 140321,
            "province": "山西省",
            "city": "阳泉市",
            "district": "平定县"
        }
    },
    {
        "id": "7200683561385642777",
        "title": "公共厕所",
        "address": "山西省阳泉市平定县兰美娟口腔诊所东南侧100米",
        "tel": "",
        "category": "基础设施:公共设施:公共厕所",
        "type": 0,
        "location": {
            "lat": 37.810725,
            "lng": 113.622773
        },
        "ad_info": {
            "adcode": 140321,
            "province": "山西省",
            "city": "阳泉市",
            "district": "平定县"
        }
    },
    {
        "id": "9672057032577183563",
        "title": "公共厕所",
        "address": "山西省阳泉市平定县三冠线与冠山北路交叉口西北方向749米左右",
        "tel": "",
        "category": "基础设施:公共设施:公共厕所",
        "type": 0,
        "location": {
            "lat": 37.813059,
            "lng": 113.587227
        },
        "ad_info": {
            "adcode": 140321,
            "province": "山西省",
            "city": "阳泉市",
            "district": "平定县"
        }
    },
    {
        "id": "12148454266239552656",
        "title": "公共厕所",
        "address": "山西省阳泉市平定县东大街与嘉河巷交叉口东南方向130米左右",
        "tel": "",
        "category": "基础设施:公共设施:公共厕所",
        "type": 0,
        "location": {
            "lat": 37.799867,
            "lng": 113.632819
        },
        "ad_info": {
            "adcode": 140321,
            "province": "山西省",
            "city": "阳泉市",
            "district": "平定县"
        }
    },
    {
        "id": "17380256956598497995",
        "title": "东营盘二段公共厕所",
        "address": "山西省阳泉市城区东营盘二巷二段小区",
        "tel": "",
        "category": "基础设施:公共设施:公共厕所",
        "type": 0,
        "location": {
            "lat": 37.859648,
            "lng": 113.595162
        },
        "ad_info": {
            "adcode": 140302,
            "province": "山西省",
            "city": "阳泉市",
            "district": "城区"
        }
    },
    {
        "id": "9267842537155387020",
        "title": "公共厕所",
        "address": "山西省阳泉市平定县Y030与乌海线交叉口正南方向1178米左右",
        "tel": "",
        "category": "基础设施:公共设施:公共厕所",
        "type": 0,
        "location": {
            "lat": 37.748085,
            "lng": 113.659522
        },
        "ad_info": {
            "adcode": 140321,
            "province": "山西省",
            "city": "阳泉市",
            "district": "平定县"
        }
    },
    {
        "id": "1067891918207896731",
        "title": "公共厕所",
        "address": "山西省阳泉市城区北胜巷与南深沟巷交叉口正南方向12米左右",
        "tel": "",
        "category": "基础设施:公共设施:公共厕所",
        "type": 0,
        "location": {
            "lat": 37.847361,
            "lng": 113.590419
        },
        "ad_info": {
            "adcode": 140302,
            "province": "山西省",
            "city": "阳泉市",
            "district": "城区"
        }
    },
    {
        "id": "7434673727759225354",
        "title": "沙江小市公共厕所",
        "address": "山西省阳泉市城区南大街与巨兴路交叉口东北方向48米左右",
        "tel": "",
        "category": "基础设施:公共设施:公共厕所",
        "type": 0,
        "location": {
            "lat": 37.855731,
            "lng": 113.585848
        },
        "ad_info": {
            "adcode": 140302,
            "province": "山西省",
            "city": "阳泉市",
            "district": "城区"
        }
    },
    {
        "id": "9877994894091037427",
        "title": "洪四区公共厕所",
        "address": "山西省阳泉市城区洪城路与洪城路西一巷交叉口正南方向160米左右",
        "tel": "",
        "category": "基础设施:公共设施:公共厕所",
        "type": 0,
        "location": {
            "lat": 37.869285,
            "lng": 113.569153
        },
        "ad_info": {
            "adcode": 140302,
            "province": "山西省",
            "city": "阳泉市",
            "district": "城区"
        }
    },
    {
        "id": "7435358137634756885",
        "title": "公共厕所",
        "address": "山西省阳泉市矿区矿山路与红岭街交叉口东北方向109米左右",
        "tel": "",
        "category": "基础设施:公共设施:公共厕所",
        "type": 0,
        "location": {
            "lat": 37.901144,
            "lng": 113.519059
        },
        "ad_info": {
            "adcode": 140303,
            "province": "山西省",
            "city": "阳泉市",
            "district": "矿区"
        }
    },
    {
        "id": "892382736053665462",
        "title": "公共厕所",
        "address": "山西省阳泉市矿区东四尺巷与蔡洼东街交叉口正南方向226米左右",
        "tel": "",
        "category": "基础设施:公共设施:公共厕所",
        "type": 0,
        "location": {
            "lat": 37.868421,
            "lng": 113.542684
        },
        "ad_info": {
            "adcode": 140303,
            "province": "山西省",
            "city": "阳泉市",
            "district": "矿区"
        }
    },
    {
        "id": "11960283787574412408",
        "title": "洪城河公共厕所",
        "address": "山西省阳泉市矿区洪城路77号",
        "tel": "",
        "category": "基础设施:公共设施:公共厕所",
        "type": 0,
        "location": {
            "lat": 37.873729,
            "lng": 113.568674
        },
        "ad_info": {
            "adcode": 140303,
            "province": "山西省",
            "city": "阳泉市",
            "district": "矿区"
        }
    },
    {
        "id": "17500069347212433983",
        "title": "公共卫生间",
        "address": "山西省阳泉市矿区西川路与西川路东巷交叉口东北方向46米左右",
        "tel": "",
        "category": "基础设施:公共设施:公共厕所",
        "type": 0,
        "location": {
            "lat": 37.87703,
            "lng": 113.504573
        },
        "ad_info": {
            "adcode": 140303,
            "province": "山西省",
            "city": "阳泉市",
            "district": "矿区"
        }
    },
    {
        "id": "4732714950775291912",
        "title": "王岩沟巷公共厕所",
        "address": "山西省阳泉市矿区桥东街与王岩沟东路交叉口西南方向25米左右",
        "tel": "",
        "category": "基础设施:公共设施:公共厕所",
        "type": 0,
        "location": {
            "lat": 37.871777,
            "lng": 113.548304
        },
        "ad_info": {
            "adcode": 140303,
            "province": "山西省",
            "city": "阳泉市",
            "district": "矿区"
        }
    },
    {
        "id": "6221500276123796215",
        "title": "公共卫生间",
        "address": "山西省阳泉市平定县七一路与南大街交叉口东北方向106米左右",
        "tel": "",
        "category": "基础设施:公共设施:公共厕所",
        "type": 0,
        "location": {
            "lat": 37.798241,
            "lng": 113.62993
        },
        "ad_info": {
            "adcode": 140321,
            "province": "山西省",
            "city": "阳泉市",
            "district": "平定县"
        }
    },
    {
        "id": "3114881199356530927",
        "title": "公共厕所",
        "address": "山西省阳泉市矿区桃北中街与桃北西街交叉口西北方向68米左右",
        "tel": "",
        "category": "基础设施:公共设施:公共厕所",
        "type": 0,
        "location": {
            "lat": 37.873287,
            "lng": 113.543215
        },
        "ad_info": {
            "adcode": 140303,
            "province": "山西省",
            "city": "阳泉市",
            "district": "矿区"
        }
    },
    {
        "id": "13773733450775483560",
        "title": "公共厕所",
        "address": "山西省阳泉市平定县三冠线与文兴路交叉口正南方向61米左右",
        "tel": "",
        "category": "基础设施:公共设施:公共厕所",
        "type": 0,
        "location": {
            "lat": 37.804448,
            "lng": 113.616566
        },
        "ad_info": {
            "adcode": 140321,
            "province": "山西省",
            "city": "阳泉市",
            "district": "平定县"
        }
    },
    {
        "id": "14595836744309065950",
        "title": "公共厕所",
        "address": "山西省阳泉市城区德胜东街与泉东路交叉口正南方向185米左右",
        "tel": "",
        "category": "基础设施:公共设施:公共厕所",
        "type": 0,
        "location": {
            "lat": 37.85488,
            "lng": 113.602829
        },
        "ad_info": {
            "adcode": 140302,
            "province": "山西省",
            "city": "阳泉市",
            "district": "城区"
        }
    },
    {
        "id": "12929279731029046731",
        "title": "太行广场生态厕所",
        "address": "山西省阳泉市矿区四巷口巷与桃北西街交叉口西南方向105米左右",
        "tel": "",
        "category": "基础设施:公共设施:公共厕所",
        "type": 0,
        "location": {
            "lat": 37.876788,
            "lng": 113.510967
        },
        "ad_info": {
            "adcode": 140303,
            "province": "山西省",
            "city": "阳泉市",
            "district": "矿区"
        }
    },
    {
        "id": "5943931433104859896",
        "title": "金源国际酒店-洗手间",
        "address": "山西省阳泉市平定县府新街与罗家峪路交叉口西北方向69米左右",
        "tel": "",
        "category": "基础设施:公共设施:公共厕所",
        "type": 0,
        "location": {
            "lat": 37.786073,
            "lng": 113.659156
        },
        "ad_info": {
            "adcode": 140321,
            "province": "山西省",
            "city": "阳泉市",
            "district": "平定县"
        }
    },
    {
        "id": "11785518228678478513",
        "title": "华越下厂公共厕所",
        "address": "山西省阳泉市矿区东四尺巷与桃南中街交叉口东南方向93米左右",
        "tel": "",
        "category": "基础设施:公共设施:公共厕所",
        "type": 0,
        "location": {
            "lat": 37.870821,
            "lng": 113.544126
        },
        "ad_info": {
            "adcode": 140303,
            "province": "山西省",
            "city": "阳泉市",
            "district": "矿区"
        }
    },
    {
        "id": "4001829014657767449",
        "title": "阳泉服务区公共厕所",
        "address": "山西省阳泉市平定县西郊互通与黄山线交叉口正东方向714米左右",
        "tel": "",
        "category": "基础设施:公共设施:公共厕所",
        "type": 0,
        "location": {
            "lat": 37.780577,
            "lng": 113.728916
        },
        "ad_info": {
            "adcode": 140321,
            "province": "山西省",
            "city": "阳泉市",
            "district": "平定县"
        }
    },
    {
        "id": "1074755073500362796",
        "title": "阳泉服务区公共厕所",
        "address": "山西省阳泉市平定县西郊互通与黄山线交叉口东北方向829米左右",
        "tel": "",
        "category": "基础设施:公共设施:公共厕所",
        "type": 0,
        "location": {
            "lat": 37.782257,
            "lng": 113.729523
        },
        "ad_info": {
            "adcode": 140321,
            "province": "山西省",
            "city": "阳泉市",
            "district": "平定县"
        }
    },
    {
        "id": "16883732527999400632",
        "title": "公共厕所",
        "address": "山西省阳泉市郊区天津街与青岛路交叉口正东方向325米左右",
        "tel": "",
        "category": "基础设施:公共设施:公共厕所",
        "type": 0,
        "location": {
            "lat": 37.869058,
            "lng": 113.609523
        },
        "ad_info": {
            "adcode": 140311,
            "province": "山西省",
            "city": "阳泉市",
            "district": "郊区"
        }
    },
    {
        "id": "8663619016106487525",
        "title": "公共卫生间管理间",
        "address": "山西省阳泉市平定县庙巷与评梅西街交叉口正南方向19米左右",
        "tel": "",
        "category": "基础设施:公共设施:公共厕所",
        "type": 0,
        "location": {
            "lat": 37.805243,
            "lng": 113.62415
        },
        "ad_info": {
            "adcode": 140321,
            "province": "山西省",
            "city": "阳泉市",
            "district": "平定县"
        }
    },
    {
        "id": "6050227337899853000",
        "title": "公共厕所",
        "address": "山西省阳泉市矿区西河路与西河路西巷交叉口正北方向304米左右",
        "tel": "",
        "category": "基础设施:公共设施:公共厕所",
        "type": 0,
        "location": {
            "lat": 37.875139,
            "lng": 113.557896
        },
        "ad_info": {
            "adcode": 140303,
            "province": "山西省",
            "city": "阳泉市",
            "district": "矿区"
        }
    },
    {
        "id": "8935459654552864492",
        "title": "公共卫生间",
        "address": "山西省阳泉市矿区平潭街与桃北中街四巷交叉口正西方向101米左右",
        "tel": "",
        "category": "基础设施:公共设施:公共厕所",
        "type": 0,
        "location": {
            "lat": 37.868781,
            "lng": 113.557016
        },
        "ad_info": {
            "adcode": 140303,
            "province": "山西省",
            "city": "阳泉市",
            "district": "矿区"
        }
    },
    {
        "id": "17033735161117696094",
        "title": "公共厕所",
        "address": "山西省阳泉市郊区小芳日化店南侧200米",
        "tel": "",
        "category": "基础设施:公共设施:公共厕所",
        "type": 0,
        "location": {
            "lat": 37.915237,
            "lng": 113.592058
        },
        "ad_info": {
            "adcode": 140311,
            "province": "山西省",
            "city": "阳泉市",
            "district": "郊区"
        }
    },
    {
        "id": "1054390987832899166",
        "title": "公共厕所",
        "address": "山西省阳泉市平定县东大街与评梅街交叉口正西方向228米左右",
        "tel": "",
        "category": "基础设施:公共设施:公共厕所",
        "type": 0,
        "location": {
            "lat": 37.804026,
            "lng": 113.629022
        },
        "ad_info": {
            "adcode": 140321,
            "province": "山西省",
            "city": "阳泉市",
            "district": "平定县"
        }
    },
    {
        "id": "6910699263781667612",
        "title": "公共厕所",
        "address": "山西省阳泉市盂县娄皇线与石阳线交叉口正南方向43米左右",
        "tel": "",
        "category": "基础设施:公共设施:公共厕所",
        "type": 0,
        "location": {
            "lat": 38.068589,
            "lng": 113.451304
        },
        "ad_info": {
            "adcode": 140322,
            "province": "山西省",
            "city": "阳泉市",
            "district": "盂县"
        }
    },
    {
        "id": "6472308411796553632",
        "title": "公共厕所",
        "address": "山西省阳泉市城区桃南东街与长顺街交叉口正南方向86米左右",
        "tel": "",
        "category": "基础设施:公共设施:公共厕所",
        "type": 0,
        "location": {
            "lat": 37.861807,
            "lng": 113.585663
        },
        "ad_info": {
            "adcode": 140302,
            "province": "山西省",
            "city": "阳泉市",
            "district": "城区"
        }
    },
    {
        "id": "17320264224389961796",
        "title": "公共厕所",
        "address": "山西省阳泉市盂县G239与石阳线交叉口正南方向89米左右",
        "tel": "",
        "category": "基础设施:公共设施:公共厕所",
        "type": 0,
        "location": {
            "lat": 38.040001,
            "lng": 113.488091
        },
        "ad_info": {
            "adcode": 140322,
            "province": "山西省",
            "city": "阳泉市",
            "district": "盂县"
        }
    },
    {
        "id": "2874888948343407989",
        "title": "公共厕所",
        "address": "山西省阳泉市城区义泉街南一巷与南外环南一巷交叉口东南方向307米左右",
        "tel": "",
        "category": "基础设施:公共设施:公共厕所",
        "type": 0,
        "location": {
            "lat": 37.840176,
            "lng": 113.583781
        },
        "ad_info": {
            "adcode": 140302,
            "province": "山西省",
            "city": "阳泉市",
            "district": "城区"
        }
    },
    {
        "id": "16895395862619306340",
        "title": "公共厕所",
        "address": "山西省阳泉市郊区桃林中路与魏家峪街交叉口东南方向52米左右",
        "tel": "",
        "category": "基础设施:公共设施:公共厕所",
        "type": 0,
        "location": {
            "lat": 37.891186,
            "lng": 113.566914
        },
        "ad_info": {
            "adcode": 140311,
            "province": "山西省",
            "city": "阳泉市",
            "district": "郊区"
        }
    },
    {
        "id": "16682833441759477066",
        "title": "公共厕所(天利购物广场)",
        "address": "山西省阳泉市矿区平潭街一巷与平潭街交叉口北140米",
        "tel": "",
        "category": "基础设施:公共设施:公共厕所",
        "type": 0,
        "location": {
            "lat": 37.867423,
            "lng": 113.565175
        },
        "ad_info": {
            "adcode": 140303,
            "province": "山西省",
            "city": "阳泉市",
            "district": "矿区"
        }
    },
    {
        "id": "14595569386971871483",
        "title": "公共厕所",
        "address": "山西省阳泉市平定县评梅东街粮源小区(粮食和物资储备局)",
        "tel": "",
        "category": "基础设施:公共设施:公共厕所",
        "type": 0,
        "location": {
            "lat": 37.804421,
            "lng": 113.632136
        },
        "ad_info": {
            "adcode": 140321,
            "province": "山西省",
            "city": "阳泉市",
            "district": "平定县"
        }
    },
    {
        "id": "7245289566700780035",
        "title": "公共厕所",
        "address": "山西省阳泉市平定县东大街与步行街交叉口正西方向82米左右",
        "tel": "",
        "category": "基础设施:公共设施:公共厕所",
        "type": 0,
        "location": {
            "lat": 37.798463,
            "lng": 113.632054
        },
        "ad_info": {
            "adcode": 140321,
            "province": "山西省",
            "city": "阳泉市",
            "district": "平定县"
        }
    },
    {
        "id": "11706286902963515161",
        "title": "公共厕所",
        "address": "山西省阳泉市盂县S314与洞门坡桥交叉口正西方向438米左右",
        "tel": "",
        "category": "基础设施:公共设施:公共厕所",
        "type": 0,
        "location": {
            "lat": 38.087008,
            "lng": 113.491761
        },
        "ad_info": {
            "adcode": 140322,
            "province": "山西省",
            "city": "阳泉市",
            "district": "盂县"
        }
    },
    {
        "id": "2329760131967275155",
        "title": "公共厕所",
        "address": "山西省阳泉市盂县214省道东50米",
        "tel": "",
        "category": "基础设施:公共设施:公共厕所",
        "type": 0,
        "location": {
            "lat": 38.38947,
            "lng": 113.369676
        },
        "ad_info": {
            "adcode": 140322,
            "province": "山西省",
            "city": "阳泉市",
            "district": "盂县"
        }
    },
    {
        "id": "7817358849998315519",
        "title": "公共厕所",
        "address": "山西省阳泉市盂县水神山北路阳泉北站B1西停车场",
        "tel": "",
        "category": "基础设施:公共设施:公共厕所",
        "type": 0,
        "location": {
            "lat": 38.113613,
            "lng": 113.436551
        },
        "ad_info": {
            "adcode": 140322,
            "province": "山西省",
            "city": "阳泉市",
            "district": "盂县"
        }
    },
    {
        "id": "10539313571121642445",
        "title": "公共厕所",
        "address": "山西省阳泉市平定县S307与电厂1号桥交叉口正西方向135米左右",
        "tel": "",
        "category": "基础设施:公共设施:公共厕所",
        "type": 0,
        "location": {
            "lat": 37.959033,
            "lng": 113.841197
        },
        "ad_info": {
            "adcode": 140321,
            "province": "山西省",
            "city": "阳泉市",
            "district": "平定县"
        }
    },
    {
        "id": "270298824195089069",
        "title": "公共厕所",
        "address": "山西省阳泉市矿区平潭街与桃北中街三巷交叉口西南方向22米左右",
        "tel": "",
        "category": "基础设施:公共设施:公共厕所",
        "type": 0,
        "location": {
            "lat": 37.868055,
            "lng": 113.558841
        },
        "ad_info": {
            "adcode": 140303,
            "province": "山西省",
            "city": "阳泉市",
            "district": "矿区"
        }
    },
    {
        "id": "10138625188063385316",
        "title": "公共厕所",
        "address": "山西省阳泉市平定县李彦诊所东南侧80米",
        "tel": "",
        "category": "基础设施:公共设施:公共厕所",
        "type": 0,
        "location": {
            "lat": 37.799666,
            "lng": 113.621249
        },
        "ad_info": {
            "adcode": 140321,
            "province": "山西省",
            "city": "阳泉市",
            "district": "平定县"
        }
    },
    {
        "id": "9600406690204866021",
        "title": "公共厕所",
        "address": "山西省阳泉市城区拥军路与新华西街交叉口东南方向36米左右",
        "tel": "",
        "category": "基础设施:公共设施:公共厕所",
        "type": 0,
        "location": {
            "lat": 37.852162,
            "lng": 113.57055
        },
        "ad_info": {
            "adcode": 140302,
            "province": "山西省",
            "city": "阳泉市",
            "district": "城区"
        }
    },
    {
        "id": "3960458302032496171",
        "title": "公共卫生间",
        "address": "山西省阳泉市城区桃南中街一巷与桃南中街交叉口正东方向116米左右",
        "tel": "",
        "category": "基础设施:公共设施:公共厕所",
        "type": 0,
        "location": {
            "lat": 37.861772,
            "lng": 113.578143
        },
        "ad_info": {
            "adcode": 140302,
            "province": "山西省",
            "city": "阳泉市",
            "district": "城区"
        }
    },
    {
        "id": "79478140125337652",
        "title": "公共厕所",
        "address": "山西省阳泉市矿区太行路与西川路东巷交叉口正西方向106米左右",
        "tel": "",
        "category": "基础设施:公共设施:公共厕所",
        "type": 0,
        "location": {
            "lat": 37.877731,
            "lng": 113.50706
        },
        "ad_info": {
            "adcode": 140303,
            "province": "山西省",
            "city": "阳泉市",
            "district": "矿区"
        }
    },
    {
        "id": "1698978127093497542",
        "title": "公共厕所",
        "address": "山西省阳泉市盂县S214与闫贾线交叉口东北方向1973米左右",
        "tel": "",
        "category": "基础设施:公共设施:公共厕所",
        "type": 0,
        "location": {
            "lat": 38.456454,
            "lng": 113.453414
        },
        "ad_info": {
            "adcode": 140322,
            "province": "山西省",
            "city": "阳泉市",
            "district": "盂县"
        }
    },
    {
        "id": "4366906909681588195",
        "title": "公共厕所",
        "address": "山西省阳泉市城区巨兴路与德胜东街交叉口正北方向55米左右",
        "tel": "",
        "category": "基础设施:公共设施:公共厕所",
        "type": 0,
        "location": {
            "lat": 37.85814,
            "lng": 113.58619
        },
        "ad_info": {
            "adcode": 140302,
            "province": "山西省",
            "city": "阳泉市",
            "district": "城区"
        }
    },
    {
        "id": "9359075877189835743",
        "title": "公共厕所",
        "address": "山西省阳泉市盂县石阳线与闫贾线交叉口西南方向1995米左右",
        "tel": "",
        "category": "基础设施:公共设施:公共厕所",
        "type": 0,
        "location": {
            "lat": 38.436078,
            "lng": 113.317739
        },
        "ad_info": {
            "adcode": 140322,
            "province": "山西省",
            "city": "阳泉市",
            "district": "盂县"
        }
    },
    {
        "id": "13041131384968742936",
        "title": "公共厕所",
        "address": "山西省阳泉市城区青年街与青年街南巷交叉口正北方向33米左右",
        "tel": "",
        "category": "基础设施:公共设施:公共厕所",
        "type": 0,
        "location": {
            "lat": 37.869417,
            "lng": 113.576099
        },
        "ad_info": {
            "adcode": 140302,
            "province": "山西省",
            "city": "阳泉市",
            "district": "城区"
        }
    },
    {
        "id": "1611357423075570705",
        "title": "公共厕所",
        "address": "山西省阳泉市平定县城里街与大石头沟路交叉口西南方向16米左右",
        "tel": "",
        "category": "基础设施:公共设施:公共厕所",
        "type": 0,
        "location": {
            "lat": 37.805673,
            "lng": 113.622191
        },
        "ad_info": {
            "adcode": 140321,
            "province": "山西省",
            "city": "阳泉市",
            "district": "平定县"
        }
    },
    {
        "id": "12560170875618063576",
        "title": "公共厕所",
        "address": "山西省阳泉市城区南大街与拥军路交叉口正南方向38米左右",
        "tel": "",
        "category": "基础设施:公共设施:公共厕所",
        "type": 0,
        "location": {
            "lat": 37.855957,
            "lng": 113.569182
        },
        "ad_info": {
            "adcode": 140302,
            "province": "山西省",
            "city": "阳泉市",
            "district": "城区"
        }
    },
    {
        "id": "11505396871850263134",
        "title": "盂县服务区公共厕所",
        "address": "山西省阳泉市盂县G239与石阳线交叉口西南方向740米左右",
        "tel": "",
        "category": "基础设施:公共设施:公共厕所",
        "type": 0,
        "location": {
            "lat": 38.051791,
            "lng": 113.476112
        },
        "ad_info": {
            "adcode": 140322,
            "province": "山西省",
            "city": "阳泉市",
            "district": "盂县"
        }
    },
    {
        "id": "9895659290994115623",
        "title": "公共厕所",
        "address": "山西省阳泉市郊区滴苇线与正阳线交叉口南500米",
        "tel": "",
        "category": "基础设施:公共设施:公共厕所",
        "type": 0,
        "location": {
            "lat": 37.978952,
            "lng": 113.562922
        },
        "ad_info": {
            "adcode": 140311,
            "province": "山西省",
            "city": "阳泉市",
            "district": "郊区"
        }
    },
    {
        "id": "12791260366472550605",
        "title": "公共厕所",
        "address": "山西省阳泉市矿区桃北中街三巷与桃北中街交叉口西南方向242米左右",
        "tel": "",
        "category": "基础设施:公共设施:公共厕所",
        "type": 0,
        "location": {
            "lat": 37.865331,
            "lng": 113.557098
        },
        "ad_info": {
            "adcode": 140303,
            "province": "山西省",
            "city": "阳泉市",
            "district": "矿区"
        }
    },
    {
        "id": "4915695280695011935",
        "title": "公共厕所",
        "address": "山西省阳泉市郊区荫桃线阳泉东站F1候车室内",
        "tel": "",
        "category": "基础设施:公共设施:公共厕所",
        "type": 0,
        "location": {
            "lat": 37.884034,
            "lng": 113.600806
        },
        "ad_info": {
            "adcode": 140311,
            "province": "山西省",
            "city": "阳泉市",
            "district": "郊区"
        }
    },
    {
        "id": "2121640009664207508",
        "title": "公共厕所",
        "address": "山西省阳泉市平定县北大街与文兴路交叉口正南方向158米左右",
        "tel": "",
        "category": "基础设施:公共设施:公共厕所",
        "type": 0,
        "location": {
            "lat": 37.809958,
            "lng": 113.617937
        },
        "ad_info": {
            "adcode": 140321,
            "province": "山西省",
            "city": "阳泉市",
            "district": "平定县"
        }
    },
    {
        "id": "1450497002864345164",
        "title": "公共厕所",
        "address": "山西省阳泉市郊区荫桃线阳泉东站站前广场(西北角)",
        "tel": "",
        "category": "基础设施:公共设施:公共厕所",
        "type": 0,
        "location": {
            "lat": 37.885082,
            "lng": 113.598821
        },
        "ad_info": {
            "adcode": 140311,
            "province": "山西省",
            "city": "阳泉市",
            "district": "郊区"
        }
    },
    {
        "id": "4100117636708659730",
        "title": "公共厕所",
        "address": "山西省阳泉市郊区S315与前高线交叉口东北方向712米左右",
        "tel": "",
        "category": "基础设施:公共设施:公共厕所",
        "type": 0,
        "location": {
            "lat": 37.930498,
            "lng": 113.665672
        },
        "ad_info": {
            "adcode": 140311,
            "province": "山西省",
            "city": "阳泉市",
            "district": "郊区"
        }
    },
    {
        "id": "8438217550984912920",
        "title": "公共厕所",
        "address": "山西省阳泉市城区新泉北路与桃北东街交叉口西北方向108米左右",
        "tel": "",
        "category": "基础设施:公共设施:公共厕所",
        "type": 0,
        "location": {
            "lat": 37.8648,
            "lng": 113.592588
        },
        "ad_info": {
            "adcode": 140302,
            "province": "山西省",
            "city": "阳泉市",
            "district": "城区"
        }
    },
    {
        "id": "9490684748062783746",
        "title": "公共厕所",
        "address": "山西省阳泉市城区南山南路与南山南路西二巷交叉口东南方向87米左右",
        "tel": "",
        "category": "基础设施:公共设施:公共厕所",
        "type": 0,
        "location": {
            "lat": 37.848095,
            "lng": 113.580867
        },
        "ad_info": {
            "adcode": 140302,
            "province": "山西省",
            "city": "阳泉市",
            "district": "城区"
        }
    },
    {
        "id": "10713131473202356214",
        "title": "公共厕所",
        "address": "山西省阳泉市盂县水神山中路与水神山南路交叉口正西方向189米左右",
        "tel": "",
        "category": "基础设施:公共设施:公共厕所",
        "type": 0,
        "location": {
            "lat": 38.092175,
            "lng": 113.43907
        },
        "ad_info": {
            "adcode": 140322,
            "province": "山西省",
            "city": "阳泉市",
            "district": "盂县"
        }
    },
    {
        "id": "16313046321204281972",
        "title": "公共厕所",
        "address": "山西省阳泉市郊区桃北西街与青银高速交叉口东北方向184米左右",
        "tel": "",
        "category": "基础设施:公共设施:公共厕所",
        "type": 0,
        "location": {
            "lat": 37.854942,
            "lng": 113.444409
        },
        "ad_info": {
            "adcode": 140311,
            "province": "山西省",
            "city": "阳泉市",
            "district": "郊区"
        }
    },
    {
        "id": "921522483362016957",
        "title": "公共厕所",
        "address": "山西省阳泉市城区华盛北路东巷新天地小区",
        "tel": "",
        "category": "基础设施:公共设施:公共厕所",
        "type": 0,
        "location": {
            "lat": 37.865945,
            "lng": 113.58554
        },
        "ad_info": {
            "adcode": 140302,
            "province": "山西省",
            "city": "阳泉市",
            "district": "城区"
        }
    },
    {
        "id": "15360157649234921228",
        "title": "公共厕所",
        "address": "山西省阳泉市矿区敬老巷与蔡西北路交叉口正西方向94米左右",
        "tel": "",
        "category": "基础设施:公共设施:公共厕所",
        "type": 0,
        "location": {
            "lat": 37.866641,
            "lng": 113.537927
        },
        "ad_info": {
            "adcode": 140303,
            "province": "山西省",
            "city": "阳泉市",
            "district": "矿区"
        }
    },
    {
        "id": "16587003539224649449",
        "title": "公共厕所",
        "address": "山西省阳泉市盂县G239与石阳线交叉口正南方向139米左右",
        "tel": "",
        "category": "基础设施:公共设施:公共厕所",
        "type": 0,
        "location": {
            "lat": 38.039553,
            "lng": 113.488086
        },
        "ad_info": {
            "adcode": 140322,
            "province": "山西省",
            "city": "阳泉市",
            "district": "盂县"
        }
    },
    {
        "id": "16417708892116677480",
        "title": "公共厕所",
        "address": "山西省阳泉市平定县南关街与南大街交叉口东南方向20米左右",
        "tel": "",
        "category": "基础设施:公共设施:公共厕所",
        "type": 0,
        "location": {
            "lat": 37.798558,
            "lng": 113.62575
        },
        "ad_info": {
            "adcode": 140321,
            "province": "山西省",
            "city": "阳泉市",
            "district": "平定县"
        }
    },
    {
        "id": "4835879399014855403",
        "title": "公共厕所",
        "address": "山西省阳泉市盂县秀水西街与香河南路交叉口西南方向51米左右",
        "tel": "",
        "category": "基础设施:公共设施:公共厕所",
        "type": 0,
        "location": {
            "lat": 38.086144,
            "lng": 113.4078
        },
        "ad_info": {
            "adcode": 140322,
            "province": "山西省",
            "city": "阳泉市",
            "district": "盂县"
        }
    },
    {
        "id": "11217876919568499542",
        "title": "公共厕所",
        "address": "山西省阳泉市城区南山南路与龙潭街交叉口东南方向63米左右",
        "tel": "",
        "category": "基础设施:公共设施:公共厕所",
        "type": 0,
        "location": {
            "lat": 37.848334,
            "lng": 113.580713
        },
        "ad_info": {
            "adcode": 140302,
            "province": "山西省",
            "city": "阳泉市",
            "district": "城区"
        }
    },
    {
        "id": "3141769366048885387",
        "title": "公共厕所",
        "address": "山西省阳泉市城区义泉街与广阳路交叉口东南方向119米左右",
        "tel": "",
        "category": "基础设施:公共设施:公共厕所",
        "type": 0,
        "location": {
            "lat": 37.84011,
            "lng": 113.598399
        },
        "ad_info": {
            "adcode": 140302,
            "province": "山西省",
            "city": "阳泉市",
            "district": "城区"
        }
    },
    {
        "id": "14896890010835313726",
        "title": "公共厕所",
        "address": "山西省阳泉市平定县小槐树路与环城东路交叉口正东方向41米左右",
        "tel": "",
        "category": "基础设施:公共设施:公共厕所",
        "type": 0,
        "location": {
            "lat": 37.803609,
            "lng": 113.641391
        },
        "ad_info": {
            "adcode": 140321,
            "province": "山西省",
            "city": "阳泉市",
            "district": "平定县"
        }
    },
    {
        "id": "5781344772982536247",
        "title": "公共厕所",
        "address": "山西省阳泉市盂县秀水西街005号西南方向90米",
        "tel": "",
        "category": "基础设施:公共设施:公共厕所",
        "type": 0,
        "location": {
            "lat": 38.085346,
            "lng": 113.411586
        },
        "ad_info": {
            "adcode": 140322,
            "province": "山西省",
            "city": "阳泉市",
            "district": "盂县"
        }
    },
    {
        "id": "7006026532336697078",
        "title": "公共厕所",
        "address": "山西省阳泉市郊区李白路与运泉路交叉口正北方向96米左右",
        "tel": "",
        "category": "基础设施:公共设施:公共厕所",
        "type": 0,
        "location": {
            "lat": 37.881247,
            "lng": 113.612
        },
        "ad_info": {
            "adcode": 140311,
            "province": "山西省",
            "city": "阳泉市",
            "district": "郊区"
        }
    },
    {
        "id": "18396180724700774390",
        "title": "公共厕所",
        "address": "山西省阳泉市平定县庙巷与评梅西街交叉口西南方向169米左右",
        "tel": "",
        "category": "基础设施:公共设施:公共厕所",
        "type": 0,
        "location": {
            "lat": 37.804312,
            "lng": 113.622792
        },
        "ad_info": {
            "adcode": 140321,
            "province": "山西省",
            "city": "阳泉市",
            "district": "平定县"
        }
    },
    {
        "id": "7351712280265049133",
        "title": "公共厕所",
        "address": "山西省阳泉市平定县东环城路与环城东路交叉口东南方向143米左右",
        "tel": "",
        "category": "基础设施:公共设施:公共厕所",
        "type": 0,
        "location": {
            "lat": 37.79584,
            "lng": 113.650726
        },
        "ad_info": {
            "adcode": 140321,
            "province": "山西省",
            "city": "阳泉市",
            "district": "平定县"
        }
    },
    {
        "id": "396147751845376616",
        "title": "公共厕所",
        "address": "山西省阳泉市平定县广阳熙龙湾东侧110米",
        "tel": "",
        "category": "基础设施:公共设施:公共厕所",
        "type": 0,
        "location": {
            "lat": 37.799264,
            "lng": 113.613485
        },
        "ad_info": {
            "adcode": 140321,
            "province": "山西省",
            "city": "阳泉市",
            "district": "平定县"
        }
    },
    {
        "id": "374314356588038815",
        "title": "公共厕所",
        "address": "山西省阳泉市郊区荫桃线阳泉东站站前广场(西南角)",
        "tel": "",
        "category": "基础设施:公共设施:公共厕所",
        "type": 0,
        "location": {
            "lat": 37.884063,
            "lng": 113.598902
        },
        "ad_info": {
            "adcode": 140311,
            "province": "山西省",
            "city": "阳泉市",
            "district": "郊区"
        }
    },
    {
        "id": "9404997209692869097",
        "title": "藏山-公共厕所",
        "address": "山西省阳泉市盂县国家电网汽车充电站(山西省阳泉市盂县藏山景区充电站)南侧110米",
        "tel": "",
        "category": "基础设施:公共设施:公共厕所",
        "type": 0,
        "location": {
            "lat": 38.22236,
            "lng": 113.348957
        },
        "ad_info": {
            "adcode": 140322,
            "province": "山西省",
            "city": "阳泉市",
            "district": "盂县"
        }
    },
    {
        "id": "13887782965817573351",
        "title": "公共厕所",
        "address": "山西省阳泉市郊区石阳线与锡海线交叉口正西方向199米左右",
        "tel": "",
        "category": "基础设施:公共设施:公共厕所",
        "type": 0,
        "location": {
            "lat": 37.965448,
            "lng": 113.584987
        },
        "ad_info": {
            "adcode": 140311,
            "province": "山西省",
            "city": "阳泉市",
            "district": "郊区"
        }
    },
    {
        "id": "6339501343094048363",
        "title": "公共厕所",
        "address": "山西省阳泉市郊区泉中路128号",
        "tel": "",
        "category": "基础设施:公共设施:公共厕所",
        "type": 0,
        "location": {
            "lat": 37.870612,
            "lng": 113.582021
        },
        "ad_info": {
            "adcode": 140311,
            "province": "山西省",
            "city": "阳泉市",
            "district": "郊区"
        }
    },
    {
        "id": "16410438432756618261",
        "title": "公共厕所",
        "address": "山西省阳泉市平定县宋家庄明清一条街",
        "tel": "",
        "category": "基础设施:公共设施:公共厕所",
        "type": 0,
        "location": {
            "lat": 37.769125,
            "lng": 113.60166
        },
        "ad_info": {
            "adcode": 140321,
            "province": "山西省",
            "city": "阳泉市",
            "district": "平定县"
        }
    },
    {
        "id": "6648039917874040849",
        "title": "公共厕所",
        "address": "山西省阳泉市矿区沙台一巷与矿山路交叉口西北方向38米左右",
        "tel": "",
        "category": "基础设施:公共设施:公共厕所",
        "type": 0,
        "location": {
            "lat": 37.885881,
            "lng": 113.513736
        },
        "ad_info": {
            "adcode": 140303,
            "province": "山西省",
            "city": "阳泉市",
            "district": "矿区"
        }
    },
    {
        "id": "11304335381453790628",
        "title": "公共厕所",
        "address": "山西省阳泉市盂县双阳线与李宾山路交叉口西北方向305米左右",
        "tel": "",
        "category": "基础设施:公共设施:公共厕所",
        "type": 0,
        "location": {
            "lat": 38.108193,
            "lng": 113.426324
        },
        "ad_info": {
            "adcode": 140322,
            "province": "山西省",
            "city": "阳泉市",
            "district": "盂县"
        }
    },
    {
        "id": "9865967128602080717",
        "title": "公共厕所",
        "address": "山西省阳泉市矿区林青沟巷与沙沟路交叉口东北方向97米左右",
        "tel": "",
        "category": "基础设施:公共设施:公共厕所",
        "type": 0,
        "location": {
            "lat": 37.903896,
            "lng": 113.51722
        },
        "ad_info": {
            "adcode": 140303,
            "province": "山西省",
            "city": "阳泉市",
            "district": "矿区"
        }
    },
    {
        "id": "7601827248171823812",
        "title": "公共厕所",
        "address": "山西省阳泉市平定县文兴路与评梅街交叉口正北方向87米左右",
        "tel": "",
        "category": "基础设施:公共设施:公共厕所",
        "type": 0,
        "location": {
            "lat": 37.80794,
            "lng": 113.617613
        },
        "ad_info": {
            "adcode": 140321,
            "province": "山西省",
            "city": "阳泉市",
            "district": "平定县"
        }
    },
    {
        "id": "9427104339881799336",
        "title": "女卫生间",
        "address": "山西省阳泉市矿区平坦立交桥与桃北中街交叉口东北方向121米左右",
        "tel": "",
        "category": "基础设施:公共设施:公共厕所",
        "type": 0,
        "location": {
            "lat": 37.870526,
            "lng": 113.552195
        },
        "ad_info": {
            "adcode": 140303,
            "province": "山西省",
            "city": "阳泉市",
            "district": "矿区"
        }
    },
    {
        "id": "2337720356149850450",
        "title": "公共厕所",
        "address": "山西省阳泉市郊区桃林中路桃林沟喜来居小区",
        "tel": "",
        "category": "基础设施:公共设施:公共厕所",
        "type": 0,
        "location": {
            "lat": 37.893352,
            "lng": 113.56372
        },
        "ad_info": {
            "adcode": 140311,
            "province": "山西省",
            "city": "阳泉市",
            "district": "郊区"
        }
    },
    {
        "id": "1035649810497933667",
        "title": "无障碍公共厕所",
        "address": "山西省阳泉市平定县益智·观澜豪庭2期西侧320米",
        "tel": "",
        "category": "基础设施:公共设施:公共厕所",
        "type": 0,
        "location": {
            "lat": 37.783619,
            "lng": 113.645513
        },
        "ad_info": {
            "adcode": 140321,
            "province": "山西省",
            "city": "阳泉市",
            "district": "平定县"
        }
    },
    {
        "id": "7106258503146184328",
        "title": "公共厕所",
        "address": "山西省阳泉市郊区天津街与宁波路交叉口正东方向167米左右",
        "tel": "",
        "category": "基础设施:公共设施:公共厕所",
        "type": 0,
        "location": {
            "lat": 37.869401,
            "lng": 113.5975
        },
        "ad_info": {
            "adcode": 140311,
            "province": "山西省",
            "city": "阳泉市",
            "district": "郊区"
        }
    },
    {
        "id": "17761951618409700657",
        "title": "公共厕所",
        "address": "山西省阳泉市矿区段北街一巷与段北街三巷交叉口正西方向279米左右",
        "tel": "",
        "category": "基础设施:公共设施:公共厕所",
        "type": 0,
        "location": {
            "lat": 37.885858,
            "lng": 113.543698
        },
        "ad_info": {
            "adcode": 140303,
            "province": "山西省",
            "city": "阳泉市",
            "district": "矿区"
        }
    },
    {
        "id": "16184522768228802360",
        "title": "公共厕所",
        "address": "山西省阳泉市郊区体育西路与南大街交叉口正西方向176米左右",
        "tel": "",
        "category": "基础设施:公共设施:公共厕所",
        "type": 0,
        "location": {
            "lat": 37.84488,
            "lng": 113.603348
        },
        "ad_info": {
            "adcode": 140311,
            "province": "山西省",
            "city": "阳泉市",
            "district": "郊区"
        }
    },
    {
        "id": "8061069841384531388",
        "title": "公共厕所",
        "address": "山西省阳泉市矿区中石岩小区西北侧180米",
        "tel": "",
        "category": "基础设施:公共设施:公共厕所",
        "type": 0,
        "location": {
            "lat": 37.890449,
            "lng": 113.548109
        },
        "ad_info": {
            "adcode": 140303,
            "province": "山西省",
            "city": "阳泉市",
            "district": "矿区"
        }
    },
    {
        "id": "10961255640185945267",
        "title": "公共厕所",
        "address": "山西省阳泉市城区兴隆路与桃南东街交叉口正北方向268米左右",
        "tel": "",
        "category": "基础设施:公共设施:公共厕所",
        "type": 0,
        "location": {
            "lat": 37.86482,
            "lng": 113.587378
        },
        "ad_info": {
            "adcode": 140302,
            "province": "山西省",
            "city": "阳泉市",
            "district": "城区"
        }
    },
    {
        "id": "15012804029274635568",
        "title": "公共厕所",
        "address": "山西省阳泉市城区华盛南路与德胜东街交叉口西南方向36米左右",
        "tel": "",
        "category": "基础设施:公共设施:公共厕所",
        "type": 0,
        "location": {
            "lat": 37.858212,
            "lng": 113.584504
        },
        "ad_info": {
            "adcode": 140302,
            "province": "山西省",
            "city": "阳泉市",
            "district": "城区"
        }
    },
    {
        "id": "13985145907303629852",
        "title": "公共厕所",
        "address": "山西省阳泉市盂县卫军维修东侧190米",
        "tel": "",
        "category": "基础设施:公共设施:公共厕所",
        "type": 0,
        "location": {
            "lat": 38.108133,
            "lng": 113.095961
        },
        "ad_info": {
            "adcode": 140322,
            "province": "山西省",
            "city": "阳泉市",
            "district": "盂县"
        }
    },
    {
        "id": "5182034906078944135",
        "title": "公共卫生间",
        "address": "山西省阳泉市平定县东大街与八腊庙巷交叉口西南方向131米左右",
        "tel": "",
        "category": "基础设施:公共设施:公共厕所",
        "type": 0,
        "location": {
            "lat": 37.793881,
            "lng": 113.635605
        },
        "ad_info": {
            "adcode": 140321,
            "province": "山西省",
            "city": "阳泉市",
            "district": "平定县"
        }
    },
    {
        "id": "8942563005606125424",
        "title": "公共厕所",
        "address": "山西省阳泉市城区南庄路与龙潭街交叉口西北方向42米左右",
        "tel": "",
        "category": "基础设施:公共设施:公共厕所",
        "type": 0,
        "location": {
            "lat": 37.8466,
            "lng": 113.589252
        },
        "ad_info": {
            "adcode": 140302,
            "province": "山西省",
            "city": "阳泉市",
            "district": "城区"
        }
    },
    {
        "id": "13131149008924804818",
        "title": "公共厕所",
        "address": "山西省阳泉市平定县平阳路(聚鑫苑)",
        "tel": "",
        "category": "基础设施:公共设施:公共厕所",
        "type": 0,
        "location": {
            "lat": 37.786723,
            "lng": 113.649715
        },
        "ad_info": {
            "adcode": 140321,
            "province": "山西省",
            "city": "阳泉市",
            "district": "平定县"
        }
    },
    {
        "id": "6694764206551219544",
        "title": "盂县北服务区公共厕所",
        "address": "山西省阳泉市盂县天黎高速公路",
        "tel": "",
        "category": "基础设施:公共设施:公共厕所",
        "type": 0,
        "location": {
            "lat": 38.343469,
            "lng": 113.34834
        },
        "ad_info": {
            "adcode": 140322,
            "province": "山西省",
            "city": "阳泉市",
            "district": "盂县"
        }
    },
    {
        "id": "10119944602684528109",
        "title": "公共厕所",
        "address": "山西省阳泉市盂县S314与西沟桥交叉口正西方向1693米左右",
        "tel": "",
        "category": "基础设施:公共设施:公共厕所",
        "type": 0,
        "location": {
            "lat": 38.117624,
            "lng": 113.176974
        },
        "ad_info": {
            "adcode": 140322,
            "province": "山西省",
            "city": "阳泉市",
            "district": "盂县"
        }
    },
    {
        "id": "11988907741279451639",
        "title": "公共厕所",
        "address": "山西省阳泉市平定县南关街与南大街交叉口正西方向223米左右",
        "tel": "",
        "category": "基础设施:公共设施:公共厕所",
        "type": 0,
        "location": {
            "lat": 37.799,
            "lng": 113.623142
        },
        "ad_info": {
            "adcode": 140321,
            "province": "山西省",
            "city": "阳泉市",
            "district": "平定县"
        }
    },
    {
        "id": "715980223943301896",
        "title": "公共厕所",
        "address": "山西省阳泉市平定县城里街与金泰商贸步行街交叉口正北方向38米左右",
        "tel": "",
        "category": "基础设施:公共设施:公共厕所",
        "type": 0,
        "location": {
            "lat": 37.802331,
            "lng": 113.630597
        },
        "ad_info": {
            "adcode": 140321,
            "province": "山西省",
            "city": "阳泉市",
            "district": "平定县"
        }
    },
    {
        "id": "1966483294367452292",
        "title": "公共厕所",
        "address": "山西省阳泉市平定县宁南线与宁艾桥交叉口东南方向619米左右",
        "tel": "",
        "category": "基础设施:公共设施:公共厕所",
        "type": 0,
        "location": {
            "lat": 37.695199,
            "lng": 113.679023
        },
        "ad_info": {
            "adcode": 140321,
            "province": "山西省",
            "city": "阳泉市",
            "district": "平定县"
        }
    },
    {
        "id": "9865967128602080717",
        "title": "公共厕所",
        "address": "山西省阳泉市矿区林青沟巷与沙沟路交叉口东北方向97米左右",
        "tel": "",
        "category": "基础设施:公共设施:公共厕所",
        "type": 0,
        "location": {
            "lat": 37.903896,
            "lng": 113.51722
        },
        "ad_info": {
            "adcode": 140303,
            "province": "山西省",
            "city": "阳泉市",
            "district": "矿区"
        }
    },
    {
        "id": "7601827248171823812",
        "title": "公共厕所",
        "address": "山西省阳泉市平定县文兴路与评梅街交叉口正北方向87米左右",
        "tel": "",
        "category": "基础设施:公共设施:公共厕所",
        "type": 0,
        "location": {
            "lat": 37.80794,
            "lng": 113.617613
        },
        "ad_info": {
            "adcode": 140321,
            "province": "山西省",
            "city": "阳泉市",
            "district": "平定县"
        }
    },
    {
        "id": "9427104339881799336",
        "title": "女卫生间",
        "address": "山西省阳泉市矿区平坦立交桥与桃北中街交叉口东北方向121米左右",
        "tel": "",
        "category": "基础设施:公共设施:公共厕所",
        "type": 0,
        "location": {
            "lat": 37.870526,
            "lng": 113.552195
        },
        "ad_info": {
            "adcode": 140303,
            "province": "山西省",
            "city": "阳泉市",
            "district": "矿区"
        }
    },
    {
        "id": "2337720356149850450",
        "title": "公共厕所",
        "address": "山西省阳泉市郊区桃林中路桃林沟喜来居小区",
        "tel": "",
        "category": "基础设施:公共设施:公共厕所",
        "type": 0,
        "location": {
            "lat": 37.893352,
            "lng": 113.56372
        },
        "ad_info": {
            "adcode": 140311,
            "province": "山西省",
            "city": "阳泉市",
            "district": "郊区"
        }
    },
    {
        "id": "1035649810497933667",
        "title": "无障碍公共厕所",
        "address": "山西省阳泉市平定县益智·观澜豪庭2期西侧320米",
        "tel": "",
        "category": "基础设施:公共设施:公共厕所",
        "type": 0,
        "location": {
            "lat": 37.783619,
            "lng": 113.645513
        },
        "ad_info": {
            "adcode": 140321,
            "province": "山西省",
            "city": "阳泉市",
            "district": "平定县"
        }
    },
    {
        "id": "7106258503146184328",
        "title": "公共厕所",
        "address": "山西省阳泉市郊区天津街与宁波路交叉口正东方向167米左右",
        "tel": "",
        "category": "基础设施:公共设施:公共厕所",
        "type": 0,
        "location": {
            "lat": 37.869401,
            "lng": 113.5975
        },
        "ad_info": {
            "adcode": 140311,
            "province": "山西省",
            "city": "阳泉市",
            "district": "郊区"
        }
    },
    {
        "id": "17761951618409700657",
        "title": "公共厕所",
        "address": "山西省阳泉市矿区段北街一巷与段北街三巷交叉口正西方向279米左右",
        "tel": "",
        "category": "基础设施:公共设施:公共厕所",
        "type": 0,
        "location": {
            "lat": 37.885858,
            "lng": 113.543698
        },
        "ad_info": {
            "adcode": 140303,
            "province": "山西省",
            "city": "阳泉市",
            "district": "矿区"
        }
    },
    {
        "id": "16184522768228802360",
        "title": "公共厕所",
        "address": "山西省阳泉市郊区体育西路与南大街交叉口正西方向176米左右",
        "tel": "",
        "category": "基础设施:公共设施:公共厕所",
        "type": 0,
        "location": {
            "lat": 37.84488,
            "lng": 113.603348
        },
        "ad_info": {
            "adcode": 140311,
            "province": "山西省",
            "city": "阳泉市",
            "district": "郊区"
        }
    },
    {
        "id": "8061069841384531388",
        "title": "公共厕所",
        "address": "山西省阳泉市矿区中石岩小区西北侧180米",
        "tel": "",
        "category": "基础设施:公共设施:公共厕所",
        "type": 0,
        "location": {
            "lat": 37.890449,
            "lng": 113.548109
        },
        "ad_info": {
            "adcode": 140303,
            "province": "山西省",
            "city": "阳泉市",
            "district": "矿区"
        }
    },
    {
        "id": "10961255640185945267",
        "title": "公共厕所",
        "address": "山西省阳泉市城区兴隆路与桃南东街交叉口正北方向268米左右",
        "tel": "",
        "category": "基础设施:公共设施:公共厕所",
        "type": 0,
        "location": {
            "lat": 37.86482,
            "lng": 113.587378
        },
        "ad_info": {
            "adcode": 140302,
            "province": "山西省",
            "city": "阳泉市",
            "district": "城区"
        }
    },
    {
        "id": "15012804029274635568",
        "title": "公共厕所",
        "address": "山西省阳泉市城区华盛南路与德胜东街交叉口西南方向36米左右",
        "tel": "",
        "category": "基础设施:公共设施:公共厕所",
        "type": 0,
        "location": {
            "lat": 37.858212,
            "lng": 113.584504
        },
        "ad_info": {
            "adcode": 140302,
            "province": "山西省",
            "city": "阳泉市",
            "district": "城区"
        }
    },
    {
        "id": "13985145907303629852",
        "title": "公共厕所",
        "address": "山西省阳泉市盂县卫军维修东侧190米",
        "tel": "",
        "category": "基础设施:公共设施:公共厕所",
        "type": 0,
        "location": {
            "lat": 38.108133,
            "lng": 113.095961
        },
        "ad_info": {
            "adcode": 140322,
            "province": "山西省",
            "city": "阳泉市",
            "district": "盂县"
        }
    },
    {
        "id": "5182034906078944135",
        "title": "公共卫生间",
        "address": "山西省阳泉市平定县东大街与八腊庙巷交叉口西南方向131米左右",
        "tel": "",
        "category": "基础设施:公共设施:公共厕所",
        "type": 0,
        "location": {
            "lat": 37.793881,
            "lng": 113.635605
        },
        "ad_info": {
            "adcode": 140321,
            "province": "山西省",
            "city": "阳泉市",
            "district": "平定县"
        }
    },
    {
        "id": "8942563005606125424",
        "title": "公共厕所",
        "address": "山西省阳泉市城区南庄路与龙潭街交叉口西北方向42米左右",
        "tel": "",
        "category": "基础设施:公共设施:公共厕所",
        "type": 0,
        "location": {
            "lat": 37.8466,
            "lng": 113.589252
        },
        "ad_info": {
            "adcode": 140302,
            "province": "山西省",
            "city": "阳泉市",
            "district": "城区"
        }
    },
    {
        "id": "13131149008924804818",
        "title": "公共厕所",
        "address": "山西省阳泉市平定县平阳路(聚鑫苑)",
        "tel": "",
        "category": "基础设施:公共设施:公共厕所",
        "type": 0,
        "location": {
            "lat": 37.786723,
            "lng": 113.649715
        },
        "ad_info": {
            "adcode": 140321,
            "province": "山西省",
            "city": "阳泉市",
            "district": "平定县"
        }
    },
    {
        "id": "6694764206551219544",
        "title": "盂县北服务区公共厕所",
        "address": "山西省阳泉市盂县天黎高速公路",
        "tel": "",
        "category": "基础设施:公共设施:公共厕所",
        "type": 0,
        "location": {
            "lat": 38.343469,
            "lng": 113.34834
        },
        "ad_info": {
            "adcode": 140322,
            "province": "山西省",
            "city": "阳泉市",
            "district": "盂县"
        }
    },
    {
        "id": "10119944602684528109",
        "title": "公共厕所",
        "address": "山西省阳泉市盂县S314与西沟桥交叉口正西方向1693米左右",
        "tel": "",
        "category": "基础设施:公共设施:公共厕所",
        "type": 0,
        "location": {
            "lat": 38.117624,
            "lng": 113.176974
        },
        "ad_info": {
            "adcode": 140322,
            "province": "山西省",
            "city": "阳泉市",
            "district": "盂县"
        }
    },
    {
        "id": "11988907741279451639",
        "title": "公共厕所",
        "address": "山西省阳泉市平定县南关街与南大街交叉口正西方向223米左右",
        "tel": "",
        "category": "基础设施:公共设施:公共厕所",
        "type": 0,
        "location": {
            "lat": 37.799,
            "lng": 113.623142
        },
        "ad_info": {
            "adcode": 140321,
            "province": "山西省",
            "city": "阳泉市",
            "district": "平定县"
        }
    },
    {
        "id": "715980223943301896",
        "title": "公共厕所",
        "address": "山西省阳泉市平定县城里街与金泰商贸步行街交叉口正北方向38米左右",
        "tel": "",
        "category": "基础设施:公共设施:公共厕所",
        "type": 0,
        "location": {
            "lat": 37.802331,
            "lng": 113.630597
        },
        "ad_info": {
            "adcode": 140321,
            "province": "山西省",
            "city": "阳泉市",
            "district": "平定县"
        }
    },
    {
        "id": "1966483294367452292",
        "title": "公共厕所",
        "address": "山西省阳泉市平定县宁南线与宁艾桥交叉口东南方向619米左右",
        "tel": "",
        "category": "基础设施:公共设施:公共厕所",
        "type": 0,
        "location": {
            "lat": 37.695199,
            "lng": 113.679023
        },
        "ad_info": {
            "adcode": 140321,
            "province": "山西省",
            "city": "阳泉市",
            "district": "平定县"
        }
    },
    {
        "id": "9865967128602080717",
        "title": "公共厕所",
        "address": "山西省阳泉市矿区林青沟巷与沙沟路交叉口东北方向97米左右",
        "tel": "",
        "category": "基础设施:公共设施:公共厕所",
        "type": 0,
        "location": {
            "lat": 37.903896,
            "lng": 113.51722
        },
        "ad_info": {
            "adcode": 140303,
            "province": "山西省",
            "city": "阳泉市",
            "district": "矿区"
        }
    },
    {
        "id": "7601827248171823812",
        "title": "公共厕所",
        "address": "山西省阳泉市平定县文兴路与评梅街交叉口正北方向87米左右",
        "tel": "",
        "category": "基础设施:公共设施:公共厕所",
        "type": 0,
        "location": {
            "lat": 37.80794,
            "lng": 113.617613
        },
        "ad_info": {
            "adcode": 140321,
            "province": "山西省",
            "city": "阳泉市",
            "district": "平定县"
        }
    },
    {
        "id": "9427104339881799336",
        "title": "女卫生间",
        "address": "山西省阳泉市矿区平坦立交桥与桃北中街交叉口东北方向121米左右",
        "tel": "",
        "category": "基础设施:公共设施:公共厕所",
        "type": 0,
        "location": {
            "lat": 37.870526,
            "lng": 113.552195
        },
        "ad_info": {
            "adcode": 140303,
            "province": "山西省",
            "city": "阳泉市",
            "district": "矿区"
        }
    },
    {
        "id": "2337720356149850450",
        "title": "公共厕所",
        "address": "山西省阳泉市郊区桃林中路桃林沟喜来居小区",
        "tel": "",
        "category": "基础设施:公共设施:公共厕所",
        "type": 0,
        "location": {
            "lat": 37.893352,
            "lng": 113.56372
        },
        "ad_info": {
            "adcode": 140311,
            "province": "山西省",
            "city": "阳泉市",
            "district": "郊区"
        }
    },
    {
        "id": "1035649810497933667",
        "title": "无障碍公共厕所",
        "address": "山西省阳泉市平定县益智·观澜豪庭2期西侧320米",
        "tel": "",
        "category": "基础设施:公共设施:公共厕所",
        "type": 0,
        "location": {
            "lat": 37.783619,
            "lng": 113.645513
        },
        "ad_info": {
            "adcode": 140321,
            "province": "山西省",
            "city": "阳泉市",
            "district": "平定县"
        }
    },
    {
        "id": "7106258503146184328",
        "title": "公共厕所",
        "address": "山西省阳泉市郊区天津街与宁波路交叉口正东方向167米左右",
        "tel": "",
        "category": "基础设施:公共设施:公共厕所",
        "type": 0,
        "location": {
            "lat": 37.869401,
            "lng": 113.5975
        },
        "ad_info": {
            "adcode": 140311,
            "province": "山西省",
            "city": "阳泉市",
            "district": "郊区"
        }
    },
    {
        "id": "17761951618409700657",
        "title": "公共厕所",
        "address": "山西省阳泉市矿区段北街一巷与段北街三巷交叉口正西方向279米左右",
        "tel": "",
        "category": "基础设施:公共设施:公共厕所",
        "type": 0,
        "location": {
            "lat": 37.885858,
            "lng": 113.543698
        },
        "ad_info": {
            "adcode": 140303,
            "province": "山西省",
            "city": "阳泉市",
            "district": "矿区"
        }
    },
    {
        "id": "16184522768228802360",
        "title": "公共厕所",
        "address": "山西省阳泉市郊区体育西路与南大街交叉口正西方向176米左右",
        "tel": "",
        "category": "基础设施:公共设施:公共厕所",
        "type": 0,
        "location": {
            "lat": 37.84488,
            "lng": 113.603348
        },
        "ad_info": {
            "adcode": 140311,
            "province": "山西省",
            "city": "阳泉市",
            "district": "郊区"
        }
    },
    {
        "id": "8061069841384531388",
        "title": "公共厕所",
        "address": "山西省阳泉市矿区中石岩小区西北侧180米",
        "tel": "",
        "category": "基础设施:公共设施:公共厕所",
        "type": 0,
        "location": {
            "lat": 37.890449,
            "lng": 113.548109
        },
        "ad_info": {
            "adcode": 140303,
            "province": "山西省",
            "city": "阳泉市",
            "district": "矿区"
        }
    },
    {
        "id": "10961255640185945267",
        "title": "公共厕所",
        "address": "山西省阳泉市城区兴隆路与桃南东街交叉口正北方向268米左右",
        "tel": "",
        "category": "基础设施:公共设施:公共厕所",
        "type": 0,
        "location": {
            "lat": 37.86482,
            "lng": 113.587378
        },
        "ad_info": {
            "adcode": 140302,
            "province": "山西省",
            "city": "阳泉市",
            "district": "城区"
        }
    },
    {
        "id": "15012804029274635568",
        "title": "公共厕所",
        "address": "山西省阳泉市城区华盛南路与德胜东街交叉口西南方向36米左右",
        "tel": "",
        "category": "基础设施:公共设施:公共厕所",
        "type": 0,
        "location": {
            "lat": 37.858212,
            "lng": 113.584504
        },
        "ad_info": {
            "adcode": 140302,
            "province": "山西省",
            "city": "阳泉市",
            "district": "城区"
        }
    },
    {
        "id": "13985145907303629852",
        "title": "公共厕所",
        "address": "山西省阳泉市盂县卫军维修东侧190米",
        "tel": "",
        "category": "基础设施:公共设施:公共厕所",
        "type": 0,
        "location": {
            "lat": 38.108133,
            "lng": 113.095961
        },
        "ad_info": {
            "adcode": 140322,
            "province": "山西省",
            "city": "阳泉市",
            "district": "盂县"
        }
    },
    {
        "id": "5182034906078944135",
        "title": "公共卫生间",
        "address": "山西省阳泉市平定县东大街与八腊庙巷交叉口西南方向131米左右",
        "tel": "",
        "category": "基础设施:公共设施:公共厕所",
        "type": 0,
        "location": {
            "lat": 37.793881,
            "lng": 113.635605
        },
        "ad_info": {
            "adcode": 140321,
            "province": "山西省",
            "city": "阳泉市",
            "district": "平定县"
        }
    },
    {
        "id": "8942563005606125424",
        "title": "公共厕所",
        "address": "山西省阳泉市城区南庄路与龙潭街交叉口西北方向42米左右",
        "tel": "",
        "category": "基础设施:公共设施:公共厕所",
        "type": 0,
        "location": {
            "lat": 37.8466,
            "lng": 113.589252
        },
        "ad_info": {
            "adcode": 140302,
            "province": "山西省",
            "city": "阳泉市",
            "district": "城区"
        }
    },
    {
        "id": "13131149008924804818",
        "title": "公共厕所",
        "address": "山西省阳泉市平定县平阳路(聚鑫苑)",
        "tel": "",
        "category": "基础设施:公共设施:公共厕所",
        "type": 0,
        "location": {
            "lat": 37.786723,
            "lng": 113.649715
        },
        "ad_info": {
            "adcode": 140321,
            "province": "山西省",
            "city": "阳泉市",
            "district": "平定县"
        }
    },
    {
        "id": "6694764206551219544",
        "title": "盂县北服务区公共厕所",
        "address": "山西省阳泉市盂县天黎高速公路",
        "tel": "",
        "category": "基础设施:公共设施:公共厕所",
        "type": 0,
        "location": {
            "lat": 38.343469,
            "lng": 113.34834
        },
        "ad_info": {
            "adcode": 140322,
            "province": "山西省",
            "city": "阳泉市",
            "district": "盂县"
        }
    },
    {
        "id": "10119944602684528109",
        "title": "公共厕所",
        "address": "山西省阳泉市盂县S314与西沟桥交叉口正西方向1693米左右",
        "tel": "",
        "category": "基础设施:公共设施:公共厕所",
        "type": 0,
        "location": {
            "lat": 38.117624,
            "lng": 113.176974
        },
        "ad_info": {
            "adcode": 140322,
            "province": "山西省",
            "city": "阳泉市",
            "district": "盂县"
        }
    },
    {
        "id": "11988907741279451639",
        "title": "公共厕所",
        "address": "山西省阳泉市平定县南关街与南大街交叉口正西方向223米左右",
        "tel": "",
        "category": "基础设施:公共设施:公共厕所",
        "type": 0,
        "location": {
            "lat": 37.799,
            "lng": 113.623142
        },
        "ad_info": {
            "adcode": 140321,
            "province": "山西省",
            "city": "阳泉市",
            "district": "平定县"
        }
    },
    {
        "id": "715980223943301896",
        "title": "公共厕所",
        "address": "山西省阳泉市平定县城里街与金泰商贸步行街交叉口正北方向38米左右",
        "tel": "",
        "category": "基础设施:公共设施:公共厕所",
        "type": 0,
        "location": {
            "lat": 37.802331,
            "lng": 113.630597
        },
        "ad_info": {
            "adcode": 140321,
            "province": "山西省",
            "city": "阳泉市",
            "district": "平定县"
        }
    },
    {
        "id": "1966483294367452292",
        "title": "公共厕所",
        "address": "山西省阳泉市平定县宁南线与宁艾桥交叉口东南方向619米左右",
        "tel": "",
        "category": "基础设施:公共设施:公共厕所",
        "type": 0,
        "location": {
            "lat": 37.695199,
            "lng": 113.679023
        },
        "ad_info": {
            "adcode": 140321,
            "province": "山西省",
            "city": "阳泉市",
            "district": "平定县"
        }
    },
    {
        "id": "9865967128602080717",
        "title": "公共厕所",
        "address": "山西省阳泉市矿区林青沟巷与沙沟路交叉口东北方向97米左右",
        "tel": "",
        "category": "基础设施:公共设施:公共厕所",
        "type": 0,
        "location": {
            "lat": 37.903896,
            "lng": 113.51722
        },
        "ad_info": {
            "adcode": 140303,
            "province": "山西省",
            "city": "阳泉市",
            "district": "矿区"
        }
    },
    {
        "id": "7601827248171823812",
        "title": "公共厕所",
        "address": "山西省阳泉市平定县文兴路与评梅街交叉口正北方向87米左右",
        "tel": "",
        "category": "基础设施:公共设施:公共厕所",
        "type": 0,
        "location": {
            "lat": 37.80794,
            "lng": 113.617613
        },
        "ad_info": {
            "adcode": 140321,
            "province": "山西省",
            "city": "阳泉市",
            "district": "平定县"
        }
    },
    {
        "id": "9427104339881799336",
        "title": "女卫生间",
        "address": "山西省阳泉市矿区平坦立交桥与桃北中街交叉口东北方向121米左右",
        "tel": "",
        "category": "基础设施:公共设施:公共厕所",
        "type": 0,
        "location": {
            "lat": 37.870526,
            "lng": 113.552195
        },
        "ad_info": {
            "adcode": 140303,
            "province": "山西省",
            "city": "阳泉市",
            "district": "矿区"
        }
    },
    {
        "id": "2337720356149850450",
        "title": "公共厕所",
        "address": "山西省阳泉市郊区桃林中路桃林沟喜来居小区",
        "tel": "",
        "category": "基础设施:公共设施:公共厕所",
        "type": 0,
        "location": {
            "lat": 37.893352,
            "lng": 113.56372
        },
        "ad_info": {
            "adcode": 140311,
            "province": "山西省",
            "city": "阳泉市",
            "district": "郊区"
        }
    },
    {
        "id": "1035649810497933667",
        "title": "无障碍公共厕所",
        "address": "山西省阳泉市平定县益智·观澜豪庭2期西侧320米",
        "tel": "",
        "category": "基础设施:公共设施:公共厕所",
        "type": 0,
        "location": {
            "lat": 37.783619,
            "lng": 113.645513
        },
        "ad_info": {
            "adcode": 140321,
            "province": "山西省",
            "city": "阳泉市",
            "district": "平定县"
        }
    },
    {
        "id": "7106258503146184328",
        "title": "公共厕所",
        "address": "山西省阳泉市郊区天津街与宁波路交叉口正东方向167米左右",
        "tel": "",
        "category": "基础设施:公共设施:公共厕所",
        "type": 0,
        "location": {
            "lat": 37.869401,
            "lng": 113.5975
        },
        "ad_info": {
            "adcode": 140311,
            "province": "山西省",
            "city": "阳泉市",
            "district": "郊区"
        }
    },
    {
        "id": "17761951618409700657",
        "title": "公共厕所",
        "address": "山西省阳泉市矿区段北街一巷与段北街三巷交叉口正西方向279米左右",
        "tel": "",
        "category": "基础设施:公共设施:公共厕所",
        "type": 0,
        "location": {
            "lat": 37.885858,
            "lng": 113.543698
        },
        "ad_info": {
            "adcode": 140303,
            "province": "山西省",
            "city": "阳泉市",
            "district": "矿区"
        }
    },
    {
        "id": "16184522768228802360",
        "title": "公共厕所",
        "address": "山西省阳泉市郊区体育西路与南大街交叉口正西方向176米左右",
        "tel": "",
        "category": "基础设施:公共设施:公共厕所",
        "type": 0,
        "location": {
            "lat": 37.84488,
            "lng": 113.603348
        },
        "ad_info": {
            "adcode": 140311,
            "province": "山西省",
            "city": "阳泉市",
            "district": "郊区"
        }
    },
    {
        "id": "8061069841384531388",
        "title": "公共厕所",
        "address": "山西省阳泉市矿区中石岩小区西北侧180米",
        "tel": "",
        "category": "基础设施:公共设施:公共厕所",
        "type": 0,
        "location": {
            "lat": 37.890449,
            "lng": 113.548109
        },
        "ad_info": {
            "adcode": 140303,
            "province": "山西省",
            "city": "阳泉市",
            "district": "矿区"
        }
    },
    {
        "id": "10961255640185945267",
        "title": "公共厕所",
        "address": "山西省阳泉市城区兴隆路与桃南东街交叉口正北方向268米左右",
        "tel": "",
        "category": "基础设施:公共设施:公共厕所",
        "type": 0,
        "location": {
            "lat": 37.86482,
            "lng": 113.587378
        },
        "ad_info": {
            "adcode": 140302,
            "province": "山西省",
            "city": "阳泉市",
            "district": "城区"
        }
    },
    {
        "id": "15012804029274635568",
        "title": "公共厕所",
        "address": "山西省阳泉市城区华盛南路与德胜东街交叉口西南方向36米左右",
        "tel": "",
        "category": "基础设施:公共设施:公共厕所",
        "type": 0,
        "location": {
            "lat": 37.858212,
            "lng": 113.584504
        },
        "ad_info": {
            "adcode": 140302,
            "province": "山西省",
            "city": "阳泉市",
            "district": "城区"
        }
    },
    {
        "id": "13985145907303629852",
        "title": "公共厕所",
        "address": "山西省阳泉市盂县卫军维修东侧190米",
        "tel": "",
        "category": "基础设施:公共设施:公共厕所",
        "type": 0,
        "location": {
            "lat": 38.108133,
            "lng": 113.095961
        },
        "ad_info": {
            "adcode": 140322,
            "province": "山西省",
            "city": "阳泉市",
            "district": "盂县"
        }
    },
    {
        "id": "5182034906078944135",
        "title": "公共卫生间",
        "address": "山西省阳泉市平定县东大街与八腊庙巷交叉口西南方向131米左右",
        "tel": "",
        "category": "基础设施:公共设施:公共厕所",
        "type": 0,
        "location": {
            "lat": 37.793881,
            "lng": 113.635605
        },
        "ad_info": {
            "adcode": 140321,
            "province": "山西省",
            "city": "阳泉市",
            "district": "平定县"
        }
    },
    {
        "id": "8942563005606125424",
        "title": "公共厕所",
        "address": "山西省阳泉市城区南庄路与龙潭街交叉口西北方向42米左右",
        "tel": "",
        "category": "基础设施:公共设施:公共厕所",
        "type": 0,
        "location": {
            "lat": 37.8466,
            "lng": 113.589252
        },
        "ad_info": {
            "adcode": 140302,
            "province": "山西省",
            "city": "阳泉市",
            "district": "城区"
        }
    },
    {
        "id": "13131149008924804818",
        "title": "公共厕所",
        "address": "山西省阳泉市平定县平阳路(聚鑫苑)",
        "tel": "",
        "category": "基础设施:公共设施:公共厕所",
        "type": 0,
        "location": {
            "lat": 37.786723,
            "lng": 113.649715
        },
        "ad_info": {
            "adcode": 140321,
            "province": "山西省",
            "city": "阳泉市",
            "district": "平定县"
        }
    },
    {
        "id": "6694764206551219544",
        "title": "盂县北服务区公共厕所",
        "address": "山西省阳泉市盂县天黎高速公路",
        "tel": "",
        "category": "基础设施:公共设施:公共厕所",
        "type": 0,
        "location": {
            "lat": 38.343469,
            "lng": 113.34834
        },
        "ad_info": {
            "adcode": 140322,
            "province": "山西省",
            "city": "阳泉市",
            "district": "盂县"
        }
    },
    {
        "id": "10119944602684528109",
        "title": "公共厕所",
        "address": "山西省阳泉市盂县S314与西沟桥交叉口正西方向1693米左右",
        "tel": "",
        "category": "基础设施:公共设施:公共厕所",
        "type": 0,
        "location": {
            "lat": 38.117624,
            "lng": 113.176974
        },
        "ad_info": {
            "adcode": 140322,
            "province": "山西省",
            "city": "阳泉市",
            "district": "盂县"
        }
    },
    {
        "id": "11988907741279451639",
        "title": "公共厕所",
        "address": "山西省阳泉市平定县南关街与南大街交叉口正西方向223米左右",
        "tel": "",
        "category": "基础设施:公共设施:公共厕所",
        "type": 0,
        "location": {
            "lat": 37.799,
            "lng": 113.623142
        },
        "ad_info": {
            "adcode": 140321,
            "province": "山西省",
            "city": "阳泉市",
            "district": "平定县"
        }
    },
    {
        "id": "715980223943301896",
        "title": "公共厕所",
        "address": "山西省阳泉市平定县城里街与金泰商贸步行街交叉口正北方向38米左右",
        "tel": "",
        "category": "基础设施:公共设施:公共厕所",
        "type": 0,
        "location": {
            "lat": 37.802331,
            "lng": 113.630597
        },
        "ad_info": {
            "adcode": 140321,
            "province": "山西省",
            "city": "阳泉市",
            "district": "平定县"
        }
    },
    {
        "id": "1966483294367452292",
        "title": "公共厕所",
        "address": "山西省阳泉市平定县宁南线与宁艾桥交叉口东南方向619米左右",
        "tel": "",
        "category": "基础设施:公共设施:公共厕所",
        "type": 0,
        "location": {
            "lat": 37.695199,
            "lng": 113.679023
        },
        "ad_info": {
            "adcode": 140321,
            "province": "山西省",
            "city": "阳泉市",
            "district": "平定县"
        }
    }
]