[
    {
        "id": "11924980340984784966",
        "title": "公共厕所",
        "address": "广东省阳江市阳春市阳春大道164号",
        "tel": "",
        "category": "基础设施:公共设施:公共厕所",
        "type": 0,
        "location": {
            "lat": 22.178285,
            "lng": 111.812319
        },
        "ad_info": {
            "adcode": 441781,
            "province": "广东省",
            "city": "阳江市",
            "district": "阳春市"
        }
    },
    {
        "id": "489505565089589504",
        "title": "公共厕所",
        "address": "广东省阳江市阳春市校前路与求知路交叉口东北方向169米左右",
        "tel": "",
        "category": "基础设施:公共设施:公共厕所",
        "type": 0,
        "location": {
            "lat": 22.152911,
            "lng": 111.803349
        },
        "ad_info": {
            "adcode": 441781,
            "province": "广东省",
            "city": "阳江市",
            "district": "阳春市"
        }
    },
    {
        "id": "704236457073773908",
        "title": "公共厕所",
        "address": "广东省阳江市阳春市东湖东路213号",
        "tel": "",
        "category": "基础设施:公共设施:公共厕所",
        "type": 0,
        "location": {
            "lat": 22.15807,
            "lng": 111.804829
        },
        "ad_info": {
            "adcode": 441781,
            "province": "广东省",
            "city": "阳江市",
            "district": "阳春市"
        }
    },
    {
        "id": "17048879763482165254",
        "title": "公共厕所",
        "address": "广东省阳江市阳春市东风街与庆丰街交叉口西南方向57米左右",
        "tel": "",
        "category": "基础设施:公共设施:公共厕所",
        "type": 0,
        "location": {
            "lat": 22.308055,
            "lng": 111.873462
        },
        "ad_info": {
            "adcode": 441781,
            "province": "广东省",
            "city": "阳江市",
            "district": "阳春市"
        }
    },
    {
        "id": "15256900817877714005",
        "title": "公共厕所",
        "address": "广东省阳江市阳春市人民路与红旗路交叉口正南方向60米左右",
        "tel": "",
        "category": "基础设施:公共设施:公共厕所",
        "type": 0,
        "location": {
            "lat": 22.170786,
            "lng": 111.786478
        },
        "ad_info": {
            "adcode": 441781,
            "province": "广东省",
            "city": "阳江市",
            "district": "阳春市"
        }
    },
    {
        "id": "6765121720732049709",
        "title": "公共厕所",
        "address": "广东省阳江市阳春市春湾镇永信加油站",
        "tel": "",
        "category": "基础设施:公共设施:公共厕所",
        "type": 0,
        "location": {
            "lat": 22.46954,
            "lng": 111.963372
        },
        "ad_info": {
            "adcode": 441781,
            "province": "广东省",
            "city": "阳江市",
            "district": "阳春市"
        }
    },
    {
        "id": "399266076890453585",
        "title": "公共厕所",
        "address": "广东省阳江市阳春市G325与人民路交叉口正南方向169米左右",
        "tel": "",
        "category": "基础设施:公共设施:公共厕所",
        "type": 0,
        "location": {
            "lat": 22.120902,
            "lng": 111.69045
        },
        "ad_info": {
            "adcode": 441781,
            "province": "广东省",
            "city": "阳江市",
            "district": "阳春市"
        }
    },
    {
        "id": "17935547673999831982",
        "title": "公共厕所",
        "address": "广东省阳江市阳春市云河路与新竹路交叉口东南方向232米左右",
        "tel": "",
        "category": "基础设施:公共设施:公共厕所",
        "type": 0,
        "location": {
            "lat": 22.155633,
            "lng": 111.784827
        },
        "ad_info": {
            "adcode": 441781,
            "province": "广东省",
            "city": "阳江市",
            "district": "阳春市"
        }
    },
    {
        "id": "10247339966319115739",
        "title": "公共厕所",
        "address": "广东省阳江市阳春市人民中路与人民南路交叉口东北方向62米左右",
        "tel": "",
        "category": "基础设施:公共设施:公共厕所",
        "type": 0,
        "location": {
            "lat": 22.434978,
            "lng": 111.936995
        },
        "ad_info": {
            "adcode": 441781,
            "province": "广东省",
            "city": "阳江市",
            "district": "阳春市"
        }
    },
    {
        "id": "12535463686074964236",
        "title": "公共厕所",
        "address": "广东省阳江市江城区平湖街与环湖路交叉口西北方向91米左右",
        "tel": "",
        "category": "基础设施:公共设施:公共厕所",
        "type": 0,
        "location": {
            "lat": 21.860908,
            "lng": 111.993762
        },
        "ad_info": {
            "adcode": 441702,
            "province": "广东省",
            "city": "阳江市",
            "district": "江城区"
        }
    },
    {
        "id": "12720160386425228959",
        "title": "公共厕所",
        "address": "广东省阳江市江城区狮子二路与狮子四路交叉口东北方向73米左右",
        "tel": "",
        "category": "基础设施:公共设施:公共厕所",
        "type": 0,
        "location": {
            "lat": 21.859372,
            "lng": 111.978644
        },
        "ad_info": {
            "adcode": 441702,
            "province": "广东省",
            "city": "阳江市",
            "district": "江城区"
        }
    },
    {
        "id": "4252114820951425564",
        "title": "公共厕所",
        "address": "广东省阳江市江城区峰东路62号",
        "tel": "",
        "category": "基础设施:公共设施:公共厕所",
        "type": 0,
        "location": {
            "lat": 21.850875,
            "lng": 111.981103
        },
        "ad_info": {
            "adcode": 441702,
            "province": "广东省",
            "city": "阳江市",
            "district": "江城区"
        }
    },
    {
        "id": "7472446801424529280",
        "title": "公共厕所",
        "address": "广东省阳江市阳春市红旗路27号",
        "tel": "",
        "category": "基础设施:公共设施:公共厕所",
        "type": 0,
        "location": {
            "lat": 22.170833,
            "lng": 111.786769
        },
        "ad_info": {
            "adcode": 441781,
            "province": "广东省",
            "city": "阳江市",
            "district": "阳春市"
        }
    },
    {
        "id": "17930879224262313358",
        "title": "公共厕所",
        "address": "广东省阳江市阳春市城东大道与府前东路交叉口正南方向34米左右",
        "tel": "",
        "category": "基础设施:公共设施:公共厕所",
        "type": 0,
        "location": {
            "lat": 22.168597,
            "lng": 111.794636
        },
        "ad_info": {
            "adcode": 441781,
            "province": "广东省",
            "city": "阳江市",
            "district": "阳春市"
        }
    },
    {
        "id": "14276839527314571634",
        "title": "公共厕所",
        "address": "广东省阳江市阳春市府前路与朝南路交叉口东南方向91米左右",
        "tel": "",
        "category": "基础设施:公共设施:公共厕所",
        "type": 0,
        "location": {
            "lat": 22.169525,
            "lng": 111.791984
        },
        "ad_info": {
            "adcode": 441781,
            "province": "广东省",
            "city": "阳江市",
            "district": "阳春市"
        }
    },
    {
        "id": "3759257420312808495",
        "title": "公共厕所",
        "address": "广东省阳江市江城区北门街88号-后门",
        "tel": "",
        "category": "基础设施:公共设施:公共厕所",
        "type": 0,
        "location": {
            "lat": 21.852863,
            "lng": 111.958381
        },
        "ad_info": {
            "adcode": 441702,
            "province": "广东省",
            "city": "阳江市",
            "district": "江城区"
        }
    },
    {
        "id": "6886739615368601322",
        "title": "公共厕所",
        "address": "广东省阳江市江城区金湾路与金骏路交叉口西北方向184米左右",
        "tel": "",
        "category": "基础设施:公共设施:公共厕所",
        "type": 0,
        "location": {
            "lat": 21.881512,
            "lng": 111.974811
        },
        "ad_info": {
            "adcode": 441702,
            "province": "广东省",
            "city": "阳江市",
            "district": "江城区"
        }
    },
    {
        "id": "12458797812675424366",
        "title": "公共厕所",
        "address": "广东省阳江市阳春市G234与Y126交叉口东北方向395米左右",
        "tel": "",
        "category": "基础设施:公共设施:公共厕所",
        "type": 0,
        "location": {
            "lat": 22.322687,
            "lng": 111.89307
        },
        "ad_info": {
            "adcode": 441781,
            "province": "广东省",
            "city": "阳江市",
            "district": "阳春市"
        }
    },
    {
        "id": "13021775443687030414",
        "title": "公共厕所",
        "address": "广东省阳江市江城区东风一路与南恩路交叉口西北方向231米左右",
        "tel": "",
        "category": "基础设施:公共设施:公共厕所",
        "type": 0,
        "location": {
            "lat": 21.853608,
            "lng": 111.960767
        },
        "ad_info": {
            "adcode": 441702,
            "province": "广东省",
            "city": "阳江市",
            "district": "江城区"
        }
    },
    {
        "id": "7182685922956586605",
        "title": "公共厕所",
        "address": "广东省阳江市阳春市S539与阳春大道交叉口东南方向351米左右",
        "tel": "",
        "category": "基础设施:公共设施:公共厕所",
        "type": 0,
        "location": {
            "lat": 22.175962,
            "lng": 111.817277
        },
        "ad_info": {
            "adcode": 441781,
            "province": "广东省",
            "city": "阳江市",
            "district": "阳春市"
        }
    },
    {
        "id": "2971901547203751981",
        "title": "公共厕所",
        "address": "广东省阳江市江城区西平路君怡花园",
        "tel": "",
        "category": "基础设施:公共设施:公共厕所",
        "type": 0,
        "location": {
            "lat": 21.873594,
            "lng": 111.963222
        },
        "ad_info": {
            "adcode": 441702,
            "province": "广东省",
            "city": "阳江市",
            "district": "江城区"
        }
    },
    {
        "id": "10494827731335742627",
        "title": "公共厕所",
        "address": "广东省阳江市江城区青云路27号",
        "tel": "",
        "category": "基础设施:公共设施:公共厕所",
        "type": 0,
        "location": {
            "lat": 21.849161,
            "lng": 111.95951
        },
        "ad_info": {
            "adcode": 441702,
            "province": "广东省",
            "city": "阳江市",
            "district": "江城区"
        }
    },
    {
        "id": "14707152112580954464",
        "title": "公共厕所",
        "address": "广东省阳江市江城区新江北路与金园路交叉口东北方向226米左右",
        "tel": "",
        "category": "基础设施:公共设施:公共厕所",
        "type": 0,
        "location": {
            "lat": 21.874291,
            "lng": 111.987343
        },
        "ad_info": {
            "adcode": 441702,
            "province": "广东省",
            "city": "阳江市",
            "district": "江城区"
        }
    },
    {
        "id": "11008695362479024570",
        "title": "公共厕所",
        "address": "广东省阳江市江城区平冈镇文化广场西侧80米",
        "tel": "",
        "category": "基础设施:公共设施:公共厕所",
        "type": 0,
        "location": {
            "lat": 21.752403,
            "lng": 111.890357
        },
        "ad_info": {
            "adcode": 441702,
            "province": "广东省",
            "city": "阳江市",
            "district": "江城区"
        }
    },
    {
        "id": "7317572767071532129",
        "title": "公共厕所",
        "address": "广东省阳江市江城区金乐一路与金山路交叉口正东方向64米左右",
        "tel": "",
        "category": "基础设施:公共设施:公共厕所",
        "type": 0,
        "location": {
            "lat": 21.88312,
            "lng": 111.967448
        },
        "ad_info": {
            "adcode": 441702,
            "province": "广东省",
            "city": "阳江市",
            "district": "江城区"
        }
    },
    {
        "id": "2329807373163413040",
        "title": "公共厕所",
        "address": "广东省阳江市阳东区阳东垂钓基地东南侧240米",
        "tel": "",
        "category": "基础设施:公共设施:公共厕所",
        "type": 0,
        "location": {
            "lat": 21.887448,
            "lng": 112.046353
        },
        "ad_info": {
            "adcode": 441704,
            "province": "广东省",
            "city": "阳江市",
            "district": "阳东区"
        }
    },
    {
        "id": "5227140869985669133",
        "title": "公共厕所",
        "address": "广东省阳江市江城区东门路与东风一路交叉口正南方向86米左右",
        "tel": "",
        "category": "基础设施:公共设施:公共厕所",
        "type": 0,
        "location": {
            "lat": 21.852201,
            "lng": 111.964775
        },
        "ad_info": {
            "adcode": 441702,
            "province": "广东省",
            "city": "阳江市",
            "district": "江城区"
        }
    },
    {
        "id": "10029388856038985973",
        "title": "公共厕所",
        "address": "广东省阳江市江城区自来水公司综合大楼北侧170米",
        "tel": "",
        "category": "基础设施:公共设施:公共厕所",
        "type": 0,
        "location": {
            "lat": 21.881973,
            "lng": 111.941332
        },
        "ad_info": {
            "adcode": 441702,
            "province": "广东省",
            "city": "阳江市",
            "district": "江城区"
        }
    },
    {
        "id": "10679622832334973281",
        "title": "公共厕所",
        "address": "广东省阳江市江城区东风一路时尚广场(人民路店)",
        "tel": "",
        "category": "基础设施:公共设施:公共厕所",
        "type": 0,
        "location": {
            "lat": 21.851405,
            "lng": 111.963174
        },
        "ad_info": {
            "adcode": 441702,
            "province": "广东省",
            "city": "阳江市",
            "district": "江城区"
        }
    },
    {
        "id": "13905537460449073845",
        "title": "公共厕所",
        "address": "广东省阳江市江城区X608与裕东三路交叉口正西方向452米左右",
        "tel": "",
        "category": "基础设施:公共设施:公共厕所",
        "type": 0,
        "location": {
            "lat": 21.902536,
            "lng": 112.014331
        },
        "ad_info": {
            "adcode": 441702,
            "province": "广东省",
            "city": "阳江市",
            "district": "江城区"
        }
    },
    {
        "id": "6403131412997286385",
        "title": "公共厕所",
        "address": "广东省阳江市江城区宝湖路一巷与宝湖路交叉口东南方向210米左右",
        "tel": "",
        "category": "基础设施:公共设施:公共厕所",
        "type": 0,
        "location": {
            "lat": 21.861394,
            "lng": 111.99103
        },
        "ad_info": {
            "adcode": 441702,
            "province": "广东省",
            "city": "阳江市",
            "district": "江城区"
        }
    },
    {
        "id": "600805034661571904",
        "title": "公共厕所",
        "address": "广东省阳江市江城区阳江山庄西侧360米",
        "tel": "",
        "category": "基础设施:公共设施:公共厕所",
        "type": 0,
        "location": {
            "lat": 21.855077,
            "lng": 111.993576
        },
        "ad_info": {
            "adcode": 441702,
            "province": "广东省",
            "city": "阳江市",
            "district": "江城区"
        }
    },
    {
        "id": "4341755494345417043",
        "title": "公共厕所",
        "address": "广东省阳江市阳东区东风四路与广进路交叉口东南方向82米左右",
        "tel": "",
        "category": "基础设施:公共设施:公共厕所",
        "type": 0,
        "location": {
            "lat": 21.879736,
            "lng": 112.011725
        },
        "ad_info": {
            "adcode": 441704,
            "province": "广东省",
            "city": "阳江市",
            "district": "阳东区"
        }
    },
    {
        "id": "4669281639072286527",
        "title": "公共厕所",
        "address": "广东省阳江市阳东区G325与洪新大道交叉口西南方向117米左右",
        "tel": "",
        "category": "基础设施:公共设施:公共厕所",
        "type": 0,
        "location": {
            "lat": 21.95404,
            "lng": 112.111655
        },
        "ad_info": {
            "adcode": 441704,
            "province": "广东省",
            "city": "阳江市",
            "district": "阳东区"
        }
    },
    {
        "id": "15108941728679318698",
        "title": "公共厕所",
        "address": "广东省阳江市江城区金山路与麻津工业大道交叉口西南方向87米左右",
        "tel": "",
        "category": "基础设施:公共设施:公共厕所",
        "type": 0,
        "location": {
            "lat": 21.878027,
            "lng": 111.929828
        },
        "ad_info": {
            "adcode": 441702,
            "province": "广东省",
            "city": "阳江市",
            "district": "江城区"
        }
    },
    {
        "id": "12367480343536421563",
        "title": "公共厕所",
        "address": "广东省阳江市阳东区永安路龙山公园",
        "tel": "",
        "category": "基础设施:公共设施:公共厕所",
        "type": 0,
        "location": {
            "lat": 21.866532,
            "lng": 112.023881
        },
        "ad_info": {
            "adcode": 441704,
            "province": "广东省",
            "city": "阳江市",
            "district": "阳东区"
        }
    },
    {
        "id": "2783489235807119689",
        "title": "公共厕所",
        "address": "广东省阳江市江城区名扬街与环湖西路交叉口西南方向152米左右",
        "tel": "",
        "category": "基础设施:公共设施:公共厕所",
        "type": 0,
        "location": {
            "lat": 21.85256,
            "lng": 111.982419
        },
        "ad_info": {
            "adcode": 441702,
            "province": "广东省",
            "city": "阳江市",
            "district": "江城区"
        }
    },
    {
        "id": "7665628332598213446",
        "title": "公共厕所",
        "address": "广东省阳江市阳东区G228与滨海大道交叉口正西方向1349米左右",
        "tel": "",
        "category": "基础设施:公共设施:公共厕所",
        "type": 0,
        "location": {
            "lat": 21.749192,
            "lng": 112.214972
        },
        "ad_info": {
            "adcode": 441704,
            "province": "广东省",
            "city": "阳江市",
            "district": "阳东区"
        }
    },
    {
        "id": "12613613944175893251",
        "title": "公共厕所",
        "address": "广东省阳江市江城区新江北路与金园路交叉口东南方向118米左右",
        "tel": "",
        "category": "基础设施:公共设施:公共厕所",
        "type": 0,
        "location": {
            "lat": 21.871749,
            "lng": 111.987069
        },
        "ad_info": {
            "adcode": 441702,
            "province": "广东省",
            "city": "阳江市",
            "district": "江城区"
        }
    },
    {
        "id": "3930051379237525345",
        "title": "公共厕所",
        "address": "广东省阳江市阳东区G325与强基路交叉口东南方向121米左右",
        "tel": "",
        "category": "基础设施:公共设施:公共厕所",
        "type": 0,
        "location": {
            "lat": 21.943839,
            "lng": 112.093998
        },
        "ad_info": {
            "adcode": 441704,
            "province": "广东省",
            "city": "阳江市",
            "district": "阳东区"
        }
    },
    {
        "id": "4699828486525265980",
        "title": "公共厕所",
        "address": "广东省阳江市阳东区新华中路与龙塘路交叉口正南方向711米左右",
        "tel": "",
        "category": "基础设施:公共设施:公共厕所",
        "type": 0,
        "location": {
            "lat": 21.8494,
            "lng": 112.021364
        },
        "ad_info": {
            "adcode": 441704,
            "province": "广东省",
            "city": "阳江市",
            "district": "阳东区"
        }
    },
    {
        "id": "4616371144408315653",
        "title": "海陵岛公共厕所",
        "address": "广东省阳江市江城区宋康大道妈祖庙内",
        "tel": "",
        "category": "基础设施:公共设施:公共厕所",
        "type": 0,
        "location": {
            "lat": 21.563127,
            "lng": 111.862743
        },
        "ad_info": {
            "adcode": 441702,
            "province": "广东省",
            "city": "阳江市",
            "district": "江城区"
        }
    },
    {
        "id": "7004107808826293781",
        "title": "公共厕所",
        "address": "广东省阳江市江城区G228与X597交叉口正东方向1313米左右",
        "tel": "",
        "category": "基础设施:公共设施:公共厕所",
        "type": 0,
        "location": {
            "lat": 21.877832,
            "lng": 111.798286
        },
        "ad_info": {
            "adcode": 441702,
            "province": "广东省",
            "city": "阳江市",
            "district": "江城区"
        }
    },
    {
        "id": "11316071233559596214",
        "title": "公共厕所",
        "address": "广东省阳江市江城区渔新西路与渔新路交叉口正南方向89米左右",
        "tel": "",
        "category": "基础设施:公共设施:公共厕所",
        "type": 0,
        "location": {
            "lat": 21.845273,
            "lng": 111.952493
        },
        "ad_info": {
            "adcode": 441702,
            "province": "广东省",
            "city": "阳江市",
            "district": "江城区"
        }
    },
    {
        "id": "3798497933427456395",
        "title": "公共厕所",
        "address": "广东省阳江市江城区中濑正街与滘桥新路交叉口正北方向75米左右",
        "tel": "",
        "category": "基础设施:公共设施:公共厕所",
        "type": 0,
        "location": {
            "lat": 21.847454,
            "lng": 111.953027
        },
        "ad_info": {
            "adcode": 441702,
            "province": "广东省",
            "city": "阳江市",
            "district": "江城区"
        }
    },
    {
        "id": "14806179939638235586",
        "title": "公共厕所",
        "address": "广东省阳江市江城区华濠冲口与坝岸中社交叉口东北方向120米左右",
        "tel": "",
        "category": "基础设施:公共设施:公共厕所",
        "type": 0,
        "location": {
            "lat": 21.843924,
            "lng": 111.956469
        },
        "ad_info": {
            "adcode": 441702,
            "province": "广东省",
            "city": "阳江市",
            "district": "江城区"
        }
    },
    {
        "id": "13502608763815607965",
        "title": "公共厕所",
        "address": "广东省阳江市江城区水路铺与黄牛山五巷交叉口正东方向98米左右",
        "tel": "",
        "category": "基础设施:公共设施:公共厕所",
        "type": 0,
        "location": {
            "lat": 21.84175,
            "lng": 111.97492
        },
        "ad_info": {
            "adcode": 441702,
            "province": "广东省",
            "city": "阳江市",
            "district": "江城区"
        }
    },
    {
        "id": "16246480844142834163",
        "title": "公共厕所",
        "address": "广东省阳江市阳东区恒达路与湖滨路交叉口东北方向96米左右",
        "tel": "",
        "category": "基础设施:公共设施:公共厕所",
        "type": 0,
        "location": {
            "lat": 21.873819,
            "lng": 112.008438
        },
        "ad_info": {
            "adcode": 441704,
            "province": "广东省",
            "city": "阳江市",
            "district": "阳东区"
        }
    },
    {
        "id": "15438559359606916458",
        "title": "公共厕所",
        "address": "广东省阳江市江城区G234与G325交叉口西北方向283米左右",
        "tel": "",
        "category": "基础设施:公共设施:公共厕所",
        "type": 0,
        "location": {
            "lat": 21.887002,
            "lng": 111.87358
        },
        "ad_info": {
            "adcode": 441702,
            "province": "广东省",
            "city": "阳江市",
            "district": "江城区"
        }
    },
    {
        "id": "15537238526045959137",
        "title": "公共厕所",
        "address": "广东省阳江市阳西县水南村",
        "tel": "",
        "category": "基础设施:公共设施:公共厕所",
        "type": 0,
        "location": {
            "lat": 21.830025,
            "lng": 111.606157
        },
        "ad_info": {
            "adcode": 441721,
            "province": "广东省",
            "city": "阳江市",
            "district": "阳西县"
        }
    },
    {
        "id": "9155108656460321382",
        "title": "公共厕所",
        "address": "广东省阳江市阳东区G228与S276交叉口东北方向1236米左右",
        "tel": "",
        "category": "基础设施:公共设施:公共厕所",
        "type": 0,
        "location": {
            "lat": 21.841187,
            "lng": 112.225424
        },
        "ad_info": {
            "adcode": 441704,
            "province": "广东省",
            "city": "阳江市",
            "district": "阳东区"
        }
    },
    {
        "id": "364425921643387498",
        "title": "公共厕所",
        "address": "广东省阳江市阳春市南新大道与阳兴街交叉口正北方向109米左右",
        "tel": "",
        "category": "基础设施:公共设施:公共厕所",
        "type": 0,
        "location": {
            "lat": 22.165324,
            "lng": 111.792136
        },
        "ad_info": {
            "adcode": 441781,
            "province": "广东省",
            "city": "阳江市",
            "district": "阳春市"
        }
    },
    {
        "id": "14515395205555459011",
        "title": "大角湾公共厕所",
        "address": "广东省阳江市江城区山海四路与旅游大道交叉口正南方向125米左右",
        "tel": "",
        "category": "基础设施:公共设施:公共厕所",
        "type": 0,
        "location": {
            "lat": 21.571088,
            "lng": 111.852235
        },
        "ad_info": {
            "adcode": 441702,
            "province": "广东省",
            "city": "阳江市",
            "district": "江城区"
        }
    },
    {
        "id": "587709546576691373",
        "title": "公共厕所",
        "address": "广东省阳江市阳春市城云路与城云路东一巷交叉口西南方向80米左右",
        "tel": "",
        "category": "基础设施:公共设施:公共厕所",
        "type": 0,
        "location": {
            "lat": 22.166772,
            "lng": 111.786775
        },
        "ad_info": {
            "adcode": 441781,
            "province": "广东省",
            "city": "阳江市",
            "district": "阳春市"
        }
    },
    {
        "id": "11909756960036566500",
        "title": "公共厕所",
        "address": "广东省阳江市江城区新华路与环城南路交叉口西南方向190米左右",
        "tel": "",
        "category": "基础设施:公共设施:公共厕所",
        "type": 0,
        "location": {
            "lat": 21.846077,
            "lng": 111.958191
        },
        "ad_info": {
            "adcode": 441702,
            "province": "广东省",
            "city": "阳江市",
            "district": "江城区"
        }
    },
    {
        "id": "4201724773560392687",
        "title": "公共厕所",
        "address": "广东省阳江市阳东区G325与赤城八路交叉口正南方向379米左右",
        "tel": "",
        "category": "基础设施:公共设施:公共厕所",
        "type": 0,
        "location": {
            "lat": 21.943672,
            "lng": 112.099714
        },
        "ad_info": {
            "adcode": 441704,
            "province": "广东省",
            "city": "阳江市",
            "district": "阳东区"
        }
    },
    {
        "id": "6717684191056523513",
        "title": "公共厕所",
        "address": "广东省阳江市阳东区G325与三北大道交叉口东北方向106米左右",
        "tel": "",
        "category": "基础设施:公共设施:公共厕所",
        "type": 0,
        "location": {
            "lat": 21.933046,
            "lng": 112.078933
        },
        "ad_info": {
            "adcode": 441704,
            "province": "广东省",
            "city": "阳江市",
            "district": "阳东区"
        }
    },
    {
        "id": "296488634460175370",
        "title": "公共厕所",
        "address": "广东省阳江市阳东区596县道与S32西部沿海高速出口交叉口西100米",
        "tel": "",
        "category": "基础设施:公共设施:公共厕所",
        "type": 0,
        "location": {
            "lat": 21.827833,
            "lng": 112.221963
        },
        "ad_info": {
            "adcode": 441704,
            "province": "广东省",
            "city": "阳江市",
            "district": "阳东区"
        }
    },
    {
        "id": "15520186141728690914",
        "title": "大角湾公共厕所",
        "address": "广东省阳江市江城区海滨路与迎宾路交叉口正东方向315米左右",
        "tel": "",
        "category": "基础设施:公共设施:公共厕所",
        "type": 0,
        "location": {
            "lat": 21.568832,
            "lng": 111.844495
        },
        "ad_info": {
            "adcode": 441702,
            "province": "广东省",
            "city": "阳江市",
            "district": "江城区"
        }
    },
    {
        "id": "11264459243253790024",
        "title": "公共厕所(阳西县织篢镇谷围村鸡乸塱丰洋山庄)",
        "address": "广东省阳江市阳西县S278与新朗桥交叉口正北方向1759米左右",
        "tel": "",
        "category": "基础设施:公共设施:公共厕所",
        "type": 0,
        "location": {
            "lat": 21.753647,
            "lng": 111.706162
        },
        "ad_info": {
            "adcode": 441721,
            "province": "广东省",
            "city": "阳江市",
            "district": "阳西县"
        }
    },
    {
        "id": "15876674471933709258",
        "title": "公共厕所",
        "address": "广东省阳江市阳西县S282与碗岗大道交叉口西南方向153米左右",
        "tel": "",
        "category": "基础设施:公共设施:公共厕所",
        "type": 0,
        "location": {
            "lat": 21.514724,
            "lng": 111.472716
        },
        "ad_info": {
            "adcode": 441721,
            "province": "广东省",
            "city": "阳江市",
            "district": "阳西县"
        }
    },
    {
        "id": "13882376541996307376",
        "title": "公共厕所",
        "address": "广东省阳江市阳西县桥平一路与飞跃街交叉口东南方向49米左右",
        "tel": "",
        "category": "基础设施:公共设施:公共厕所",
        "type": 0,
        "location": {
            "lat": 21.75288,
            "lng": 111.620437
        },
        "ad_info": {
            "adcode": 441721,
            "province": "广东省",
            "city": "阳江市",
            "district": "阳西县"
        }
    },
    {
        "id": "11939837511624606743",
        "title": "公共厕所",
        "address": "广东省阳江市阳西县福兴一街与福祥五街交叉口西北方向88米左右",
        "tel": "",
        "category": "基础设施:公共设施:公共厕所",
        "type": 0,
        "location": {
            "lat": 21.751167,
            "lng": 111.616215
        },
        "ad_info": {
            "adcode": 441721,
            "province": "广东省",
            "city": "阳江市",
            "district": "阳西县"
        }
    },
    {
        "id": "2664502973221742001",
        "title": "公共厕所",
        "address": "广东省阳江市阳春市前进路与胜利街交叉口西南方向58米左右",
        "tel": "",
        "category": "基础设施:公共设施:公共厕所",
        "type": 0,
        "location": {
            "lat": 22.173147,
            "lng": 111.787947
        },
        "ad_info": {
            "adcode": 441781,
            "province": "广东省",
            "city": "阳江市",
            "district": "阳春市"
        }
    },
    {
        "id": "15079715785559805318",
        "title": "卫生间",
        "address": "广东省阳江市阳东区合广路与新城路交叉口正东方向69米左右",
        "tel": "",
        "category": "基础设施:公共设施:公共厕所",
        "type": 0,
        "location": {
            "lat": 21.958595,
            "lng": 112.12153
        },
        "ad_info": {
            "adcode": 441704,
            "province": "广东省",
            "city": "阳江市",
            "district": "阳东区"
        }
    },
    {
        "id": "16738290133133064594",
        "title": "卫生间",
        "address": "广东省阳江市江城区东风三路88号阳江盈信广场F4",
        "tel": "",
        "category": "基础设施:公共设施:公共厕所",
        "type": 0,
        "location": {
            "lat": 21.862833,
            "lng": 111.994949
        },
        "ad_info": {
            "adcode": 441702,
            "province": "广东省",
            "city": "阳江市",
            "district": "江城区"
        }
    },
    {
        "id": "11705498392778672140",
        "title": "八甲停车区公共厕所",
        "address": "广东省阳江市阳春市八甲停车区与S14汕湛高速交叉口西南320米",
        "tel": "",
        "category": "基础设施:公共设施:公共厕所",
        "type": 0,
        "location": {
            "lat": 22.010475,
            "lng": 111.466032
        },
        "ad_info": {
            "adcode": 441781,
            "province": "广东省",
            "city": "阳江市",
            "district": "阳春市"
        }
    },
    {
        "id": "7660540836938136698",
        "title": "公共厕所",
        "address": "广东省阳江市江城区雪流小学南侧260米",
        "tel": "",
        "category": "基础设施:公共设施:公共厕所",
        "type": 0,
        "location": {
            "lat": 21.621495,
            "lng": 111.946154
        },
        "ad_info": {
            "adcode": 441702,
            "province": "广东省",
            "city": "阳江市",
            "district": "江城区"
        }
    },
    {
        "id": "17075312532310523199",
        "title": "公共厕所",
        "address": "广东省阳江市阳春市G234与Y126交叉口东北方向437米左右",
        "tel": "",
        "category": "基础设施:公共设施:公共厕所",
        "type": 0,
        "location": {
            "lat": 22.322837,
            "lng": 111.893443
        },
        "ad_info": {
            "adcode": 441781,
            "province": "广东省",
            "city": "阳江市",
            "district": "阳春市"
        }
    },
    {
        "id": "1014969391638477911",
        "title": "公共厕所(鸡乸 驿站)",
        "address": "广东省阳江市阳西县S278与新朗桥交叉口正北方向1855米左右",
        "tel": "",
        "category": "基础设施:公共设施:公共厕所",
        "type": 0,
        "location": {
            "lat": 21.755009,
            "lng": 111.704356
        },
        "ad_info": {
            "adcode": 441721,
            "province": "广东省",
            "city": "阳江市",
            "district": "阳西县"
        }
    },
    {
        "id": "14171420446531654097",
        "title": "公共厕所",
        "address": "广东省阳江市江城区东风路与闸坡旅游文化街交叉口正西方向173米左右",
        "tel": "",
        "category": "基础设施:公共设施:公共厕所",
        "type": 0,
        "location": {
            "lat": 21.570363,
            "lng": 111.837937
        },
        "ad_info": {
            "adcode": 441702,
            "province": "广东省",
            "city": "阳江市",
            "district": "江城区"
        }
    },
    {
        "id": "2029099413131361917",
        "title": "公共厕所",
        "address": "广东省阳江市阳西县中国科学院北京国家技术转移中心沉香产业孵化基地东侧90米",
        "tel": "",
        "category": "基础设施:公共设施:公共厕所",
        "type": 0,
        "location": {
            "lat": 21.823793,
            "lng": 111.667756
        },
        "ad_info": {
            "adcode": 441721,
            "province": "广东省",
            "city": "阳江市",
            "district": "阳西县"
        }
    },
    {
        "id": "3351418782376822295",
        "title": "公共厕所",
        "address": "广东省阳江市阳西县G228与人民东路交叉口东北方向349米左右",
        "tel": "",
        "category": "基础设施:公共设施:公共厕所",
        "type": 0,
        "location": {
            "lat": 21.612082,
            "lng": 111.447435
        },
        "ad_info": {
            "adcode": 441721,
            "province": "广东省",
            "city": "阳江市",
            "district": "阳西县"
        }
    },
    {
        "id": "5616370082055004381",
        "title": "公共厕所",
        "address": "广东省阳江市阳西县广湛公路与桥平一路交叉口东南方向77米左右",
        "tel": "",
        "category": "基础设施:公共设施:公共厕所",
        "type": 0,
        "location": {
            "lat": 21.765943,
            "lng": 111.62342
        },
        "ad_info": {
            "adcode": 441721,
            "province": "广东省",
            "city": "阳江市",
            "district": "阳西县"
        }
    },
    {
        "id": "15114696310014914605",
        "title": "卫生间",
        "address": "广东省阳江市江城区东风三路88号阳江盈信广场F3",
        "tel": "",
        "category": "基础设施:公共设施:公共厕所",
        "type": 0,
        "location": {
            "lat": 21.862979,
            "lng": 111.995049
        },
        "ad_info": {
            "adcode": 441702,
            "province": "广东省",
            "city": "阳江市",
            "district": "江城区"
        }
    },
    {
        "id": "4547177279394410596",
        "title": "公共厕所",
        "address": "广东省阳江市阳西县桥平一路与育才路交叉口东北方向432米左右",
        "tel": "",
        "category": "基础设施:公共设施:公共厕所",
        "type": 0,
        "location": {
            "lat": 21.773103,
            "lng": 111.624793
        },
        "ad_info": {
            "adcode": 441721,
            "province": "广东省",
            "city": "阳江市",
            "district": "阳西县"
        }
    },
    {
        "id": "176634757136544710",
        "title": "无障碍公共厕所",
        "address": "广东省阳江市江城区樱花网上商城西北侧",
        "tel": "",
        "category": "基础设施:公共设施:公共厕所",
        "type": 0,
        "location": {
            "lat": 21.846692,
            "lng": 111.965421
        },
        "ad_info": {
            "adcode": 441702,
            "province": "广东省",
            "city": "阳江市",
            "district": "江城区"
        }
    },
    {
        "id": "9050117039784819601",
        "title": "公共厕所",
        "address": "广东省阳江市江城区苏石坑一街市保险公司公交站东北",
        "tel": "",
        "category": "基础设施:公共设施:公共厕所",
        "type": 0,
        "location": {
            "lat": 21.861579,
            "lng": 111.969192
        },
        "ad_info": {
            "adcode": 441702,
            "province": "广东省",
            "city": "阳江市",
            "district": "江城区"
        }
    },
    {
        "id": "16102714250144253747",
        "title": "潭水服务区公共厕所",
        "address": "广东省阳江市阳春市S14汕湛高速与潭水服务区交叉口西南380米",
        "tel": "",
        "category": "基础设施:公共设施:公共厕所",
        "type": 0,
        "location": {
            "lat": 22.116479,
            "lng": 111.610219
        },
        "ad_info": {
            "adcode": 441781,
            "province": "广东省",
            "city": "阳江市",
            "district": "阳春市"
        }
    },
    {
        "id": "8611160075651849006",
        "title": "公共厕所",
        "address": "广东省阳江市江城区工业大道与江台路交叉口正西方向45米左右",
        "tel": "",
        "category": "基础设施:公共设施:公共厕所",
        "type": 0,
        "location": {
            "lat": 21.842064,
            "lng": 111.978028
        },
        "ad_info": {
            "adcode": 441702,
            "province": "广东省",
            "city": "阳江市",
            "district": "江城区"
        }
    },
    {
        "id": "3376723428238088202",
        "title": "阳春服务区公共厕所",
        "address": "广东省阳江市阳春市阳春服务区与S14汕湛高速交叉口南400米",
        "tel": "",
        "category": "基础设施:公共设施:公共厕所",
        "type": 0,
        "location": {
            "lat": 22.391189,
            "lng": 111.854778
        },
        "ad_info": {
            "adcode": 441781,
            "province": "广东省",
            "city": "阳江市",
            "district": "阳春市"
        }
    },
    {
        "id": "7888941537697965298",
        "title": "公共厕所",
        "address": "广东省阳江市江城区银湾路银湾肉菜市场",
        "tel": "",
        "category": "基础设施:公共设施:公共厕所",
        "type": 0,
        "location": {
            "lat": 21.873923,
            "lng": 111.96823
        },
        "ad_info": {
            "adcode": 441702,
            "province": "广东省",
            "city": "阳江市",
            "district": "江城区"
        }
    },
    {
        "id": "5920940706879461673",
        "title": "卫生间",
        "address": "广东省阳江市江城区东风三路88号阳江盈信广场F3",
        "tel": "",
        "category": "基础设施:公共设施:公共厕所",
        "type": 0,
        "location": {
            "lat": 21.863312,
            "lng": 111.995469
        },
        "ad_info": {
            "adcode": 441702,
            "province": "广东省",
            "city": "阳江市",
            "district": "江城区"
        }
    },
    {
        "id": "11898766982732839089",
        "title": "卫生间",
        "address": "广东省阳江市江城区东风三路88号阳江盈信广场F1",
        "tel": "",
        "category": "基础设施:公共设施:公共厕所",
        "type": 0,
        "location": {
            "lat": 21.863383,
            "lng": 111.995423
        },
        "ad_info": {
            "adcode": 441702,
            "province": "广东省",
            "city": "阳江市",
            "district": "江城区"
        }
    },
    {
        "id": "384981285009852296",
        "title": "卫生间",
        "address": "广东省阳江市江城区东风三路88号阳江盈信广场F2",
        "tel": "",
        "category": "基础设施:公共设施:公共厕所",
        "type": 0,
        "location": {
            "lat": 21.862906,
            "lng": 111.995
        },
        "ad_info": {
            "adcode": 441702,
            "province": "广东省",
            "city": "阳江市",
            "district": "江城区"
        }
    },
    {
        "id": "5019054240514770886",
        "title": "公共厕所",
        "address": "广东省阳江市江城区岗背中一路与岗背大路交叉口正南方向19米左右",
        "tel": "",
        "category": "基础设施:公共设施:公共厕所",
        "type": 0,
        "location": {
            "lat": 21.837572,
            "lng": 111.971191
        },
        "ad_info": {
            "adcode": 441702,
            "province": "广东省",
            "city": "阳江市",
            "district": "江城区"
        }
    },
    {
        "id": "1626037141783834806",
        "title": "公共厕所",
        "address": "广东省阳江市阳东区东风四路与广雅路交叉口东北方向131米左右",
        "tel": "",
        "category": "基础设施:公共设施:公共厕所",
        "type": 0,
        "location": {
            "lat": 21.892796,
            "lng": 112.03036
        },
        "ad_info": {
            "adcode": 441704,
            "province": "广东省",
            "city": "阳江市",
            "district": "阳东区"
        }
    },
    {
        "id": "10826395763467218832",
        "title": "男洗手间(新东门商厦)",
        "address": "广东省阳江市江城区南恩路2号新东门商厦F4层",
        "tel": "",
        "category": "基础设施:公共设施:公共厕所",
        "type": 0,
        "location": {
            "lat": 21.851341,
            "lng": 111.962313
        },
        "ad_info": {
            "adcode": 441702,
            "province": "广东省",
            "city": "阳江市",
            "district": "江城区"
        }
    },
    {
        "id": "4784338211216992988",
        "title": "洲头公共厕所",
        "address": "广东省阳江市江城区河堤北路与河堤路交叉口正南方向170米左右",
        "tel": "",
        "category": "基础设施:公共设施:公共厕所",
        "type": 0,
        "location": {
            "lat": 21.849901,
            "lng": 111.952018
        },
        "ad_info": {
            "adcode": 441702,
            "province": "广东省",
            "city": "阳江市",
            "district": "江城区"
        }
    },
    {
        "id": "10582877808496727603",
        "title": "公共厕所",
        "address": "广东省阳江市江城区华濠冲口与埠尾路交叉口东南方向20米左右",
        "tel": "",
        "category": "基础设施:公共设施:公共厕所",
        "type": 0,
        "location": {
            "lat": 21.842876,
            "lng": 111.955018
        },
        "ad_info": {
            "adcode": 441702,
            "province": "广东省",
            "city": "阳江市",
            "district": "江城区"
        }
    },
    {
        "id": "3565928525733622045",
        "title": "观光长塘公共厕所",
        "address": "广东省阳江市江城区沿江北路与长塘路交叉口正南方向115米左右",
        "tel": "",
        "category": "基础设施:公共设施:公共厕所",
        "type": 0,
        "location": {
            "lat": 21.856459,
            "lng": 111.951038
        },
        "ad_info": {
            "adcode": 441702,
            "province": "广东省",
            "city": "阳江市",
            "district": "江城区"
        }
    },
    {
        "id": "6972577858833741293",
        "title": "阳春服务区第二公共厕所",
        "address": "广东省阳江市阳春市S14汕湛高速附近",
        "tel": "",
        "category": "基础设施:公共设施:公共厕所",
        "type": 0,
        "location": {
            "lat": 22.392144,
            "lng": 111.854564
        },
        "ad_info": {
            "adcode": 441781,
            "province": "广东省",
            "city": "阳江市",
            "district": "阳春市"
        }
    },
    {
        "id": "14249805804653493570",
        "title": "公共厕所",
        "address": "广东省阳江市江城区肇阳高速与高新区互通交叉口正西方向696米左右",
        "tel": "",
        "category": "基础设施:公共设施:公共厕所",
        "type": 0,
        "location": {
            "lat": 21.761878,
            "lng": 111.860551
        },
        "ad_info": {
            "adcode": 441702,
            "province": "广东省",
            "city": "阳江市",
            "district": "江城区"
        }
    },
    {
        "id": "5240567741526407265",
        "title": "龙井公共厕所",
        "address": "广东省阳江市阳东区园山仔路与滨海大道交叉口正西方向485米左右",
        "tel": "",
        "category": "基础设施:公共设施:公共厕所",
        "type": 0,
        "location": {
            "lat": 21.73962,
            "lng": 112.223
        },
        "ad_info": {
            "adcode": 441704,
            "province": "广东省",
            "city": "阳江市",
            "district": "阳东区"
        }
    },
    {
        "id": "14892953843169010769",
        "title": "高峰村公厕",
        "address": "广东省阳江市阳东区",
        "tel": "",
        "category": "基础设施:公共设施:公共厕所",
        "type": 0,
        "location": {
            "lat": 22.058041,
            "lng": 111.867269
        },
        "ad_info": {
            "adcode": 441704,
            "province": "广东省",
            "city": "阳江市",
            "district": "阳东区"
        }
    },
    {
        "id": "2318895797493495343",
        "title": "禾石村公厕",
        "address": "广东省阳江市阳东区禾石大道",
        "tel": "",
        "category": "基础设施:公共设施:公共厕所",
        "type": 0,
        "location": {
            "lat": 22.054478,
            "lng": 111.855826
        },
        "ad_info": {
            "adcode": 441704,
            "province": "广东省",
            "city": "阳江市",
            "district": "阳东区"
        }
    },
    {
        "id": "10586405538804639667",
        "title": "大江村公厕",
        "address": "广东省阳江市阳东区X599",
        "tel": "",
        "category": "基础设施:公共设施:公共厕所",
        "type": 0,
        "location": {
            "lat": 22.022383,
            "lng": 111.920811
        },
        "ad_info": {
            "adcode": 441704,
            "province": "广东省",
            "city": "阳江市",
            "district": "阳东区"
        }
    },
    {
        "id": "13634700285902359460",
        "title": "挞石村公厕",
        "address": "广东省阳江市阳东区禾石大道",
        "tel": "",
        "category": "基础设施:公共设施:公共厕所",
        "type": 0,
        "location": {
            "lat": 22.05818,
            "lng": 111.855447
        },
        "ad_info": {
            "adcode": 441704,
            "province": "广东省",
            "city": "阳江市",
            "district": "阳东区"
        }
    },
    {
        "id": "4024682882039409340",
        "title": "乐郊村公厕",
        "address": "广东省阳江市阳东区",
        "tel": "",
        "category": "基础设施:公共设施:公共厕所",
        "type": 0,
        "location": {
            "lat": 21.97158,
            "lng": 111.944203
        },
        "ad_info": {
            "adcode": 441704,
            "province": "广东省",
            "city": "阳江市",
            "district": "阳东区"
        }
    },
    {
        "id": "8878018763172413586",
        "title": "华侨新村公共厕所",
        "address": "广东省阳江市江城区新江北路与石湾路交叉口东南方向50米左右",
        "tel": "",
        "category": "基础设施:公共设施:公共厕所",
        "type": 0,
        "location": {
            "lat": 21.871982,
            "lng": 111.971013
        },
        "ad_info": {
            "adcode": 441702,
            "province": "广东省",
            "city": "阳江市",
            "district": "江城区"
        }
    },
    {
        "id": "10846782128479194467",
        "title": "庙坑村公厕",
        "address": "广东省阳江市阳东区",
        "tel": "",
        "category": "基础设施:公共设施:公共厕所",
        "type": 0,
        "location": {
            "lat": 22.016101,
            "lng": 111.921147
        },
        "ad_info": {
            "adcode": 441704,
            "province": "广东省",
            "city": "阳江市",
            "district": "阳东区"
        }
    },
    {
        "id": "7077772294844725683",
        "title": "新陂村公厕",
        "address": "广东省阳江市阳东区",
        "tel": "",
        "category": "基础设施:公共设施:公共厕所",
        "type": 0,
        "location": {
            "lat": 21.995307,
            "lng": 111.87062
        },
        "ad_info": {
            "adcode": 441704,
            "province": "广东省",
            "city": "阳江市",
            "district": "阳东区"
        }
    },
    {
        "id": "9391648219332304932",
        "title": "荔枝垌村公厕",
        "address": "广东省阳江市阳东区S51",
        "tel": "",
        "category": "基础设施:公共设施:公共厕所",
        "type": 0,
        "location": {
            "lat": 22.032861,
            "lng": 111.798049
        },
        "ad_info": {
            "adcode": 441704,
            "province": "广东省",
            "city": "阳江市",
            "district": "阳东区"
        }
    },
    {
        "id": "15940095533910554245",
        "title": "屋仔村公厕",
        "address": "广东省阳江市阳东区",
        "tel": "",
        "category": "基础设施:公共设施:公共厕所",
        "type": 0,
        "location": {
            "lat": 22.034469,
            "lng": 111.930114
        },
        "ad_info": {
            "adcode": 441704,
            "province": "广东省",
            "city": "阳江市",
            "district": "阳东区"
        }
    },
    {
        "id": "12556843667918058448",
        "title": "大冲村公厕",
        "address": "广东省阳江市阳东区",
        "tel": "",
        "category": "基础设施:公共设施:公共厕所",
        "type": 0,
        "location": {
            "lat": 22.010872,
            "lng": 111.865712
        },
        "ad_info": {
            "adcode": 441704,
            "province": "广东省",
            "city": "阳江市",
            "district": "阳东区"
        }
    },
    {
        "id": "17164292502322102751",
        "title": "女洗手间(新东门商厦)",
        "address": "广东省阳江市江城区南恩路2号新东门商厦F3层",
        "tel": "",
        "category": "基础设施:公共设施:公共厕所",
        "type": 0,
        "location": {
            "lat": 21.851354,
            "lng": 111.962352
        },
        "ad_info": {
            "adcode": 441702,
            "province": "广东省",
            "city": "阳江市",
            "district": "江城区"
        }
    },
    {
        "id": "16969146789822389077",
        "title": "华联公共厕所",
        "address": "广东省阳江市江城区华美一街与华联路交叉口正东方向37米左右",
        "tel": "",
        "category": "基础设施:公共设施:公共厕所",
        "type": 0,
        "location": {
            "lat": 21.862346,
            "lng": 111.999551
        },
        "ad_info": {
            "adcode": 441702,
            "province": "广东省",
            "city": "阳江市",
            "district": "江城区"
        }
    },
    {
        "id": "3752858326191034931",
        "title": "新墟服务区公共厕所",
        "address": "广东省阳江市阳西县G15沈海高速附近",
        "tel": "",
        "category": "基础设施:公共设施:公共厕所",
        "type": 0,
        "location": {
            "lat": 21.69132,
            "lng": 111.4893
        },
        "ad_info": {
            "adcode": 441721,
            "province": "广东省",
            "city": "阳江市",
            "district": "阳西县"
        }
    },
    {
        "id": "8373911202142447011",
        "title": "潭水服务区公共厕所",
        "address": "广东省阳江市阳春市",
        "tel": "",
        "category": "基础设施:公共设施:公共厕所",
        "type": 0,
        "location": {
            "lat": 22.117366,
            "lng": 111.607895
        },
        "ad_info": {
            "adcode": 441781,
            "province": "广东省",
            "city": "阳江市",
            "district": "阳春市"
        }
    },
    {
        "id": "13126183583267612352",
        "title": "漠阳江服务区公共厕所",
        "address": "广东省阳江市阳东区肇阳高速漠阳江服务区",
        "tel": "",
        "category": "基础设施:公共设施:公共厕所",
        "type": 0,
        "location": {
            "lat": 21.998804,
            "lng": 111.793034
        },
        "ad_info": {
            "adcode": 441704,
            "province": "广东省",
            "city": "阳江市",
            "district": "阳东区"
        }
    },
    {
        "id": "1345852057351961406",
        "title": "大沟服务区第二公共厕所",
        "address": "广东省阳江市阳东区中国石化大沟南加油站西南侧80米",
        "tel": "",
        "category": "基础设施:公共设施:公共厕所",
        "type": 0,
        "location": {
            "lat": 21.816922,
            "lng": 112.108445
        },
        "ad_info": {
            "adcode": 441704,
            "province": "广东省",
            "city": "阳江市",
            "district": "阳东区"
        }
    },
    {
        "id": "4677475870054627054",
        "title": "无障碍公共厕所",
        "address": "广东省阳江市江城区环城北路71-1号",
        "tel": "",
        "category": "基础设施:公共设施:公共厕所",
        "type": 0,
        "location": {
            "lat": 21.853821,
            "lng": 111.956503
        },
        "ad_info": {
            "adcode": 441702,
            "province": "广东省",
            "city": "阳江市",
            "district": "江城区"
        }
    },
    {
        "id": "7534510941412777951",
        "title": "漠阳江服务区公共厕所",
        "address": "广东省阳江市阳东区G234与东山大道交叉口西南方向1779米左右",
        "tel": "",
        "category": "基础设施:公共设施:公共厕所",
        "type": 0,
        "location": {
            "lat": 22.000391,
            "lng": 111.791518
        },
        "ad_info": {
            "adcode": 441704,
            "province": "广东省",
            "city": "阳江市",
            "district": "阳东区"
        }
    },
    {
        "id": "11781633384132396644",
        "title": "男洗手间",
        "address": "广东省阳江市阳东区新华路与福兴路交汇处京源城F2",
        "tel": "",
        "category": "基础设施:公共设施:男洗手间",
        "type": 0,
        "location": {
            "lat": 21.854772,
            "lng": 112.015873
        },
        "ad_info": {
            "adcode": 441704,
            "province": "广东省",
            "city": "阳江市",
            "district": "阳东区"
        }
    },
    {
        "id": "14686187926060606138",
        "title": "男洗手间",
        "address": "广东省阳江市阳东区新华路与福兴路交汇处京源城F5",
        "tel": "",
        "category": "基础设施:公共设施:男洗手间",
        "type": 0,
        "location": {
            "lat": 21.854241,
            "lng": 112.015528
        },
        "ad_info": {
            "adcode": 441704,
            "province": "广东省",
            "city": "阳江市",
            "district": "阳东区"
        }
    },
    {
        "id": "4742032633355885008",
        "title": "女洗手间",
        "address": "广东省阳江市阳东区新华路与福兴路交汇处京源城F4",
        "tel": "",
        "category": "基础设施:公共设施:女洗手间",
        "type": 0,
        "location": {
            "lat": 21.854511,
            "lng": 112.014925
        },
        "ad_info": {
            "adcode": 441704,
            "province": "广东省",
            "city": "阳江市",
            "district": "阳东区"
        }
    },
    {
        "id": "5565589321338014799",
        "title": "女洗手间",
        "address": "广东省阳江市阳东区新华路与福兴路交汇处京源城F2",
        "tel": "",
        "category": "基础设施:公共设施:女洗手间",
        "type": 0,
        "location": {
            "lat": 21.854736,
            "lng": 112.015874
        },
        "ad_info": {
            "adcode": 441704,
            "province": "广东省",
            "city": "阳江市",
            "district": "阳东区"
        }
    },
    {
        "id": "12171687436078706033",
        "title": "女洗手间",
        "address": "广东省阳江市阳东区新华路与福兴路交汇处京源城F4",
        "tel": "",
        "category": "基础设施:公共设施:女洗手间",
        "type": 0,
        "location": {
            "lat": 21.854262,
            "lng": 112.015507
        },
        "ad_info": {
            "adcode": 441704,
            "province": "广东省",
            "city": "阳江市",
            "district": "阳东区"
        }
    },
    {
        "id": "10318543949850820225",
        "title": "平南旱田村公共厕所",
        "address": "广东省阳江市阳西县织篢镇平南旱田村桥头",
        "tel": "",
        "category": "基础设施:公共设施:公共厕所",
        "type": 0,
        "location": {
            "lat": 21.7736,
            "lng": 111.662412
        },
        "ad_info": {
            "adcode": 441721,
            "province": "广东省",
            "city": "阳江市",
            "district": "阳西县"
        }
    },
    {
        "id": "15075990209919383832",
        "title": "公共厕所",
        "address": "广东省阳江市阳西县上洋镇南山海村上村",
        "tel": "",
        "category": "基础设施:公共设施:公共厕所",
        "type": 0,
        "location": {
            "lat": 21.532494,
            "lng": 111.622725
        },
        "ad_info": {
            "adcode": 441721,
            "province": "广东省",
            "city": "阳江市",
            "district": "阳西县"
        }
    },
    {
        "id": "17708441234487466578",
        "title": "楼墩村公厕",
        "address": "广东省阳江市阳东区",
        "tel": "",
        "category": "基础设施:公共设施:公共厕所",
        "type": 0,
        "location": {
            "lat": 22.029816,
            "lng": 111.844234
        },
        "ad_info": {
            "adcode": 441704,
            "province": "广东省",
            "city": "阳江市",
            "district": "阳东区"
        }
    },
    {
        "id": "13666328899518987392",
        "title": "水寨村公厕",
        "address": "广东省阳江市阳东区X592",
        "tel": "",
        "category": "基础设施:公共设施:公共厕所",
        "type": 0,
        "location": {
            "lat": 21.986233,
            "lng": 111.939722
        },
        "ad_info": {
            "adcode": 441704,
            "province": "广东省",
            "city": "阳江市",
            "district": "阳东区"
        }
    },
    {
        "id": "9030711207370228191",
        "title": "表竹村公厕",
        "address": "广东省阳江市阳东区",
        "tel": "",
        "category": "基础设施:公共设施:公共厕所",
        "type": 0,
        "location": {
            "lat": 21.979722,
            "lng": 111.870174
        },
        "ad_info": {
            "adcode": 441704,
            "province": "广东省",
            "city": "阳江市",
            "district": "阳东区"
        }
    },
    {
        "id": "3034088209312318919",
        "title": "新寨村公厕",
        "address": "广东省阳江市阳东区",
        "tel": "",
        "category": "基础设施:公共设施:公共厕所",
        "type": 0,
        "location": {
            "lat": 22.018893,
            "lng": 111.827735
        },
        "ad_info": {
            "adcode": 441704,
            "province": "广东省",
            "city": "阳江市",
            "district": "阳东区"
        }
    },
    {
        "id": "16050572614981580254",
        "title": "塘辽村公厕",
        "address": "广东省阳江市阳东区",
        "tel": "",
        "category": "基础设施:公共设施:公共厕所",
        "type": 0,
        "location": {
            "lat": 22.00044,
            "lng": 111.778156
        },
        "ad_info": {
            "adcode": 441704,
            "province": "广东省",
            "city": "阳江市",
            "district": "阳东区"
        }
    },
    {
        "id": "4718156030420560733",
        "title": "平山 平山村公厕",
        "address": "广东省阳江市阳东区",
        "tel": "",
        "category": "基础设施:公共设施:公共厕所",
        "type": 0,
        "location": {
            "lat": 22.050863,
            "lng": 111.905662
        },
        "ad_info": {
            "adcode": 441704,
            "province": "广东省",
            "city": "阳江市",
            "district": "阳东区"
        }
    },
    {
        "id": "5502598511760325875",
        "title": "公共厕所",
        "address": "广东省阳江市阳春市东风街与胜利街交叉口东南方向34米左右",
        "tel": "",
        "category": "基础设施:公共设施:公共厕所",
        "type": 0,
        "location": {
            "lat": 22.174014,
            "lng": 111.789849
        },
        "ad_info": {
            "adcode": 441781,
            "province": "广东省",
            "city": "阳江市",
            "district": "阳春市"
        }
    },
    {
        "id": "12058073352994008798",
        "title": "旧村村公厕",
        "address": "广东省阳江市阳东区X592",
        "tel": "",
        "category": "基础设施:公共设施:公共厕所",
        "type": 0,
        "location": {
            "lat": 21.987993,
            "lng": 111.940432
        },
        "ad_info": {
            "adcode": 441704,
            "province": "广东省",
            "city": "阳江市",
            "district": "阳东区"
        }
    },
    {
        "id": "17947446971552246113",
        "title": "新坑村公厕",
        "address": "广东省阳江市阳东区",
        "tel": "",
        "category": "基础设施:公共设施:公共厕所",
        "type": 0,
        "location": {
            "lat": 22.01951,
            "lng": 111.930829
        },
        "ad_info": {
            "adcode": 441704,
            "province": "广东省",
            "city": "阳江市",
            "district": "阳东区"
        }
    },
    {
        "id": "1760252009917453704",
        "title": "东边村公厕",
        "address": "广东省阳江市阳东区X592",
        "tel": "",
        "category": "基础设施:公共设施:公共厕所",
        "type": 0,
        "location": {
            "lat": 21.971544,
            "lng": 111.937602
        },
        "ad_info": {
            "adcode": 441704,
            "province": "广东省",
            "city": "阳江市",
            "district": "阳东区"
        }
    },
    {
        "id": "15594518207928136921",
        "title": "黄牛村公厕",
        "address": "广东省阳江市阳东区",
        "tel": "",
        "category": "基础设施:公共设施:公共厕所",
        "type": 0,
        "location": {
            "lat": 21.988097,
            "lng": 111.903574
        },
        "ad_info": {
            "adcode": 441704,
            "province": "广东省",
            "city": "阳江市",
            "district": "阳东区"
        }
    },
    {
        "id": "15637568683416757527",
        "title": "公共厕所",
        "address": "广东省阳江市江城区关山月故居西侧110米",
        "tel": "",
        "category": "基础设施:公共设施:公共厕所",
        "type": 0,
        "location": {
            "lat": 21.799238,
            "lng": 111.914026
        },
        "ad_info": {
            "adcode": 441702,
            "province": "广东省",
            "city": "阳江市",
            "district": "江城区"
        }
    },
    {
        "id": "10638736568754634093",
        "title": "公共厕所",
        "address": "广东省阳江市阳东区永兴中路与裕东三路交叉口正东方向116米左右",
        "tel": "",
        "category": "基础设施:公共设施:公共厕所",
        "type": 0,
        "location": {
            "lat": 21.89133,
            "lng": 112.026847
        },
        "ad_info": {
            "adcode": 441704,
            "province": "广东省",
            "city": "阳江市",
            "district": "阳东区"
        }
    },
    {
        "id": "12872733407092655301",
        "title": "赤旧村公厕",
        "address": "广东省阳江市阳东区",
        "tel": "",
        "category": "基础设施:公共设施:公共厕所",
        "type": 0,
        "location": {
            "lat": 22.048372,
            "lng": 111.93702
        },
        "ad_info": {
            "adcode": 441704,
            "province": "广东省",
            "city": "阳江市",
            "district": "阳东区"
        }
    },
    {
        "id": "810244165869298372",
        "title": "长坪村公厕",
        "address": "广东省阳江市阳东区",
        "tel": "",
        "category": "基础设施:公共设施:公共厕所",
        "type": 0,
        "location": {
            "lat": 22.020892,
            "lng": 111.948046
        },
        "ad_info": {
            "adcode": 441704,
            "province": "广东省",
            "city": "阳江市",
            "district": "阳东区"
        }
    },
    {
        "id": "11411993943016895734",
        "title": "八甲停车区公共厕所",
        "address": "广东省阳江市阳春市S14汕湛高速与八甲停车区交叉口东北380米",
        "tel": "",
        "category": "基础设施:公共设施:公共厕所",
        "type": 0,
        "location": {
            "lat": 22.011357,
            "lng": 111.464026
        },
        "ad_info": {
            "adcode": 441781,
            "province": "广东省",
            "city": "阳江市",
            "district": "阳春市"
        }
    },
    {
        "id": "9090442977317526720",
        "title": "莲花村公厕",
        "address": "广东省阳江市阳东区",
        "tel": "",
        "category": "基础设施:公共设施:公共厕所",
        "type": 0,
        "location": {
            "lat": 21.991858,
            "lng": 111.905902
        },
        "ad_info": {
            "adcode": 441704,
            "province": "广东省",
            "city": "阳江市",
            "district": "阳东区"
        }
    },
    {
        "id": "98288102534759519",
        "title": "太平村公厕",
        "address": "广东省阳江市阳东区",
        "tel": "",
        "category": "基础设施:公共设施:公共厕所",
        "type": 0,
        "location": {
            "lat": 22.02235,
            "lng": 111.9766
        },
        "ad_info": {
            "adcode": 441704,
            "province": "广东省",
            "city": "阳江市",
            "district": "阳东区"
        }
    },
    {
        "id": "15274623733148033324",
        "title": "必岗村公厕",
        "address": "广东省阳江市阳东区",
        "tel": "",
        "category": "基础设施:公共设施:公共厕所",
        "type": 0,
        "location": {
            "lat": 22.022398,
            "lng": 111.946598
        },
        "ad_info": {
            "adcode": 441704,
            "province": "广东省",
            "city": "阳江市",
            "district": "阳东区"
        }
    },
    {
        "id": "17542103179263746333",
        "title": "垌尾村公厕",
        "address": "广东省阳江市阳东区X599",
        "tel": "",
        "category": "基础设施:公共设施:公共厕所",
        "type": 0,
        "location": {
            "lat": 22.021682,
            "lng": 111.933636
        },
        "ad_info": {
            "adcode": 441704,
            "province": "广东省",
            "city": "阳江市",
            "district": "阳东区"
        }
    },
    {
        "id": "5821354995903210580",
        "title": "大什村公厕",
        "address": "广东省阳江市阳东区",
        "tel": "",
        "category": "基础设施:公共设施:公共厕所",
        "type": 0,
        "location": {
            "lat": 22.035044,
            "lng": 111.918572
        },
        "ad_info": {
            "adcode": 441704,
            "province": "广东省",
            "city": "阳江市",
            "district": "阳东区"
        }
    },
    {
        "id": "263609593656998356",
        "title": "公共厕所(GD-YJ-0236)",
        "address": "广东省阳江市江城区保利大道与南海1号大道交叉口正北方向205米左右",
        "tel": "",
        "category": "基础设施:公共设施:公共厕所",
        "type": 0,
        "location": {
            "lat": 21.589035,
            "lng": 111.883889
        },
        "ad_info": {
            "adcode": 441702,
            "province": "广东省",
            "city": "阳江市",
            "district": "江城区"
        }
    },
    {
        "id": "6549178951767071053",
        "title": "大路塘村公厕",
        "address": "广东省阳江市阳东区X599",
        "tel": "",
        "category": "基础设施:公共设施:公共厕所",
        "type": 0,
        "location": {
            "lat": 22.041337,
            "lng": 111.85506
        },
        "ad_info": {
            "adcode": 441704,
            "province": "广东省",
            "city": "阳江市",
            "district": "阳东区"
        }
    },
    {
        "id": "14068841770254251627",
        "title": "朗仔村公厕",
        "address": "广东省阳江市阳东区",
        "tel": "",
        "category": "基础设施:公共设施:公共厕所",
        "type": 0,
        "location": {
            "lat": 22.036188,
            "lng": 111.847246
        },
        "ad_info": {
            "adcode": 441704,
            "province": "广东省",
            "city": "阳江市",
            "district": "阳东区"
        }
    },
    {
        "id": "4353154525240268675",
        "title": "公共厕所",
        "address": "广东省阳江市阳西县桥平二路与镇安路交叉口正西方向63米左右",
        "tel": "",
        "category": "基础设施:公共设施:公共厕所",
        "type": 0,
        "location": {
            "lat": 21.74309,
            "lng": 111.617398
        },
        "ad_info": {
            "adcode": 441721,
            "province": "广东省",
            "city": "阳江市",
            "district": "阳西县"
        }
    },
    {
        "id": "15619434689605414592",
        "title": "阳西服务区公共厕所",
        "address": "广东省阳江市阳西县G228与X610交叉口正西方向333米左右",
        "tel": "",
        "category": "基础设施:公共设施:公共厕所",
        "type": 0,
        "location": {
            "lat": 21.819336,
            "lng": 111.644608
        },
        "ad_info": {
            "adcode": 441721,
            "province": "广东省",
            "city": "阳江市",
            "district": "阳西县"
        }
    },
    {
        "id": "4536112969385985162",
        "title": "苏屋村公厕",
        "address": "广东省阳江市阳东区X592",
        "tel": "",
        "category": "基础设施:公共设施:公共厕所",
        "type": 0,
        "location": {
            "lat": 22.034028,
            "lng": 111.945186
        },
        "ad_info": {
            "adcode": 441704,
            "province": "广东省",
            "city": "阳江市",
            "district": "阳东区"
        }
    },
    {
        "id": "8058106314077797538",
        "title": "男洗手间",
        "address": "广东省阳江市阳东区新华路与福兴路交汇处京源城F4",
        "tel": "",
        "category": "基础设施:公共设施:男洗手间",
        "type": 0,
        "location": {
            "lat": 21.854263,
            "lng": 112.015579
        },
        "ad_info": {
            "adcode": 441704,
            "province": "广东省",
            "city": "阳江市",
            "district": "阳东区"
        }
    },
    {
        "id": "9826250248566811511",
        "title": "公共厕所",
        "address": "广东省阳江市江城区闸陂镇海滨路38号大角湾景区内",
        "tel": "",
        "category": "基础设施:公共设施:公共厕所",
        "type": 0,
        "location": {
            "lat": 21.570226,
            "lng": 111.847336
        },
        "ad_info": {
            "adcode": 441702,
            "province": "广东省",
            "city": "阳江市",
            "district": "江城区"
        }
    },
    {
        "id": "747751370707640365",
        "title": "公共厕所",
        "address": "广东省阳江市阳西县",
        "tel": "",
        "category": "基础设施:公共设施:公共厕所",
        "type": 0,
        "location": {
            "lat": 21.878918,
            "lng": 111.69615
        },
        "ad_info": {
            "adcode": 441721,
            "province": "广东省",
            "city": "阳江市",
            "district": "阳西县"
        }
    },
    {
        "id": "16050996854642767160",
        "title": "平北村公共厕所",
        "address": "广东省阳江市阳西县X610与X751交叉口西北方向1563米左右",
        "tel": "13149009865",
        "category": "基础设施:公共设施:公共厕所",
        "type": 0,
        "location": {
            "lat": 21.854131,
            "lng": 111.638628
        },
        "ad_info": {
            "adcode": 441721,
            "province": "广东省",
            "city": "阳江市",
            "district": "阳西县"
        }
    },
    {
        "id": "11624200384338360274",
        "title": "公共厕所",
        "address": "广东省阳江市阳西县椰林路1-2号",
        "tel": "",
        "category": "基础设施:公共设施:公共厕所",
        "type": 0,
        "location": {
            "lat": 21.516814,
            "lng": 111.502807
        },
        "ad_info": {
            "adcode": 441721,
            "province": "广东省",
            "city": "阳江市",
            "district": "阳西县"
        }
    },
    {
        "id": "5098890674748385214",
        "title": "公共厕所",
        "address": "广东省阳江市江城区三廉公园东南侧260米",
        "tel": "",
        "category": "基础设施:公共设施:公共厕所",
        "type": 0,
        "location": {
            "lat": 21.827453,
            "lng": 111.958793
        },
        "ad_info": {
            "adcode": 441702,
            "province": "广东省",
            "city": "阳江市",
            "district": "江城区"
        }
    },
    {
        "id": "1448246009604474505",
        "title": "牛栏村公厕",
        "address": "广东省阳江市阳东区",
        "tel": "",
        "category": "基础设施:公共设施:公共厕所",
        "type": 0,
        "location": {
            "lat": 22.020915,
            "lng": 111.970073
        },
        "ad_info": {
            "adcode": 441704,
            "province": "广东省",
            "city": "阳江市",
            "district": "阳东区"
        }
    },
    {
        "id": "14272438255046117019",
        "title": "下朗二村公厕",
        "address": "广东省阳江市阳东区",
        "tel": "",
        "category": "基础设施:公共设施:公共厕所",
        "type": 0,
        "location": {
            "lat": 21.999272,
            "lng": 111.785012
        },
        "ad_info": {
            "adcode": 441704,
            "province": "广东省",
            "city": "阳江市",
            "district": "阳东区"
        }
    },
    {
        "id": "12998328676638555994",
        "title": "石坑村公厕",
        "address": "广东省阳江市阳东区",
        "tel": "",
        "category": "基础设施:公共设施:公共厕所",
        "type": 0,
        "location": {
            "lat": 22.0706,
            "lng": 111.899497
        },
        "ad_info": {
            "adcode": 441704,
            "province": "广东省",
            "city": "阳江市",
            "district": "阳东区"
        }
    },
    {
        "id": "708385156063282293",
        "title": "新风村公厕",
        "address": "广东省阳江市阳东区",
        "tel": "",
        "category": "基础设施:公共设施:公共厕所",
        "type": 0,
        "location": {
            "lat": 22.046707,
            "lng": 111.916955
        },
        "ad_info": {
            "adcode": 441704,
            "province": "广东省",
            "city": "阳江市",
            "district": "阳东区"
        }
    },
    {
        "id": "6466665536732818938",
        "title": "新墟服务区第一公共厕所",
        "address": "广东省阳江市阳西县G15沈海高速附近",
        "tel": "",
        "category": "基础设施:公共设施:公共厕所",
        "type": 0,
        "location": {
            "lat": 21.68979,
            "lng": 111.489825
        },
        "ad_info": {
            "adcode": 441721,
            "province": "广东省",
            "city": "阳江市",
            "district": "阳西县"
        }
    },
    {
        "id": "9765771530169215841",
        "title": "公共厕所",
        "address": "广东省阳江市江城区东门南路与横一路交叉口正南方向175米左右",
        "tel": "",
        "category": "基础设施:公共设施:公共厕所",
        "type": 0,
        "location": {
            "lat": 21.829794,
            "lng": 111.971692
        },
        "ad_info": {
            "adcode": 441702,
            "province": "广东省",
            "city": "阳江市",
            "district": "江城区"
        }
    },
    {
        "id": "4309126584136261079",
        "title": "湾弓龙村公厕",
        "address": "广东省阳江市阳东区",
        "tel": "",
        "category": "基础设施:公共设施:公共厕所",
        "type": 0,
        "location": {
            "lat": 22.041747,
            "lng": 111.941321
        },
        "ad_info": {
            "adcode": 441704,
            "province": "广东省",
            "city": "阳江市",
            "district": "阳东区"
        }
    },
    {
        "id": "12673460968010385162",
        "title": "江坪村公厕",
        "address": "广东省阳江市阳东区",
        "tel": "",
        "category": "基础设施:公共设施:公共厕所",
        "type": 0,
        "location": {
            "lat": 22.010864,
            "lng": 111.926479
        },
        "ad_info": {
            "adcode": 441704,
            "province": "广东省",
            "city": "阳江市",
            "district": "阳东区"
        }
    },
    {
        "id": "5143052394769896507",
        "title": "军城村公厕",
        "address": "广东省阳江市阳东区",
        "tel": "",
        "category": "基础设施:公共设施:公共厕所",
        "type": 0,
        "location": {
            "lat": 21.983859,
            "lng": 111.931759
        },
        "ad_info": {
            "adcode": 441704,
            "province": "广东省",
            "city": "阳江市",
            "district": "阳东区"
        }
    },
    {
        "id": "1606660724096452116",
        "title": "旱地村公厕",
        "address": "广东省阳江市阳东区",
        "tel": "",
        "category": "基础设施:公共设施:公共厕所",
        "type": 0,
        "location": {
            "lat": 22.041213,
            "lng": 111.936695
        },
        "ad_info": {
            "adcode": 441704,
            "province": "广东省",
            "city": "阳江市",
            "district": "阳东区"
        }
    },
    {
        "id": "1846527520676294347",
        "title": "禾新村公厕",
        "address": "广东省阳江市阳东区X599",
        "tel": "",
        "category": "基础设施:公共设施:公共厕所",
        "type": 0,
        "location": {
            "lat": 22.030167,
            "lng": 111.904462
        },
        "ad_info": {
            "adcode": 441704,
            "province": "广东省",
            "city": "阳江市",
            "district": "阳东区"
        }
    },
    {
        "id": "5739016184706372968",
        "title": "大沟服务区-公共厕所",
        "address": "广东省阳江市阳东区西部沿海高速",
        "tel": "",
        "category": "基础设施:公共设施:公共厕所",
        "type": 0,
        "location": {
            "lat": 21.818665,
            "lng": 112.108572
        },
        "ad_info": {
            "adcode": 441704,
            "province": "广东省",
            "city": "阳江市",
            "district": "阳东区"
        }
    },
    {
        "id": "8477126568114784680",
        "title": "高流河服务区公共厕所",
        "address": "广东省阳江市阳春市Y126与平安路交叉口正西方向1811米左右",
        "tel": "",
        "category": "基础设施:公共设施:公共厕所",
        "type": 0,
        "location": {
            "lat": 22.295156,
            "lng": 111.9119
        },
        "ad_info": {
            "adcode": 441781,
            "province": "广东省",
            "city": "阳江市",
            "district": "阳春市"
        }
    },
    {
        "id": "16697213406940317057",
        "title": "高流河服务区公共厕所",
        "address": "广东省阳江市阳春市S26中阳高速与高流河服务区交叉口西南480米",
        "tel": "",
        "category": "基础设施:公共设施:公共厕所",
        "type": 0,
        "location": {
            "lat": 22.2977,
            "lng": 111.911588
        },
        "ad_info": {
            "adcode": 441781,
            "province": "广东省",
            "city": "阳江市",
            "district": "阳春市"
        }
    },
    {
        "id": "18298252785431362766",
        "title": "赤新村公厕",
        "address": "广东省阳江市阳东区",
        "tel": "",
        "category": "基础设施:公共设施:公共厕所",
        "type": 0,
        "location": {
            "lat": 22.049858,
            "lng": 111.935458
        },
        "ad_info": {
            "adcode": 441704,
            "province": "广东省",
            "city": "阳江市",
            "district": "阳东区"
        }
    },
    {
        "id": "8806626102061520903",
        "title": "公共厕所",
        "address": "广东省阳江市江城区二环南路与四围大道交叉口正北方向138米左右",
        "tel": "",
        "category": "基础设施:公共设施:公共厕所",
        "type": 0,
        "location": {
            "lat": 21.824084,
            "lng": 111.981102
        },
        "ad_info": {
            "adcode": 441702,
            "province": "广东省",
            "city": "阳江市",
            "district": "江城区"
        }
    },
    {
        "id": "13368074442228983798",
        "title": "双林村公厕",
        "address": "广东省阳江市阳东区X592",
        "tel": "",
        "category": "基础设施:公共设施:公共厕所",
        "type": 0,
        "location": {
            "lat": 22.031418,
            "lng": 111.946196
        },
        "ad_info": {
            "adcode": 441704,
            "province": "广东省",
            "city": "阳江市",
            "district": "阳东区"
        }
    },
    {
        "id": "14479319817361883753",
        "title": "马尾村委会沙帐村公厕",
        "address": "广东省阳江市阳东区",
        "tel": "",
        "category": "基础设施:公共设施:公共厕所",
        "type": 0,
        "location": {
            "lat": 22.041706,
            "lng": 111.885192
        },
        "ad_info": {
            "adcode": 441704,
            "province": "广东省",
            "city": "阳江市",
            "district": "阳东区"
        }
    },
    {
        "id": "12767130753212399734",
        "title": "女洗手间",
        "address": "广东省阳江市阳东区新华路与福兴路交汇处京源城F1",
        "tel": "",
        "category": "基础设施:公共设施:女洗手间",
        "type": 0,
        "location": {
            "lat": 21.854402,
            "lng": 112.015143
        },
        "ad_info": {
            "adcode": 441704,
            "province": "广东省",
            "city": "阳江市",
            "district": "阳东区"
        }
    },
    {
        "id": "10331613455868430307",
        "title": "湾龙村公厕",
        "address": "广东省阳江市阳东区X599",
        "tel": "",
        "category": "基础设施:公共设施:公共厕所",
        "type": 0,
        "location": {
            "lat": 22.029111,
            "lng": 111.932317
        },
        "ad_info": {
            "adcode": 441704,
            "province": "广东省",
            "city": "阳江市",
            "district": "阳东区"
        }
    },
    {
        "id": "4067316127640548407",
        "title": "公共厕所",
        "address": "广东省阳江市阳东区G325与金鸡一路交叉口西北方向196米左右",
        "tel": "",
        "category": "基础设施:公共设施:公共厕所",
        "type": 0,
        "location": {
            "lat": 21.926335,
            "lng": 112.070547
        },
        "ad_info": {
            "adcode": 441704,
            "province": "广东省",
            "city": "阳江市",
            "district": "阳东区"
        }
    },
    {
        "id": "16076415339127571790",
        "title": "公共厕所(GD-YJ-0251)",
        "address": "广东省阳江市阳春市X602与青云路交叉口正南方向51米左右",
        "tel": "",
        "category": "基础设施:公共设施:公共厕所",
        "type": 0,
        "location": {
            "lat": 22.445669,
            "lng": 111.94564
        },
        "ad_info": {
            "adcode": 441781,
            "province": "广东省",
            "city": "阳江市",
            "district": "阳春市"
        }
    },
    {
        "id": "17237978596506178671",
        "title": "石坳村公厕",
        "address": "广东省阳江市阳东区",
        "tel": "",
        "category": "基础设施:公共设施:公共厕所",
        "type": 0,
        "location": {
            "lat": 22.048579,
            "lng": 111.910988
        },
        "ad_info": {
            "adcode": 441704,
            "province": "广东省",
            "city": "阳江市",
            "district": "阳东区"
        }
    },
    {
        "id": "12860966763438287518",
        "title": "藤合怀公共厕所",
        "address": "广东省阳江市阳西县X610附近",
        "tel": "15531769856",
        "category": "基础设施:公共设施:公共厕所",
        "type": 0,
        "location": {
            "lat": 21.86064,
            "lng": 111.636926
        },
        "ad_info": {
            "adcode": 441721,
            "province": "广东省",
            "city": "阳江市",
            "district": "阳西县"
        }
    },
    {
        "id": "2123415616092038173",
        "title": "新村仔公厕",
        "address": "广东省阳江市阳东区",
        "tel": "",
        "category": "基础设施:公共设施:公共厕所",
        "type": 0,
        "location": {
            "lat": 22.002146,
            "lng": 111.772521
        },
        "ad_info": {
            "adcode": 441704,
            "province": "广东省",
            "city": "阳江市",
            "district": "阳东区"
        }
    },
    {
        "id": "12592899545750527661",
        "title": "那邓村公厕",
        "address": "广东省阳江市阳东区",
        "tel": "",
        "category": "基础设施:公共设施:公共厕所",
        "type": 0,
        "location": {
            "lat": 22.036969,
            "lng": 111.904318
        },
        "ad_info": {
            "adcode": 441704,
            "province": "广东省",
            "city": "阳江市",
            "district": "阳东区"
        }
    },
    {
        "id": "349354274671518466",
        "title": "公共厕所",
        "address": "广东省阳江市阳西县C962与X751交叉口西南方向1107米左右",
        "tel": "",
        "category": "基础设施:公共设施:公共厕所",
        "type": 0,
        "location": {
            "lat": 21.828071,
            "lng": 111.606678
        },
        "ad_info": {
            "adcode": 441721,
            "province": "广东省",
            "city": "阳江市",
            "district": "阳西县"
        }
    },
    {
        "id": "13646182028432270703",
        "title": "阳西服务区公共厕所",
        "address": "广东省阳江市阳西县阳西服务区西北40米",
        "tel": "",
        "category": "基础设施:公共设施:公共厕所",
        "type": 0,
        "location": {
            "lat": 21.821687,
            "lng": 111.642889
        },
        "ad_info": {
            "adcode": 441721,
            "province": "广东省",
            "city": "阳江市",
            "district": "阳西县"
        }
    },
    {
        "id": "9609888090886308428",
        "title": "公共厕所",
        "address": "广东省阳江市阳春市春州大道与朝阳路交叉口东北方向140米左右",
        "tel": "",
        "category": "基础设施:公共设施:公共厕所",
        "type": 0,
        "location": {
            "lat": 22.184766,
            "lng": 111.798651
        },
        "ad_info": {
            "adcode": 441781,
            "province": "广东省",
            "city": "阳江市",
            "district": "阳春市"
        }
    },
    {
        "id": "16266325663611020128",
        "title": "公共厕所",
        "address": "广东省阳江市阳西县湖景路西湖公园(西北角)",
        "tel": "",
        "category": "基础设施:公共设施:公共厕所",
        "type": 0,
        "location": {
            "lat": 21.75257,
            "lng": 111.607497
        },
        "ad_info": {
            "adcode": 441721,
            "province": "广东省",
            "city": "阳江市",
            "district": "阳西县"
        }
    },
    {
        "id": "254777790692682095",
        "title": "公共厕所",
        "address": "广东省阳江市阳东区合山镇阳东站",
        "tel": "",
        "category": "基础设施:公共设施:公共厕所",
        "type": 0,
        "location": {
            "lat": 21.956429,
            "lng": 112.153906
        },
        "ad_info": {
            "adcode": 441704,
            "province": "广东省",
            "city": "阳江市",
            "district": "阳东区"
        }
    },
    {
        "id": "16137400061204554553",
        "title": "白沙塘村公厕",
        "address": "广东省阳江市阳东区东山大道",
        "tel": "",
        "category": "基础设施:公共设施:公共厕所",
        "type": 0,
        "location": {
            "lat": 22.022456,
            "lng": 111.808093
        },
        "ad_info": {
            "adcode": 441704,
            "province": "广东省",
            "city": "阳江市",
            "district": "阳东区"
        }
    },
    {
        "id": "15406563600218405940",
        "title": "马尾村委会圳坪村公厕",
        "address": "广东省阳江市阳东区",
        "tel": "",
        "category": "基础设施:公共设施:公共厕所",
        "type": 0,
        "location": {
            "lat": 22.002311,
            "lng": 111.905317
        },
        "ad_info": {
            "adcode": 441704,
            "province": "广东省",
            "city": "阳江市",
            "district": "阳东区"
        }
    },
    {
        "id": "8641360875915604360",
        "title": "公共厕所",
        "address": "广东省阳江市阳春市S113高流古墟旁",
        "tel": "",
        "category": "基础设施:公共设施:公共厕所",
        "type": 0,
        "location": {
            "lat": 22.259202,
            "lng": 111.849927
        },
        "ad_info": {
            "adcode": 441781,
            "province": "广东省",
            "city": "阳江市",
            "district": "阳春市"
        }
    },
    {
        "id": "2207254607557325327",
        "title": "军地村公厕",
        "address": "广东省阳江市阳东区",
        "tel": "",
        "category": "基础设施:公共设施:公共厕所",
        "type": 0,
        "location": {
            "lat": 22.035307,
            "lng": 111.934091
        },
        "ad_info": {
            "adcode": 441704,
            "province": "广东省",
            "city": "阳江市",
            "district": "阳东区"
        }
    },
    {
        "id": "17749669396183503925",
        "title": "公共厕所",
        "address": "广东省阳江市阳春市东兴中路与东兴二街交叉口东北方向74米左右",
        "tel": "",
        "category": "基础设施:公共设施:公共厕所",
        "type": 0,
        "location": {
            "lat": 22.161004,
            "lng": 111.79857
        },
        "ad_info": {
            "adcode": 441781,
            "province": "广东省",
            "city": "阳江市",
            "district": "阳春市"
        }
    },
    {
        "id": "17881392168373435604",
        "title": "石塘村公厕",
        "address": "广东省阳江市阳东区",
        "tel": "",
        "category": "基础设施:公共设施:公共厕所",
        "type": 0,
        "location": {
            "lat": 22.032372,
            "lng": 111.933304
        },
        "ad_info": {
            "adcode": 441704,
            "province": "广东省",
            "city": "阳江市",
            "district": "阳东区"
        }
    },
    {
        "id": "9365872612395461059",
        "title": "公共厕所(阳西县儒洞镇边海红色展馆)",
        "address": "广东省阳江市阳西县儒洞镇边海红色展馆",
        "tel": "",
        "category": "基础设施:公共设施:公共厕所",
        "type": 0,
        "location": {
            "lat": 21.588852,
            "lng": 111.425733
        },
        "ad_info": {
            "adcode": 441721,
            "province": "广东省",
            "city": "阳江市",
            "district": "阳西县"
        }
    },
    {
        "id": "6898808942503206058",
        "title": "清水塘村公厕",
        "address": "广东省阳江市阳东区",
        "tel": "",
        "category": "基础设施:公共设施:公共厕所",
        "type": 0,
        "location": {
            "lat": 22.013451,
            "lng": 111.924723
        },
        "ad_info": {
            "adcode": 441704,
            "province": "广东省",
            "city": "阳江市",
            "district": "阳东区"
        }
    },
    {
        "id": "942068224371357823",
        "title": "许屋村公厕",
        "address": "广东省阳江市阳东区",
        "tel": "",
        "category": "基础设施:公共设施:公共厕所",
        "type": 0,
        "location": {
            "lat": 22.076229,
            "lng": 111.934885
        },
        "ad_info": {
            "adcode": 441704,
            "province": "广东省",
            "city": "阳江市",
            "district": "阳东区"
        }
    },
    {
        "id": "8781560465285378000",
        "title": "塘滑村公厕",
        "address": "广东省阳江市阳东区X599",
        "tel": "",
        "category": "基础设施:公共设施:公共厕所",
        "type": 0,
        "location": {
            "lat": 22.030692,
            "lng": 111.966971
        },
        "ad_info": {
            "adcode": 441704,
            "province": "广东省",
            "city": "阳江市",
            "district": "阳东区"
        }
    },
    {
        "id": "18252156117951122637",
        "title": "公共厕所",
        "address": "广东省阳江市阳春市双滘东方街与桂新街交叉口正南方向66米左右",
        "tel": "",
        "category": "基础设施:公共设施:公共厕所",
        "type": 0,
        "location": {
            "lat": 22.097627,
            "lng": 111.362974
        },
        "ad_info": {
            "adcode": 441781,
            "province": "广东省",
            "city": "阳江市",
            "district": "阳春市"
        }
    },
    {
        "id": "6802343644420458202",
        "title": "公共厕所",
        "address": "广东省阳江市阳东区那龙卫生站东侧100米",
        "tel": "",
        "category": "基础设施:公共设施:公共厕所",
        "type": 0,
        "location": {
            "lat": 22.041507,
            "lng": 112.21466
        },
        "ad_info": {
            "adcode": 441704,
            "province": "广东省",
            "city": "阳江市",
            "district": "阳东区"
        }
    },
    {
        "id": "5290257784818217885",
        "title": "康村公厕",
        "address": "广东省阳江市阳东区X599",
        "tel": "",
        "category": "基础设施:公共设施:公共厕所",
        "type": 0,
        "location": {
            "lat": 22.02994,
            "lng": 111.956863
        },
        "ad_info": {
            "adcode": 441704,
            "province": "广东省",
            "city": "阳江市",
            "district": "阳东区"
        }
    },
    {
        "id": "4693090877455496980",
        "title": "公共厕所",
        "address": "广东省阳江市阳春市附近",
        "tel": "",
        "category": "基础设施:公共设施:公共厕所",
        "type": 0,
        "location": {
            "lat": 22.170534,
            "lng": 111.860883
        },
        "ad_info": {
            "adcode": 441781,
            "province": "广东省",
            "city": "阳江市",
            "district": "阳春市"
        }
    },
    {
        "id": "1290778734183655335",
        "title": "帮羊村公厕",
        "address": "广东省阳江市阳东区",
        "tel": "",
        "category": "基础设施:公共设施:公共厕所",
        "type": 0,
        "location": {
            "lat": 21.990184,
            "lng": 111.945732
        },
        "ad_info": {
            "adcode": 441704,
            "province": "广东省",
            "city": "阳江市",
            "district": "阳东区"
        }
    },
    {
        "id": "14588968315120076802",
        "title": "公共厕所",
        "address": "广东省阳江市江城区二环路与文明路交叉口正南方向70米左右",
        "tel": "",
        "category": "基础设施:公共设施:公共厕所",
        "type": 0,
        "location": {
            "lat": 21.840621,
            "lng": 111.976431
        },
        "ad_info": {
            "adcode": 441702,
            "province": "广东省",
            "city": "阳江市",
            "district": "江城区"
        }
    },
    {
        "id": "13646182028432270703",
        "title": "阳西服务区公共厕所",
        "address": "广东省阳江市阳西县阳西服务区西北40米",
        "tel": "",
        "category": "基础设施:公共设施:公共厕所",
        "type": 0,
        "location": {
            "lat": 21.821687,
            "lng": 111.642889
        },
        "ad_info": {
            "adcode": 441721,
            "province": "广东省",
            "city": "阳江市",
            "district": "阳西县"
        }
    },
    {
        "id": "9609888090886308428",
        "title": "公共厕所",
        "address": "广东省阳江市阳春市春州大道与朝阳路交叉口东北方向140米左右",
        "tel": "",
        "category": "基础设施:公共设施:公共厕所",
        "type": 0,
        "location": {
            "lat": 22.184766,
            "lng": 111.798651
        },
        "ad_info": {
            "adcode": 441781,
            "province": "广东省",
            "city": "阳江市",
            "district": "阳春市"
        }
    },
    {
        "id": "16266325663611020128",
        "title": "公共厕所",
        "address": "广东省阳江市阳西县湖景路西湖公园(西北角)",
        "tel": "",
        "category": "基础设施:公共设施:公共厕所",
        "type": 0,
        "location": {
            "lat": 21.75257,
            "lng": 111.607497
        },
        "ad_info": {
            "adcode": 441721,
            "province": "广东省",
            "city": "阳江市",
            "district": "阳西县"
        }
    },
    {
        "id": "254777790692682095",
        "title": "公共厕所",
        "address": "广东省阳江市阳东区合山镇阳东站",
        "tel": "",
        "category": "基础设施:公共设施:公共厕所",
        "type": 0,
        "location": {
            "lat": 21.956429,
            "lng": 112.153906
        },
        "ad_info": {
            "adcode": 441704,
            "province": "广东省",
            "city": "阳江市",
            "district": "阳东区"
        }
    },
    {
        "id": "16137400061204554553",
        "title": "白沙塘村公厕",
        "address": "广东省阳江市阳东区东山大道",
        "tel": "",
        "category": "基础设施:公共设施:公共厕所",
        "type": 0,
        "location": {
            "lat": 22.022456,
            "lng": 111.808093
        },
        "ad_info": {
            "adcode": 441704,
            "province": "广东省",
            "city": "阳江市",
            "district": "阳东区"
        }
    },
    {
        "id": "15406563600218405940",
        "title": "马尾村委会圳坪村公厕",
        "address": "广东省阳江市阳东区",
        "tel": "",
        "category": "基础设施:公共设施:公共厕所",
        "type": 0,
        "location": {
            "lat": 22.002311,
            "lng": 111.905317
        },
        "ad_info": {
            "adcode": 441704,
            "province": "广东省",
            "city": "阳江市",
            "district": "阳东区"
        }
    },
    {
        "id": "8641360875915604360",
        "title": "公共厕所",
        "address": "广东省阳江市阳春市S113高流古墟旁",
        "tel": "",
        "category": "基础设施:公共设施:公共厕所",
        "type": 0,
        "location": {
            "lat": 22.259202,
            "lng": 111.849927
        },
        "ad_info": {
            "adcode": 441781,
            "province": "广东省",
            "city": "阳江市",
            "district": "阳春市"
        }
    },
    {
        "id": "2207254607557325327",
        "title": "军地村公厕",
        "address": "广东省阳江市阳东区",
        "tel": "",
        "category": "基础设施:公共设施:公共厕所",
        "type": 0,
        "location": {
            "lat": 22.035307,
            "lng": 111.934091
        },
        "ad_info": {
            "adcode": 441704,
            "province": "广东省",
            "city": "阳江市",
            "district": "阳东区"
        }
    },
    {
        "id": "17749669396183503925",
        "title": "公共厕所",
        "address": "广东省阳江市阳春市东兴中路与东兴二街交叉口东北方向74米左右",
        "tel": "",
        "category": "基础设施:公共设施:公共厕所",
        "type": 0,
        "location": {
            "lat": 22.161004,
            "lng": 111.79857
        },
        "ad_info": {
            "adcode": 441781,
            "province": "广东省",
            "city": "阳江市",
            "district": "阳春市"
        }
    },
    {
        "id": "17881392168373435604",
        "title": "石塘村公厕",
        "address": "广东省阳江市阳东区",
        "tel": "",
        "category": "基础设施:公共设施:公共厕所",
        "type": 0,
        "location": {
            "lat": 22.032372,
            "lng": 111.933304
        },
        "ad_info": {
            "adcode": 441704,
            "province": "广东省",
            "city": "阳江市",
            "district": "阳东区"
        }
    },
    {
        "id": "9365872612395461059",
        "title": "公共厕所(阳西县儒洞镇边海红色展馆)",
        "address": "广东省阳江市阳西县儒洞镇边海红色展馆",
        "tel": "",
        "category": "基础设施:公共设施:公共厕所",
        "type": 0,
        "location": {
            "lat": 21.588852,
            "lng": 111.425733
        },
        "ad_info": {
            "adcode": 441721,
            "province": "广东省",
            "city": "阳江市",
            "district": "阳西县"
        }
    },
    {
        "id": "6898808942503206058",
        "title": "清水塘村公厕",
        "address": "广东省阳江市阳东区",
        "tel": "",
        "category": "基础设施:公共设施:公共厕所",
        "type": 0,
        "location": {
            "lat": 22.013451,
            "lng": 111.924723
        },
        "ad_info": {
            "adcode": 441704,
            "province": "广东省",
            "city": "阳江市",
            "district": "阳东区"
        }
    },
    {
        "id": "942068224371357823",
        "title": "许屋村公厕",
        "address": "广东省阳江市阳东区",
        "tel": "",
        "category": "基础设施:公共设施:公共厕所",
        "type": 0,
        "location": {
            "lat": 22.076229,
            "lng": 111.934885
        },
        "ad_info": {
            "adcode": 441704,
            "province": "广东省",
            "city": "阳江市",
            "district": "阳东区"
        }
    },
    {
        "id": "8781560465285378000",
        "title": "塘滑村公厕",
        "address": "广东省阳江市阳东区X599",
        "tel": "",
        "category": "基础设施:公共设施:公共厕所",
        "type": 0,
        "location": {
            "lat": 22.030692,
            "lng": 111.966971
        },
        "ad_info": {
            "adcode": 441704,
            "province": "广东省",
            "city": "阳江市",
            "district": "阳东区"
        }
    },
    {
        "id": "18252156117951122637",
        "title": "公共厕所",
        "address": "广东省阳江市阳春市双滘东方街与桂新街交叉口正南方向66米左右",
        "tel": "",
        "category": "基础设施:公共设施:公共厕所",
        "type": 0,
        "location": {
            "lat": 22.097627,
            "lng": 111.362974
        },
        "ad_info": {
            "adcode": 441781,
            "province": "广东省",
            "city": "阳江市",
            "district": "阳春市"
        }
    },
    {
        "id": "6802343644420458202",
        "title": "公共厕所",
        "address": "广东省阳江市阳东区那龙卫生站东侧100米",
        "tel": "",
        "category": "基础设施:公共设施:公共厕所",
        "type": 0,
        "location": {
            "lat": 22.041507,
            "lng": 112.21466
        },
        "ad_info": {
            "adcode": 441704,
            "province": "广东省",
            "city": "阳江市",
            "district": "阳东区"
        }
    },
    {
        "id": "5290257784818217885",
        "title": "康村公厕",
        "address": "广东省阳江市阳东区X599",
        "tel": "",
        "category": "基础设施:公共设施:公共厕所",
        "type": 0,
        "location": {
            "lat": 22.02994,
            "lng": 111.956863
        },
        "ad_info": {
            "adcode": 441704,
            "province": "广东省",
            "city": "阳江市",
            "district": "阳东区"
        }
    },
    {
        "id": "4693090877455496980",
        "title": "公共厕所",
        "address": "广东省阳江市阳春市附近",
        "tel": "",
        "category": "基础设施:公共设施:公共厕所",
        "type": 0,
        "location": {
            "lat": 22.170534,
            "lng": 111.860883
        },
        "ad_info": {
            "adcode": 441781,
            "province": "广东省",
            "city": "阳江市",
            "district": "阳春市"
        }
    },
    {
        "id": "1290778734183655335",
        "title": "帮羊村公厕",
        "address": "广东省阳江市阳东区",
        "tel": "",
        "category": "基础设施:公共设施:公共厕所",
        "type": 0,
        "location": {
            "lat": 21.990184,
            "lng": 111.945732
        },
        "ad_info": {
            "adcode": 441704,
            "province": "广东省",
            "city": "阳江市",
            "district": "阳东区"
        }
    },
    {
        "id": "14588968315120076802",
        "title": "公共厕所",
        "address": "广东省阳江市江城区二环路与文明路交叉口正南方向70米左右",
        "tel": "",
        "category": "基础设施:公共设施:公共厕所",
        "type": 0,
        "location": {
            "lat": 21.840621,
            "lng": 111.976431
        },
        "ad_info": {
            "adcode": 441702,
            "province": "广东省",
            "city": "阳江市",
            "district": "江城区"
        }
    },
    {
        "id": "13646182028432270703",
        "title": "阳西服务区公共厕所",
        "address": "广东省阳江市阳西县阳西服务区西北40米",
        "tel": "",
        "category": "基础设施:公共设施:公共厕所",
        "type": 0,
        "location": {
            "lat": 21.821687,
            "lng": 111.642889
        },
        "ad_info": {
            "adcode": 441721,
            "province": "广东省",
            "city": "阳江市",
            "district": "阳西县"
        }
    },
    {
        "id": "9609888090886308428",
        "title": "公共厕所",
        "address": "广东省阳江市阳春市春州大道与朝阳路交叉口东北方向140米左右",
        "tel": "",
        "category": "基础设施:公共设施:公共厕所",
        "type": 0,
        "location": {
            "lat": 22.184766,
            "lng": 111.798651
        },
        "ad_info": {
            "adcode": 441781,
            "province": "广东省",
            "city": "阳江市",
            "district": "阳春市"
        }
    },
    {
        "id": "16266325663611020128",
        "title": "公共厕所",
        "address": "广东省阳江市阳西县湖景路西湖公园(西北角)",
        "tel": "",
        "category": "基础设施:公共设施:公共厕所",
        "type": 0,
        "location": {
            "lat": 21.75257,
            "lng": 111.607497
        },
        "ad_info": {
            "adcode": 441721,
            "province": "广东省",
            "city": "阳江市",
            "district": "阳西县"
        }
    },
    {
        "id": "254777790692682095",
        "title": "公共厕所",
        "address": "广东省阳江市阳东区合山镇阳东站",
        "tel": "",
        "category": "基础设施:公共设施:公共厕所",
        "type": 0,
        "location": {
            "lat": 21.956429,
            "lng": 112.153906
        },
        "ad_info": {
            "adcode": 441704,
            "province": "广东省",
            "city": "阳江市",
            "district": "阳东区"
        }
    },
    {
        "id": "16137400061204554553",
        "title": "白沙塘村公厕",
        "address": "广东省阳江市阳东区东山大道",
        "tel": "",
        "category": "基础设施:公共设施:公共厕所",
        "type": 0,
        "location": {
            "lat": 22.022456,
            "lng": 111.808093
        },
        "ad_info": {
            "adcode": 441704,
            "province": "广东省",
            "city": "阳江市",
            "district": "阳东区"
        }
    },
    {
        "id": "15406563600218405940",
        "title": "马尾村委会圳坪村公厕",
        "address": "广东省阳江市阳东区",
        "tel": "",
        "category": "基础设施:公共设施:公共厕所",
        "type": 0,
        "location": {
            "lat": 22.002311,
            "lng": 111.905317
        },
        "ad_info": {
            "adcode": 441704,
            "province": "广东省",
            "city": "阳江市",
            "district": "阳东区"
        }
    },
    {
        "id": "8641360875915604360",
        "title": "公共厕所",
        "address": "广东省阳江市阳春市S113高流古墟旁",
        "tel": "",
        "category": "基础设施:公共设施:公共厕所",
        "type": 0,
        "location": {
            "lat": 22.259202,
            "lng": 111.849927
        },
        "ad_info": {
            "adcode": 441781,
            "province": "广东省",
            "city": "阳江市",
            "district": "阳春市"
        }
    },
    {
        "id": "2207254607557325327",
        "title": "军地村公厕",
        "address": "广东省阳江市阳东区",
        "tel": "",
        "category": "基础设施:公共设施:公共厕所",
        "type": 0,
        "location": {
            "lat": 22.035307,
            "lng": 111.934091
        },
        "ad_info": {
            "adcode": 441704,
            "province": "广东省",
            "city": "阳江市",
            "district": "阳东区"
        }
    },
    {
        "id": "17749669396183503925",
        "title": "公共厕所",
        "address": "广东省阳江市阳春市东兴中路与东兴二街交叉口东北方向74米左右",
        "tel": "",
        "category": "基础设施:公共设施:公共厕所",
        "type": 0,
        "location": {
            "lat": 22.161004,
            "lng": 111.79857
        },
        "ad_info": {
            "adcode": 441781,
            "province": "广东省",
            "city": "阳江市",
            "district": "阳春市"
        }
    },
    {
        "id": "17881392168373435604",
        "title": "石塘村公厕",
        "address": "广东省阳江市阳东区",
        "tel": "",
        "category": "基础设施:公共设施:公共厕所",
        "type": 0,
        "location": {
            "lat": 22.032372,
            "lng": 111.933304
        },
        "ad_info": {
            "adcode": 441704,
            "province": "广东省",
            "city": "阳江市",
            "district": "阳东区"
        }
    },
    {
        "id": "9365872612395461059",
        "title": "公共厕所(阳西县儒洞镇边海红色展馆)",
        "address": "广东省阳江市阳西县儒洞镇边海红色展馆",
        "tel": "",
        "category": "基础设施:公共设施:公共厕所",
        "type": 0,
        "location": {
            "lat": 21.588852,
            "lng": 111.425733
        },
        "ad_info": {
            "adcode": 441721,
            "province": "广东省",
            "city": "阳江市",
            "district": "阳西县"
        }
    },
    {
        "id": "6898808942503206058",
        "title": "清水塘村公厕",
        "address": "广东省阳江市阳东区",
        "tel": "",
        "category": "基础设施:公共设施:公共厕所",
        "type": 0,
        "location": {
            "lat": 22.013451,
            "lng": 111.924723
        },
        "ad_info": {
            "adcode": 441704,
            "province": "广东省",
            "city": "阳江市",
            "district": "阳东区"
        }
    },
    {
        "id": "942068224371357823",
        "title": "许屋村公厕",
        "address": "广东省阳江市阳东区",
        "tel": "",
        "category": "基础设施:公共设施:公共厕所",
        "type": 0,
        "location": {
            "lat": 22.076229,
            "lng": 111.934885
        },
        "ad_info": {
            "adcode": 441704,
            "province": "广东省",
            "city": "阳江市",
            "district": "阳东区"
        }
    },
    {
        "id": "8781560465285378000",
        "title": "塘滑村公厕",
        "address": "广东省阳江市阳东区X599",
        "tel": "",
        "category": "基础设施:公共设施:公共厕所",
        "type": 0,
        "location": {
            "lat": 22.030692,
            "lng": 111.966971
        },
        "ad_info": {
            "adcode": 441704,
            "province": "广东省",
            "city": "阳江市",
            "district": "阳东区"
        }
    },
    {
        "id": "18252156117951122637",
        "title": "公共厕所",
        "address": "广东省阳江市阳春市双滘东方街与桂新街交叉口正南方向66米左右",
        "tel": "",
        "category": "基础设施:公共设施:公共厕所",
        "type": 0,
        "location": {
            "lat": 22.097627,
            "lng": 111.362974
        },
        "ad_info": {
            "adcode": 441781,
            "province": "广东省",
            "city": "阳江市",
            "district": "阳春市"
        }
    },
    {
        "id": "6802343644420458202",
        "title": "公共厕所",
        "address": "广东省阳江市阳东区那龙卫生站东侧100米",
        "tel": "",
        "category": "基础设施:公共设施:公共厕所",
        "type": 0,
        "location": {
            "lat": 22.041507,
            "lng": 112.21466
        },
        "ad_info": {
            "adcode": 441704,
            "province": "广东省",
            "city": "阳江市",
            "district": "阳东区"
        }
    },
    {
        "id": "5290257784818217885",
        "title": "康村公厕",
        "address": "广东省阳江市阳东区X599",
        "tel": "",
        "category": "基础设施:公共设施:公共厕所",
        "type": 0,
        "location": {
            "lat": 22.02994,
            "lng": 111.956863
        },
        "ad_info": {
            "adcode": 441704,
            "province": "广东省",
            "city": "阳江市",
            "district": "阳东区"
        }
    },
    {
        "id": "4693090877455496980",
        "title": "公共厕所",
        "address": "广东省阳江市阳春市附近",
        "tel": "",
        "category": "基础设施:公共设施:公共厕所",
        "type": 0,
        "location": {
            "lat": 22.170534,
            "lng": 111.860883
        },
        "ad_info": {
            "adcode": 441781,
            "province": "广东省",
            "city": "阳江市",
            "district": "阳春市"
        }
    },
    {
        "id": "1290778734183655335",
        "title": "帮羊村公厕",
        "address": "广东省阳江市阳东区",
        "tel": "",
        "category": "基础设施:公共设施:公共厕所",
        "type": 0,
        "location": {
            "lat": 21.990184,
            "lng": 111.945732
        },
        "ad_info": {
            "adcode": 441704,
            "province": "广东省",
            "city": "阳江市",
            "district": "阳东区"
        }
    },
    {
        "id": "14588968315120076802",
        "title": "公共厕所",
        "address": "广东省阳江市江城区二环路与文明路交叉口正南方向70米左右",
        "tel": "",
        "category": "基础设施:公共设施:公共厕所",
        "type": 0,
        "location": {
            "lat": 21.840621,
            "lng": 111.976431
        },
        "ad_info": {
            "adcode": 441702,
            "province": "广东省",
            "city": "阳江市",
            "district": "江城区"
        }
    },
    {
        "id": "13646182028432270703",
        "title": "阳西服务区公共厕所",
        "address": "广东省阳江市阳西县阳西服务区西北40米",
        "tel": "",
        "category": "基础设施:公共设施:公共厕所",
        "type": 0,
        "location": {
            "lat": 21.821687,
            "lng": 111.642889
        },
        "ad_info": {
            "adcode": 441721,
            "province": "广东省",
            "city": "阳江市",
            "district": "阳西县"
        }
    },
    {
        "id": "9609888090886308428",
        "title": "公共厕所",
        "address": "广东省阳江市阳春市春州大道与朝阳路交叉口东北方向140米左右",
        "tel": "",
        "category": "基础设施:公共设施:公共厕所",
        "type": 0,
        "location": {
            "lat": 22.184766,
            "lng": 111.798651
        },
        "ad_info": {
            "adcode": 441781,
            "province": "广东省",
            "city": "阳江市",
            "district": "阳春市"
        }
    },
    {
        "id": "16266325663611020128",
        "title": "公共厕所",
        "address": "广东省阳江市阳西县湖景路西湖公园(西北角)",
        "tel": "",
        "category": "基础设施:公共设施:公共厕所",
        "type": 0,
        "location": {
            "lat": 21.75257,
            "lng": 111.607497
        },
        "ad_info": {
            "adcode": 441721,
            "province": "广东省",
            "city": "阳江市",
            "district": "阳西县"
        }
    },
    {
        "id": "254777790692682095",
        "title": "公共厕所",
        "address": "广东省阳江市阳东区合山镇阳东站",
        "tel": "",
        "category": "基础设施:公共设施:公共厕所",
        "type": 0,
        "location": {
            "lat": 21.956429,
            "lng": 112.153906
        },
        "ad_info": {
            "adcode": 441704,
            "province": "广东省",
            "city": "阳江市",
            "district": "阳东区"
        }
    },
    {
        "id": "16137400061204554553",
        "title": "白沙塘村公厕",
        "address": "广东省阳江市阳东区东山大道",
        "tel": "",
        "category": "基础设施:公共设施:公共厕所",
        "type": 0,
        "location": {
            "lat": 22.022456,
            "lng": 111.808093
        },
        "ad_info": {
            "adcode": 441704,
            "province": "广东省",
            "city": "阳江市",
            "district": "阳东区"
        }
    },
    {
        "id": "15406563600218405940",
        "title": "马尾村委会圳坪村公厕",
        "address": "广东省阳江市阳东区",
        "tel": "",
        "category": "基础设施:公共设施:公共厕所",
        "type": 0,
        "location": {
            "lat": 22.002311,
            "lng": 111.905317
        },
        "ad_info": {
            "adcode": 441704,
            "province": "广东省",
            "city": "阳江市",
            "district": "阳东区"
        }
    },
    {
        "id": "8641360875915604360",
        "title": "公共厕所",
        "address": "广东省阳江市阳春市S113高流古墟旁",
        "tel": "",
        "category": "基础设施:公共设施:公共厕所",
        "type": 0,
        "location": {
            "lat": 22.259202,
            "lng": 111.849927
        },
        "ad_info": {
            "adcode": 441781,
            "province": "广东省",
            "city": "阳江市",
            "district": "阳春市"
        }
    },
    {
        "id": "2207254607557325327",
        "title": "军地村公厕",
        "address": "广东省阳江市阳东区",
        "tel": "",
        "category": "基础设施:公共设施:公共厕所",
        "type": 0,
        "location": {
            "lat": 22.035307,
            "lng": 111.934091
        },
        "ad_info": {
            "adcode": 441704,
            "province": "广东省",
            "city": "阳江市",
            "district": "阳东区"
        }
    },
    {
        "id": "17749669396183503925",
        "title": "公共厕所",
        "address": "广东省阳江市阳春市东兴中路与东兴二街交叉口东北方向74米左右",
        "tel": "",
        "category": "基础设施:公共设施:公共厕所",
        "type": 0,
        "location": {
            "lat": 22.161004,
            "lng": 111.79857
        },
        "ad_info": {
            "adcode": 441781,
            "province": "广东省",
            "city": "阳江市",
            "district": "阳春市"
        }
    },
    {
        "id": "17881392168373435604",
        "title": "石塘村公厕",
        "address": "广东省阳江市阳东区",
        "tel": "",
        "category": "基础设施:公共设施:公共厕所",
        "type": 0,
        "location": {
            "lat": 22.032372,
            "lng": 111.933304
        },
        "ad_info": {
            "adcode": 441704,
            "province": "广东省",
            "city": "阳江市",
            "district": "阳东区"
        }
    },
    {
        "id": "9365872612395461059",
        "title": "公共厕所(阳西县儒洞镇边海红色展馆)",
        "address": "广东省阳江市阳西县儒洞镇边海红色展馆",
        "tel": "",
        "category": "基础设施:公共设施:公共厕所",
        "type": 0,
        "location": {
            "lat": 21.588852,
            "lng": 111.425733
        },
        "ad_info": {
            "adcode": 441721,
            "province": "广东省",
            "city": "阳江市",
            "district": "阳西县"
        }
    },
    {
        "id": "6898808942503206058",
        "title": "清水塘村公厕",
        "address": "广东省阳江市阳东区",
        "tel": "",
        "category": "基础设施:公共设施:公共厕所",
        "type": 0,
        "location": {
            "lat": 22.013451,
            "lng": 111.924723
        },
        "ad_info": {
            "adcode": 441704,
            "province": "广东省",
            "city": "阳江市",
            "district": "阳东区"
        }
    },
    {
        "id": "942068224371357823",
        "title": "许屋村公厕",
        "address": "广东省阳江市阳东区",
        "tel": "",
        "category": "基础设施:公共设施:公共厕所",
        "type": 0,
        "location": {
            "lat": 22.076229,
            "lng": 111.934885
        },
        "ad_info": {
            "adcode": 441704,
            "province": "广东省",
            "city": "阳江市",
            "district": "阳东区"
        }
    },
    {
        "id": "8781560465285378000",
        "title": "塘滑村公厕",
        "address": "广东省阳江市阳东区X599",
        "tel": "",
        "category": "基础设施:公共设施:公共厕所",
        "type": 0,
        "location": {
            "lat": 22.030692,
            "lng": 111.966971
        },
        "ad_info": {
            "adcode": 441704,
            "province": "广东省",
            "city": "阳江市",
            "district": "阳东区"
        }
    },
    {
        "id": "18252156117951122637",
        "title": "公共厕所",
        "address": "广东省阳江市阳春市双滘东方街与桂新街交叉口正南方向66米左右",
        "tel": "",
        "category": "基础设施:公共设施:公共厕所",
        "type": 0,
        "location": {
            "lat": 22.097627,
            "lng": 111.362974
        },
        "ad_info": {
            "adcode": 441781,
            "province": "广东省",
            "city": "阳江市",
            "district": "阳春市"
        }
    },
    {
        "id": "6802343644420458202",
        "title": "公共厕所",
        "address": "广东省阳江市阳东区那龙卫生站东侧100米",
        "tel": "",
        "category": "基础设施:公共设施:公共厕所",
        "type": 0,
        "location": {
            "lat": 22.041507,
            "lng": 112.21466
        },
        "ad_info": {
            "adcode": 441704,
            "province": "广东省",
            "city": "阳江市",
            "district": "阳东区"
        }
    },
    {
        "id": "5290257784818217885",
        "title": "康村公厕",
        "address": "广东省阳江市阳东区X599",
        "tel": "",
        "category": "基础设施:公共设施:公共厕所",
        "type": 0,
        "location": {
            "lat": 22.02994,
            "lng": 111.956863
        },
        "ad_info": {
            "adcode": 441704,
            "province": "广东省",
            "city": "阳江市",
            "district": "阳东区"
        }
    },
    {
        "id": "4693090877455496980",
        "title": "公共厕所",
        "address": "广东省阳江市阳春市附近",
        "tel": "",
        "category": "基础设施:公共设施:公共厕所",
        "type": 0,
        "location": {
            "lat": 22.170534,
            "lng": 111.860883
        },
        "ad_info": {
            "adcode": 441781,
            "province": "广东省",
            "city": "阳江市",
            "district": "阳春市"
        }
    },
    {
        "id": "1290778734183655335",
        "title": "帮羊村公厕",
        "address": "广东省阳江市阳东区",
        "tel": "",
        "category": "基础设施:公共设施:公共厕所",
        "type": 0,
        "location": {
            "lat": 21.990184,
            "lng": 111.945732
        },
        "ad_info": {
            "adcode": 441704,
            "province": "广东省",
            "city": "阳江市",
            "district": "阳东区"
        }
    },
    {
        "id": "14588968315120076802",
        "title": "公共厕所",
        "address": "广东省阳江市江城区二环路与文明路交叉口正南方向70米左右",
        "tel": "",
        "category": "基础设施:公共设施:公共厕所",
        "type": 0,
        "location": {
            "lat": 21.840621,
            "lng": 111.976431
        },
        "ad_info": {
            "adcode": 441702,
            "province": "广东省",
            "city": "阳江市",
            "district": "江城区"
        }
    },
    {
        "id": "13646182028432270703",
        "title": "阳西服务区公共厕所",
        "address": "广东省阳江市阳西县阳西服务区西北40米",
        "tel": "",
        "category": "基础设施:公共设施:公共厕所",
        "type": 0,
        "location": {
            "lat": 21.821687,
            "lng": 111.642889
        },
        "ad_info": {
            "adcode": 441721,
            "province": "广东省",
            "city": "阳江市",
            "district": "阳西县"
        }
    },
    {
        "id": "9609888090886308428",
        "title": "公共厕所",
        "address": "广东省阳江市阳春市春州大道与朝阳路交叉口东北方向140米左右",
        "tel": "",
        "category": "基础设施:公共设施:公共厕所",
        "type": 0,
        "location": {
            "lat": 22.184766,
            "lng": 111.798651
        },
        "ad_info": {
            "adcode": 441781,
            "province": "广东省",
            "city": "阳江市",
            "district": "阳春市"
        }
    },
    {
        "id": "16266325663611020128",
        "title": "公共厕所",
        "address": "广东省阳江市阳西县湖景路西湖公园(西北角)",
        "tel": "",
        "category": "基础设施:公共设施:公共厕所",
        "type": 0,
        "location": {
            "lat": 21.75257,
            "lng": 111.607497
        },
        "ad_info": {
            "adcode": 441721,
            "province": "广东省",
            "city": "阳江市",
            "district": "阳西县"
        }
    },
    {
        "id": "254777790692682095",
        "title": "公共厕所",
        "address": "广东省阳江市阳东区合山镇阳东站",
        "tel": "",
        "category": "基础设施:公共设施:公共厕所",
        "type": 0,
        "location": {
            "lat": 21.956429,
            "lng": 112.153906
        },
        "ad_info": {
            "adcode": 441704,
            "province": "广东省",
            "city": "阳江市",
            "district": "阳东区"
        }
    },
    {
        "id": "16137400061204554553",
        "title": "白沙塘村公厕",
        "address": "广东省阳江市阳东区东山大道",
        "tel": "",
        "category": "基础设施:公共设施:公共厕所",
        "type": 0,
        "location": {
            "lat": 22.022456,
            "lng": 111.808093
        },
        "ad_info": {
            "adcode": 441704,
            "province": "广东省",
            "city": "阳江市",
            "district": "阳东区"
        }
    },
    {
        "id": "15406563600218405940",
        "title": "马尾村委会圳坪村公厕",
        "address": "广东省阳江市阳东区",
        "tel": "",
        "category": "基础设施:公共设施:公共厕所",
        "type": 0,
        "location": {
            "lat": 22.002311,
            "lng": 111.905317
        },
        "ad_info": {
            "adcode": 441704,
            "province": "广东省",
            "city": "阳江市",
            "district": "阳东区"
        }
    },
    {
        "id": "8641360875915604360",
        "title": "公共厕所",
        "address": "广东省阳江市阳春市S113高流古墟旁",
        "tel": "",
        "category": "基础设施:公共设施:公共厕所",
        "type": 0,
        "location": {
            "lat": 22.259202,
            "lng": 111.849927
        },
        "ad_info": {
            "adcode": 441781,
            "province": "广东省",
            "city": "阳江市",
            "district": "阳春市"
        }
    },
    {
        "id": "2207254607557325327",
        "title": "军地村公厕",
        "address": "广东省阳江市阳东区",
        "tel": "",
        "category": "基础设施:公共设施:公共厕所",
        "type": 0,
        "location": {
            "lat": 22.035307,
            "lng": 111.934091
        },
        "ad_info": {
            "adcode": 441704,
            "province": "广东省",
            "city": "阳江市",
            "district": "阳东区"
        }
    },
    {
        "id": "17749669396183503925",
        "title": "公共厕所",
        "address": "广东省阳江市阳春市东兴中路与东兴二街交叉口东北方向74米左右",
        "tel": "",
        "category": "基础设施:公共设施:公共厕所",
        "type": 0,
        "location": {
            "lat": 22.161004,
            "lng": 111.79857
        },
        "ad_info": {
            "adcode": 441781,
            "province": "广东省",
            "city": "阳江市",
            "district": "阳春市"
        }
    },
    {
        "id": "17881392168373435604",
        "title": "石塘村公厕",
        "address": "广东省阳江市阳东区",
        "tel": "",
        "category": "基础设施:公共设施:公共厕所",
        "type": 0,
        "location": {
            "lat": 22.032372,
            "lng": 111.933304
        },
        "ad_info": {
            "adcode": 441704,
            "province": "广东省",
            "city": "阳江市",
            "district": "阳东区"
        }
    },
    {
        "id": "9365872612395461059",
        "title": "公共厕所(阳西县儒洞镇边海红色展馆)",
        "address": "广东省阳江市阳西县儒洞镇边海红色展馆",
        "tel": "",
        "category": "基础设施:公共设施:公共厕所",
        "type": 0,
        "location": {
            "lat": 21.588852,
            "lng": 111.425733
        },
        "ad_info": {
            "adcode": 441721,
            "province": "广东省",
            "city": "阳江市",
            "district": "阳西县"
        }
    },
    {
        "id": "6898808942503206058",
        "title": "清水塘村公厕",
        "address": "广东省阳江市阳东区",
        "tel": "",
        "category": "基础设施:公共设施:公共厕所",
        "type": 0,
        "location": {
            "lat": 22.013451,
            "lng": 111.924723
        },
        "ad_info": {
            "adcode": 441704,
            "province": "广东省",
            "city": "阳江市",
            "district": "阳东区"
        }
    },
    {
        "id": "942068224371357823",
        "title": "许屋村公厕",
        "address": "广东省阳江市阳东区",
        "tel": "",
        "category": "基础设施:公共设施:公共厕所",
        "type": 0,
        "location": {
            "lat": 22.076229,
            "lng": 111.934885
        },
        "ad_info": {
            "adcode": 441704,
            "province": "广东省",
            "city": "阳江市",
            "district": "阳东区"
        }
    },
    {
        "id": "8781560465285378000",
        "title": "塘滑村公厕",
        "address": "广东省阳江市阳东区X599",
        "tel": "",
        "category": "基础设施:公共设施:公共厕所",
        "type": 0,
        "location": {
            "lat": 22.030692,
            "lng": 111.966971
        },
        "ad_info": {
            "adcode": 441704,
            "province": "广东省",
            "city": "阳江市",
            "district": "阳东区"
        }
    },
    {
        "id": "18252156117951122637",
        "title": "公共厕所",
        "address": "广东省阳江市阳春市双滘东方街与桂新街交叉口正南方向66米左右",
        "tel": "",
        "category": "基础设施:公共设施:公共厕所",
        "type": 0,
        "location": {
            "lat": 22.097627,
            "lng": 111.362974
        },
        "ad_info": {
            "adcode": 441781,
            "province": "广东省",
            "city": "阳江市",
            "district": "阳春市"
        }
    },
    {
        "id": "6802343644420458202",
        "title": "公共厕所",
        "address": "广东省阳江市阳东区那龙卫生站东侧100米",
        "tel": "",
        "category": "基础设施:公共设施:公共厕所",
        "type": 0,
        "location": {
            "lat": 22.041507,
            "lng": 112.21466
        },
        "ad_info": {
            "adcode": 441704,
            "province": "广东省",
            "city": "阳江市",
            "district": "阳东区"
        }
    },
    {
        "id": "5290257784818217885",
        "title": "康村公厕",
        "address": "广东省阳江市阳东区X599",
        "tel": "",
        "category": "基础设施:公共设施:公共厕所",
        "type": 0,
        "location": {
            "lat": 22.02994,
            "lng": 111.956863
        },
        "ad_info": {
            "adcode": 441704,
            "province": "广东省",
            "city": "阳江市",
            "district": "阳东区"
        }
    },
    {
        "id": "4693090877455496980",
        "title": "公共厕所",
        "address": "广东省阳江市阳春市附近",
        "tel": "",
        "category": "基础设施:公共设施:公共厕所",
        "type": 0,
        "location": {
            "lat": 22.170534,
            "lng": 111.860883
        },
        "ad_info": {
            "adcode": 441781,
            "province": "广东省",
            "city": "阳江市",
            "district": "阳春市"
        }
    },
    {
        "id": "1290778734183655335",
        "title": "帮羊村公厕",
        "address": "广东省阳江市阳东区",
        "tel": "",
        "category": "基础设施:公共设施:公共厕所",
        "type": 0,
        "location": {
            "lat": 21.990184,
            "lng": 111.945732
        },
        "ad_info": {
            "adcode": 441704,
            "province": "广东省",
            "city": "阳江市",
            "district": "阳东区"
        }
    },
    {
        "id": "14588968315120076802",
        "title": "公共厕所",
        "address": "广东省阳江市江城区二环路与文明路交叉口正南方向70米左右",
        "tel": "",
        "category": "基础设施:公共设施:公共厕所",
        "type": 0,
        "location": {
            "lat": 21.840621,
            "lng": 111.976431
        },
        "ad_info": {
            "adcode": 441702,
            "province": "广东省",
            "city": "阳江市",
            "district": "江城区"
        }
    },
    {
        "id": "13646182028432270703",
        "title": "阳西服务区公共厕所",
        "address": "广东省阳江市阳西县阳西服务区西北40米",
        "tel": "",
        "category": "基础设施:公共设施:公共厕所",
        "type": 0,
        "location": {
            "lat": 21.821687,
            "lng": 111.642889
        },
        "ad_info": {
            "adcode": 441721,
            "province": "广东省",
            "city": "阳江市",
            "district": "阳西县"
        }
    },
    {
        "id": "9609888090886308428",
        "title": "公共厕所",
        "address": "广东省阳江市阳春市春州大道与朝阳路交叉口东北方向140米左右",
        "tel": "",
        "category": "基础设施:公共设施:公共厕所",
        "type": 0,
        "location": {
            "lat": 22.184766,
            "lng": 111.798651
        },
        "ad_info": {
            "adcode": 441781,
            "province": "广东省",
            "city": "阳江市",
            "district": "阳春市"
        }
    },
    {
        "id": "16266325663611020128",
        "title": "公共厕所",
        "address": "广东省阳江市阳西县湖景路西湖公园(西北角)",
        "tel": "",
        "category": "基础设施:公共设施:公共厕所",
        "type": 0,
        "location": {
            "lat": 21.75257,
            "lng": 111.607497
        },
        "ad_info": {
            "adcode": 441721,
            "province": "广东省",
            "city": "阳江市",
            "district": "阳西县"
        }
    },
    {
        "id": "254777790692682095",
        "title": "公共厕所",
        "address": "广东省阳江市阳东区合山镇阳东站",
        "tel": "",
        "category": "基础设施:公共设施:公共厕所",
        "type": 0,
        "location": {
            "lat": 21.956429,
            "lng": 112.153906
        },
        "ad_info": {
            "adcode": 441704,
            "province": "广东省",
            "city": "阳江市",
            "district": "阳东区"
        }
    },
    {
        "id": "16137400061204554553",
        "title": "白沙塘村公厕",
        "address": "广东省阳江市阳东区东山大道",
        "tel": "",
        "category": "基础设施:公共设施:公共厕所",
        "type": 0,
        "location": {
            "lat": 22.022456,
            "lng": 111.808093
        },
        "ad_info": {
            "adcode": 441704,
            "province": "广东省",
            "city": "阳江市",
            "district": "阳东区"
        }
    },
    {
        "id": "15406563600218405940",
        "title": "马尾村委会圳坪村公厕",
        "address": "广东省阳江市阳东区",
        "tel": "",
        "category": "基础设施:公共设施:公共厕所",
        "type": 0,
        "location": {
            "lat": 22.002311,
            "lng": 111.905317
        },
        "ad_info": {
            "adcode": 441704,
            "province": "广东省",
            "city": "阳江市",
            "district": "阳东区"
        }
    },
    {
        "id": "8641360875915604360",
        "title": "公共厕所",
        "address": "广东省阳江市阳春市S113高流古墟旁",
        "tel": "",
        "category": "基础设施:公共设施:公共厕所",
        "type": 0,
        "location": {
            "lat": 22.259202,
            "lng": 111.849927
        },
        "ad_info": {
            "adcode": 441781,
            "province": "广东省",
            "city": "阳江市",
            "district": "阳春市"
        }
    },
    {
        "id": "2207254607557325327",
        "title": "军地村公厕",
        "address": "广东省阳江市阳东区",
        "tel": "",
        "category": "基础设施:公共设施:公共厕所",
        "type": 0,
        "location": {
            "lat": 22.035307,
            "lng": 111.934091
        },
        "ad_info": {
            "adcode": 441704,
            "province": "广东省",
            "city": "阳江市",
            "district": "阳东区"
        }
    },
    {
        "id": "17749669396183503925",
        "title": "公共厕所",
        "address": "广东省阳江市阳春市东兴中路与东兴二街交叉口东北方向74米左右",
        "tel": "",
        "category": "基础设施:公共设施:公共厕所",
        "type": 0,
        "location": {
            "lat": 22.161004,
            "lng": 111.79857
        },
        "ad_info": {
            "adcode": 441781,
            "province": "广东省",
            "city": "阳江市",
            "district": "阳春市"
        }
    },
    {
        "id": "17881392168373435604",
        "title": "石塘村公厕",
        "address": "广东省阳江市阳东区",
        "tel": "",
        "category": "基础设施:公共设施:公共厕所",
        "type": 0,
        "location": {
            "lat": 22.032372,
            "lng": 111.933304
        },
        "ad_info": {
            "adcode": 441704,
            "province": "广东省",
            "city": "阳江市",
            "district": "阳东区"
        }
    },
    {
        "id": "9365872612395461059",
        "title": "公共厕所(阳西县儒洞镇边海红色展馆)",
        "address": "广东省阳江市阳西县儒洞镇边海红色展馆",
        "tel": "",
        "category": "基础设施:公共设施:公共厕所",
        "type": 0,
        "location": {
            "lat": 21.588852,
            "lng": 111.425733
        },
        "ad_info": {
            "adcode": 441721,
            "province": "广东省",
            "city": "阳江市",
            "district": "阳西县"
        }
    },
    {
        "id": "6898808942503206058",
        "title": "清水塘村公厕",
        "address": "广东省阳江市阳东区",
        "tel": "",
        "category": "基础设施:公共设施:公共厕所",
        "type": 0,
        "location": {
            "lat": 22.013451,
            "lng": 111.924723
        },
        "ad_info": {
            "adcode": 441704,
            "province": "广东省",
            "city": "阳江市",
            "district": "阳东区"
        }
    },
    {
        "id": "942068224371357823",
        "title": "许屋村公厕",
        "address": "广东省阳江市阳东区",
        "tel": "",
        "category": "基础设施:公共设施:公共厕所",
        "type": 0,
        "location": {
            "lat": 22.076229,
            "lng": 111.934885
        },
        "ad_info": {
            "adcode": 441704,
            "province": "广东省",
            "city": "阳江市",
            "district": "阳东区"
        }
    },
    {
        "id": "8781560465285378000",
        "title": "塘滑村公厕",
        "address": "广东省阳江市阳东区X599",
        "tel": "",
        "category": "基础设施:公共设施:公共厕所",
        "type": 0,
        "location": {
            "lat": 22.030692,
            "lng": 111.966971
        },
        "ad_info": {
            "adcode": 441704,
            "province": "广东省",
            "city": "阳江市",
            "district": "阳东区"
        }
    },
    {
        "id": "18252156117951122637",
        "title": "公共厕所",
        "address": "广东省阳江市阳春市双滘东方街与桂新街交叉口正南方向66米左右",
        "tel": "",
        "category": "基础设施:公共设施:公共厕所",
        "type": 0,
        "location": {
            "lat": 22.097627,
            "lng": 111.362974
        },
        "ad_info": {
            "adcode": 441781,
            "province": "广东省",
            "city": "阳江市",
            "district": "阳春市"
        }
    },
    {
        "id": "6802343644420458202",
        "title": "公共厕所",
        "address": "广东省阳江市阳东区那龙卫生站东侧100米",
        "tel": "",
        "category": "基础设施:公共设施:公共厕所",
        "type": 0,
        "location": {
            "lat": 22.041507,
            "lng": 112.21466
        },
        "ad_info": {
            "adcode": 441704,
            "province": "广东省",
            "city": "阳江市",
            "district": "阳东区"
        }
    },
    {
        "id": "5290257784818217885",
        "title": "康村公厕",
        "address": "广东省阳江市阳东区X599",
        "tel": "",
        "category": "基础设施:公共设施:公共厕所",
        "type": 0,
        "location": {
            "lat": 22.02994,
            "lng": 111.956863
        },
        "ad_info": {
            "adcode": 441704,
            "province": "广东省",
            "city": "阳江市",
            "district": "阳东区"
        }
    },
    {
        "id": "4693090877455496980",
        "title": "公共厕所",
        "address": "广东省阳江市阳春市附近",
        "tel": "",
        "category": "基础设施:公共设施:公共厕所",
        "type": 0,
        "location": {
            "lat": 22.170534,
            "lng": 111.860883
        },
        "ad_info": {
            "adcode": 441781,
            "province": "广东省",
            "city": "阳江市",
            "district": "阳春市"
        }
    },
    {
        "id": "1290778734183655335",
        "title": "帮羊村公厕",
        "address": "广东省阳江市阳东区",
        "tel": "",
        "category": "基础设施:公共设施:公共厕所",
        "type": 0,
        "location": {
            "lat": 21.990184,
            "lng": 111.945732
        },
        "ad_info": {
            "adcode": 441704,
            "province": "广东省",
            "city": "阳江市",
            "district": "阳东区"
        }
    },
    {
        "id": "14588968315120076802",
        "title": "公共厕所",
        "address": "广东省阳江市江城区二环路与文明路交叉口正南方向70米左右",
        "tel": "",
        "category": "基础设施:公共设施:公共厕所",
        "type": 0,
        "location": {
            "lat": 21.840621,
            "lng": 111.976431
        },
        "ad_info": {
            "adcode": 441702,
            "province": "广东省",
            "city": "阳江市",
            "district": "江城区"
        }
    }
]