[
    {
        "id": "4200193690185338068",
        "title": "公共厕所",
        "address": "四川省阿坝藏族羌族自治州若尔盖县G248与康萨寺路交叉口正西方向70米左右",
        "tel": "",
        "category": "基础设施:公共设施:公共厕所",
        "type": 0,
        "location": {
            "lat": 34.09832,
            "lng": 102.739127
        },
        "ad_info": {
            "adcode": 513232,
            "province": "四川省",
            "city": "阿坝藏族羌族自治州",
            "district": "若尔盖县"
        }
    },
    {
        "id": "17825798082481569075",
        "title": "公共厕所",
        "address": "四川省阿坝藏族羌族自治州九寨沟县G544与边边街交叉口西南方向214米左右",
        "tel": "",
        "category": "基础设施:公共设施:公共厕所",
        "type": 0,
        "location": {
            "lat": 33.277674,
            "lng": 103.934382
        },
        "ad_info": {
            "adcode": 513225,
            "province": "四川省",
            "city": "阿坝藏族羌族自治州",
            "district": "九寨沟县"
        }
    },
    {
        "id": "7400905831330423627",
        "title": "公共厕所",
        "address": "四川省阿坝藏族羌族自治州红原县绛熙东街与绛熙中街交叉口西南方向67米左右",
        "tel": "",
        "category": "基础设施:公共设施:公共厕所",
        "type": 0,
        "location": {
            "lat": 32.793528,
            "lng": 102.545034
        },
        "ad_info": {
            "adcode": 513233,
            "province": "四川省",
            "city": "阿坝藏族羌族自治州",
            "district": "红原县"
        }
    },
    {
        "id": "10884614055053476287",
        "title": "公共厕所",
        "address": "四川省阿坝藏族羌族自治州松潘县滨江路与顺城北路交叉口正北方向204米左右",
        "tel": "",
        "category": "基础设施:公共设施:公共厕所",
        "type": 0,
        "location": {
            "lat": 32.637904,
            "lng": 103.600682
        },
        "ad_info": {
            "adcode": 513224,
            "province": "四川省",
            "city": "阿坝藏族羌族自治州",
            "district": "松潘县"
        }
    },
    {
        "id": "14164613340017804864",
        "title": "公共卫生间",
        "address": "四川省阿坝藏族羌族自治州若尔盖县商业街与香巴拉北街交叉口正北方向110米左右",
        "tel": "",
        "category": "基础设施:公共设施:公共厕所",
        "type": 0,
        "location": {
            "lat": 33.577202,
            "lng": 102.961633
        },
        "ad_info": {
            "adcode": 513232,
            "province": "四川省",
            "city": "阿坝藏族羌族自治州",
            "district": "若尔盖县"
        }
    },
    {
        "id": "10087314074013703077",
        "title": "公共厕所",
        "address": "四川省阿坝藏族羌族自治州黑水县吉祥营地",
        "tel": "",
        "category": "基础设施:公共设施:公共厕所",
        "type": 0,
        "location": {
            "lat": 32.140952,
            "lng": 102.727002
        },
        "ad_info": {
            "adcode": 513228,
            "province": "四川省",
            "city": "阿坝藏族羌族自治州",
            "district": "黑水县"
        }
    },
    {
        "id": "12250417179430175006",
        "title": "公共厕所",
        "address": "四川省阿坝藏族羌族自治州茂县中心大道与步行街交叉口东北方向83米左右",
        "tel": "",
        "category": "基础设施:公共设施:公共厕所",
        "type": 0,
        "location": {
            "lat": 31.681495,
            "lng": 103.851005
        },
        "ad_info": {
            "adcode": 513223,
            "province": "四川省",
            "city": "阿坝藏族羌族自治州",
            "district": "茂县"
        }
    },
    {
        "id": "16874279741372643018",
        "title": "公共厕所",
        "address": "四川省阿坝藏族羌族自治州金川县绰斯甲街与观音路交叉口正北方向154米左右",
        "tel": "",
        "category": "基础设施:公共设施:公共厕所",
        "type": 0,
        "location": {
            "lat": 31.799565,
            "lng": 101.655164
        },
        "ad_info": {
            "adcode": 513226,
            "province": "四川省",
            "city": "阿坝藏族羌族自治州",
            "district": "金川县"
        }
    },
    {
        "id": "15777015060309528927",
        "title": "公共厕所",
        "address": "四川省阿坝藏族羌族自治州若尔盖县热尔乡附近",
        "tel": "",
        "category": "基础设施:公共设施:公共厕所",
        "type": 0,
        "location": {
            "lat": 34.022044,
            "lng": 103.065197
        },
        "ad_info": {
            "adcode": 513232,
            "province": "四川省",
            "city": "阿坝藏族羌族自治州",
            "district": "若尔盖县"
        }
    },
    {
        "id": "8746061815819182651",
        "title": "公共厕所",
        "address": "四川省阿坝藏族羌族自治州茂县G213与Y106交叉口西北方向1019米左右",
        "tel": "",
        "category": "基础设施:公共设施:公共厕所",
        "type": 0,
        "location": {
            "lat": 31.762287,
            "lng": 103.819941
        },
        "ad_info": {
            "adcode": 513223,
            "province": "四川省",
            "city": "阿坝藏族羌族自治州",
            "district": "茂县"
        }
    },
    {
        "id": "10654394540633119987",
        "title": "公共厕所",
        "address": "四川省阿坝藏族羌族自治州马尔康市马尔康柯盘天街观景平台西北侧",
        "tel": "",
        "category": "基础设施:公共设施:公共厕所",
        "type": 0,
        "location": {
            "lat": 31.917172,
            "lng": 102.102659
        },
        "ad_info": {
            "adcode": 513201,
            "province": "四川省",
            "city": "阿坝藏族羌族自治州",
            "district": "马尔康市"
        }
    },
    {
        "id": "12437828234992159988",
        "title": "公共厕所",
        "address": "四川省阿坝藏族羌族自治州茂县羌寨饭庄西北侧60米",
        "tel": "",
        "category": "基础设施:公共设施:公共厕所",
        "type": 0,
        "location": {
            "lat": 31.775764,
            "lng": 103.779392
        },
        "ad_info": {
            "adcode": 513223,
            "province": "四川省",
            "city": "阿坝藏族羌族自治州",
            "district": "茂县"
        }
    },
    {
        "id": "18230911101446326651",
        "title": "公共厕所",
        "address": "四川省阿坝藏族羌族自治州松潘县醉高原驿站东北侧140米",
        "tel": "",
        "category": "基础设施:公共设施:公共厕所",
        "type": 0,
        "location": {
            "lat": 32.775686,
            "lng": 103.644021
        },
        "ad_info": {
            "adcode": 513224,
            "province": "四川省",
            "city": "阿坝藏族羌族自治州",
            "district": "松潘县"
        }
    },
    {
        "id": "7072454529030363436",
        "title": "公共厕所",
        "address": "四川省阿坝藏族羌族自治州若尔盖县G248附近",
        "tel": "",
        "category": "基础设施:公共设施:公共厕所",
        "type": 0,
        "location": {
            "lat": 34.117656,
            "lng": 103.089465
        },
        "ad_info": {
            "adcode": 513232,
            "province": "四川省",
            "city": "阿坝藏族羌族自治州",
            "district": "若尔盖县"
        }
    },
    {
        "id": "11525514228946358306",
        "title": "公共厕所",
        "address": "四川省阿坝藏族羌族自治州若尔盖县Y550与冻列街交叉口正南方向496米左右",
        "tel": "",
        "category": "基础设施:公共设施:公共厕所",
        "type": 0,
        "location": {
            "lat": 34.092305,
            "lng": 103.107294
        },
        "ad_info": {
            "adcode": 513232,
            "province": "四川省",
            "city": "阿坝藏族羌族自治州",
            "district": "若尔盖县"
        }
    },
    {
        "id": "18120785773719237643",
        "title": "公共厕所",
        "address": "四川省阿坝藏族羌族自治州九寨沟县九寨大道与风成寺路交叉口正北方向100米左右",
        "tel": "",
        "category": "基础设施:公共设施:公共厕所",
        "type": 0,
        "location": {
            "lat": 33.256726,
            "lng": 104.245554
        },
        "ad_info": {
            "adcode": 513225,
            "province": "四川省",
            "city": "阿坝藏族羌族自治州",
            "district": "九寨沟县"
        }
    },
    {
        "id": "4610585574094420775",
        "title": "公共厕所",
        "address": "四川省阿坝藏族羌族自治州茂县G213与Y103交叉口正南方向178米左右",
        "tel": "",
        "category": "基础设施:公共设施:公共厕所",
        "type": 0,
        "location": {
            "lat": 32.034933,
            "lng": 103.684571
        },
        "ad_info": {
            "adcode": 513223,
            "province": "四川省",
            "city": "阿坝藏族羌族自治州",
            "district": "茂县"
        }
    },
    {
        "id": "663692769846108065",
        "title": "公共厕所",
        "address": "四川省阿坝藏族羌族自治州松潘县九红草原风光路与日渣路交叉口东北160米",
        "tel": "",
        "category": "基础设施:公共设施:公共厕所",
        "type": 0,
        "location": {
            "lat": 32.782021,
            "lng": 103.626851
        },
        "ad_info": {
            "adcode": 513224,
            "province": "四川省",
            "city": "阿坝藏族羌族自治州",
            "district": "松潘县"
        }
    },
    {
        "id": "194619440193084496",
        "title": "黄龙三号停车场公共厕所",
        "address": "四川省阿坝藏族羌族自治州松潘县必来客(平松路店)东北侧150米",
        "tel": "",
        "category": "基础设施:公共设施:公共厕所",
        "type": 0,
        "location": {
            "lat": 32.751944,
            "lng": 103.824099
        },
        "ad_info": {
            "adcode": 513224,
            "province": "四川省",
            "city": "阿坝藏族羌族自治州",
            "district": "松潘县"
        }
    },
    {
        "id": "7023863389822728242",
        "title": "公共厕所",
        "address": "四川省阿坝藏族羌族自治州九寨沟县301省道东50米",
        "tel": "",
        "category": "基础设施:公共设施:公共厕所",
        "type": 0,
        "location": {
            "lat": 33.048892,
            "lng": 103.733898
        },
        "ad_info": {
            "adcode": 513225,
            "province": "四川省",
            "city": "阿坝藏族羌族自治州",
            "district": "九寨沟县"
        }
    },
    {
        "id": "10415224317606671311",
        "title": "公共厕所",
        "address": "四川省阿坝藏族羌族自治州理县新环路与西大街交叉口正北方向124米左右",
        "tel": "",
        "category": "基础设施:公共设施:公共厕所",
        "type": 0,
        "location": {
            "lat": 31.437616,
            "lng": 103.16551
        },
        "ad_info": {
            "adcode": 513222,
            "province": "四川省",
            "city": "阿坝藏族羌族自治州",
            "district": "理县"
        }
    },
    {
        "id": "8033256697430704592",
        "title": "公共厕所",
        "address": "四川省阿坝藏族羌族自治州理县G317与新环路交叉口东南方向14米左右",
        "tel": "",
        "category": "基础设施:公共设施:公共厕所",
        "type": 0,
        "location": {
            "lat": 31.437273,
            "lng": 103.163203
        },
        "ad_info": {
            "adcode": 513222,
            "province": "四川省",
            "city": "阿坝藏族羌族自治州",
            "district": "理县"
        }
    },
    {
        "id": "15337983404161252447",
        "title": "公共厕所",
        "address": "四川省阿坝藏族羌族自治州松潘县两河路与滨河路交叉口正南方向132米左右",
        "tel": "",
        "category": "基础设施:公共设施:公共厕所",
        "type": 0,
        "location": {
            "lat": 32.774638,
            "lng": 103.623079
        },
        "ad_info": {
            "adcode": 513224,
            "province": "四川省",
            "city": "阿坝藏族羌族自治州",
            "district": "松潘县"
        }
    },
    {
        "id": "14727063042645007650",
        "title": "公共厕所",
        "address": "四川省阿坝藏族羌族自治州小金县后街与政府街交叉口正南方向49米左右",
        "tel": "",
        "category": "基础设施:公共设施:公共厕所",
        "type": 0,
        "location": {
            "lat": 30.996343,
            "lng": 102.359727
        },
        "ad_info": {
            "adcode": 513227,
            "province": "四川省",
            "city": "阿坝藏族羌族自治州",
            "district": "小金县"
        }
    },
    {
        "id": "11239734323549267245",
        "title": "公共厕所",
        "address": "四川省阿坝藏族羌族自治州金川县211省道南100米",
        "tel": "",
        "category": "基础设施:公共设施:公共厕所",
        "type": 0,
        "location": {
            "lat": 31.163693,
            "lng": 101.924919
        },
        "ad_info": {
            "adcode": 513226,
            "province": "四川省",
            "city": "阿坝藏族羌族自治州",
            "district": "金川县"
        }
    },
    {
        "id": "2005603573872073471",
        "title": "公共厕所",
        "address": "四川省阿坝藏族羌族自治州若尔盖县",
        "tel": "",
        "category": "基础设施:公共设施:公共厕所",
        "type": 0,
        "location": {
            "lat": 34.075231,
            "lng": 103.102372
        },
        "ad_info": {
            "adcode": 513232,
            "province": "四川省",
            "city": "阿坝藏族羌族自治州",
            "district": "若尔盖县"
        }
    },
    {
        "id": "15930305554347311417",
        "title": "公共厕所",
        "address": "四川省阿坝藏族羌族自治州茂县晋茂大道中段与朝阳街交叉口正北方向125米左右",
        "tel": "",
        "category": "基础设施:公共设施:公共厕所",
        "type": 0,
        "location": {
            "lat": 31.676816,
            "lng": 103.844161
        },
        "ad_info": {
            "adcode": 513223,
            "province": "四川省",
            "city": "阿坝藏族羌族自治州",
            "district": "茂县"
        }
    },
    {
        "id": "12586381125633251583",
        "title": "公共厕所",
        "address": "四川省阿坝藏族羌族自治州壤塘县G317与斯跃武1号大桥交叉口西南方向174米左右",
        "tel": "",
        "category": "基础设施:公共设施:公共厕所",
        "type": 0,
        "location": {
            "lat": 31.752188,
            "lng": 101.426922
        },
        "ad_info": {
            "adcode": 513230,
            "province": "四川省",
            "city": "阿坝藏族羌族自治州",
            "district": "壤塘县"
        }
    },
    {
        "id": "1563494684176237447",
        "title": "公共厕所",
        "address": "四川省阿坝藏族羌族自治州若尔盖县XU13与白河街二段交叉口东南方向173米左右",
        "tel": "",
        "category": "基础设施:公共设施:公共厕所",
        "type": 0,
        "location": {
            "lat": 33.408298,
            "lng": 102.470281
        },
        "ad_info": {
            "adcode": 513232,
            "province": "四川省",
            "city": "阿坝藏族羌族自治州",
            "district": "若尔盖县"
        }
    },
    {
        "id": "14585878584425044879",
        "title": "公共厕所",
        "address": "四川省阿坝藏族羌族自治州九寨沟县九寨大道与八一路交叉口正南方向156米左右",
        "tel": "",
        "category": "基础设施:公共设施:公共厕所",
        "type": 0,
        "location": {
            "lat": 33.252716,
            "lng": 104.245283
        },
        "ad_info": {
            "adcode": 513225,
            "province": "四川省",
            "city": "阿坝藏族羌族自治州",
            "district": "九寨沟县"
        }
    },
    {
        "id": "7638831860986925027",
        "title": "公共厕所",
        "address": "四川省阿坝藏族羌族自治州九寨沟县G544与党恩路交叉口东南方向103米左右",
        "tel": "",
        "category": "基础设施:公共设施:公共厕所",
        "type": 0,
        "location": {
            "lat": 33.317104,
            "lng": 103.985886
        },
        "ad_info": {
            "adcode": 513225,
            "province": "四川省",
            "city": "阿坝藏族羌族自治州",
            "district": "九寨沟县"
        }
    },
    {
        "id": "8666429316542455713",
        "title": "公共厕所",
        "address": "四川省阿坝藏族羌族自治州小金县熊猫大道",
        "tel": "",
        "category": "基础设施:公共设施:公共厕所",
        "type": 0,
        "location": {
            "lat": 30.984925,
            "lng": 102.782165
        },
        "ad_info": {
            "adcode": 513227,
            "province": "四川省",
            "city": "阿坝藏族羌族自治州",
            "district": "小金县"
        }
    },
    {
        "id": "4244262539224232620",
        "title": "公共厕所",
        "address": "四川省阿坝藏族羌族自治州红原县G248与Y600交叉口正北方向123米左右",
        "tel": "",
        "category": "基础设施:公共设施:公共厕所",
        "type": 0,
        "location": {
            "lat": 32.447627,
            "lng": 102.368453
        },
        "ad_info": {
            "adcode": 513233,
            "province": "四川省",
            "city": "阿坝藏族羌族自治州",
            "district": "红原县"
        }
    },
    {
        "id": "2606907243741129511",
        "title": "公共厕所",
        "address": "四川省阿坝藏族羌族自治州金川县王伟便民店北侧240米",
        "tel": "",
        "category": "基础设施:公共设施:公共厕所",
        "type": 0,
        "location": {
            "lat": 31.244056,
            "lng": 102.004008
        },
        "ad_info": {
            "adcode": 513226,
            "province": "四川省",
            "city": "阿坝藏族羌族自治州",
            "district": "金川县"
        }
    },
    {
        "id": "9581126264277330748",
        "title": "公共厕所",
        "address": "四川省阿坝藏族羌族自治州金川县G248",
        "tel": "",
        "category": "基础设施:公共设施:公共厕所",
        "type": 0,
        "location": {
            "lat": 31.149487,
            "lng": 101.912384
        },
        "ad_info": {
            "adcode": 513226,
            "province": "四川省",
            "city": "阿坝藏族羌族自治州",
            "district": "金川县"
        }
    },
    {
        "id": "5391917678350630853",
        "title": "公共厕所",
        "address": "四川省阿坝藏族羌族自治州九寨沟县九寨街与滨河路交叉口西北方向92米左右",
        "tel": "",
        "category": "基础设施:公共设施:公共厕所",
        "type": 0,
        "location": {
            "lat": 33.242995,
            "lng": 104.246078
        },
        "ad_info": {
            "adcode": 513225,
            "province": "四川省",
            "city": "阿坝藏族羌族自治州",
            "district": "九寨沟县"
        }
    },
    {
        "id": "5760595953280680602",
        "title": "公共厕所",
        "address": "四川省阿坝藏族羌族自治州理县317国道与G4217蓉昌高速出口交叉口西160米",
        "tel": "",
        "category": "基础设施:公共设施:公共厕所",
        "type": 0,
        "location": {
            "lat": 31.553736,
            "lng": 103.474499
        },
        "ad_info": {
            "adcode": 513222,
            "province": "四川省",
            "city": "阿坝藏族羌族自治州",
            "district": "理县"
        }
    },
    {
        "id": "1502266025280535982",
        "title": "公共厕所",
        "address": "四川省阿坝藏族羌族自治州松潘县G213",
        "tel": "",
        "category": "基础设施:公共设施:公共厕所",
        "type": 0,
        "location": {
            "lat": 32.662655,
            "lng": 103.604192
        },
        "ad_info": {
            "adcode": 513224,
            "province": "四川省",
            "city": "阿坝藏族羌族自治州",
            "district": "松潘县"
        }
    },
    {
        "id": "137828867532345380",
        "title": "公共厕所",
        "address": "四川省阿坝藏族羌族自治州茂县川汶公路西50米",
        "tel": "",
        "category": "基础设施:公共设施:公共厕所",
        "type": 0,
        "location": {
            "lat": 31.594203,
            "lng": 103.752278
        },
        "ad_info": {
            "adcode": 513223,
            "province": "四川省",
            "city": "阿坝藏族羌族自治州",
            "district": "茂县"
        }
    },
    {
        "id": "12209427492173369174",
        "title": "公共厕所",
        "address": "四川省阿坝藏族羌族自治州茂县兰磨线",
        "tel": "",
        "category": "基础设施:公共设施:公共厕所",
        "type": 0,
        "location": {
            "lat": 31.776566,
            "lng": 103.766563
        },
        "ad_info": {
            "adcode": 513223,
            "province": "四川省",
            "city": "阿坝藏族羌族自治州",
            "district": "茂县"
        }
    },
    {
        "id": "7523138933789559180",
        "title": "公共厕所",
        "address": "四川省阿坝藏族羌族自治州茂县川汶公路西50米",
        "tel": "",
        "category": "基础设施:公共设施:公共厕所",
        "type": 0,
        "location": {
            "lat": 31.897941,
            "lng": 103.686545
        },
        "ad_info": {
            "adcode": 513223,
            "province": "四川省",
            "city": "阿坝藏族羌族自治州",
            "district": "茂县"
        }
    },
    {
        "id": "10490496135932723522",
        "title": "公共厕所",
        "address": "四川省阿坝藏族羌族自治州茂县G213与青龙寺隧道交叉口东北方向1911米左右",
        "tel": "",
        "category": "基础设施:公共设施:公共厕所",
        "type": 0,
        "location": {
            "lat": 32.073439,
            "lng": 103.719812
        },
        "ad_info": {
            "adcode": 513223,
            "province": "四川省",
            "city": "阿坝藏族羌族自治州",
            "district": "茂县"
        }
    },
    {
        "id": "16967174449754295596",
        "title": "公共厕所",
        "address": "四川省阿坝藏族羌族自治州理县中心巷与南山路交叉口正南方向14米左右",
        "tel": "",
        "category": "基础设施:公共设施:公共厕所",
        "type": 0,
        "location": {
            "lat": 31.434536,
            "lng": 103.164409
        },
        "ad_info": {
            "adcode": 513222,
            "province": "四川省",
            "city": "阿坝藏族羌族自治州",
            "district": "理县"
        }
    },
    {
        "id": "12080396221893302103",
        "title": "公共厕所",
        "address": "四川省阿坝藏族羌族自治州松潘县阿吾仓大酒店东侧100米",
        "tel": "",
        "category": "基础设施:公共设施:公共厕所",
        "type": 0,
        "location": {
            "lat": 32.830053,
            "lng": 103.657176
        },
        "ad_info": {
            "adcode": 513224,
            "province": "四川省",
            "city": "阿坝藏族羌族自治州",
            "district": "松潘县"
        }
    },
    {
        "id": "16560219369275975846",
        "title": "公共厕所",
        "address": "四川省阿坝藏族羌族自治州小金县S217",
        "tel": "",
        "category": "基础设施:公共设施:公共厕所",
        "type": 0,
        "location": {
            "lat": 31.501484,
            "lng": 102.462827
        },
        "ad_info": {
            "adcode": 513227,
            "province": "四川省",
            "city": "阿坝藏族羌族自治州",
            "district": "小金县"
        }
    },
    {
        "id": "1397076262438136786",
        "title": "公共厕所",
        "address": "四川省阿坝藏族羌族自治州理县317国道西50米",
        "tel": "",
        "category": "基础设施:公共设施:公共厕所",
        "type": 0,
        "location": {
            "lat": 31.47064,
            "lng": 102.996586
        },
        "ad_info": {
            "adcode": 513222,
            "province": "四川省",
            "city": "阿坝藏族羌族自治州",
            "district": "理县"
        }
    },
    {
        "id": "15626916141670185330",
        "title": "公共厕所",
        "address": "四川省阿坝藏族羌族自治州红原县Y604",
        "tel": "",
        "category": "基础设施:公共设施:公共厕所",
        "type": 0,
        "location": {
            "lat": 33.006257,
            "lng": 102.976275
        },
        "ad_info": {
            "adcode": 513233,
            "province": "四川省",
            "city": "阿坝藏族羌族自治州",
            "district": "红原县"
        }
    },
    {
        "id": "11980545916676500745",
        "title": "公共厕所",
        "address": "四川省阿坝藏族羌族自治州九寨沟县九若路",
        "tel": "",
        "category": "基础设施:公共设施:公共厕所",
        "type": 0,
        "location": {
            "lat": 33.493313,
            "lng": 104.021569
        },
        "ad_info": {
            "adcode": 513225,
            "province": "四川省",
            "city": "阿坝藏族羌族自治州",
            "district": "九寨沟县"
        }
    },
    {
        "id": "9717293012933190677",
        "title": "公共厕所",
        "address": "四川省阿坝藏族羌族自治州松潘县213国道西50米",
        "tel": "",
        "category": "基础设施:公共设施:公共厕所",
        "type": 0,
        "location": {
            "lat": 32.570819,
            "lng": 103.617934
        },
        "ad_info": {
            "adcode": 513224,
            "province": "四川省",
            "city": "阿坝藏族羌族自治州",
            "district": "松潘县"
        }
    },
    {
        "id": "5667578448347907118",
        "title": "公共厕所",
        "address": "四川省阿坝藏族羌族自治州红原县Y602与卓穹西路交叉口东南方向47米左右",
        "tel": "",
        "category": "基础设施:公共设施:公共厕所",
        "type": 0,
        "location": {
            "lat": 33.125299,
            "lng": 102.627183
        },
        "ad_info": {
            "adcode": 513233,
            "province": "四川省",
            "city": "阿坝藏族羌族自治州",
            "district": "红原县"
        }
    },
    {
        "id": "5150597109204029283",
        "title": "公共厕所",
        "address": "四川省阿坝藏族羌族自治州若尔盖县G248与XU13交叉口东南方向523米左右",
        "tel": "",
        "category": "基础设施:公共设施:公共厕所",
        "type": 0,
        "location": {
            "lat": 33.386417,
            "lng": 102.487104
        },
        "ad_info": {
            "adcode": 513232,
            "province": "四川省",
            "city": "阿坝藏族羌族自治州",
            "district": "若尔盖县"
        }
    },
    {
        "id": "9250829048268139697",
        "title": "公共厕所",
        "address": "四川省阿坝藏族羌族自治州松潘县213国道东50米",
        "tel": "",
        "category": "基础设施:公共设施:公共厕所",
        "type": 0,
        "location": {
            "lat": 32.145866,
            "lng": 103.734787
        },
        "ad_info": {
            "adcode": 513224,
            "province": "四川省",
            "city": "阿坝藏族羌族自治州",
            "district": "松潘县"
        }
    },
    {
        "id": "14452925564792190201",
        "title": "公共厕所",
        "address": "四川省阿坝藏族羌族自治州松潘县南街与映月街交叉口正南方向498米左右",
        "tel": "",
        "category": "基础设施:公共设施:公共厕所",
        "type": 0,
        "location": {
            "lat": 32.630054,
            "lng": 103.596618
        },
        "ad_info": {
            "adcode": 513224,
            "province": "四川省",
            "city": "阿坝藏族羌族自治州",
            "district": "松潘县"
        }
    },
    {
        "id": "3146930201582690076",
        "title": "公共厕所",
        "address": "四川省阿坝藏族羌族自治州金川县G317与Y403交叉口西南方向1402米左右",
        "tel": "",
        "category": "基础设施:公共设施:公共厕所",
        "type": 0,
        "location": {
            "lat": 31.828827,
            "lng": 101.682298
        },
        "ad_info": {
            "adcode": 513226,
            "province": "四川省",
            "city": "阿坝藏族羌族自治州",
            "district": "金川县"
        }
    },
    {
        "id": "15956174849577532618",
        "title": "公共厕所",
        "address": "四川省阿坝藏族羌族自治州松潘县岗日祥和酒店东北侧70米",
        "tel": "",
        "category": "基础设施:公共设施:公共厕所",
        "type": 0,
        "location": {
            "lat": 32.774744,
            "lng": 103.640516
        },
        "ad_info": {
            "adcode": 513224,
            "province": "四川省",
            "city": "阿坝藏族羌族自治州",
            "district": "松潘县"
        }
    },
    {
        "id": "2539494361827340105",
        "title": "公共厕所",
        "address": "四川省阿坝藏族羌族自治州茂县G213与青龙寺隧道交叉口东北方向175米左右",
        "tel": "",
        "category": "基础设施:公共设施:公共厕所",
        "type": 0,
        "location": {
            "lat": 32.058956,
            "lng": 103.712278
        },
        "ad_info": {
            "adcode": 513223,
            "province": "四川省",
            "city": "阿坝藏族羌族自治州",
            "district": "茂县"
        }
    },
    {
        "id": "16403424914736627043",
        "title": "公共厕所",
        "address": "四川省阿坝藏族羌族自治州松潘县X120",
        "tel": "",
        "category": "基础设施:公共设施:公共厕所",
        "type": 0,
        "location": {
            "lat": 32.677745,
            "lng": 104.087128
        },
        "ad_info": {
            "adcode": 513224,
            "province": "四川省",
            "city": "阿坝藏族羌族自治州",
            "district": "松潘县"
        }
    },
    {
        "id": "5283599203362994991",
        "title": "公共厕所",
        "address": "四川省阿坝藏族羌族自治州松潘县平松路",
        "tel": "",
        "category": "基础设施:公共设施:公共厕所",
        "type": 0,
        "location": {
            "lat": 32.759224,
            "lng": 103.849971
        },
        "ad_info": {
            "adcode": 513224,
            "province": "四川省",
            "city": "阿坝藏族羌族自治州",
            "district": "松潘县"
        }
    },
    {
        "id": "2328767255164711235",
        "title": "公共厕所",
        "address": "四川省阿坝藏族羌族自治州金川县Y252与文化一路交叉口正南方向87米左右",
        "tel": "",
        "category": "基础设施:公共设施:公共厕所",
        "type": 0,
        "location": {
            "lat": 31.283607,
            "lng": 102.051746
        },
        "ad_info": {
            "adcode": 513226,
            "province": "四川省",
            "city": "阿坝藏族羌族自治州",
            "district": "金川县"
        }
    },
    {
        "id": "8139529942092184309",
        "title": "公共厕所",
        "address": "四川省阿坝藏族羌族自治州理县中国邮政(理县甘堡乡邮政所)西北侧",
        "tel": "",
        "category": "基础设施:公共设施:公共厕所",
        "type": 0,
        "location": {
            "lat": 31.486498,
            "lng": 103.207355
        },
        "ad_info": {
            "adcode": 513222,
            "province": "四川省",
            "city": "阿坝藏族羌族自治州",
            "district": "理县"
        }
    },
    {
        "id": "3496003066476593965",
        "title": "公共厕所",
        "address": "四川省阿坝藏族羌族自治州松潘县213国道西50米",
        "tel": "",
        "category": "基础设施:公共设施:公共厕所",
        "type": 0,
        "location": {
            "lat": 32.285222,
            "lng": 103.736225
        },
        "ad_info": {
            "adcode": 513224,
            "province": "四川省",
            "city": "阿坝藏族羌族自治州",
            "district": "松潘县"
        }
    },
    {
        "id": "6153040863396183405",
        "title": "公共厕所",
        "address": "四川省阿坝藏族羌族自治州红原县G248与三六0桥交叉口正北方向91米左右",
        "tel": "",
        "category": "基础设施:公共设施:公共厕所",
        "type": 0,
        "location": {
            "lat": 32.198799,
            "lng": 102.489123
        },
        "ad_info": {
            "adcode": 513233,
            "province": "四川省",
            "city": "阿坝藏族羌族自治州",
            "district": "红原县"
        }
    },
    {
        "id": "6064401672856272553",
        "title": "公共厕所",
        "address": "四川省阿坝藏族羌族自治州茂县G213与青龙寺隧道交叉口东北方向913米左右",
        "tel": "",
        "category": "基础设施:公共设施:公共厕所",
        "type": 0,
        "location": {
            "lat": 32.065153,
            "lng": 103.715602
        },
        "ad_info": {
            "adcode": 513223,
            "province": "四川省",
            "city": "阿坝藏族羌族自治州",
            "district": "茂县"
        }
    },
    {
        "id": "18104165295455827572",
        "title": "公共厕所",
        "address": "四川省阿坝藏族羌族自治州茂县G213与羌阳1号大桥交叉口正南方向109米左右",
        "tel": "",
        "category": "基础设施:公共设施:公共厕所",
        "type": 0,
        "location": {
            "lat": 32.107712,
            "lng": 103.72655
        },
        "ad_info": {
            "adcode": 513223,
            "province": "四川省",
            "city": "阿坝藏族羌族自治州",
            "district": "茂县"
        }
    },
    {
        "id": "4360522892954018490",
        "title": "公共厕所",
        "address": "四川省阿坝藏族羌族自治州红原县301省道东50米",
        "tel": "",
        "category": "基础设施:公共设施:公共厕所",
        "type": 0,
        "location": {
            "lat": 33.093485,
            "lng": 102.773184
        },
        "ad_info": {
            "adcode": 513233,
            "province": "四川省",
            "city": "阿坝藏族羌族自治州",
            "district": "红原县"
        }
    },
    {
        "id": "18359526449226348248",
        "title": "公共厕所",
        "address": "四川省阿坝藏族羌族自治州红原县G248与G347交叉口西南方向70米左右",
        "tel": "",
        "category": "基础设施:公共设施:公共厕所",
        "type": 0,
        "location": {
            "lat": 32.206196,
            "lng": 102.488337
        },
        "ad_info": {
            "adcode": 513233,
            "province": "四川省",
            "city": "阿坝藏族羌族自治州",
            "district": "红原县"
        }
    },
    {
        "id": "18212307994670289636",
        "title": "公共厕所",
        "address": "四川省阿坝藏族羌族自治州松潘县213国道西50米",
        "tel": "",
        "category": "基础设施:公共设施:公共厕所",
        "type": 0,
        "location": {
            "lat": 32.300225,
            "lng": 103.726118
        },
        "ad_info": {
            "adcode": 513224,
            "province": "四川省",
            "city": "阿坝藏族羌族自治州",
            "district": "松潘县"
        }
    },
    {
        "id": "11880863627613099261",
        "title": "公共厕所",
        "address": "四川省阿坝藏族羌族自治州若尔盖县G248与黑河中桥交叉口西南方向668米左右",
        "tel": "",
        "category": "基础设施:公共设施:公共厕所",
        "type": 0,
        "location": {
            "lat": 33.588348,
            "lng": 102.933986
        },
        "ad_info": {
            "adcode": 513232,
            "province": "四川省",
            "city": "阿坝藏族羌族自治州",
            "district": "若尔盖县"
        }
    },
    {
        "id": "5652496999418885618",
        "title": "蚕陵广场旅游厕所",
        "address": "四川省阿坝藏族羌族自治州茂县G213与Y103交叉口正北方向146米左右",
        "tel": "",
        "category": "基础设施:公共设施:公共厕所",
        "type": 0,
        "location": {
            "lat": 32.037812,
            "lng": 103.684943
        },
        "ad_info": {
            "adcode": 513223,
            "province": "四川省",
            "city": "阿坝藏族羌族自治州",
            "district": "茂县"
        }
    },
    {
        "id": "9515041501813458606",
        "title": "公共厕所",
        "address": "四川省阿坝藏族羌族自治州红原县213国道东50米",
        "tel": "",
        "category": "基础设施:公共设施:公共厕所",
        "type": 0,
        "location": {
            "lat": 33.100029,
            "lng": 103.319256
        },
        "ad_info": {
            "adcode": 513233,
            "province": "四川省",
            "city": "阿坝藏族羌族自治州",
            "district": "红原县"
        }
    },
    {
        "id": "10390553755000276100",
        "title": "公共厕所",
        "address": "四川省阿坝藏族羌族自治州松潘县301省道西100米九黄第一村附近",
        "tel": "",
        "category": "基础设施:公共设施:公共厕所",
        "type": 0,
        "location": {
            "lat": 32.896164,
            "lng": 103.681369
        },
        "ad_info": {
            "adcode": 513224,
            "province": "四川省",
            "city": "阿坝藏族羌族自治州",
            "district": "松潘县"
        }
    },
    {
        "id": "14524976999321903191",
        "title": "公共厕所",
        "address": "四川省阿坝藏族羌族自治州茂县G213与叠溪隧道交叉口西南方向1116米左右",
        "tel": "",
        "category": "基础设施:公共设施:公共厕所",
        "type": 0,
        "location": {
            "lat": 32.01396,
            "lng": 103.679607
        },
        "ad_info": {
            "adcode": 513223,
            "province": "四川省",
            "city": "阿坝藏族羌族自治州",
            "district": "茂县"
        }
    },
    {
        "id": "4266396701626722440",
        "title": "公共厕所",
        "address": "四川省阿坝藏族羌族自治州小金县210省道西50米",
        "tel": "",
        "category": "基础设施:公共设施:公共厕所",
        "type": 0,
        "location": {
            "lat": 31.443535,
            "lng": 102.506993
        },
        "ad_info": {
            "adcode": 513227,
            "province": "四川省",
            "city": "阿坝藏族羌族自治州",
            "district": "小金县"
        }
    },
    {
        "id": "6738700057239443773",
        "title": "公共厕所",
        "address": "四川省阿坝藏族羌族自治州红原县213国道东50米",
        "tel": "",
        "category": "基础设施:公共设施:公共厕所",
        "type": 0,
        "location": {
            "lat": 33.108636,
            "lng": 103.303849
        },
        "ad_info": {
            "adcode": 513233,
            "province": "四川省",
            "city": "阿坝藏族羌族自治州",
            "district": "红原县"
        }
    },
    {
        "id": "434056843064248188",
        "title": "公共厕所",
        "address": "四川省阿坝藏族羌族自治州若尔盖县G213附近",
        "tel": "",
        "category": "基础设施:公共设施:公共厕所",
        "type": 0,
        "location": {
            "lat": 33.56156,
            "lng": 103.112728
        },
        "ad_info": {
            "adcode": 513232,
            "province": "四川省",
            "city": "阿坝藏族羌族自治州",
            "district": "若尔盖县"
        }
    },
    {
        "id": "16249091678624656320",
        "title": "公共厕所",
        "address": "四川省阿坝藏族羌族自治州若尔盖县G213与S217交叉口正东方向1791米左右",
        "tel": "",
        "category": "基础设施:公共设施:公共厕所",
        "type": 0,
        "location": {
            "lat": 33.997908,
            "lng": 102.770728
        },
        "ad_info": {
            "adcode": 513232,
            "province": "四川省",
            "city": "阿坝藏族羌族自治州",
            "district": "若尔盖县"
        }
    },
    {
        "id": "18310747231917610951",
        "title": "公共厕所",
        "address": "四川省阿坝藏族羌族自治州若尔盖县寺院路与寺院路四巷交叉口正东方向14米左右",
        "tel": "",
        "category": "基础设施:公共设施:公共厕所",
        "type": 0,
        "location": {
            "lat": 33.580266,
            "lng": 102.970014
        },
        "ad_info": {
            "adcode": 513232,
            "province": "四川省",
            "city": "阿坝藏族羌族自治州",
            "district": "若尔盖县"
        }
    },
    {
        "id": "11438619809215746958",
        "title": "公共厕所",
        "address": "四川省阿坝藏族羌族自治州若尔盖县213国道东50米",
        "tel": "",
        "category": "基础设施:公共设施:公共厕所",
        "type": 0,
        "location": {
            "lat": 33.70837,
            "lng": 102.966819
        },
        "ad_info": {
            "adcode": 513232,
            "province": "四川省",
            "city": "阿坝藏族羌族自治州",
            "district": "若尔盖县"
        }
    },
    {
        "id": "4152897792203466309",
        "title": "公共厕所",
        "address": "四川省阿坝藏族羌族自治州若尔盖县G213与九若路交叉口东南方向64米左右",
        "tel": "",
        "category": "基础设施:公共设施:公共厕所",
        "type": 0,
        "location": {
            "lat": 33.583331,
            "lng": 103.105959
        },
        "ad_info": {
            "adcode": 513232,
            "province": "四川省",
            "city": "阿坝藏族羌族自治州",
            "district": "若尔盖县"
        }
    },
    {
        "id": "12484956590196540286",
        "title": "公共厕所",
        "address": "四川省阿坝藏族羌族自治州红原县S301与Y603交叉口正南方向1187米左右",
        "tel": "",
        "category": "基础设施:公共设施:公共厕所",
        "type": 0,
        "location": {
            "lat": 33.04516,
            "lng": 102.90963
        },
        "ad_info": {
            "adcode": 513233,
            "province": "四川省",
            "city": "阿坝藏族羌族自治州",
            "district": "红原县"
        }
    },
    {
        "id": "7682922065812566830",
        "title": "公共厕所",
        "address": "四川省阿坝藏族羌族自治州红原县Y604与从都街交叉口正南方向444米左右",
        "tel": "",
        "category": "基础设施:公共设施:公共厕所",
        "type": 0,
        "location": {
            "lat": 33.002946,
            "lng": 102.974391
        },
        "ad_info": {
            "adcode": 513233,
            "province": "四川省",
            "city": "阿坝藏族羌族自治州",
            "district": "红原县"
        }
    },
    {
        "id": "15348646365113835485",
        "title": "公共厕所",
        "address": "四川省阿坝藏族羌族自治州汶川县映月东路59号",
        "tel": "",
        "category": "基础设施:公共设施:公共厕所",
        "type": 0,
        "location": {
            "lat": 31.054339,
            "lng": 103.488053
        },
        "ad_info": {
            "adcode": 513221,
            "province": "四川省",
            "city": "阿坝藏族羌族自治州",
            "district": "汶川县"
        }
    },
    {
        "id": "99834742991574609",
        "title": "公共厕所停车场",
        "address": "四川省阿坝藏族羌族自治州九寨沟县S301",
        "tel": "",
        "category": "基础设施:公共设施:公共厕所",
        "type": 0,
        "location": {
            "lat": 33.342689,
            "lng": 104.084238
        },
        "ad_info": {
            "adcode": 513225,
            "province": "四川省",
            "city": "阿坝藏族羌族自治州",
            "district": "九寨沟县"
        }
    },
    {
        "id": "3318167752652708729",
        "title": "公共厕所",
        "address": "四川省阿坝藏族羌族自治州汶川县G213与江爱大道交叉口正东方向808米左右",
        "tel": "",
        "category": "基础设施:公共设施:公共厕所",
        "type": 0,
        "location": {
            "lat": 31.491571,
            "lng": 103.627327
        },
        "ad_info": {
            "adcode": 513221,
            "province": "四川省",
            "city": "阿坝藏族羌族自治州",
            "district": "汶川县"
        }
    },
    {
        "id": "13376197712912436945",
        "title": "公共厕所",
        "address": "四川省阿坝藏族羌族自治州汶川县岷江路上段与岷江路中段交叉口西南方向204米左右",
        "tel": "",
        "category": "基础设施:公共设施:公共厕所",
        "type": 0,
        "location": {
            "lat": 31.473898,
            "lng": 103.58057
        },
        "ad_info": {
            "adcode": 513221,
            "province": "四川省",
            "city": "阿坝藏族羌族自治州",
            "district": "汶川县"
        }
    },
    {
        "id": "8360185308116105363",
        "title": "公共厕所",
        "address": "四川省阿坝藏族羌族自治州若尔盖县商业街与香巴拉北街交叉口正南方向66米左右",
        "tel": "",
        "category": "基础设施:公共设施:公共厕所",
        "type": 0,
        "location": {
            "lat": 33.575635,
            "lng": 102.961973
        },
        "ad_info": {
            "adcode": 513232,
            "province": "四川省",
            "city": "阿坝藏族羌族自治州",
            "district": "若尔盖县"
        }
    },
    {
        "id": "6666360673348872125",
        "title": "厕所-梭磨学校门口公用厕所(维修中)",
        "address": "四川省阿坝藏族羌族自治州马尔康市毗卢遮那圣窟西南(G317南)",
        "tel": "",
        "category": "基础设施:公共设施:公共厕所",
        "type": 0,
        "location": {
            "lat": 31.867946,
            "lng": 102.328881
        },
        "ad_info": {
            "adcode": 513201,
            "province": "四川省",
            "city": "阿坝藏族羌族自治州",
            "district": "马尔康市"
        }
    },
    {
        "id": "15032121628160001135",
        "title": "九寨鲁能胜地1公共厕所",
        "address": "四川省阿坝藏族羌族自治州九寨沟县九寨鲁能胜地生态旅游度假区东北(S301南)",
        "tel": "",
        "category": "基础设施:公共设施:公共厕所",
        "type": 0,
        "location": {
            "lat": 33.305096,
            "lng": 103.821314
        },
        "ad_info": {
            "adcode": 513225,
            "province": "四川省",
            "city": "阿坝藏族羌族自治州",
            "district": "九寨沟县"
        }
    },
    {
        "id": "15336081815244890943",
        "title": "公共厕所",
        "address": "四川省阿坝藏族羌族自治州汶川县G213与顺河2号桥交叉口正南方向125米左右",
        "tel": "",
        "category": "基础设施:公共设施:公共厕所",
        "type": 0,
        "location": {
            "lat": 31.478214,
            "lng": 103.589065
        },
        "ad_info": {
            "adcode": 513221,
            "province": "四川省",
            "city": "阿坝藏族羌族自治州",
            "district": "汶川县"
        }
    },
    {
        "id": "9963012076052820281",
        "title": "理县毕棚沟停车区公共厕所",
        "address": "四川省阿坝藏族羌族自治州理县毕棚沟停车区南侧",
        "tel": "",
        "category": "基础设施:公共设施:公共厕所",
        "type": 0,
        "location": {
            "lat": 31.413167,
            "lng": 103.121949
        },
        "ad_info": {
            "adcode": 513222,
            "province": "四川省",
            "city": "阿坝藏族羌族自治州",
            "district": "理县"
        }
    },
    {
        "id": "6237915387925219264",
        "title": "川主寺镇孝善广场旅游厕所",
        "address": "四川省阿坝藏族羌族自治州松潘县G544与尼玛路交叉口正东方向80米左右",
        "tel": "",
        "category": "基础设施:公共设施:公共厕所",
        "type": 0,
        "location": {
            "lat": 32.779016,
            "lng": 103.623293
        },
        "ad_info": {
            "adcode": 513224,
            "province": "四川省",
            "city": "阿坝藏族羌族自治州",
            "district": "松潘县"
        }
    },
    {
        "id": "2383868854166794767",
        "title": "公共厕所",
        "address": "四川省阿坝藏族羌族自治州汶川县G350",
        "tel": "",
        "category": "基础设施:公共设施:公共厕所",
        "type": 0,
        "location": {
            "lat": 31.074727,
            "lng": 103.315752
        },
        "ad_info": {
            "adcode": 513221,
            "province": "四川省",
            "city": "阿坝藏族羌族自治州",
            "district": "汶川县"
        }
    },
    {
        "id": "10410957310117540758",
        "title": "滨河路公共厕所",
        "address": "四川省阿坝藏族羌族自治州小金县Y305与河东街交叉口东南方向165米左右",
        "tel": "",
        "category": "基础设施:公共设施:公共厕所",
        "type": 0,
        "location": {
            "lat": 30.995217,
            "lng": 102.368649
        },
        "ad_info": {
            "adcode": 513227,
            "province": "四川省",
            "city": "阿坝藏族羌族自治州",
            "district": "小金县"
        }
    },
    {
        "id": "9745427794599191655",
        "title": "花湖景区二号公共厕所",
        "address": "四川省阿坝藏族羌族自治州若尔盖县花湖生态旅游区南710米",
        "tel": "",
        "category": "基础设施:公共设施:公共厕所",
        "type": 0,
        "location": {
            "lat": 33.919273,
            "lng": 102.826513
        },
        "ad_info": {
            "adcode": 513232,
            "province": "四川省",
            "city": "阿坝藏族羌族自治州",
            "district": "若尔盖县"
        }
    },
    {
        "id": "6297857423949703669",
        "title": "格盟酒店-洗手间",
        "address": "四川省阿坝藏族羌族自治州茂县晋茂大道中段与朝阳街交叉口正北方向53米左右",
        "tel": "",
        "category": "基础设施:公共设施:公共厕所",
        "type": 0,
        "location": {
            "lat": 31.67618,
            "lng": 103.844733
        },
        "ad_info": {
            "adcode": 513223,
            "province": "四川省",
            "city": "阿坝藏族羌族自治州",
            "district": "茂县"
        }
    },
    {
        "id": "1338749665060884330",
        "title": "公共厕所",
        "address": "四川省阿坝藏族羌族自治州汶川县东街与013乡道交叉口西60米",
        "tel": "",
        "category": "基础设施:公共设施:公共厕所",
        "type": 0,
        "location": {
            "lat": 31.476578,
            "lng": 103.591823
        },
        "ad_info": {
            "adcode": 513221,
            "province": "四川省",
            "city": "阿坝藏族羌族自治州",
            "district": "汶川县"
        }
    },
    {
        "id": "10353883481976156476",
        "title": "中壤塘自驾游营地公共厕所",
        "address": "四川省阿坝藏族羌族自治州壤塘县中壤塘镇布康木达村",
        "tel": "",
        "category": "基础设施:公共设施:公共厕所",
        "type": 0,
        "location": {
            "lat": 32.339747,
            "lng": 101.212591
        },
        "ad_info": {
            "adcode": 513230,
            "province": "四川省",
            "city": "阿坝藏族羌族自治州",
            "district": "壤塘县"
        }
    },
    {
        "id": "18113280945775696381",
        "title": "公共厕所",
        "address": "四川省阿坝藏族羌族自治州汶川县三江乡情风味农庄",
        "tel": "",
        "category": "基础设施:公共设施:公共厕所",
        "type": 0,
        "location": {
            "lat": 30.944622,
            "lng": 103.314112
        },
        "ad_info": {
            "adcode": 513221,
            "province": "四川省",
            "city": "阿坝藏族羌族自治州",
            "district": "汶川县"
        }
    },
    {
        "id": "1528798430725363667",
        "title": "梅花鹿公共厕所",
        "address": "四川省阿坝藏族羌族自治州若尔盖县热尔部落梅花鹿生态园西侧50米",
        "tel": "",
        "category": "基础设施:公共设施:公共厕所",
        "type": 0,
        "location": {
            "lat": 33.88847,
            "lng": 102.908432
        },
        "ad_info": {
            "adcode": 513232,
            "province": "四川省",
            "city": "阿坝藏族羌族自治州",
            "district": "若尔盖县"
        }
    },
    {
        "id": "16382406687854763521",
        "title": "滨河路公共厕所",
        "address": "四川省阿坝藏族羌族自治州小金县Y305与河东街交叉口东南方向541米左右",
        "tel": "",
        "category": "基础设施:公共设施:公共厕所",
        "type": 0,
        "location": {
            "lat": 30.992155,
            "lng": 102.370384
        },
        "ad_info": {
            "adcode": 513227,
            "province": "四川省",
            "city": "阿坝藏族羌族自治州",
            "district": "小金县"
        }
    },
    {
        "id": "4079939293356750013",
        "title": "公共厕所停车场",
        "address": "四川省阿坝藏族羌族自治州若尔盖县求吉乡人民政府东北侧210米",
        "tel": "",
        "category": "基础设施:公共设施:公共厕所",
        "type": 0,
        "location": {
            "lat": 33.675533,
            "lng": 103.357177
        },
        "ad_info": {
            "adcode": 513232,
            "province": "四川省",
            "city": "阿坝藏族羌族自治州",
            "district": "若尔盖县"
        }
    },
    {
        "id": "9218983745815558580",
        "title": "川主寺镇孝善广场旅游公共厕所",
        "address": "四川省阿坝藏族羌族自治州松潘县九红草原风光路与尼玛路交叉口东40米",
        "tel": "",
        "category": "基础设施:公共设施:公共厕所",
        "type": 0,
        "location": {
            "lat": 32.779124,
            "lng": 103.623016
        },
        "ad_info": {
            "adcode": 513224,
            "province": "四川省",
            "city": "阿坝藏族羌族自治州",
            "district": "松潘县"
        }
    },
    {
        "id": "11675768383086019972",
        "title": "旅游公共厕所",
        "address": "四川省阿坝藏族羌族自治州马尔康市马尔康纳足汽车营地西北侧160米",
        "tel": "",
        "category": "基础设施:公共设施:公共厕所",
        "type": 0,
        "location": {
            "lat": 31.750553,
            "lng": 102.266731
        },
        "ad_info": {
            "adcode": 513201,
            "province": "四川省",
            "city": "阿坝藏族羌族自治州",
            "district": "马尔康市"
        }
    },
    {
        "id": "17982886838112795241",
        "title": "公共厕所",
        "address": "四川省阿坝藏族羌族自治州汶川县G213与曾家沟大桥交叉口正南方向281米左右",
        "tel": "",
        "category": "基础设施:公共设施:公共厕所",
        "type": 0,
        "location": {
            "lat": 30.990991,
            "lng": 103.486049
        },
        "ad_info": {
            "adcode": 513221,
            "province": "四川省",
            "city": "阿坝藏族羌族自治州",
            "district": "汶川县"
        }
    },
    {
        "id": "8063422264724934820",
        "title": "米亚罗服务区公共厕所",
        "address": "四川省阿坝藏族羌族自治州理县G4217蓉昌高速入口与317国道交叉口西南80米",
        "tel": "",
        "category": "基础设施:公共设施:公共厕所",
        "type": 0,
        "location": {
            "lat": 31.773505,
            "lng": 102.710117
        },
        "ad_info": {
            "adcode": 513222,
            "province": "四川省",
            "city": "阿坝藏族羌族自治州",
            "district": "理县"
        }
    },
    {
        "id": "17145407651336382640",
        "title": "三舍驿旅游厕所",
        "address": "四川省阿坝藏族羌族自治州松潘县平松路附近",
        "tel": "",
        "category": "基础设施:公共设施:公共厕所",
        "type": 0,
        "location": {
            "lat": 32.777892,
            "lng": 103.904882
        },
        "ad_info": {
            "adcode": 513224,
            "province": "四川省",
            "city": "阿坝藏族羌族自治州",
            "district": "松潘县"
        }
    },
    {
        "id": "898085245058833291",
        "title": "九寨华美胜地旅游度假区6号公共厕所",
        "address": "四川省阿坝藏族羌族自治州九寨沟县544国道",
        "tel": "",
        "category": "基础设施:公共设施:公共厕所",
        "type": 0,
        "location": {
            "lat": 33.305122,
            "lng": 103.82018
        },
        "ad_info": {
            "adcode": 513225,
            "province": "四川省",
            "city": "阿坝藏族羌族自治州",
            "district": "九寨沟县"
        }
    },
    {
        "id": "1013028030326769819",
        "title": "尕里台旅游厕所",
        "address": "四川省阿坝藏族羌族自治州松潘县九红草原风光路与尕里台服务区交叉口正南方向285米左右",
        "tel": "",
        "category": "基础设施:公共设施:公共厕所",
        "type": 0,
        "location": {
            "lat": 32.956342,
            "lng": 103.349391
        },
        "ad_info": {
            "adcode": 513224,
            "province": "四川省",
            "city": "阿坝藏族羌族自治州",
            "district": "松潘县"
        }
    },
    {
        "id": "5279839003942660467",
        "title": "熙拉山公共厕所",
        "address": "四川省阿坝藏族羌族自治州若尔盖县",
        "tel": "",
        "category": "基础设施:公共设施:公共厕所",
        "type": 0,
        "location": {
            "lat": 33.775806,
            "lng": 102.963105
        },
        "ad_info": {
            "adcode": 513232,
            "province": "四川省",
            "city": "阿坝藏族羌族自治州",
            "district": "若尔盖县"
        }
    },
    {
        "id": "10519189897921931333",
        "title": "九寨华美胜地旅游度假区1#公共厕所",
        "address": "四川省阿坝藏族羌族自治州九寨沟县漳扎镇中查沟九寨华美胜地旅游度假区",
        "tel": "",
        "category": "基础设施:公共设施:公共厕所",
        "type": 0,
        "location": {
            "lat": 33.305096,
            "lng": 103.821314
        },
        "ad_info": {
            "adcode": 513225,
            "province": "四川省",
            "city": "阿坝藏族羌族自治州",
            "district": "九寨沟县"
        }
    },
    {
        "id": "3459197463702046846",
        "title": "嫩恩桑措原始森林厕所",
        "address": "四川省阿坝藏族羌族自治州九寨沟县神仙池景区西南100米",
        "tel": "0837-7796555",
        "category": "基础设施:公共设施:公共厕所",
        "type": 0,
        "location": {
            "lat": 33.373924,
            "lng": 103.68664
        },
        "ad_info": {
            "adcode": 513225,
            "province": "四川省",
            "city": "阿坝藏族羌族自治州",
            "district": "九寨沟县"
        }
    },
    {
        "id": "16309801647266701188",
        "title": "尕里台旅游公共厕所",
        "address": "四川省阿坝藏族羌族自治州松潘县九红草原风光路与尕里台服务区交叉口西南方向108米左右",
        "tel": "",
        "category": "基础设施:公共设施:公共厕所",
        "type": 0,
        "location": {
            "lat": 32.95803,
            "lng": 103.349475
        },
        "ad_info": {
            "adcode": 513224,
            "province": "四川省",
            "city": "阿坝藏族羌族自治州",
            "district": "松潘县"
        }
    },
    {
        "id": "10882803602403548705",
        "title": "花湖景区一号公共厕所",
        "address": "四川省阿坝藏族羌族自治州若尔盖县花湖生态旅游区西南100米",
        "tel": "",
        "category": "基础设施:公共设施:公共厕所",
        "type": 0,
        "location": {
            "lat": 33.927195,
            "lng": 102.822691
        },
        "ad_info": {
            "adcode": 513232,
            "province": "四川省",
            "city": "阿坝藏族羌族自治州",
            "district": "若尔盖县"
        }
    },
    {
        "id": "12361265473780811168",
        "title": "旅游厕所",
        "address": "四川省阿坝藏族羌族自治州茂县G213与羌阳1号大桥交叉口正南方向1316米左右",
        "tel": "",
        "category": "基础设施:公共设施:公共厕所",
        "type": 0,
        "location": {
            "lat": 32.09686,
            "lng": 103.725459
        },
        "ad_info": {
            "adcode": 513223,
            "province": "四川省",
            "city": "阿坝藏族羌族自治州",
            "district": "茂县"
        }
    },
    {
        "id": "17753481631122709007",
        "title": "旅游公共厕所",
        "address": "四川省阿坝藏族羌族自治州茂县G213与羌阳1号大桥交叉口正南方向1393米左右",
        "tel": "",
        "category": "基础设施:公共设施:公共厕所",
        "type": 0,
        "location": {
            "lat": 32.096346,
            "lng": 103.723988
        },
        "ad_info": {
            "adcode": 513223,
            "province": "四川省",
            "city": "阿坝藏族羌族自治州",
            "district": "茂县"
        }
    },
    {
        "id": "10808844801020147242",
        "title": "梭磨乡马塘村(西洞口下游)公用厕所",
        "address": "四川省阿坝藏族羌族自治州马尔康市G248与G317交叉口正南方向160米左右",
        "tel": "",
        "category": "基础设施:公共设施:公共厕所",
        "type": 0,
        "location": {
            "lat": 31.869286,
            "lng": 102.632974
        },
        "ad_info": {
            "adcode": 513201,
            "province": "四川省",
            "city": "阿坝藏族羌族自治州",
            "district": "马尔康市"
        }
    },
    {
        "id": "14121948420151247914",
        "title": "羌人谷滑雪场接待大厅旅游公共厕所",
        "address": "四川省阿坝藏族羌族自治州汶川县汶川羌人谷滑雪场东北侧150米",
        "tel": "",
        "category": "基础设施:公共设施:公共厕所",
        "type": 0,
        "location": {
            "lat": 31.682242,
            "lng": 103.505767
        },
        "ad_info": {
            "adcode": 513221,
            "province": "四川省",
            "city": "阿坝藏族羌族自治州",
            "district": "汶川县"
        }
    },
    {
        "id": "7492173055015681056",
        "title": "水磨古镇-公共厕所",
        "address": "四川省阿坝藏族羌族自治州汶川县S216与佛山大道交叉口正南方向252米左右",
        "tel": "",
        "category": "基础设施:公共设施:公共厕所",
        "type": 0,
        "location": {
            "lat": 30.93325,
            "lng": 103.428328
        },
        "ad_info": {
            "adcode": 513221,
            "province": "四川省",
            "city": "阿坝藏族羌族自治州",
            "district": "汶川县"
        }
    },
    {
        "id": "9547932500263011440",
        "title": "绵虒服务区公共厕所",
        "address": "四川省阿坝藏族羌族自治州汶川县G213与高店岷江大桥交叉口西南方向651米左右",
        "tel": "",
        "category": "基础设施:公共设施:公共厕所",
        "type": 0,
        "location": {
            "lat": 31.333518,
            "lng": 103.484358
        },
        "ad_info": {
            "adcode": 513221,
            "province": "四川省",
            "city": "阿坝藏族羌族自治州",
            "district": "汶川县"
        }
    },
    {
        "id": "390947564287977728",
        "title": "九寨天堂洲际大饭店-洗手间",
        "address": "四川省阿坝藏族羌族自治州九寨沟县G544与神仙池隧道交叉口正南方向1361米左右",
        "tel": "",
        "category": "基础设施:公共设施:公共厕所",
        "type": 0,
        "location": {
            "lat": 33.263203,
            "lng": 103.771699
        },
        "ad_info": {
            "adcode": 513225,
            "province": "四川省",
            "city": "阿坝藏族羌族自治州",
            "district": "九寨沟县"
        }
    },
    {
        "id": "16434110042916993879",
        "title": "一号停车场公共厕所",
        "address": "四川省阿坝藏族羌族自治州松潘县黄龙派出所西500米(平松路南)",
        "tel": "",
        "category": "基础设施:公共设施:公共厕所",
        "type": 0,
        "location": {
            "lat": 32.747065,
            "lng": 103.810123
        },
        "ad_info": {
            "adcode": 513224,
            "province": "四川省",
            "city": "阿坝藏族羌族自治州",
            "district": "松潘县"
        }
    },
    {
        "id": "1881688385944960344",
        "title": "赵公福地公共厕所",
        "address": "四川省阿坝藏族羌族自治州汶川县G213硝水沟",
        "tel": "",
        "category": "基础设施:公共设施:公共厕所",
        "type": 0,
        "location": {
            "lat": 31.002513,
            "lng": 103.500144
        },
        "ad_info": {
            "adcode": 513221,
            "province": "四川省",
            "city": "阿坝藏族羌族自治州",
            "district": "汶川县"
        }
    },
    {
        "id": "2328295632825337586",
        "title": "厕所-毗如遮那旅游厕所(维修中)",
        "address": "四川省阿坝藏族羌族自治州马尔康市毗卢遮那圣窟西南(G317南)",
        "tel": "",
        "category": "基础设施:公共设施:公共厕所",
        "type": 0,
        "location": {
            "lat": 31.867946,
            "lng": 102.328881
        },
        "ad_info": {
            "adcode": 513201,
            "province": "四川省",
            "city": "阿坝藏族羌族自治州",
            "district": "马尔康市"
        }
    },
    {
        "id": "11639106433640679239",
        "title": "公共厕所",
        "address": "四川省阿坝藏族羌族自治州松潘县G213与尼玛路交叉口东北方向42米左右",
        "tel": "",
        "category": "基础设施:公共设施:公共厕所",
        "type": 0,
        "location": {
            "lat": 32.774357,
            "lng": 103.621599
        },
        "ad_info": {
            "adcode": 513224,
            "province": "四川省",
            "city": "阿坝藏族羌族自治州",
            "district": "松潘县"
        }
    },
    {
        "id": "7784425628579323717",
        "title": "玉轮桥公共厕所",
        "address": "四川省阿坝藏族羌族自治州汶川县沿江路与穗威路交叉口西南方向64米左右",
        "tel": "",
        "category": "基础设施:公共设施:公共厕所",
        "type": 0,
        "location": {
            "lat": 31.467768,
            "lng": 103.575739
        },
        "ad_info": {
            "adcode": 513221,
            "province": "四川省",
            "city": "阿坝藏族羌族自治州",
            "district": "汶川县"
        }
    },
    {
        "id": "14319455718397842857",
        "title": "公共厕所",
        "address": "四川省阿坝藏族羌族自治州马尔康市达萨街428号",
        "tel": "",
        "category": "基础设施:公共设施:公共厕所",
        "type": 0,
        "location": {
            "lat": 31.90534,
            "lng": 102.208717
        },
        "ad_info": {
            "adcode": 513201,
            "province": "四川省",
            "city": "阿坝藏族羌族自治州",
            "district": "马尔康市"
        }
    },
    {
        "id": "13749385202596328148",
        "title": "九寨华美胜地旅游度假区6#公共厕所",
        "address": "四川省阿坝藏族羌族自治州九寨沟县",
        "tel": "",
        "category": "基础设施:公共设施:公共厕所",
        "type": 0,
        "location": {
            "lat": 33.305338,
            "lng": 103.819843
        },
        "ad_info": {
            "adcode": 513225,
            "province": "四川省",
            "city": "阿坝藏族羌族自治州",
            "district": "九寨沟县"
        }
    },
    {
        "id": "9875433380054343774",
        "title": "壤塘县棒托石刻公园旅游景区公共厕所",
        "address": "四川省阿坝藏族羌族自治州壤塘县棒托石刻公园旅游景区游客中心",
        "tel": "",
        "category": "基础设施:公共设施:公共厕所",
        "type": 0,
        "location": {
            "lat": 32.518575,
            "lng": 101.060321
        },
        "ad_info": {
            "adcode": 513230,
            "province": "四川省",
            "city": "阿坝藏族羌族自治州",
            "district": "壤塘县"
        }
    },
    {
        "id": "9783295395872994376",
        "title": "公共卫生间",
        "address": "四川省阿坝藏族羌族自治州茂县台茂路东段与台茂路南段交叉口东南",
        "tel": "",
        "category": "基础设施:公共设施:公共厕所",
        "type": 0,
        "location": {
            "lat": 31.659867,
            "lng": 103.83579
        },
        "ad_info": {
            "adcode": 513223,
            "province": "四川省",
            "city": "阿坝藏族羌族自治州",
            "district": "茂县"
        }
    },
    {
        "id": "973953875880133752",
        "title": "安宏旅游厕所",
        "address": "四川省阿坝藏族羌族自治州松潘县G213与Y151交叉口正南方向1674米左右",
        "tel": "",
        "category": "基础设施:公共设施:公共厕所",
        "type": 0,
        "location": {
            "lat": 32.492278,
            "lng": 103.638311
        },
        "ad_info": {
            "adcode": 513224,
            "province": "四川省",
            "city": "阿坝藏族羌族自治州",
            "district": "松潘县"
        }
    },
    {
        "id": "912474273454841981",
        "title": "公共厕所",
        "address": "四川省阿坝藏族羌族自治州小金县嘉绒鑫悦客栈东侧",
        "tel": "",
        "category": "基础设施:公共设施:公共厕所",
        "type": 0,
        "location": {
            "lat": 31.028219,
            "lng": 102.205187
        },
        "ad_info": {
            "adcode": 513227,
            "province": "四川省",
            "city": "阿坝藏族羌族自治州",
            "district": "小金县"
        }
    },
    {
        "id": "14183290844034195150",
        "title": "沟口镇鸡公寨公共厕所",
        "address": "四川省阿坝藏族羌族自治州茂县G213与擦耳岩隧道交叉口东南方向1154米左右",
        "tel": "",
        "category": "基础设施:公共设施:公共厕所",
        "type": 0,
        "location": {
            "lat": 31.783181,
            "lng": 103.761323
        },
        "ad_info": {
            "adcode": 513223,
            "province": "四川省",
            "city": "阿坝藏族羌族自治州",
            "district": "茂县"
        }
    },
    {
        "id": "6798886254786805322",
        "title": "壤塘县茸木达乡棒托石刻公园旅游厕所",
        "address": "四川省阿坝藏族羌族自治州壤塘县G227",
        "tel": "",
        "category": "基础设施:公共设施:公共厕所",
        "type": 0,
        "location": {
            "lat": 32.517068,
            "lng": 101.060557
        },
        "ad_info": {
            "adcode": 513230,
            "province": "四川省",
            "city": "阿坝藏族羌族自治州",
            "district": "壤塘县"
        }
    },
    {
        "id": "2622280322810504576",
        "title": "公共厕所",
        "address": "四川省阿坝藏族羌族自治州茂县叠溪镇太平红十字博爱小学东南侧60米",
        "tel": "",
        "category": "基础设施:公共设施:公共厕所",
        "type": 0,
        "location": {
            "lat": 32.122055,
            "lng": 103.736198
        },
        "ad_info": {
            "adcode": 513223,
            "province": "四川省",
            "city": "阿坝藏族羌族自治州",
            "district": "茂县"
        }
    },
    {
        "id": "10003068095690108553",
        "title": "公共厕所",
        "address": "四川省阿坝藏族羌族自治州黑水县302省道西50米",
        "tel": "",
        "category": "基础设施:公共设施:公共厕所",
        "type": 0,
        "location": {
            "lat": 32.090093,
            "lng": 102.775786
        },
        "ad_info": {
            "adcode": 513228,
            "province": "四川省",
            "city": "阿坝藏族羌族自治州",
            "district": "黑水县"
        }
    },
    {
        "id": "5055133150866219542",
        "title": "下桥公共厕所",
        "address": "四川省阿坝藏族羌族自治州小金县政府街与河西街交叉口正北方向239米左右",
        "tel": "",
        "category": "基础设施:公共设施:公共厕所",
        "type": 0,
        "location": {
            "lat": 31.001057,
            "lng": 102.365078
        },
        "ad_info": {
            "adcode": 513227,
            "province": "四川省",
            "city": "阿坝藏族羌族自治州",
            "district": "小金县"
        }
    },
    {
        "id": "4685320898172354476",
        "title": "公共厕所",
        "address": "四川省阿坝藏族羌族自治州茂县G213与青龙寺隧道交叉口东北方向446米左右",
        "tel": "",
        "category": "基础设施:公共设施:公共厕所",
        "type": 0,
        "location": {
            "lat": 32.061489,
            "lng": 103.713164
        },
        "ad_info": {
            "adcode": 513223,
            "province": "四川省",
            "city": "阿坝藏族羌族自治州",
            "district": "茂县"
        }
    },
    {
        "id": "13890274144881169882",
        "title": "黑桥游客中心公共厕所",
        "address": "四川省阿坝藏族羌族自治州壤塘县成那线与阿两路交叉口东南方向85米左右",
        "tel": "",
        "category": "基础设施:公共设施:公共厕所",
        "type": 0,
        "location": {
            "lat": 31.967453,
            "lng": 101.004849
        },
        "ad_info": {
            "adcode": 513230,
            "province": "四川省",
            "city": "阿坝藏族羌族自治州",
            "district": "壤塘县"
        }
    },
    {
        "id": "13560937821159510884",
        "title": "蒲西加油站旅游厕所",
        "address": "四川省阿坝藏族羌族自治州壤塘县G317",
        "tel": "",
        "category": "基础设施:公共设施:公共厕所",
        "type": 0,
        "location": {
            "lat": 31.784823,
            "lng": 101.266455
        },
        "ad_info": {
            "adcode": 513230,
            "province": "四川省",
            "city": "阿坝藏族羌族自治州",
            "district": "壤塘县"
        }
    },
    {
        "id": "15520790816881882666",
        "title": "公共厕所",
        "address": "四川省阿坝藏族羌族自治州若尔盖县红星路与麦溪路交叉口正西方向289米左右",
        "tel": "",
        "category": "基础设施:公共设施:公共厕所",
        "type": 0,
        "location": {
            "lat": 33.577949,
            "lng": 102.954555
        },
        "ad_info": {
            "adcode": 513232,
            "province": "四川省",
            "city": "阿坝藏族羌族自治州",
            "district": "若尔盖县"
        }
    },
    {
        "id": "13407796441220828633",
        "title": "茂县吉鱼村旅游公共厕所",
        "address": "四川省阿坝藏族羌族自治州茂县成都华煜电气有限公司西南(G213)",
        "tel": "",
        "category": "基础设施:公共设施:公共厕所",
        "type": 0,
        "location": {
            "lat": 31.605247,
            "lng": 103.761299
        },
        "ad_info": {
            "adcode": 513223,
            "province": "四川省",
            "city": "阿坝藏族羌族自治州",
            "district": "茂县"
        }
    },
    {
        "id": "9086693396186132454",
        "title": "九寨鲁能胜地6#公共厕所",
        "address": "四川省阿坝藏族羌族自治州九寨沟县沃美影城(S301南)",
        "tel": "",
        "category": "基础设施:公共设施:公共厕所",
        "type": 0,
        "location": {
            "lat": 33.305338,
            "lng": 103.819843
        },
        "ad_info": {
            "adcode": 513225,
            "province": "四川省",
            "city": "阿坝藏族羌族自治州",
            "district": "九寨沟县"
        }
    },
    {
        "id": "3909404809329780218",
        "title": "公共厕所",
        "address": "四川省阿坝藏族羌族自治州松潘县120县道南50米",
        "tel": "",
        "category": "基础设施:公共设施:公共厕所",
        "type": 0,
        "location": {
            "lat": 32.743505,
            "lng": 103.755474
        },
        "ad_info": {
            "adcode": 513224,
            "province": "四川省",
            "city": "阿坝藏族羌族自治州",
            "district": "松潘县"
        }
    },
    {
        "id": "13209845431732746866",
        "title": "免费公共厕所",
        "address": "四川省阿坝藏族羌族自治州若尔盖县商业街与寺院路交叉口正南方向130米左右",
        "tel": "",
        "category": "基础设施:公共设施:公共厕所",
        "type": 0,
        "location": {
            "lat": 33.578671,
            "lng": 102.969975
        },
        "ad_info": {
            "adcode": 513232,
            "province": "四川省",
            "city": "阿坝藏族羌族自治州",
            "district": "若尔盖县"
        }
    },
    {
        "id": "10988985797420326485",
        "title": "公共厕所",
        "address": "四川省阿坝藏族羌族自治州小金县四姑娘山镇四姑娘山景区双桥沟四姑娘山漂流内",
        "tel": "",
        "category": "基础设施:公共设施:公共厕所",
        "type": 0,
        "location": {
            "lat": 31.156143,
            "lng": 102.767743
        },
        "ad_info": {
            "adcode": 513227,
            "province": "四川省",
            "city": "阿坝藏族羌族自治州",
            "district": "小金县"
        }
    },
    {
        "id": "3999658761892466912",
        "title": "九寨华美胜地旅游度假区7#公共厕所",
        "address": "四川省阿坝藏族羌族自治州九寨沟县漳扎镇中查沟九寨华美胜地旅游度假区",
        "tel": "",
        "category": "基础设施:公共设施:公共厕所",
        "type": 0,
        "location": {
            "lat": 33.30588,
            "lng": 103.818379
        },
        "ad_info": {
            "adcode": 513225,
            "province": "四川省",
            "city": "阿坝藏族羌族自治州",
            "district": "九寨沟县"
        }
    },
    {
        "id": "8174004686258154661",
        "title": "花湖景区公共厕所",
        "address": "四川省阿坝藏族羌族自治州若尔盖县花湖风景区-售票处北侧100米",
        "tel": "",
        "category": "基础设施:公共设施:公共厕所",
        "type": 0,
        "location": {
            "lat": 33.949694,
            "lng": 102.848591
        },
        "ad_info": {
            "adcode": 513232,
            "province": "四川省",
            "city": "阿坝藏族羌族自治州",
            "district": "若尔盖县"
        }
    },
    {
        "id": "9666843160376148904",
        "title": "龙潭沟公共厕所",
        "address": "四川省阿坝藏族羌族自治州汶川县G350(中国熊猫大道)",
        "tel": "",
        "category": "基础设施:公共设施:公共厕所",
        "type": 0,
        "location": {
            "lat": 31.113368,
            "lng": 103.294758
        },
        "ad_info": {
            "adcode": 513221,
            "province": "四川省",
            "city": "阿坝藏族羌族自治州",
            "district": "汶川县"
        }
    },
    {
        "id": "11659013108107225026",
        "title": "两河口服务站公共厕所",
        "address": "四川省阿坝藏族羌族自治州壤塘县石里乡上达石沟村",
        "tel": "",
        "category": "基础设施:公共设施:公共厕所",
        "type": 0,
        "location": {
            "lat": 31.943877,
            "lng": 101.025241
        },
        "ad_info": {
            "adcode": 513230,
            "province": "四川省",
            "city": "阿坝藏族羌族自治州",
            "district": "壤塘县"
        }
    },
    {
        "id": "3007203864803754974",
        "title": "松岗柯盘天街游客中心厕所",
        "address": "四川省阿坝藏族羌族自治州马尔康市G248与G317交叉口正东方向906米左右",
        "tel": "",
        "category": "基础设施:公共设施:公共厕所",
        "type": 0,
        "location": {
            "lat": 31.911893,
            "lng": 102.104073
        },
        "ad_info": {
            "adcode": 513201,
            "province": "四川省",
            "city": "阿坝藏族羌族自治州",
            "district": "马尔康市"
        }
    },
    {
        "id": "7320514501903783931",
        "title": "中壤塘生态旅游公共厕所",
        "address": "四川省阿坝藏族羌族自治州壤塘县壤巴拉文化旅游景区",
        "tel": "",
        "category": "基础设施:公共设施:公共厕所",
        "type": 0,
        "location": {
            "lat": 32.344258,
            "lng": 101.179633
        },
        "ad_info": {
            "adcode": 513230,
            "province": "四川省",
            "city": "阿坝藏族羌族自治州",
            "district": "壤塘县"
        }
    },
    {
        "id": "14724365189683373319",
        "title": "茂县叠溪太平旅游厕所",
        "address": "四川省阿坝藏族羌族自治州松潘县中国石油金哈达油气站北(G213)",
        "tel": "",
        "category": "基础设施:公共设施:公共厕所",
        "type": 0,
        "location": {
            "lat": 32.145853,
            "lng": 103.734666
        },
        "ad_info": {
            "adcode": 513224,
            "province": "四川省",
            "city": "阿坝藏族羌族自治州",
            "district": "松潘县"
        }
    },
    {
        "id": "17858941708635740035",
        "title": "九寨华美胜地旅游度假区13#公共厕所",
        "address": "四川省阿坝藏族羌族自治州九寨沟县九寨英迪格酒店西北50米(S301南)",
        "tel": "",
        "category": "基础设施:公共设施:公共厕所",
        "type": 0,
        "location": {
            "lat": 33.30489,
            "lng": 103.818507
        },
        "ad_info": {
            "adcode": 513225,
            "province": "四川省",
            "city": "阿坝藏族羌族自治州",
            "district": "九寨沟县"
        }
    },
    {
        "id": "2778753790859639759",
        "title": "小官寨公共厕所",
        "address": "四川省阿坝藏族羌族自治州小金县中国熊猫大道与河东街交叉口正东方向1253米左右",
        "tel": "",
        "category": "基础设施:公共设施:公共厕所",
        "type": 0,
        "location": {
            "lat": 31.003453,
            "lng": 102.380409
        },
        "ad_info": {
            "adcode": 513227,
            "province": "四川省",
            "city": "阿坝藏族羌族自治州",
            "district": "小金县"
        }
    },
    {
        "id": "72437603585147420",
        "title": "马尔康服务区公共厕所",
        "address": "四川省阿坝藏族羌族自治州马尔康市G4217蓉昌高速与马尔康服务区交叉口西260米",
        "tel": "",
        "category": "基础设施:公共设施:公共厕所",
        "type": 0,
        "location": {
            "lat": 31.862295,
            "lng": 102.483999
        },
        "ad_info": {
            "adcode": 513201,
            "province": "四川省",
            "city": "阿坝藏族羌族自治州",
            "district": "马尔康市"
        }
    },
    {
        "id": "10262484274562639906",
        "title": "小卖部厕所",
        "address": "四川省阿坝藏族羌族自治州茂县柳坪补胎东南侧",
        "tel": "",
        "category": "基础设施:公共设施:公共厕所",
        "type": 0,
        "location": {
            "lat": 31.877633,
            "lng": 103.557692
        },
        "ad_info": {
            "adcode": 513223,
            "province": "四川省",
            "city": "阿坝藏族羌族自治州",
            "district": "茂县"
        }
    },
    {
        "id": "4206491114762323762",
        "title": "丽呈华廷度假酒店洗手间",
        "address": "四川省阿坝藏族羌族自治州九寨沟县G544与九寨隧道交叉口正南方向199米左右",
        "tel": "",
        "category": "基础设施:公共设施:公共厕所",
        "type": 0,
        "location": {
            "lat": 33.272601,
            "lng": 103.903842
        },
        "ad_info": {
            "adcode": 513225,
            "province": "四川省",
            "city": "阿坝藏族羌族自治州",
            "district": "九寨沟县"
        }
    },
    {
        "id": "5813595217944210855",
        "title": "川盘村旅游厕所",
        "address": "四川省阿坝藏族羌族自治州松潘县水晶乡附近",
        "tel": "",
        "category": "基础设施:公共设施:公共厕所",
        "type": 0,
        "location": {
            "lat": 32.909221,
            "lng": 103.701138
        },
        "ad_info": {
            "adcode": 513224,
            "province": "四川省",
            "city": "阿坝藏族羌族自治州",
            "district": "松潘县"
        }
    },
    {
        "id": "9075332804843389791",
        "title": "公共厕所",
        "address": "四川省阿坝藏族羌族自治州松潘县G213与顺城北路交叉口东南方向174米左右",
        "tel": "",
        "category": "基础设施:公共设施:公共厕所",
        "type": 0,
        "location": {
            "lat": 32.640988,
            "lng": 103.600707
        },
        "ad_info": {
            "adcode": 513224,
            "province": "四川省",
            "city": "阿坝藏族羌族自治州",
            "district": "松潘县"
        }
    },
    {
        "id": "10629498557706422232",
        "title": "公共厕所",
        "address": "四川省阿坝藏族羌族自治州若尔盖县213国道西50米",
        "tel": "",
        "category": "基础设施:公共设施:公共厕所",
        "type": 0,
        "location": {
            "lat": 33.779004,
            "lng": 102.961585
        },
        "ad_info": {
            "adcode": 513232,
            "province": "四川省",
            "city": "阿坝藏族羌族自治州",
            "district": "若尔盖县"
        }
    },
    {
        "id": "12130502762839644514",
        "title": "马尔康服务区公共厕所",
        "address": "四川省阿坝藏族羌族自治州马尔康市G4217蓉昌高速与马尔康服务区交叉口西北240米",
        "tel": "",
        "category": "基础设施:公共设施:公共厕所",
        "type": 0,
        "location": {
            "lat": 31.861366,
            "lng": 102.489275
        },
        "ad_info": {
            "adcode": 513201,
            "province": "四川省",
            "city": "阿坝藏族羌族自治州",
            "district": "马尔康市"
        }
    },
    {
        "id": "3639611427823753923",
        "title": "公共厕所",
        "address": "四川省阿坝藏族羌族自治州马尔康市阿底大桥与马江街二段交叉口正西方向143米左右",
        "tel": "",
        "category": "基础设施:公共设施:公共厕所",
        "type": 0,
        "location": {
            "lat": 31.892488,
            "lng": 102.23558
        },
        "ad_info": {
            "adcode": 513201,
            "province": "四川省",
            "city": "阿坝藏族羌族自治州",
            "district": "马尔康市"
        }
    },
    {
        "id": "12462984934595123516",
        "title": "公共厕所",
        "address": "四川省阿坝藏族羌族自治州若尔盖县213国道西50米",
        "tel": "",
        "category": "基础设施:公共设施:公共厕所",
        "type": 0,
        "location": {
            "lat": 33.464191,
            "lng": 103.176059
        },
        "ad_info": {
            "adcode": 513232,
            "province": "四川省",
            "city": "阿坝藏族羌族自治州",
            "district": "若尔盖县"
        }
    },
    {
        "id": "1882443858044513835",
        "title": "公共厕所",
        "address": "四川省阿坝藏族羌族自治州理县专业补胎东北侧130米",
        "tel": "",
        "category": "基础设施:公共设施:公共厕所",
        "type": 0,
        "location": {
            "lat": 31.408278,
            "lng": 103.11986
        },
        "ad_info": {
            "adcode": 513222,
            "province": "四川省",
            "city": "阿坝藏族羌族自治州",
            "district": "理县"
        }
    },
    {
        "id": "12004560867184068126",
        "title": "赵公福地游客中心厕所",
        "address": "四川省阿坝藏族羌族自治州汶川县",
        "tel": "",
        "category": "基础设施:公共设施:公共厕所",
        "type": 0,
        "location": {
            "lat": 30.998203,
            "lng": 103.508518
        },
        "ad_info": {
            "adcode": 513221,
            "province": "四川省",
            "city": "阿坝藏族羌族自治州",
            "district": "汶川县"
        }
    },
    {
        "id": "6785430770033102137",
        "title": "公共厕所",
        "address": "四川省阿坝藏族羌族自治州若尔盖县建设北街与建设南街交叉口正南方向132米左右",
        "tel": "17882217657",
        "category": "基础设施:公共设施:公共厕所",
        "type": 0,
        "location": {
            "lat": 33.57414,
            "lng": 102.965004
        },
        "ad_info": {
            "adcode": 513232,
            "province": "四川省",
            "city": "阿坝藏族羌族自治州",
            "district": "若尔盖县"
        }
    },
    {
        "id": "7161840707586926880",
        "title": "公共厕所",
        "address": "四川省阿坝藏族羌族自治州茂县",
        "tel": "",
        "category": "基础设施:公共设施:公共厕所",
        "type": 0,
        "location": {
            "lat": 31.925412,
            "lng": 103.67349
        },
        "ad_info": {
            "adcode": 513223,
            "province": "四川省",
            "city": "阿坝藏族羌族自治州",
            "district": "茂县"
        }
    },
    {
        "id": "3072444253070929369",
        "title": "公共厕所",
        "address": "四川省阿坝藏族羌族自治州红原县G248与G347交叉口东北方向24米左右",
        "tel": "",
        "category": "基础设施:公共设施:公共厕所",
        "type": 0,
        "location": {
            "lat": 32.206901,
            "lng": 102.488859
        },
        "ad_info": {
            "adcode": 513233,
            "province": "四川省",
            "city": "阿坝藏族羌族自治州",
            "district": "红原县"
        }
    },
    {
        "id": "2358367275169681058",
        "title": "公共厕所",
        "address": "四川省阿坝藏族羌族自治州若尔盖县G213与Y558交叉口西南方向86米左右",
        "tel": "",
        "category": "基础设施:公共设施:公共厕所",
        "type": 0,
        "location": {
            "lat": 33.754929,
            "lng": 102.958169
        },
        "ad_info": {
            "adcode": 513232,
            "province": "四川省",
            "city": "阿坝藏族羌族自治州",
            "district": "若尔盖县"
        }
    },
    {
        "id": "9785214508948304945",
        "title": "公共厕所",
        "address": "四川省阿坝藏族羌族自治州松潘县G213与S313交叉口正北方向1948米左右",
        "tel": "",
        "category": "基础设施:公共设施:公共厕所",
        "type": 0,
        "location": {
            "lat": 32.336776,
            "lng": 103.722781
        },
        "ad_info": {
            "adcode": 513224,
            "province": "四川省",
            "city": "阿坝藏族羌族自治州",
            "district": "松潘县"
        }
    },
    {
        "id": "5317470248981744511",
        "title": "公共厕所",
        "address": "四川省阿坝藏族羌族自治州汶川县303省道西50米",
        "tel": "",
        "category": "基础设施:公共设施:公共厕所",
        "type": 0,
        "location": {
            "lat": 31.073369,
            "lng": 103.316899
        },
        "ad_info": {
            "adcode": 513221,
            "province": "四川省",
            "city": "阿坝藏族羌族自治州",
            "district": "汶川县"
        }
    },
    {
        "id": "4703867343032519125",
        "title": "公共厕所",
        "address": "四川省阿坝藏族羌族自治州九寨沟县G247与甘沟桥交叉口正北方向24米左右",
        "tel": "",
        "category": "基础设施:公共设施:公共厕所",
        "type": 0,
        "location": {
            "lat": 33.116201,
            "lng": 104.239822
        },
        "ad_info": {
            "adcode": 513225,
            "province": "四川省",
            "city": "阿坝藏族羌族自治州",
            "district": "九寨沟县"
        }
    },
    {
        "id": "7476203052523654343",
        "title": "公共厕所",
        "address": "四川省阿坝藏族羌族自治州若尔盖县213国道东50米",
        "tel": "",
        "category": "基础设施:公共设施:公共厕所",
        "type": 0,
        "location": {
            "lat": 33.430936,
            "lng": 103.182874
        },
        "ad_info": {
            "adcode": 513232,
            "province": "四川省",
            "city": "阿坝藏族羌族自治州",
            "district": "若尔盖县"
        }
    },
    {
        "id": "6042508463373773918",
        "title": "公共厕所",
        "address": "四川省阿坝藏族羌族自治州松潘县213国道北50米",
        "tel": "",
        "category": "基础设施:公共设施:公共厕所",
        "type": 0,
        "location": {
            "lat": 32.253543,
            "lng": 103.756065
        },
        "ad_info": {
            "adcode": 513224,
            "province": "四川省",
            "city": "阿坝藏族羌族自治州",
            "district": "松潘县"
        }
    },
    {
        "id": "17380903830958655278",
        "title": "公共厕所",
        "address": "四川省阿坝藏族羌族自治州茂县恒山路与晋茂大道北段交叉口西南40米",
        "tel": "",
        "category": "基础设施:公共设施:公共厕所",
        "type": 0,
        "location": {
            "lat": 31.684091,
            "lng": 103.846618
        },
        "ad_info": {
            "adcode": 513223,
            "province": "四川省",
            "city": "阿坝藏族羌族自治州",
            "district": "茂县"
        }
    },
    {
        "id": "13400228590823924032",
        "title": "公共厕所",
        "address": "四川省阿坝藏族羌族自治州阿坝县崇拉北街与洽唐西街交叉口正东方向45米左右",
        "tel": "",
        "category": "基础设施:公共设施:公共厕所",
        "type": 0,
        "location": {
            "lat": 32.907168,
            "lng": 101.695901
        },
        "ad_info": {
            "adcode": 513231,
            "province": "四川省",
            "city": "阿坝藏族羌族自治州",
            "district": "阿坝县"
        }
    },
    {
        "id": "17338922462180767223",
        "title": "公共厕所",
        "address": "四川省阿坝藏族羌族自治州马尔康市团结街与达萨街交叉口正西方向11米左右",
        "tel": "",
        "category": "基础设施:公共设施:公共厕所",
        "type": 0,
        "location": {
            "lat": 31.904443,
            "lng": 102.215686
        },
        "ad_info": {
            "adcode": 513201,
            "province": "四川省",
            "city": "阿坝藏族羌族自治州",
            "district": "马尔康市"
        }
    },
    {
        "id": "15317466438090416070",
        "title": "公共厕所",
        "address": "四川省阿坝藏族羌族自治州茂县213国道西50米",
        "tel": "",
        "category": "基础设施:公共设施:公共厕所",
        "type": 0,
        "location": {
            "lat": 31.514744,
            "lng": 103.669492
        },
        "ad_info": {
            "adcode": 513223,
            "province": "四川省",
            "city": "阿坝藏族羌族自治州",
            "district": "茂县"
        }
    },
    {
        "id": "9394189194444350271",
        "title": "公共厕所",
        "address": "四川省阿坝藏族羌族自治州小金县康热街西50米",
        "tel": "",
        "category": "基础设施:公共设施:公共厕所",
        "type": 0,
        "location": {
            "lat": 31.508034,
            "lng": 102.450497
        },
        "ad_info": {
            "adcode": 513227,
            "province": "四川省",
            "city": "阿坝藏族羌族自治州",
            "district": "小金县"
        }
    },
    {
        "id": "2772121573637103419",
        "title": "公共厕所",
        "address": "四川省阿坝藏族羌族自治州茂县G347与洋坪大桥交叉口正东方向880米左右",
        "tel": "",
        "category": "基础设施:公共设施:公共厕所",
        "type": 0,
        "location": {
            "lat": 31.76671,
            "lng": 104.094603
        },
        "ad_info": {
            "adcode": 513223,
            "province": "四川省",
            "city": "阿坝藏族羌族自治州",
            "district": "茂县"
        }
    },
    {
        "id": "15028600533730648940",
        "title": "公共厕所",
        "address": "四川省阿坝藏族羌族自治州汶川县G213与小黄沟大桥交叉口正北方向927米左右",
        "tel": "",
        "category": "基础设施:公共设施:公共厕所",
        "type": 0,
        "location": {
            "lat": 31.033386,
            "lng": 103.471806
        },
        "ad_info": {
            "adcode": 513221,
            "province": "四川省",
            "city": "阿坝藏族羌族自治州",
            "district": "汶川县"
        }
    },
    {
        "id": "1494515352793721804",
        "title": "公共厕所",
        "address": "四川省阿坝藏族羌族自治州九寨沟县九若路南50米",
        "tel": "",
        "category": "基础设施:公共设施:公共厕所",
        "type": 0,
        "location": {
            "lat": 33.596335,
            "lng": 103.710703
        },
        "ad_info": {
            "adcode": 513225,
            "province": "四川省",
            "city": "阿坝藏族羌族自治州",
            "district": "九寨沟县"
        }
    },
    {
        "id": "3426724226822400409",
        "title": "公共厕所",
        "address": "四川省阿坝藏族羌族自治州松潘县平松路附近黄龙国家地质公园内",
        "tel": "",
        "category": "基础设施:公共设施:公共厕所",
        "type": 0,
        "location": {
            "lat": 32.755557,
            "lng": 103.836259
        },
        "ad_info": {
            "adcode": 513224,
            "province": "四川省",
            "city": "阿坝藏族羌族自治州",
            "district": "松潘县"
        }
    },
    {
        "id": "11313132242872839863",
        "title": "公共厕所",
        "address": "四川省阿坝藏族羌族自治州茂县",
        "tel": "",
        "category": "基础设施:公共设施:公共厕所",
        "type": 0,
        "location": {
            "lat": 31.775822,
            "lng": 103.768106
        },
        "ad_info": {
            "adcode": 513223,
            "province": "四川省",
            "city": "阿坝藏族羌族自治州",
            "district": "茂县"
        }
    },
    {
        "id": "6823433785532060665",
        "title": "公共厕所",
        "address": "四川省阿坝藏族羌族自治州松潘县G213与安徽大道交叉口东南方向253米左右",
        "tel": "",
        "category": "基础设施:公共设施:公共厕所",
        "type": 0,
        "location": {
            "lat": 32.651006,
            "lng": 103.604021
        },
        "ad_info": {
            "adcode": 513224,
            "province": "四川省",
            "city": "阿坝藏族羌族自治州",
            "district": "松潘县"
        }
    },
    {
        "id": "2278275387480282243",
        "title": "公共厕所",
        "address": "四川省阿坝藏族羌族自治州汶川县213国道与S9都汶高速出口交叉口北200米",
        "tel": "",
        "category": "基础设施:公共设施:公共厕所",
        "type": 0,
        "location": {
            "lat": 31.439673,
            "lng": 103.543467
        },
        "ad_info": {
            "adcode": 513221,
            "province": "四川省",
            "city": "阿坝藏族羌族自治州",
            "district": "汶川县"
        }
    },
    {
        "id": "1912087165756894441",
        "title": "公共厕所",
        "address": "四川省阿坝藏族羌族自治州松潘县213国道东50米",
        "tel": "",
        "category": "基础设施:公共设施:公共厕所",
        "type": 0,
        "location": {
            "lat": 32.342215,
            "lng": 103.735432
        },
        "ad_info": {
            "adcode": 513224,
            "province": "四川省",
            "city": "阿坝藏族羌族自治州",
            "district": "松潘县"
        }
    },
    {
        "id": "10675900300737962040",
        "title": "公共厕所",
        "address": "四川省阿坝藏族羌族自治州松潘县G213与镇坪大桥交叉口正北方向733米左右",
        "tel": "",
        "category": "基础设施:公共设施:公共厕所",
        "type": 0,
        "location": {
            "lat": 32.204569,
            "lng": 103.767463
        },
        "ad_info": {
            "adcode": 513224,
            "province": "四川省",
            "city": "阿坝藏族羌族自治州",
            "district": "松潘县"
        }
    },
    {
        "id": "9718738247952765376",
        "title": "公共厕所",
        "address": "四川省阿坝藏族羌族自治州马尔康市团结街与达萨街一段交叉口正西方向24米左右",
        "tel": "",
        "category": "基础设施:公共设施:公共厕所",
        "type": 0,
        "location": {
            "lat": 31.90174,
            "lng": 102.219169
        },
        "ad_info": {
            "adcode": 513201,
            "province": "四川省",
            "city": "阿坝藏族羌族自治州",
            "district": "马尔康市"
        }
    },
    {
        "id": "18118607590988745620",
        "title": "公共厕所",
        "address": "四川省阿坝藏族羌族自治州若尔盖县213国道西50米",
        "tel": "",
        "category": "基础设施:公共设施:公共厕所",
        "type": 0,
        "location": {
            "lat": 33.27989,
            "lng": 103.23207
        },
        "ad_info": {
            "adcode": 513232,
            "province": "四川省",
            "city": "阿坝藏族羌族自治州",
            "district": "若尔盖县"
        }
    },
    {
        "id": "2826400516627988796",
        "title": "公共厕所",
        "address": "四川省阿坝藏族羌族自治州茂县G213与羌阳1号大桥交叉口正南方向1728米左右",
        "tel": "",
        "category": "基础设施:公共设施:公共厕所",
        "type": 0,
        "location": {
            "lat": 32.093474,
            "lng": 103.722776
        },
        "ad_info": {
            "adcode": 513223,
            "province": "四川省",
            "city": "阿坝藏族羌族自治州",
            "district": "茂县"
        }
    },
    {
        "id": "13143828387551073055",
        "title": "公共厕所",
        "address": "四川省阿坝藏族羌族自治州松潘县平松路北50米施家堡乡云南临沧博爱学校附近",
        "tel": "",
        "category": "基础设施:公共设施:公共厕所",
        "type": 0,
        "location": {
            "lat": 32.685618,
            "lng": 104.074276
        },
        "ad_info": {
            "adcode": 513224,
            "province": "四川省",
            "city": "阿坝藏族羌族自治州",
            "district": "松潘县"
        }
    },
    {
        "id": "8815678616612301273",
        "title": "公共厕所",
        "address": "四川省阿坝藏族羌族自治州壤塘县直蜀街与阿两路交叉口东南方向23米左右",
        "tel": "",
        "category": "基础设施:公共设施:公共厕所",
        "type": 0,
        "location": {
            "lat": 32.408725,
            "lng": 101.075141
        },
        "ad_info": {
            "adcode": 513230,
            "province": "四川省",
            "city": "阿坝藏族羌族自治州",
            "district": "壤塘县"
        }
    },
    {
        "id": "11245214661138651567",
        "title": "公共厕所",
        "address": "四川省阿坝藏族羌族自治州若尔盖县G213与九若路交叉口正西方向51米左右",
        "tel": "",
        "category": "基础设施:公共设施:公共厕所",
        "type": 0,
        "location": {
            "lat": 33.58398,
            "lng": 103.105042
        },
        "ad_info": {
            "adcode": 513232,
            "province": "四川省",
            "city": "阿坝藏族羌族自治州",
            "district": "若尔盖县"
        }
    },
    {
        "id": "4944964146991409938",
        "title": "公共厕所",
        "address": "四川省阿坝藏族羌族自治州理县317国道东50米",
        "tel": "",
        "category": "基础设施:公共设施:公共厕所",
        "type": 0,
        "location": {
            "lat": 31.447409,
            "lng": 103.012879
        },
        "ad_info": {
            "adcode": 513222,
            "province": "四川省",
            "city": "阿坝藏族羌族自治州",
            "district": "理县"
        }
    },
    {
        "id": "15928399514513765494",
        "title": "公共厕所",
        "address": "四川省阿坝藏族羌族自治州松潘县平松路附近黄龙国家地质公园内",
        "tel": "",
        "category": "基础设施:公共设施:公共厕所",
        "type": 0,
        "location": {
            "lat": 32.747921,
            "lng": 103.814404
        },
        "ad_info": {
            "adcode": 513224,
            "province": "四川省",
            "city": "阿坝藏族羌族自治州",
            "district": "松潘县"
        }
    },
    {
        "id": "10187606625611599745",
        "title": "公共厕所",
        "address": "四川省阿坝藏族羌族自治州若尔盖县巴西镇班佑村小学附近",
        "tel": "",
        "category": "基础设施:公共设施:公共厕所",
        "type": 0,
        "location": {
            "lat": 33.557134,
            "lng": 103.113352
        },
        "ad_info": {
            "adcode": 513232,
            "province": "四川省",
            "city": "阿坝藏族羌族自治州",
            "district": "若尔盖县"
        }
    },
    {
        "id": "6859489146319145759",
        "title": "公共厕所",
        "address": "四川省阿坝藏族羌族自治州松潘县S313",
        "tel": "",
        "category": "基础设施:公共设施:公共厕所",
        "type": 0,
        "location": {
            "lat": 32.180807,
            "lng": 103.75785
        },
        "ad_info": {
            "adcode": 513224,
            "province": "四川省",
            "city": "阿坝藏族羌族自治州",
            "district": "松潘县"
        }
    },
    {
        "id": "1265614755164383254",
        "title": "公共厕所",
        "address": "四川省阿坝藏族羌族自治州马尔康市滨河路84号",
        "tel": "",
        "category": "基础设施:公共设施:公共厕所",
        "type": 0,
        "location": {
            "lat": 31.900399,
            "lng": 102.218667
        },
        "ad_info": {
            "adcode": 513201,
            "province": "四川省",
            "city": "阿坝藏族羌族自治州",
            "district": "马尔康市"
        }
    },
    {
        "id": "8372359984440389593",
        "title": "公共厕所",
        "address": "四川省阿坝藏族羌族自治州汶川县213国道与G4217蓉昌高速入口交叉口东北400米",
        "tel": "",
        "category": "基础设施:公共设施:公共厕所",
        "type": 0,
        "location": {
            "lat": 31.350571,
            "lng": 103.493119
        },
        "ad_info": {
            "adcode": 513221,
            "province": "四川省",
            "city": "阿坝藏族羌族自治州",
            "district": "汶川县"
        }
    },
    {
        "id": "15028600533730648940",
        "title": "公共厕所",
        "address": "四川省阿坝藏族羌族自治州汶川县G213与小黄沟大桥交叉口正北方向927米左右",
        "tel": "",
        "category": "基础设施:公共设施:公共厕所",
        "type": 0,
        "location": {
            "lat": 31.033386,
            "lng": 103.471806
        },
        "ad_info": {
            "adcode": 513221,
            "province": "四川省",
            "city": "阿坝藏族羌族自治州",
            "district": "汶川县"
        }
    },
    {
        "id": "1494515352793721804",
        "title": "公共厕所",
        "address": "四川省阿坝藏族羌族自治州九寨沟县九若路南50米",
        "tel": "",
        "category": "基础设施:公共设施:公共厕所",
        "type": 0,
        "location": {
            "lat": 33.596335,
            "lng": 103.710703
        },
        "ad_info": {
            "adcode": 513225,
            "province": "四川省",
            "city": "阿坝藏族羌族自治州",
            "district": "九寨沟县"
        }
    },
    {
        "id": "3426724226822400409",
        "title": "公共厕所",
        "address": "四川省阿坝藏族羌族自治州松潘县平松路附近黄龙国家地质公园内",
        "tel": "",
        "category": "基础设施:公共设施:公共厕所",
        "type": 0,
        "location": {
            "lat": 32.755557,
            "lng": 103.836259
        },
        "ad_info": {
            "adcode": 513224,
            "province": "四川省",
            "city": "阿坝藏族羌族自治州",
            "district": "松潘县"
        }
    },
    {
        "id": "11313132242872839863",
        "title": "公共厕所",
        "address": "四川省阿坝藏族羌族自治州茂县",
        "tel": "",
        "category": "基础设施:公共设施:公共厕所",
        "type": 0,
        "location": {
            "lat": 31.775822,
            "lng": 103.768106
        },
        "ad_info": {
            "adcode": 513223,
            "province": "四川省",
            "city": "阿坝藏族羌族自治州",
            "district": "茂县"
        }
    },
    {
        "id": "6823433785532060665",
        "title": "公共厕所",
        "address": "四川省阿坝藏族羌族自治州松潘县G213与安徽大道交叉口东南方向253米左右",
        "tel": "",
        "category": "基础设施:公共设施:公共厕所",
        "type": 0,
        "location": {
            "lat": 32.651006,
            "lng": 103.604021
        },
        "ad_info": {
            "adcode": 513224,
            "province": "四川省",
            "city": "阿坝藏族羌族自治州",
            "district": "松潘县"
        }
    },
    {
        "id": "2278275387480282243",
        "title": "公共厕所",
        "address": "四川省阿坝藏族羌族自治州汶川县213国道与S9都汶高速出口交叉口北200米",
        "tel": "",
        "category": "基础设施:公共设施:公共厕所",
        "type": 0,
        "location": {
            "lat": 31.439673,
            "lng": 103.543467
        },
        "ad_info": {
            "adcode": 513221,
            "province": "四川省",
            "city": "阿坝藏族羌族自治州",
            "district": "汶川县"
        }
    },
    {
        "id": "1912087165756894441",
        "title": "公共厕所",
        "address": "四川省阿坝藏族羌族自治州松潘县213国道东50米",
        "tel": "",
        "category": "基础设施:公共设施:公共厕所",
        "type": 0,
        "location": {
            "lat": 32.342215,
            "lng": 103.735432
        },
        "ad_info": {
            "adcode": 513224,
            "province": "四川省",
            "city": "阿坝藏族羌族自治州",
            "district": "松潘县"
        }
    },
    {
        "id": "10675900300737962040",
        "title": "公共厕所",
        "address": "四川省阿坝藏族羌族自治州松潘县G213与镇坪大桥交叉口正北方向733米左右",
        "tel": "",
        "category": "基础设施:公共设施:公共厕所",
        "type": 0,
        "location": {
            "lat": 32.204569,
            "lng": 103.767463
        },
        "ad_info": {
            "adcode": 513224,
            "province": "四川省",
            "city": "阿坝藏族羌族自治州",
            "district": "松潘县"
        }
    },
    {
        "id": "9718738247952765376",
        "title": "公共厕所",
        "address": "四川省阿坝藏族羌族自治州马尔康市团结街与达萨街一段交叉口正西方向24米左右",
        "tel": "",
        "category": "基础设施:公共设施:公共厕所",
        "type": 0,
        "location": {
            "lat": 31.90174,
            "lng": 102.219169
        },
        "ad_info": {
            "adcode": 513201,
            "province": "四川省",
            "city": "阿坝藏族羌族自治州",
            "district": "马尔康市"
        }
    },
    {
        "id": "18118607590988745620",
        "title": "公共厕所",
        "address": "四川省阿坝藏族羌族自治州若尔盖县213国道西50米",
        "tel": "",
        "category": "基础设施:公共设施:公共厕所",
        "type": 0,
        "location": {
            "lat": 33.27989,
            "lng": 103.23207
        },
        "ad_info": {
            "adcode": 513232,
            "province": "四川省",
            "city": "阿坝藏族羌族自治州",
            "district": "若尔盖县"
        }
    },
    {
        "id": "2826400516627988796",
        "title": "公共厕所",
        "address": "四川省阿坝藏族羌族自治州茂县G213与羌阳1号大桥交叉口正南方向1728米左右",
        "tel": "",
        "category": "基础设施:公共设施:公共厕所",
        "type": 0,
        "location": {
            "lat": 32.093474,
            "lng": 103.722776
        },
        "ad_info": {
            "adcode": 513223,
            "province": "四川省",
            "city": "阿坝藏族羌族自治州",
            "district": "茂县"
        }
    },
    {
        "id": "13143828387551073055",
        "title": "公共厕所",
        "address": "四川省阿坝藏族羌族自治州松潘县平松路北50米施家堡乡云南临沧博爱学校附近",
        "tel": "",
        "category": "基础设施:公共设施:公共厕所",
        "type": 0,
        "location": {
            "lat": 32.685618,
            "lng": 104.074276
        },
        "ad_info": {
            "adcode": 513224,
            "province": "四川省",
            "city": "阿坝藏族羌族自治州",
            "district": "松潘县"
        }
    },
    {
        "id": "8815678616612301273",
        "title": "公共厕所",
        "address": "四川省阿坝藏族羌族自治州壤塘县直蜀街与阿两路交叉口东南方向23米左右",
        "tel": "",
        "category": "基础设施:公共设施:公共厕所",
        "type": 0,
        "location": {
            "lat": 32.408725,
            "lng": 101.075141
        },
        "ad_info": {
            "adcode": 513230,
            "province": "四川省",
            "city": "阿坝藏族羌族自治州",
            "district": "壤塘县"
        }
    },
    {
        "id": "11245214661138651567",
        "title": "公共厕所",
        "address": "四川省阿坝藏族羌族自治州若尔盖县G213与九若路交叉口正西方向51米左右",
        "tel": "",
        "category": "基础设施:公共设施:公共厕所",
        "type": 0,
        "location": {
            "lat": 33.58398,
            "lng": 103.105042
        },
        "ad_info": {
            "adcode": 513232,
            "province": "四川省",
            "city": "阿坝藏族羌族自治州",
            "district": "若尔盖县"
        }
    },
    {
        "id": "4944964146991409938",
        "title": "公共厕所",
        "address": "四川省阿坝藏族羌族自治州理县317国道东50米",
        "tel": "",
        "category": "基础设施:公共设施:公共厕所",
        "type": 0,
        "location": {
            "lat": 31.447409,
            "lng": 103.012879
        },
        "ad_info": {
            "adcode": 513222,
            "province": "四川省",
            "city": "阿坝藏族羌族自治州",
            "district": "理县"
        }
    },
    {
        "id": "15928399514513765494",
        "title": "公共厕所",
        "address": "四川省阿坝藏族羌族自治州松潘县平松路附近黄龙国家地质公园内",
        "tel": "",
        "category": "基础设施:公共设施:公共厕所",
        "type": 0,
        "location": {
            "lat": 32.747921,
            "lng": 103.814404
        },
        "ad_info": {
            "adcode": 513224,
            "province": "四川省",
            "city": "阿坝藏族羌族自治州",
            "district": "松潘县"
        }
    },
    {
        "id": "10187606625611599745",
        "title": "公共厕所",
        "address": "四川省阿坝藏族羌族自治州若尔盖县巴西镇班佑村小学附近",
        "tel": "",
        "category": "基础设施:公共设施:公共厕所",
        "type": 0,
        "location": {
            "lat": 33.557134,
            "lng": 103.113352
        },
        "ad_info": {
            "adcode": 513232,
            "province": "四川省",
            "city": "阿坝藏族羌族自治州",
            "district": "若尔盖县"
        }
    },
    {
        "id": "6859489146319145759",
        "title": "公共厕所",
        "address": "四川省阿坝藏族羌族自治州松潘县S313",
        "tel": "",
        "category": "基础设施:公共设施:公共厕所",
        "type": 0,
        "location": {
            "lat": 32.180807,
            "lng": 103.75785
        },
        "ad_info": {
            "adcode": 513224,
            "province": "四川省",
            "city": "阿坝藏族羌族自治州",
            "district": "松潘县"
        }
    },
    {
        "id": "1265614755164383254",
        "title": "公共厕所",
        "address": "四川省阿坝藏族羌族自治州马尔康市滨河路84号",
        "tel": "",
        "category": "基础设施:公共设施:公共厕所",
        "type": 0,
        "location": {
            "lat": 31.900399,
            "lng": 102.218667
        },
        "ad_info": {
            "adcode": 513201,
            "province": "四川省",
            "city": "阿坝藏族羌族自治州",
            "district": "马尔康市"
        }
    },
    {
        "id": "8372359984440389593",
        "title": "公共厕所",
        "address": "四川省阿坝藏族羌族自治州汶川县213国道与G4217蓉昌高速入口交叉口东北400米",
        "tel": "",
        "category": "基础设施:公共设施:公共厕所",
        "type": 0,
        "location": {
            "lat": 31.350571,
            "lng": 103.493119
        },
        "ad_info": {
            "adcode": 513221,
            "province": "四川省",
            "city": "阿坝藏族羌族自治州",
            "district": "汶川县"
        }
    },
    {
        "id": "15028600533730648940",
        "title": "公共厕所",
        "address": "四川省阿坝藏族羌族自治州汶川县G213与小黄沟大桥交叉口正北方向927米左右",
        "tel": "",
        "category": "基础设施:公共设施:公共厕所",
        "type": 0,
        "location": {
            "lat": 31.033386,
            "lng": 103.471806
        },
        "ad_info": {
            "adcode": 513221,
            "province": "四川省",
            "city": "阿坝藏族羌族自治州",
            "district": "汶川县"
        }
    },
    {
        "id": "1494515352793721804",
        "title": "公共厕所",
        "address": "四川省阿坝藏族羌族自治州九寨沟县九若路南50米",
        "tel": "",
        "category": "基础设施:公共设施:公共厕所",
        "type": 0,
        "location": {
            "lat": 33.596335,
            "lng": 103.710703
        },
        "ad_info": {
            "adcode": 513225,
            "province": "四川省",
            "city": "阿坝藏族羌族自治州",
            "district": "九寨沟县"
        }
    },
    {
        "id": "3426724226822400409",
        "title": "公共厕所",
        "address": "四川省阿坝藏族羌族自治州松潘县平松路附近黄龙国家地质公园内",
        "tel": "",
        "category": "基础设施:公共设施:公共厕所",
        "type": 0,
        "location": {
            "lat": 32.755557,
            "lng": 103.836259
        },
        "ad_info": {
            "adcode": 513224,
            "province": "四川省",
            "city": "阿坝藏族羌族自治州",
            "district": "松潘县"
        }
    },
    {
        "id": "11313132242872839863",
        "title": "公共厕所",
        "address": "四川省阿坝藏族羌族自治州茂县",
        "tel": "",
        "category": "基础设施:公共设施:公共厕所",
        "type": 0,
        "location": {
            "lat": 31.775822,
            "lng": 103.768106
        },
        "ad_info": {
            "adcode": 513223,
            "province": "四川省",
            "city": "阿坝藏族羌族自治州",
            "district": "茂县"
        }
    },
    {
        "id": "6823433785532060665",
        "title": "公共厕所",
        "address": "四川省阿坝藏族羌族自治州松潘县G213与安徽大道交叉口东南方向253米左右",
        "tel": "",
        "category": "基础设施:公共设施:公共厕所",
        "type": 0,
        "location": {
            "lat": 32.651006,
            "lng": 103.604021
        },
        "ad_info": {
            "adcode": 513224,
            "province": "四川省",
            "city": "阿坝藏族羌族自治州",
            "district": "松潘县"
        }
    },
    {
        "id": "2278275387480282243",
        "title": "公共厕所",
        "address": "四川省阿坝藏族羌族自治州汶川县213国道与S9都汶高速出口交叉口北200米",
        "tel": "",
        "category": "基础设施:公共设施:公共厕所",
        "type": 0,
        "location": {
            "lat": 31.439673,
            "lng": 103.543467
        },
        "ad_info": {
            "adcode": 513221,
            "province": "四川省",
            "city": "阿坝藏族羌族自治州",
            "district": "汶川县"
        }
    },
    {
        "id": "1912087165756894441",
        "title": "公共厕所",
        "address": "四川省阿坝藏族羌族自治州松潘县213国道东50米",
        "tel": "",
        "category": "基础设施:公共设施:公共厕所",
        "type": 0,
        "location": {
            "lat": 32.342215,
            "lng": 103.735432
        },
        "ad_info": {
            "adcode": 513224,
            "province": "四川省",
            "city": "阿坝藏族羌族自治州",
            "district": "松潘县"
        }
    },
    {
        "id": "10675900300737962040",
        "title": "公共厕所",
        "address": "四川省阿坝藏族羌族自治州松潘县G213与镇坪大桥交叉口正北方向733米左右",
        "tel": "",
        "category": "基础设施:公共设施:公共厕所",
        "type": 0,
        "location": {
            "lat": 32.204569,
            "lng": 103.767463
        },
        "ad_info": {
            "adcode": 513224,
            "province": "四川省",
            "city": "阿坝藏族羌族自治州",
            "district": "松潘县"
        }
    },
    {
        "id": "9718738247952765376",
        "title": "公共厕所",
        "address": "四川省阿坝藏族羌族自治州马尔康市团结街与达萨街一段交叉口正西方向24米左右",
        "tel": "",
        "category": "基础设施:公共设施:公共厕所",
        "type": 0,
        "location": {
            "lat": 31.90174,
            "lng": 102.219169
        },
        "ad_info": {
            "adcode": 513201,
            "province": "四川省",
            "city": "阿坝藏族羌族自治州",
            "district": "马尔康市"
        }
    },
    {
        "id": "18118607590988745620",
        "title": "公共厕所",
        "address": "四川省阿坝藏族羌族自治州若尔盖县213国道西50米",
        "tel": "",
        "category": "基础设施:公共设施:公共厕所",
        "type": 0,
        "location": {
            "lat": 33.27989,
            "lng": 103.23207
        },
        "ad_info": {
            "adcode": 513232,
            "province": "四川省",
            "city": "阿坝藏族羌族自治州",
            "district": "若尔盖县"
        }
    },
    {
        "id": "2826400516627988796",
        "title": "公共厕所",
        "address": "四川省阿坝藏族羌族自治州茂县G213与羌阳1号大桥交叉口正南方向1728米左右",
        "tel": "",
        "category": "基础设施:公共设施:公共厕所",
        "type": 0,
        "location": {
            "lat": 32.093474,
            "lng": 103.722776
        },
        "ad_info": {
            "adcode": 513223,
            "province": "四川省",
            "city": "阿坝藏族羌族自治州",
            "district": "茂县"
        }
    },
    {
        "id": "13143828387551073055",
        "title": "公共厕所",
        "address": "四川省阿坝藏族羌族自治州松潘县平松路北50米施家堡乡云南临沧博爱学校附近",
        "tel": "",
        "category": "基础设施:公共设施:公共厕所",
        "type": 0,
        "location": {
            "lat": 32.685618,
            "lng": 104.074276
        },
        "ad_info": {
            "adcode": 513224,
            "province": "四川省",
            "city": "阿坝藏族羌族自治州",
            "district": "松潘县"
        }
    },
    {
        "id": "8815678616612301273",
        "title": "公共厕所",
        "address": "四川省阿坝藏族羌族自治州壤塘县直蜀街与阿两路交叉口东南方向23米左右",
        "tel": "",
        "category": "基础设施:公共设施:公共厕所",
        "type": 0,
        "location": {
            "lat": 32.408725,
            "lng": 101.075141
        },
        "ad_info": {
            "adcode": 513230,
            "province": "四川省",
            "city": "阿坝藏族羌族自治州",
            "district": "壤塘县"
        }
    },
    {
        "id": "11245214661138651567",
        "title": "公共厕所",
        "address": "四川省阿坝藏族羌族自治州若尔盖县G213与九若路交叉口正西方向51米左右",
        "tel": "",
        "category": "基础设施:公共设施:公共厕所",
        "type": 0,
        "location": {
            "lat": 33.58398,
            "lng": 103.105042
        },
        "ad_info": {
            "adcode": 513232,
            "province": "四川省",
            "city": "阿坝藏族羌族自治州",
            "district": "若尔盖县"
        }
    },
    {
        "id": "4944964146991409938",
        "title": "公共厕所",
        "address": "四川省阿坝藏族羌族自治州理县317国道东50米",
        "tel": "",
        "category": "基础设施:公共设施:公共厕所",
        "type": 0,
        "location": {
            "lat": 31.447409,
            "lng": 103.012879
        },
        "ad_info": {
            "adcode": 513222,
            "province": "四川省",
            "city": "阿坝藏族羌族自治州",
            "district": "理县"
        }
    },
    {
        "id": "15928399514513765494",
        "title": "公共厕所",
        "address": "四川省阿坝藏族羌族自治州松潘县平松路附近黄龙国家地质公园内",
        "tel": "",
        "category": "基础设施:公共设施:公共厕所",
        "type": 0,
        "location": {
            "lat": 32.747921,
            "lng": 103.814404
        },
        "ad_info": {
            "adcode": 513224,
            "province": "四川省",
            "city": "阿坝藏族羌族自治州",
            "district": "松潘县"
        }
    },
    {
        "id": "10187606625611599745",
        "title": "公共厕所",
        "address": "四川省阿坝藏族羌族自治州若尔盖县巴西镇班佑村小学附近",
        "tel": "",
        "category": "基础设施:公共设施:公共厕所",
        "type": 0,
        "location": {
            "lat": 33.557134,
            "lng": 103.113352
        },
        "ad_info": {
            "adcode": 513232,
            "province": "四川省",
            "city": "阿坝藏族羌族自治州",
            "district": "若尔盖县"
        }
    },
    {
        "id": "6859489146319145759",
        "title": "公共厕所",
        "address": "四川省阿坝藏族羌族自治州松潘县S313",
        "tel": "",
        "category": "基础设施:公共设施:公共厕所",
        "type": 0,
        "location": {
            "lat": 32.180807,
            "lng": 103.75785
        },
        "ad_info": {
            "adcode": 513224,
            "province": "四川省",
            "city": "阿坝藏族羌族自治州",
            "district": "松潘县"
        }
    },
    {
        "id": "1265614755164383254",
        "title": "公共厕所",
        "address": "四川省阿坝藏族羌族自治州马尔康市滨河路84号",
        "tel": "",
        "category": "基础设施:公共设施:公共厕所",
        "type": 0,
        "location": {
            "lat": 31.900399,
            "lng": 102.218667
        },
        "ad_info": {
            "adcode": 513201,
            "province": "四川省",
            "city": "阿坝藏族羌族自治州",
            "district": "马尔康市"
        }
    },
    {
        "id": "8372359984440389593",
        "title": "公共厕所",
        "address": "四川省阿坝藏族羌族自治州汶川县213国道与G4217蓉昌高速入口交叉口东北400米",
        "tel": "",
        "category": "基础设施:公共设施:公共厕所",
        "type": 0,
        "location": {
            "lat": 31.350571,
            "lng": 103.493119
        },
        "ad_info": {
            "adcode": 513221,
            "province": "四川省",
            "city": "阿坝藏族羌族自治州",
            "district": "汶川县"
        }
    },
    {
        "id": "15028600533730648940",
        "title": "公共厕所",
        "address": "四川省阿坝藏族羌族自治州汶川县G213与小黄沟大桥交叉口正北方向927米左右",
        "tel": "",
        "category": "基础设施:公共设施:公共厕所",
        "type": 0,
        "location": {
            "lat": 31.033386,
            "lng": 103.471806
        },
        "ad_info": {
            "adcode": 513221,
            "province": "四川省",
            "city": "阿坝藏族羌族自治州",
            "district": "汶川县"
        }
    },
    {
        "id": "1494515352793721804",
        "title": "公共厕所",
        "address": "四川省阿坝藏族羌族自治州九寨沟县九若路南50米",
        "tel": "",
        "category": "基础设施:公共设施:公共厕所",
        "type": 0,
        "location": {
            "lat": 33.596335,
            "lng": 103.710703
        },
        "ad_info": {
            "adcode": 513225,
            "province": "四川省",
            "city": "阿坝藏族羌族自治州",
            "district": "九寨沟县"
        }
    },
    {
        "id": "3426724226822400409",
        "title": "公共厕所",
        "address": "四川省阿坝藏族羌族自治州松潘县平松路附近黄龙国家地质公园内",
        "tel": "",
        "category": "基础设施:公共设施:公共厕所",
        "type": 0,
        "location": {
            "lat": 32.755557,
            "lng": 103.836259
        },
        "ad_info": {
            "adcode": 513224,
            "province": "四川省",
            "city": "阿坝藏族羌族自治州",
            "district": "松潘县"
        }
    },
    {
        "id": "11313132242872839863",
        "title": "公共厕所",
        "address": "四川省阿坝藏族羌族自治州茂县",
        "tel": "",
        "category": "基础设施:公共设施:公共厕所",
        "type": 0,
        "location": {
            "lat": 31.775822,
            "lng": 103.768106
        },
        "ad_info": {
            "adcode": 513223,
            "province": "四川省",
            "city": "阿坝藏族羌族自治州",
            "district": "茂县"
        }
    },
    {
        "id": "6823433785532060665",
        "title": "公共厕所",
        "address": "四川省阿坝藏族羌族自治州松潘县G213与安徽大道交叉口东南方向253米左右",
        "tel": "",
        "category": "基础设施:公共设施:公共厕所",
        "type": 0,
        "location": {
            "lat": 32.651006,
            "lng": 103.604021
        },
        "ad_info": {
            "adcode": 513224,
            "province": "四川省",
            "city": "阿坝藏族羌族自治州",
            "district": "松潘县"
        }
    },
    {
        "id": "2278275387480282243",
        "title": "公共厕所",
        "address": "四川省阿坝藏族羌族自治州汶川县213国道与S9都汶高速出口交叉口北200米",
        "tel": "",
        "category": "基础设施:公共设施:公共厕所",
        "type": 0,
        "location": {
            "lat": 31.439673,
            "lng": 103.543467
        },
        "ad_info": {
            "adcode": 513221,
            "province": "四川省",
            "city": "阿坝藏族羌族自治州",
            "district": "汶川县"
        }
    },
    {
        "id": "1912087165756894441",
        "title": "公共厕所",
        "address": "四川省阿坝藏族羌族自治州松潘县213国道东50米",
        "tel": "",
        "category": "基础设施:公共设施:公共厕所",
        "type": 0,
        "location": {
            "lat": 32.342215,
            "lng": 103.735432
        },
        "ad_info": {
            "adcode": 513224,
            "province": "四川省",
            "city": "阿坝藏族羌族自治州",
            "district": "松潘县"
        }
    },
    {
        "id": "10675900300737962040",
        "title": "公共厕所",
        "address": "四川省阿坝藏族羌族自治州松潘县G213与镇坪大桥交叉口正北方向733米左右",
        "tel": "",
        "category": "基础设施:公共设施:公共厕所",
        "type": 0,
        "location": {
            "lat": 32.204569,
            "lng": 103.767463
        },
        "ad_info": {
            "adcode": 513224,
            "province": "四川省",
            "city": "阿坝藏族羌族自治州",
            "district": "松潘县"
        }
    },
    {
        "id": "9718738247952765376",
        "title": "公共厕所",
        "address": "四川省阿坝藏族羌族自治州马尔康市团结街与达萨街一段交叉口正西方向24米左右",
        "tel": "",
        "category": "基础设施:公共设施:公共厕所",
        "type": 0,
        "location": {
            "lat": 31.90174,
            "lng": 102.219169
        },
        "ad_info": {
            "adcode": 513201,
            "province": "四川省",
            "city": "阿坝藏族羌族自治州",
            "district": "马尔康市"
        }
    },
    {
        "id": "18118607590988745620",
        "title": "公共厕所",
        "address": "四川省阿坝藏族羌族自治州若尔盖县213国道西50米",
        "tel": "",
        "category": "基础设施:公共设施:公共厕所",
        "type": 0,
        "location": {
            "lat": 33.27989,
            "lng": 103.23207
        },
        "ad_info": {
            "adcode": 513232,
            "province": "四川省",
            "city": "阿坝藏族羌族自治州",
            "district": "若尔盖县"
        }
    },
    {
        "id": "2826400516627988796",
        "title": "公共厕所",
        "address": "四川省阿坝藏族羌族自治州茂县G213与羌阳1号大桥交叉口正南方向1728米左右",
        "tel": "",
        "category": "基础设施:公共设施:公共厕所",
        "type": 0,
        "location": {
            "lat": 32.093474,
            "lng": 103.722776
        },
        "ad_info": {
            "adcode": 513223,
            "province": "四川省",
            "city": "阿坝藏族羌族自治州",
            "district": "茂县"
        }
    },
    {
        "id": "13143828387551073055",
        "title": "公共厕所",
        "address": "四川省阿坝藏族羌族自治州松潘县平松路北50米施家堡乡云南临沧博爱学校附近",
        "tel": "",
        "category": "基础设施:公共设施:公共厕所",
        "type": 0,
        "location": {
            "lat": 32.685618,
            "lng": 104.074276
        },
        "ad_info": {
            "adcode": 513224,
            "province": "四川省",
            "city": "阿坝藏族羌族自治州",
            "district": "松潘县"
        }
    },
    {
        "id": "8815678616612301273",
        "title": "公共厕所",
        "address": "四川省阿坝藏族羌族自治州壤塘县直蜀街与阿两路交叉口东南方向23米左右",
        "tel": "",
        "category": "基础设施:公共设施:公共厕所",
        "type": 0,
        "location": {
            "lat": 32.408725,
            "lng": 101.075141
        },
        "ad_info": {
            "adcode": 513230,
            "province": "四川省",
            "city": "阿坝藏族羌族自治州",
            "district": "壤塘县"
        }
    },
    {
        "id": "11245214661138651567",
        "title": "公共厕所",
        "address": "四川省阿坝藏族羌族自治州若尔盖县G213与九若路交叉口正西方向51米左右",
        "tel": "",
        "category": "基础设施:公共设施:公共厕所",
        "type": 0,
        "location": {
            "lat": 33.58398,
            "lng": 103.105042
        },
        "ad_info": {
            "adcode": 513232,
            "province": "四川省",
            "city": "阿坝藏族羌族自治州",
            "district": "若尔盖县"
        }
    },
    {
        "id": "4944964146991409938",
        "title": "公共厕所",
        "address": "四川省阿坝藏族羌族自治州理县317国道东50米",
        "tel": "",
        "category": "基础设施:公共设施:公共厕所",
        "type": 0,
        "location": {
            "lat": 31.447409,
            "lng": 103.012879
        },
        "ad_info": {
            "adcode": 513222,
            "province": "四川省",
            "city": "阿坝藏族羌族自治州",
            "district": "理县"
        }
    },
    {
        "id": "15928399514513765494",
        "title": "公共厕所",
        "address": "四川省阿坝藏族羌族自治州松潘县平松路附近黄龙国家地质公园内",
        "tel": "",
        "category": "基础设施:公共设施:公共厕所",
        "type": 0,
        "location": {
            "lat": 32.747921,
            "lng": 103.814404
        },
        "ad_info": {
            "adcode": 513224,
            "province": "四川省",
            "city": "阿坝藏族羌族自治州",
            "district": "松潘县"
        }
    },
    {
        "id": "10187606625611599745",
        "title": "公共厕所",
        "address": "四川省阿坝藏族羌族自治州若尔盖县巴西镇班佑村小学附近",
        "tel": "",
        "category": "基础设施:公共设施:公共厕所",
        "type": 0,
        "location": {
            "lat": 33.557134,
            "lng": 103.113352
        },
        "ad_info": {
            "adcode": 513232,
            "province": "四川省",
            "city": "阿坝藏族羌族自治州",
            "district": "若尔盖县"
        }
    },
    {
        "id": "6859489146319145759",
        "title": "公共厕所",
        "address": "四川省阿坝藏族羌族自治州松潘县S313",
        "tel": "",
        "category": "基础设施:公共设施:公共厕所",
        "type": 0,
        "location": {
            "lat": 32.180807,
            "lng": 103.75785
        },
        "ad_info": {
            "adcode": 513224,
            "province": "四川省",
            "city": "阿坝藏族羌族自治州",
            "district": "松潘县"
        }
    },
    {
        "id": "1265614755164383254",
        "title": "公共厕所",
        "address": "四川省阿坝藏族羌族自治州马尔康市滨河路84号",
        "tel": "",
        "category": "基础设施:公共设施:公共厕所",
        "type": 0,
        "location": {
            "lat": 31.900399,
            "lng": 102.218667
        },
        "ad_info": {
            "adcode": 513201,
            "province": "四川省",
            "city": "阿坝藏族羌族自治州",
            "district": "马尔康市"
        }
    },
    {
        "id": "8372359984440389593",
        "title": "公共厕所",
        "address": "四川省阿坝藏族羌族自治州汶川县213国道与G4217蓉昌高速入口交叉口东北400米",
        "tel": "",
        "category": "基础设施:公共设施:公共厕所",
        "type": 0,
        "location": {
            "lat": 31.350571,
            "lng": 103.493119
        },
        "ad_info": {
            "adcode": 513221,
            "province": "四川省",
            "city": "阿坝藏族羌族自治州",
            "district": "汶川县"
        }
    },
    {
        "id": "15028600533730648940",
        "title": "公共厕所",
        "address": "四川省阿坝藏族羌族自治州汶川县G213与小黄沟大桥交叉口正北方向927米左右",
        "tel": "",
        "category": "基础设施:公共设施:公共厕所",
        "type": 0,
        "location": {
            "lat": 31.033386,
            "lng": 103.471806
        },
        "ad_info": {
            "adcode": 513221,
            "province": "四川省",
            "city": "阿坝藏族羌族自治州",
            "district": "汶川县"
        }
    },
    {
        "id": "1494515352793721804",
        "title": "公共厕所",
        "address": "四川省阿坝藏族羌族自治州九寨沟县九若路南50米",
        "tel": "",
        "category": "基础设施:公共设施:公共厕所",
        "type": 0,
        "location": {
            "lat": 33.596335,
            "lng": 103.710703
        },
        "ad_info": {
            "adcode": 513225,
            "province": "四川省",
            "city": "阿坝藏族羌族自治州",
            "district": "九寨沟县"
        }
    },
    {
        "id": "3426724226822400409",
        "title": "公共厕所",
        "address": "四川省阿坝藏族羌族自治州松潘县平松路附近黄龙国家地质公园内",
        "tel": "",
        "category": "基础设施:公共设施:公共厕所",
        "type": 0,
        "location": {
            "lat": 32.755557,
            "lng": 103.836259
        },
        "ad_info": {
            "adcode": 513224,
            "province": "四川省",
            "city": "阿坝藏族羌族自治州",
            "district": "松潘县"
        }
    },
    {
        "id": "11313132242872839863",
        "title": "公共厕所",
        "address": "四川省阿坝藏族羌族自治州茂县",
        "tel": "",
        "category": "基础设施:公共设施:公共厕所",
        "type": 0,
        "location": {
            "lat": 31.775822,
            "lng": 103.768106
        },
        "ad_info": {
            "adcode": 513223,
            "province": "四川省",
            "city": "阿坝藏族羌族自治州",
            "district": "茂县"
        }
    },
    {
        "id": "6823433785532060665",
        "title": "公共厕所",
        "address": "四川省阿坝藏族羌族自治州松潘县G213与安徽大道交叉口东南方向253米左右",
        "tel": "",
        "category": "基础设施:公共设施:公共厕所",
        "type": 0,
        "location": {
            "lat": 32.651006,
            "lng": 103.604021
        },
        "ad_info": {
            "adcode": 513224,
            "province": "四川省",
            "city": "阿坝藏族羌族自治州",
            "district": "松潘县"
        }
    },
    {
        "id": "2278275387480282243",
        "title": "公共厕所",
        "address": "四川省阿坝藏族羌族自治州汶川县213国道与S9都汶高速出口交叉口北200米",
        "tel": "",
        "category": "基础设施:公共设施:公共厕所",
        "type": 0,
        "location": {
            "lat": 31.439673,
            "lng": 103.543467
        },
        "ad_info": {
            "adcode": 513221,
            "province": "四川省",
            "city": "阿坝藏族羌族自治州",
            "district": "汶川县"
        }
    },
    {
        "id": "1912087165756894441",
        "title": "公共厕所",
        "address": "四川省阿坝藏族羌族自治州松潘县213国道东50米",
        "tel": "",
        "category": "基础设施:公共设施:公共厕所",
        "type": 0,
        "location": {
            "lat": 32.342215,
            "lng": 103.735432
        },
        "ad_info": {
            "adcode": 513224,
            "province": "四川省",
            "city": "阿坝藏族羌族自治州",
            "district": "松潘县"
        }
    },
    {
        "id": "10675900300737962040",
        "title": "公共厕所",
        "address": "四川省阿坝藏族羌族自治州松潘县G213与镇坪大桥交叉口正北方向733米左右",
        "tel": "",
        "category": "基础设施:公共设施:公共厕所",
        "type": 0,
        "location": {
            "lat": 32.204569,
            "lng": 103.767463
        },
        "ad_info": {
            "adcode": 513224,
            "province": "四川省",
            "city": "阿坝藏族羌族自治州",
            "district": "松潘县"
        }
    },
    {
        "id": "9718738247952765376",
        "title": "公共厕所",
        "address": "四川省阿坝藏族羌族自治州马尔康市团结街与达萨街一段交叉口正西方向24米左右",
        "tel": "",
        "category": "基础设施:公共设施:公共厕所",
        "type": 0,
        "location": {
            "lat": 31.90174,
            "lng": 102.219169
        },
        "ad_info": {
            "adcode": 513201,
            "province": "四川省",
            "city": "阿坝藏族羌族自治州",
            "district": "马尔康市"
        }
    },
    {
        "id": "18118607590988745620",
        "title": "公共厕所",
        "address": "四川省阿坝藏族羌族自治州若尔盖县213国道西50米",
        "tel": "",
        "category": "基础设施:公共设施:公共厕所",
        "type": 0,
        "location": {
            "lat": 33.27989,
            "lng": 103.23207
        },
        "ad_info": {
            "adcode": 513232,
            "province": "四川省",
            "city": "阿坝藏族羌族自治州",
            "district": "若尔盖县"
        }
    },
    {
        "id": "2826400516627988796",
        "title": "公共厕所",
        "address": "四川省阿坝藏族羌族自治州茂县G213与羌阳1号大桥交叉口正南方向1728米左右",
        "tel": "",
        "category": "基础设施:公共设施:公共厕所",
        "type": 0,
        "location": {
            "lat": 32.093474,
            "lng": 103.722776
        },
        "ad_info": {
            "adcode": 513223,
            "province": "四川省",
            "city": "阿坝藏族羌族自治州",
            "district": "茂县"
        }
    },
    {
        "id": "13143828387551073055",
        "title": "公共厕所",
        "address": "四川省阿坝藏族羌族自治州松潘县平松路北50米施家堡乡云南临沧博爱学校附近",
        "tel": "",
        "category": "基础设施:公共设施:公共厕所",
        "type": 0,
        "location": {
            "lat": 32.685618,
            "lng": 104.074276
        },
        "ad_info": {
            "adcode": 513224,
            "province": "四川省",
            "city": "阿坝藏族羌族自治州",
            "district": "松潘县"
        }
    },
    {
        "id": "8815678616612301273",
        "title": "公共厕所",
        "address": "四川省阿坝藏族羌族自治州壤塘县直蜀街与阿两路交叉口东南方向23米左右",
        "tel": "",
        "category": "基础设施:公共设施:公共厕所",
        "type": 0,
        "location": {
            "lat": 32.408725,
            "lng": 101.075141
        },
        "ad_info": {
            "adcode": 513230,
            "province": "四川省",
            "city": "阿坝藏族羌族自治州",
            "district": "壤塘县"
        }
    },
    {
        "id": "11245214661138651567",
        "title": "公共厕所",
        "address": "四川省阿坝藏族羌族自治州若尔盖县G213与九若路交叉口正西方向51米左右",
        "tel": "",
        "category": "基础设施:公共设施:公共厕所",
        "type": 0,
        "location": {
            "lat": 33.58398,
            "lng": 103.105042
        },
        "ad_info": {
            "adcode": 513232,
            "province": "四川省",
            "city": "阿坝藏族羌族自治州",
            "district": "若尔盖县"
        }
    },
    {
        "id": "4944964146991409938",
        "title": "公共厕所",
        "address": "四川省阿坝藏族羌族自治州理县317国道东50米",
        "tel": "",
        "category": "基础设施:公共设施:公共厕所",
        "type": 0,
        "location": {
            "lat": 31.447409,
            "lng": 103.012879
        },
        "ad_info": {
            "adcode": 513222,
            "province": "四川省",
            "city": "阿坝藏族羌族自治州",
            "district": "理县"
        }
    },
    {
        "id": "15928399514513765494",
        "title": "公共厕所",
        "address": "四川省阿坝藏族羌族自治州松潘县平松路附近黄龙国家地质公园内",
        "tel": "",
        "category": "基础设施:公共设施:公共厕所",
        "type": 0,
        "location": {
            "lat": 32.747921,
            "lng": 103.814404
        },
        "ad_info": {
            "adcode": 513224,
            "province": "四川省",
            "city": "阿坝藏族羌族自治州",
            "district": "松潘县"
        }
    },
    {
        "id": "10187606625611599745",
        "title": "公共厕所",
        "address": "四川省阿坝藏族羌族自治州若尔盖县巴西镇班佑村小学附近",
        "tel": "",
        "category": "基础设施:公共设施:公共厕所",
        "type": 0,
        "location": {
            "lat": 33.557134,
            "lng": 103.113352
        },
        "ad_info": {
            "adcode": 513232,
            "province": "四川省",
            "city": "阿坝藏族羌族自治州",
            "district": "若尔盖县"
        }
    },
    {
        "id": "6859489146319145759",
        "title": "公共厕所",
        "address": "四川省阿坝藏族羌族自治州松潘县S313",
        "tel": "",
        "category": "基础设施:公共设施:公共厕所",
        "type": 0,
        "location": {
            "lat": 32.180807,
            "lng": 103.75785
        },
        "ad_info": {
            "adcode": 513224,
            "province": "四川省",
            "city": "阿坝藏族羌族自治州",
            "district": "松潘县"
        }
    },
    {
        "id": "1265614755164383254",
        "title": "公共厕所",
        "address": "四川省阿坝藏族羌族自治州马尔康市滨河路84号",
        "tel": "",
        "category": "基础设施:公共设施:公共厕所",
        "type": 0,
        "location": {
            "lat": 31.900399,
            "lng": 102.218667
        },
        "ad_info": {
            "adcode": 513201,
            "province": "四川省",
            "city": "阿坝藏族羌族自治州",
            "district": "马尔康市"
        }
    },
    {
        "id": "8372359984440389593",
        "title": "公共厕所",
        "address": "四川省阿坝藏族羌族自治州汶川县213国道与G4217蓉昌高速入口交叉口东北400米",
        "tel": "",
        "category": "基础设施:公共设施:公共厕所",
        "type": 0,
        "location": {
            "lat": 31.350571,
            "lng": 103.493119
        },
        "ad_info": {
            "adcode": 513221,
            "province": "四川省",
            "city": "阿坝藏族羌族自治州",
            "district": "汶川县"
        }
    }
]