[
    {
        "id": "15696229660205990473",
        "title": "公共卫生间",
        "address": "新疆维吾尔自治区阿克苏地区库车市福洋路与红旗路交叉口东南方向124米左右",
        "tel": "",
        "category": "基础设施:公共设施:公共厕所",
        "type": 0,
        "location": {
            "lat": 41.731772,
            "lng": 82.999341
        },
        "ad_info": {
            "adcode": 652902,
            "province": "新疆维吾尔自治区",
            "city": "阿克苏地区",
            "district": "库车市"
        }
    },
    {
        "id": "10116482970194101987",
        "title": "公共厕所(天山托木尔大峡谷2号安全岛)",
        "address": "新疆维吾尔自治区阿克苏地区温宿县",
        "tel": "",
        "category": "基础设施:公共设施:公共厕所",
        "type": 0,
        "location": {
            "lat": 41.632511,
            "lng": 80.684236
        },
        "ad_info": {
            "adcode": 652922,
            "province": "新疆维吾尔自治区",
            "city": "阿克苏地区",
            "district": "温宿县"
        }
    },
    {
        "id": "7927773205330302234",
        "title": "公共厕所(温宿县天山托木尔大峡谷景区游客服务中心西北角)",
        "address": "新疆维吾尔自治区阿克苏地区温宿县天山托木尔景区东南侧110米",
        "tel": "",
        "category": "基础设施:公共设施:公共厕所",
        "type": 0,
        "location": {
            "lat": 41.41966,
            "lng": 80.683265
        },
        "ad_info": {
            "adcode": 652922,
            "province": "新疆维吾尔自治区",
            "city": "阿克苏地区",
            "district": "温宿县"
        }
    },
    {
        "id": "7200168842180753969",
        "title": "公共厕所(天山托木尔大峡谷景区游客服务中心)",
        "address": "新疆维吾尔自治区阿克苏地区温宿县公共厕所(天山托木尔大峡谷景区游客服务中心区域)西侧",
        "tel": "",
        "category": "基础设施:公共设施:公共厕所",
        "type": 0,
        "location": {
            "lat": 41.417891,
            "lng": 80.684209
        },
        "ad_info": {
            "adcode": 652922,
            "province": "新疆维吾尔自治区",
            "city": "阿克苏地区",
            "district": "温宿县"
        }
    },
    {
        "id": "7469618840150206552",
        "title": "公共厕所(沙雅县湿地公园)",
        "address": "新疆维吾尔自治区阿克苏地区沙雅县晨光路8号",
        "tel": "",
        "category": "基础设施:公共设施:公共厕所",
        "type": 0,
        "location": {
            "lat": 41.215337,
            "lng": 82.779205
        },
        "ad_info": {
            "adcode": 652924,
            "province": "新疆维吾尔自治区",
            "city": "阿克苏地区",
            "district": "沙雅县"
        }
    },
    {
        "id": "12438820931509309595",
        "title": "公共厕所",
        "address": "新疆维吾尔自治区阿克苏地区温宿县托乎拉街与酒花路交叉口正东方向44米左右",
        "tel": "",
        "category": "基础设施:公共设施:公共厕所",
        "type": 0,
        "location": {
            "lat": 41.269501,
            "lng": 80.244484
        },
        "ad_info": {
            "adcode": 652922,
            "province": "新疆维吾尔自治区",
            "city": "阿克苏地区",
            "district": "温宿县"
        }
    },
    {
        "id": "12137138242479942725",
        "title": "公共厕所",
        "address": "新疆维吾尔自治区阿克苏地区温宿县民生路359号",
        "tel": "",
        "category": "基础设施:公共设施:公共厕所",
        "type": 0,
        "location": {
            "lat": 41.267744,
            "lng": 80.238144
        },
        "ad_info": {
            "adcode": 652922,
            "province": "新疆维吾尔自治区",
            "city": "阿克苏地区",
            "district": "温宿县"
        }
    },
    {
        "id": "12668074116993373797",
        "title": "公共厕所",
        "address": "新疆维吾尔自治区阿克苏地区阿克苏市民主南路与水韵路交叉口东南方向94米左右",
        "tel": "",
        "category": "基础设施:公共设施:公共厕所",
        "type": 0,
        "location": {
            "lat": 41.159573,
            "lng": 80.26874
        },
        "ad_info": {
            "adcode": 652901,
            "province": "新疆维吾尔自治区",
            "city": "阿克苏地区",
            "district": "阿克苏市"
        }
    },
    {
        "id": "9654530674787268323",
        "title": "公共厕所",
        "address": "新疆维吾尔自治区阿克苏地区库车市天山中路与繁荣路交叉口正北方向152米左右",
        "tel": "",
        "category": "基础设施:公共设施:公共厕所",
        "type": 0,
        "location": {
            "lat": 41.711975,
            "lng": 82.967593
        },
        "ad_info": {
            "adcode": 652902,
            "province": "新疆维吾尔自治区",
            "city": "阿克苏地区",
            "district": "库车市"
        }
    },
    {
        "id": "2242255404207563790",
        "title": "公共厕所(渭干河生态文文化旅游景区体育广场)",
        "address": "新疆维吾尔自治区阿克苏地区沙雅县体育公园",
        "tel": "",
        "category": "基础设施:公共设施:公共厕所",
        "type": 0,
        "location": {
            "lat": 41.208261,
            "lng": 82.780781
        },
        "ad_info": {
            "adcode": 652924,
            "province": "新疆维吾尔自治区",
            "city": "阿克苏地区",
            "district": "沙雅县"
        }
    },
    {
        "id": "1295779010212451319",
        "title": "洗手间(沙雅县游客集散中心)",
        "address": "新疆维吾尔自治区阿克苏地区沙雅县人民北路123号",
        "tel": "",
        "category": "基础设施:公共设施:公共厕所",
        "type": 0,
        "location": {
            "lat": 41.250343,
            "lng": 82.773116
        },
        "ad_info": {
            "adcode": 652924,
            "province": "新疆维吾尔自治区",
            "city": "阿克苏地区",
            "district": "沙雅县"
        }
    },
    {
        "id": "18075315232569814788",
        "title": "公共厕所",
        "address": "新疆维吾尔自治区阿克苏地区温宿县天山托木尔大峡谷东南侧200米",
        "tel": "",
        "category": "基础设施:公共设施:公共厕所",
        "type": 0,
        "location": {
            "lat": 41.564293,
            "lng": 80.662997
        },
        "ad_info": {
            "adcode": 652922,
            "province": "新疆维吾尔自治区",
            "city": "阿克苏地区",
            "district": "温宿县"
        }
    },
    {
        "id": "2071470845613228811",
        "title": "公共厕所",
        "address": "新疆维吾尔自治区阿克苏地区阿克苏市水韵路与滨河北路交叉口西北方向175米左右",
        "tel": "",
        "category": "基础设施:公共设施:公共厕所",
        "type": 0,
        "location": {
            "lat": 41.156471,
            "lng": 80.257653
        },
        "ad_info": {
            "adcode": 652901,
            "province": "新疆维吾尔自治区",
            "city": "阿克苏地区",
            "district": "阿克苏市"
        }
    },
    {
        "id": "17678447673731106975",
        "title": "公共厕所",
        "address": "新疆维吾尔自治区阿克苏地区阿克苏市塔中路创业新天地",
        "tel": "",
        "category": "基础设施:公共设施:公共厕所",
        "type": 0,
        "location": {
            "lat": 41.166566,
            "lng": 80.281369
        },
        "ad_info": {
            "adcode": 652901,
            "province": "新疆维吾尔自治区",
            "city": "阿克苏地区",
            "district": "阿克苏市"
        }
    },
    {
        "id": "2470599424180059180",
        "title": "公共厕所",
        "address": "新疆维吾尔自治区阿克苏地区库车市建设路与文化西路交叉口正西方向268米左右",
        "tel": "",
        "category": "基础设施:公共设施:公共厕所",
        "type": 0,
        "location": {
            "lat": 41.718836,
            "lng": 82.952996
        },
        "ad_info": {
            "adcode": 652902,
            "province": "新疆维吾尔自治区",
            "city": "阿克苏地区",
            "district": "库车市"
        }
    },
    {
        "id": "3032629273286688041",
        "title": "公共厕所(月亮湾景区)",
        "address": "新疆维吾尔自治区阿克苏地区沙雅县塔里木河大桥景区卫生间",
        "tel": "",
        "category": "基础设施:公共设施:公共厕所",
        "type": 0,
        "location": {
            "lat": 41.004661,
            "lng": 83.346007
        },
        "ad_info": {
            "adcode": 652924,
            "province": "新疆维吾尔自治区",
            "city": "阿克苏地区",
            "district": "沙雅县"
        }
    },
    {
        "id": "8936767045767728413",
        "title": "公共厕所",
        "address": "新疆维吾尔自治区阿克苏地区温宿县复兴大道与新城街交叉口正北方向159米左右",
        "tel": "",
        "category": "基础设施:公共设施:公共厕所",
        "type": 0,
        "location": {
            "lat": 41.266291,
            "lng": 80.244851
        },
        "ad_info": {
            "adcode": 652922,
            "province": "新疆维吾尔自治区",
            "city": "阿克苏地区",
            "district": "温宿县"
        }
    },
    {
        "id": "8486073994507465595",
        "title": "公共厕所",
        "address": "新疆维吾尔自治区阿克苏地区沙雅县江南小镇旁",
        "tel": "",
        "category": "基础设施:公共设施:公共厕所",
        "type": 0,
        "location": {
            "lat": 41.224122,
            "lng": 82.770921
        },
        "ad_info": {
            "adcode": 652924,
            "province": "新疆维吾尔自治区",
            "city": "阿克苏地区",
            "district": "沙雅县"
        }
    },
    {
        "id": "3179116642657231958",
        "title": "公共厕所",
        "address": "新疆维吾尔自治区阿克苏地区阿克苏市南郊路56号",
        "tel": "",
        "category": "基础设施:公共设施:公共厕所",
        "type": 0,
        "location": {
            "lat": 41.143491,
            "lng": 80.275593
        },
        "ad_info": {
            "adcode": 652901,
            "province": "新疆维吾尔自治区",
            "city": "阿克苏地区",
            "district": "阿克苏市"
        }
    },
    {
        "id": "6854984078372535711",
        "title": "公共厕所",
        "address": "新疆维吾尔自治区阿克苏地区温宿县天山托木尔大峡谷景区天堑谷",
        "tel": "",
        "category": "基础设施:公共设施:公共厕所",
        "type": 0,
        "location": {
            "lat": 41.632651,
            "lng": 80.683853
        },
        "ad_info": {
            "adcode": 652922,
            "province": "新疆维吾尔自治区",
            "city": "阿克苏地区",
            "district": "温宿县"
        }
    },
    {
        "id": "16460958104855979077",
        "title": "公共厕所",
        "address": "新疆维吾尔自治区阿克苏地区阿克苏市团结东路与建设路交叉口西南方向62米左右",
        "tel": "",
        "category": "基础设施:公共设施:公共厕所",
        "type": 0,
        "location": {
            "lat": 41.179101,
            "lng": 80.293141
        },
        "ad_info": {
            "adcode": 652901,
            "province": "新疆维吾尔自治区",
            "city": "阿克苏地区",
            "district": "阿克苏市"
        }
    },
    {
        "id": "9233460046641449418",
        "title": "公共厕所",
        "address": "新疆维吾尔自治区阿克苏地区阿克苏市中原路与交通路交叉口阿克苏站",
        "tel": "",
        "category": "基础设施:公共设施:公共厕所",
        "type": 0,
        "location": {
            "lat": 41.144583,
            "lng": 80.30661
        },
        "ad_info": {
            "adcode": 652901,
            "province": "新疆维吾尔自治区",
            "city": "阿克苏地区",
            "district": "阿克苏市"
        }
    },
    {
        "id": "14899998953468046228",
        "title": "公共厕所",
        "address": "新疆维吾尔自治区阿克苏地区阿克苏市创一纯净水厂西侧160米",
        "tel": "",
        "category": "基础设施:公共设施:公共厕所",
        "type": 0,
        "location": {
            "lat": 41.158421,
            "lng": 80.321116
        },
        "ad_info": {
            "adcode": 652901,
            "province": "新疆维吾尔自治区",
            "city": "阿克苏地区",
            "district": "阿克苏市"
        }
    },
    {
        "id": "14265561296823801235",
        "title": "公共卫生间",
        "address": "新疆维吾尔自治区阿克苏地区阿克苏市健康路3-2号",
        "tel": "",
        "category": "基础设施:公共设施:公共厕所",
        "type": 0,
        "location": {
            "lat": 41.168784,
            "lng": 80.26749
        },
        "ad_info": {
            "adcode": 652901,
            "province": "新疆维吾尔自治区",
            "city": "阿克苏地区",
            "district": "阿克苏市"
        }
    },
    {
        "id": "3197627247707093564",
        "title": "公共厕所",
        "address": "新疆维吾尔自治区阿克苏地区拜城县创业街与解放路交叉口东南方向58米左右",
        "tel": "",
        "category": "基础设施:公共设施:公共厕所",
        "type": 0,
        "location": {
            "lat": 41.794482,
            "lng": 81.862366
        },
        "ad_info": {
            "adcode": 652926,
            "province": "新疆维吾尔自治区",
            "city": "阿克苏地区",
            "district": "拜城县"
        }
    },
    {
        "id": "9141122363196221295",
        "title": "公共厕所",
        "address": "新疆维吾尔自治区阿克苏地区阿克苏市晶水路与民主南路交叉口正西方向91米左右",
        "tel": "",
        "category": "基础设施:公共设施:公共厕所",
        "type": 0,
        "location": {
            "lat": 41.157416,
            "lng": 80.268701
        },
        "ad_info": {
            "adcode": 652901,
            "province": "新疆维吾尔自治区",
            "city": "阿克苏地区",
            "district": "阿克苏市"
        }
    },
    {
        "id": "16978654902616557376",
        "title": "公共厕所",
        "address": "新疆维吾尔自治区阿克苏地区乌什县G219与Z621线交叉口正东方向374米左右",
        "tel": "",
        "category": "基础设施:公共设施:公共厕所",
        "type": 0,
        "location": {
            "lat": 41.1841,
            "lng": 79.142318
        },
        "ad_info": {
            "adcode": 652927,
            "province": "新疆维吾尔自治区",
            "city": "阿克苏地区",
            "district": "乌什县"
        }
    },
    {
        "id": "16053159555149217926",
        "title": "公共厕所",
        "address": "新疆维吾尔自治区阿克苏地区沙雅县上海路与青年路交叉口正西方向305米左右",
        "tel": "",
        "category": "基础设施:公共设施:公共厕所",
        "type": 0,
        "location": {
            "lat": 41.228358,
            "lng": 82.764834
        },
        "ad_info": {
            "adcode": 652924,
            "province": "新疆维吾尔自治区",
            "city": "阿克苏地区",
            "district": "沙雅县"
        }
    },
    {
        "id": "43509620249771840",
        "title": "公共厕所",
        "address": "新疆维吾尔自治区阿克苏地区阿克苏市上海西路与健康路交叉口东北方向158米左右",
        "tel": "",
        "category": "基础设施:公共设施:公共厕所",
        "type": 0,
        "location": {
            "lat": 41.153391,
            "lng": 80.281025
        },
        "ad_info": {
            "adcode": 652901,
            "province": "新疆维吾尔自治区",
            "city": "阿克苏地区",
            "district": "阿克苏市"
        }
    },
    {
        "id": "2631300548676999671",
        "title": "公共厕所",
        "address": "新疆维吾尔自治区阿克苏地区阿克苏市北京西路与阿苏克巷交叉口正西方向103米左右",
        "tel": "",
        "category": "基础设施:公共设施:公共厕所",
        "type": 0,
        "location": {
            "lat": 41.171652,
            "lng": 80.266949
        },
        "ad_info": {
            "adcode": 652901,
            "province": "新疆维吾尔自治区",
            "city": "阿克苏地区",
            "district": "阿克苏市"
        }
    },
    {
        "id": "2679310865119960300",
        "title": "公共厕所",
        "address": "新疆维吾尔自治区阿克苏地区乌什县团结南路与步行街交叉口正南方向60米左右",
        "tel": "",
        "category": "基础设施:公共设施:公共厕所",
        "type": 0,
        "location": {
            "lat": 41.219352,
            "lng": 79.227207
        },
        "ad_info": {
            "adcode": 652927,
            "province": "新疆维吾尔自治区",
            "city": "阿克苏地区",
            "district": "乌什县"
        }
    },
    {
        "id": "8127752888295807539",
        "title": "公共厕所",
        "address": "新疆维吾尔自治区阿克苏地区阿克苏市兴隆街23号",
        "tel": "",
        "category": "基础设施:公共设施:公共厕所",
        "type": 0,
        "location": {
            "lat": 41.174892,
            "lng": 80.282396
        },
        "ad_info": {
            "adcode": 652901,
            "province": "新疆维吾尔自治区",
            "city": "阿克苏地区",
            "district": "阿克苏市"
        }
    },
    {
        "id": "7136650219394517500",
        "title": "公共厕所",
        "address": "新疆维吾尔自治区阿克苏地区阿克苏市民主南路与祥和路交叉口正西方向146米左右",
        "tel": "",
        "category": "基础设施:公共设施:公共厕所",
        "type": 0,
        "location": {
            "lat": 41.162174,
            "lng": 80.264942
        },
        "ad_info": {
            "adcode": 652901,
            "province": "新疆维吾尔自治区",
            "city": "阿克苏地区",
            "district": "阿克苏市"
        }
    },
    {
        "id": "12174792788743573489",
        "title": "公共厕所",
        "address": "新疆维吾尔自治区阿克苏地区阿克苏市新华路与解放北路交叉口西北方向140米左右",
        "tel": "",
        "category": "基础设施:公共设施:公共厕所",
        "type": 0,
        "location": {
            "lat": 41.183504,
            "lng": 80.279103
        },
        "ad_info": {
            "adcode": 652901,
            "province": "新疆维吾尔自治区",
            "city": "阿克苏地区",
            "district": "阿克苏市"
        }
    },
    {
        "id": "12824548099762005461",
        "title": "公共厕所",
        "address": "新疆维吾尔自治区阿克苏地区阿克苏市心怡路与水韵路交叉口正南方向155米左右",
        "tel": "",
        "category": "基础设施:公共设施:公共厕所",
        "type": 0,
        "location": {
            "lat": 41.156174,
            "lng": 80.262638
        },
        "ad_info": {
            "adcode": 652901,
            "province": "新疆维吾尔自治区",
            "city": "阿克苏地区",
            "district": "阿克苏市"
        }
    },
    {
        "id": "5904277673665444199",
        "title": "公共厕所",
        "address": "新疆维吾尔自治区阿克苏地区阿克苏市兰干路与南昌路交叉口正西方向78米左右",
        "tel": "",
        "category": "基础设施:公共设施:公共厕所",
        "type": 0,
        "location": {
            "lat": 41.176887,
            "lng": 80.259374
        },
        "ad_info": {
            "adcode": 652901,
            "province": "新疆维吾尔自治区",
            "city": "阿克苏地区",
            "district": "阿克苏市"
        }
    },
    {
        "id": "2047541820793740747",
        "title": "公共厕所",
        "address": "新疆维吾尔自治区阿克苏地区阿克苏市晶水路与滨河南路交叉口正东方向146米左右",
        "tel": "",
        "category": "基础设施:公共设施:公共厕所",
        "type": 0,
        "location": {
            "lat": 41.153197,
            "lng": 80.265459
        },
        "ad_info": {
            "adcode": 652901,
            "province": "新疆维吾尔自治区",
            "city": "阿克苏地区",
            "district": "阿克苏市"
        }
    },
    {
        "id": "13848047436969344868",
        "title": "公共厕所",
        "address": "新疆维吾尔自治区阿克苏地区库车市天河路与繁荣路交叉口正西方向325米左右",
        "tel": "",
        "category": "基础设施:公共设施:公共厕所",
        "type": 0,
        "location": {
            "lat": 41.706873,
            "lng": 82.961927
        },
        "ad_info": {
            "adcode": 652902,
            "province": "新疆维吾尔自治区",
            "city": "阿克苏地区",
            "district": "库车市"
        }
    },
    {
        "id": "946278108307631287",
        "title": "公共厕所",
        "address": "新疆维吾尔自治区阿克苏地区温宿县东坡路与古城东街交叉口西北方向34米左右",
        "tel": "",
        "category": "基础设施:公共设施:公共厕所",
        "type": 0,
        "location": {
            "lat": 41.278508,
            "lng": 80.26511
        },
        "ad_info": {
            "adcode": 652922,
            "province": "新疆维吾尔自治区",
            "city": "阿克苏地区",
            "district": "温宿县"
        }
    },
    {
        "id": "17775609187614226888",
        "title": "公共厕所",
        "address": "新疆维吾尔自治区阿克苏地区库车市吐和高速与独库公路交叉口正西方向405米左右",
        "tel": "",
        "category": "基础设施:公共设施:公共厕所",
        "type": 0,
        "location": {
            "lat": 41.760697,
            "lng": 82.903098
        },
        "ad_info": {
            "adcode": 652902,
            "province": "新疆维吾尔自治区",
            "city": "阿克苏地区",
            "district": "库车市"
        }
    },
    {
        "id": "12259799148195259659",
        "title": "公共厕所",
        "address": "新疆维吾尔自治区阿克苏地区阿克苏市北京东路与北京西路交叉口东南方向165米左右",
        "tel": "",
        "category": "基础设施:公共设施:公共厕所",
        "type": 0,
        "location": {
            "lat": 41.173922,
            "lng": 80.277639
        },
        "ad_info": {
            "adcode": 652901,
            "province": "新疆维吾尔自治区",
            "city": "阿克苏地区",
            "district": "阿克苏市"
        }
    },
    {
        "id": "1224039722762796019",
        "title": "公共厕所",
        "address": "新疆维吾尔自治区阿克苏地区阿克苏市幸福北路与幸福南路交叉口正南方向180米左右",
        "tel": "",
        "category": "基础设施:公共设施:公共厕所",
        "type": 0,
        "location": {
            "lat": 41.163997,
            "lng": 80.280432
        },
        "ad_info": {
            "adcode": 652901,
            "province": "新疆维吾尔自治区",
            "city": "阿克苏地区",
            "district": "阿克苏市"
        }
    },
    {
        "id": "9893349913102046238",
        "title": "公共厕所",
        "address": "新疆维吾尔自治区阿克苏地区阿克苏市新华路与民主北路交叉口正南方向101米左右",
        "tel": "",
        "category": "基础设施:公共设施:公共厕所",
        "type": 0,
        "location": {
            "lat": 41.171188,
            "lng": 80.260447
        },
        "ad_info": {
            "adcode": 652901,
            "province": "新疆维吾尔自治区",
            "city": "阿克苏地区",
            "district": "阿克苏市"
        }
    },
    {
        "id": "1868440493563209895",
        "title": "公共厕所",
        "address": "新疆维吾尔自治区阿克苏地区温宿县G314与S654交叉口正西方向121米左右",
        "tel": "",
        "category": "基础设施:公共设施:公共厕所",
        "type": 0,
        "location": {
            "lat": 41.394206,
            "lng": 80.813573
        },
        "ad_info": {
            "adcode": 652922,
            "province": "新疆维吾尔自治区",
            "city": "阿克苏地区",
            "district": "温宿县"
        }
    },
    {
        "id": "4708293019662315453",
        "title": "公共厕所",
        "address": "新疆维吾尔自治区阿克苏地区阿克苏市温州路步行街与香港街交叉口正西方向64米左右",
        "tel": "",
        "category": "基础设施:公共设施:公共厕所",
        "type": 0,
        "location": {
            "lat": 41.173917,
            "lng": 80.268079
        },
        "ad_info": {
            "adcode": 652901,
            "province": "新疆维吾尔自治区",
            "city": "阿克苏地区",
            "district": "阿克苏市"
        }
    },
    {
        "id": "15237726333414381492",
        "title": "公共厕所",
        "address": "新疆维吾尔自治区阿克苏地区库车市五一中路与步行街交叉口东南方向29米左右",
        "tel": "",
        "category": "基础设施:公共设施:公共厕所",
        "type": 0,
        "location": {
            "lat": 41.710429,
            "lng": 82.971838
        },
        "ad_info": {
            "adcode": 652902,
            "province": "新疆维吾尔自治区",
            "city": "阿克苏地区",
            "district": "库车市"
        }
    },
    {
        "id": "11207033573917463161",
        "title": "公共厕所",
        "address": "新疆维吾尔自治区阿克苏地区阿克苏市农一师运输公司早市旁",
        "tel": "",
        "category": "基础设施:公共设施:公共厕所",
        "type": 0,
        "location": {
            "lat": 41.176402,
            "lng": 80.27967
        },
        "ad_info": {
            "adcode": 652901,
            "province": "新疆维吾尔自治区",
            "city": "阿克苏地区",
            "district": "阿克苏市"
        }
    },
    {
        "id": "17063034639583562656",
        "title": "洗手间(沙雅县雁栖现代农业科技产业园)",
        "address": "新疆维吾尔自治区阿克苏地区沙雅县枣业街4号",
        "tel": "",
        "category": "基础设施:公共设施:公共厕所",
        "type": 0,
        "location": {
            "lat": 41.255856,
            "lng": 82.793128
        },
        "ad_info": {
            "adcode": 652924,
            "province": "新疆维吾尔自治区",
            "city": "阿克苏地区",
            "district": "沙雅县"
        }
    },
    {
        "id": "10843194755490665699",
        "title": "公共厕所",
        "address": "新疆维吾尔自治区阿克苏地区柯坪县健康路与绿洲路交叉口正东方向33米左右",
        "tel": "",
        "category": "基础设施:公共设施:公共厕所",
        "type": 0,
        "location": {
            "lat": 40.5073,
            "lng": 79.052212
        },
        "ad_info": {
            "adcode": 652929,
            "province": "新疆维吾尔自治区",
            "city": "阿克苏地区",
            "district": "柯坪县"
        }
    },
    {
        "id": "16936308525352914980",
        "title": "公共厕所",
        "address": "新疆维吾尔自治区阿克苏地区阿克苏市解放南路2-15",
        "tel": "",
        "category": "基础设施:公共设施:公共厕所",
        "type": 0,
        "location": {
            "lat": 41.177659,
            "lng": 80.284982
        },
        "ad_info": {
            "adcode": 652901,
            "province": "新疆维吾尔自治区",
            "city": "阿克苏地区",
            "district": "阿克苏市"
        }
    },
    {
        "id": "5248368005388951262",
        "title": "公共厕所",
        "address": "新疆维吾尔自治区阿克苏地区阿克苏市丽园巷与幸福南路交叉口正西方向190米左右",
        "tel": "",
        "category": "基础设施:公共设施:公共厕所",
        "type": 0,
        "location": {
            "lat": 41.162633,
            "lng": 80.279247
        },
        "ad_info": {
            "adcode": 652901,
            "province": "新疆维吾尔自治区",
            "city": "阿克苏地区",
            "district": "阿克苏市"
        }
    },
    {
        "id": "6347732813572459304",
        "title": "公共厕所",
        "address": "新疆维吾尔自治区阿克苏地区阿克苏市北京东路与绿苑巷交叉口东南方向319米左右",
        "tel": "",
        "category": "基础设施:公共设施:公共厕所",
        "type": 0,
        "location": {
            "lat": 41.18244,
            "lng": 80.29354
        },
        "ad_info": {
            "adcode": 652901,
            "province": "新疆维吾尔自治区",
            "city": "阿克苏地区",
            "district": "阿克苏市"
        }
    },
    {
        "id": "6307249313079227800",
        "title": "公共厕所",
        "address": "新疆维吾尔自治区阿克苏地区阿克苏市幸福北路新农世纪城",
        "tel": "",
        "category": "基础设施:公共设施:公共厕所",
        "type": 0,
        "location": {
            "lat": 41.179167,
            "lng": 80.27218
        },
        "ad_info": {
            "adcode": 652901,
            "province": "新疆维吾尔自治区",
            "city": "阿克苏地区",
            "district": "阿克苏市"
        }
    },
    {
        "id": "3417855527123167780",
        "title": "公共厕所(XJ-AK-0434)",
        "address": "新疆维吾尔自治区阿克苏地区柯坪县",
        "tel": "",
        "category": "基础设施:公共设施:公共厕所",
        "type": 0,
        "location": {
            "lat": 40.553408,
            "lng": 78.943004
        },
        "ad_info": {
            "adcode": 652929,
            "province": "新疆维吾尔自治区",
            "city": "阿克苏地区",
            "district": "柯坪县"
        }
    },
    {
        "id": "11746154112009039695",
        "title": "公共厕所",
        "address": "新疆维吾尔自治区阿克苏地区乌什县和平西路与团结中路交叉口西南方向18米左右",
        "tel": "",
        "category": "基础设施:公共设施:公共厕所",
        "type": 0,
        "location": {
            "lat": 41.227695,
            "lng": 79.225778
        },
        "ad_info": {
            "adcode": 652927,
            "province": "新疆维吾尔自治区",
            "city": "阿克苏地区",
            "district": "乌什县"
        }
    },
    {
        "id": "6642154495103521737",
        "title": "公共厕所",
        "address": "新疆维吾尔自治区阿克苏地区阿克苏市上海西路与中原路交叉口东北方向330米左右",
        "tel": "",
        "category": "基础设施:公共设施:公共厕所",
        "type": 0,
        "location": {
            "lat": 41.163464,
            "lng": 80.295674
        },
        "ad_info": {
            "adcode": 652901,
            "province": "新疆维吾尔自治区",
            "city": "阿克苏地区",
            "district": "阿克苏市"
        }
    },
    {
        "id": "16752000998798161418",
        "title": "公共厕所",
        "address": "新疆维吾尔自治区阿克苏地区库车市Y146与天山中路交叉口正东方向161米左右",
        "tel": "",
        "category": "基础设施:公共设施:公共厕所",
        "type": 0,
        "location": {
            "lat": 41.709255,
            "lng": 82.976573
        },
        "ad_info": {
            "adcode": 652902,
            "province": "新疆维吾尔自治区",
            "city": "阿克苏地区",
            "district": "库车市"
        }
    },
    {
        "id": "10027741780483638285",
        "title": "公共厕所",
        "address": "新疆维吾尔自治区阿克苏地区沙雅县北京路沙雅博物馆",
        "tel": "",
        "category": "基础设施:公共设施:公共厕所",
        "type": 0,
        "location": {
            "lat": 41.222669,
            "lng": 82.786687
        },
        "ad_info": {
            "adcode": 652924,
            "province": "新疆维吾尔自治区",
            "city": "阿克苏地区",
            "district": "沙雅县"
        }
    },
    {
        "id": "18059897705746726196",
        "title": "公共厕所",
        "address": "新疆维吾尔自治区阿克苏地区拜城县米吉克乡3村牧马人家休闲阁",
        "tel": "",
        "category": "基础设施:公共设施:公共厕所",
        "type": 0,
        "location": {
            "lat": 41.780874,
            "lng": 81.844482
        },
        "ad_info": {
            "adcode": 652926,
            "province": "新疆维吾尔自治区",
            "city": "阿克苏地区",
            "district": "拜城县"
        }
    },
    {
        "id": "15567082363075972111",
        "title": "公共厕所",
        "address": "新疆维吾尔自治区阿克苏地区阿克苏市屯垦北路与文化中路交叉口西南方向88米左右",
        "tel": "",
        "category": "基础设施:公共设施:公共厕所",
        "type": 0,
        "location": {
            "lat": 40.68409,
            "lng": 79.88897
        },
        "ad_info": {
            "adcode": 652901,
            "province": "新疆维吾尔自治区",
            "city": "阿克苏地区",
            "district": "阿克苏市"
        }
    },
    {
        "id": "5479788958736051525",
        "title": "公共厕所",
        "address": "新疆维吾尔自治区阿克苏地区沙雅县139胡杨秘境公路与139胡杨秘境自驾公路交叉口正西方向1378米左右",
        "tel": "",
        "category": "基础设施:公共设施:公共厕所",
        "type": 0,
        "location": {
            "lat": 40.878684,
            "lng": 82.260473
        },
        "ad_info": {
            "adcode": 652924,
            "province": "新疆维吾尔自治区",
            "city": "阿克苏地区",
            "district": "沙雅县"
        }
    },
    {
        "id": "15970544192487785366",
        "title": "公共厕所",
        "address": "新疆维吾尔自治区阿克苏地区柯坪县解放路柯坪二号加油加气站",
        "tel": "",
        "category": "基础设施:公共设施:公共厕所",
        "type": 0,
        "location": {
            "lat": 40.502196,
            "lng": 79.059264
        },
        "ad_info": {
            "adcode": 652929,
            "province": "新疆维吾尔自治区",
            "city": "阿克苏地区",
            "district": "柯坪县"
        }
    },
    {
        "id": "9155145579144931886",
        "title": "公共厕所",
        "address": "新疆维吾尔自治区阿克苏地区拜城县铁热克镇苏杭村",
        "tel": "",
        "category": "基础设施:公共设施:公共厕所",
        "type": 0,
        "location": {
            "lat": 42.073383,
            "lng": 81.665783
        },
        "ad_info": {
            "adcode": 652926,
            "province": "新疆维吾尔自治区",
            "city": "阿克苏地区",
            "district": "拜城县"
        }
    },
    {
        "id": "17553702201688283333",
        "title": "公共厕所",
        "address": "新疆维吾尔自治区阿克苏地区阿克苏市幸福北路与新华中路交叉口正南方向275米左右",
        "tel": "",
        "category": "基础设施:公共设施:公共厕所",
        "type": 0,
        "location": {
            "lat": 41.178232,
            "lng": 80.273125
        },
        "ad_info": {
            "adcode": 652901,
            "province": "新疆维吾尔自治区",
            "city": "阿克苏地区",
            "district": "阿克苏市"
        }
    },
    {
        "id": "8854985933237189204",
        "title": "公共厕所",
        "address": "新疆维吾尔自治区阿克苏地区温宿县314国道与637乡道交叉口东南100米",
        "tel": "",
        "category": "基础设施:公共设施:公共厕所",
        "type": 0,
        "location": {
            "lat": 41.341958,
            "lng": 80.68091
        },
        "ad_info": {
            "adcode": 652922,
            "province": "新疆维吾尔自治区",
            "city": "阿克苏地区",
            "district": "温宿县"
        }
    },
    {
        "id": "9113976550992556894",
        "title": "公共厕所",
        "address": "新疆维吾尔自治区阿克苏地区库车市北山民宿客栈东侧60米",
        "tel": "",
        "category": "基础设施:公共设施:公共厕所",
        "type": 0,
        "location": {
            "lat": 42.151972,
            "lng": 83.111854
        },
        "ad_info": {
            "adcode": 652902,
            "province": "新疆维吾尔自治区",
            "city": "阿克苏地区",
            "district": "库车市"
        }
    },
    {
        "id": "13502998848559028644",
        "title": "公共厕所",
        "address": "新疆维吾尔自治区阿克苏地区库车市人民路与实验井路交叉口正西方向108米左右",
        "tel": "",
        "category": "基础设施:公共设施:公共厕所",
        "type": 0,
        "location": {
            "lat": 41.715991,
            "lng": 82.933932
        },
        "ad_info": {
            "adcode": 652902,
            "province": "新疆维吾尔自治区",
            "city": "阿克苏地区",
            "district": "库车市"
        }
    },
    {
        "id": "4923573647071290092",
        "title": "公共厕所",
        "address": "新疆维吾尔自治区阿克苏地区阿克苏市健康路与团结西路交叉口东北方向158米左右",
        "tel": "",
        "category": "基础设施:公共设施:公共厕所",
        "type": 0,
        "location": {
            "lat": 41.16787,
            "lng": 80.27008
        },
        "ad_info": {
            "adcode": 652901,
            "province": "新疆维吾尔自治区",
            "city": "阿克苏地区",
            "district": "阿克苏市"
        }
    },
    {
        "id": "8050413040894346695",
        "title": "公共厕所",
        "address": "新疆维吾尔自治区阿克苏地区阿克苏市团结西路12-17(市一小对面)",
        "tel": "",
        "category": "基础设施:公共设施:公共厕所",
        "type": 0,
        "location": {
            "lat": 41.168098,
            "lng": 80.270353
        },
        "ad_info": {
            "adcode": 652901,
            "province": "新疆维吾尔自治区",
            "city": "阿克苏地区",
            "district": "阿克苏市"
        }
    },
    {
        "id": "16146479683613948003",
        "title": "公共厕所",
        "address": "新疆维吾尔自治区阿克苏地区拜城县民俗街与解放路交叉口东南方向135米左右",
        "tel": "",
        "category": "基础设施:公共设施:公共厕所",
        "type": 0,
        "location": {
            "lat": 41.796322,
            "lng": 81.876626
        },
        "ad_info": {
            "adcode": 652926,
            "province": "新疆维吾尔自治区",
            "city": "阿克苏地区",
            "district": "拜城县"
        }
    },
    {
        "id": "5274974368787134660",
        "title": "公共厕所",
        "address": "新疆维吾尔自治区阿克苏地区阿克苏市人民路与北京西路交叉口东北方向227米左右",
        "tel": "",
        "category": "基础设施:公共设施:公共厕所",
        "type": 0,
        "location": {
            "lat": 41.167647,
            "lng": 80.257761
        },
        "ad_info": {
            "adcode": 652901,
            "province": "新疆维吾尔自治区",
            "city": "阿克苏地区",
            "district": "阿克苏市"
        }
    },
    {
        "id": "4544122164170607056",
        "title": "公共厕所",
        "address": "新疆维吾尔自治区阿克苏地区阿克苏市温州路步行街与阿苏克巷交叉口西南方向56米左右",
        "tel": "",
        "category": "基础设施:公共设施:公共厕所",
        "type": 0,
        "location": {
            "lat": 41.172563,
            "lng": 80.266322
        },
        "ad_info": {
            "adcode": 652901,
            "province": "新疆维吾尔自治区",
            "city": "阿克苏地区",
            "district": "阿克苏市"
        }
    },
    {
        "id": "10991378465051450000",
        "title": "公共厕所",
        "address": "新疆维吾尔自治区阿克苏地区阿克苏市丽园巷与健康北路交叉口西北方向151米左右",
        "tel": "",
        "category": "基础设施:公共设施:公共厕所",
        "type": 0,
        "location": {
            "lat": 41.161874,
            "lng": 80.271306
        },
        "ad_info": {
            "adcode": 652901,
            "province": "新疆维吾尔自治区",
            "city": "阿克苏地区",
            "district": "阿克苏市"
        }
    },
    {
        "id": "9683174425870431047",
        "title": "公共厕所",
        "address": "新疆维吾尔自治区阿克苏地区阿克苏市兰干北路与兰干路交叉口正南方向141米左右",
        "tel": "",
        "category": "基础设施:公共设施:公共厕所",
        "type": 0,
        "location": {
            "lat": 41.18701,
            "lng": 80.255782
        },
        "ad_info": {
            "adcode": 652901,
            "province": "新疆维吾尔自治区",
            "city": "阿克苏地区",
            "district": "阿克苏市"
        }
    },
    {
        "id": "2038048355054277276",
        "title": "公共厕所",
        "address": "新疆维吾尔自治区阿克苏地区乌什县G219与Z621线交叉口西北方向1528米左右",
        "tel": "",
        "category": "基础设施:公共设施:公共厕所",
        "type": 0,
        "location": {
            "lat": 41.193979,
            "lng": 79.12586
        },
        "ad_info": {
            "adcode": 652927,
            "province": "新疆维吾尔自治区",
            "city": "阿克苏地区",
            "district": "乌什县"
        }
    },
    {
        "id": "16370280285123302407",
        "title": "公共厕所",
        "address": "新疆维吾尔自治区阿克苏地区拜城县",
        "tel": "",
        "category": "基础设施:公共设施:公共厕所",
        "type": 0,
        "location": {
            "lat": 41.725959,
            "lng": 81.985436
        },
        "ad_info": {
            "adcode": 652926,
            "province": "新疆维吾尔自治区",
            "city": "阿克苏地区",
            "district": "拜城县"
        }
    },
    {
        "id": "7876725870563971359",
        "title": "公共厕所",
        "address": "新疆维吾尔自治区阿克苏地区拜城县307省道与362乡道交叉口西280米",
        "tel": "",
        "category": "基础设施:公共设施:公共厕所",
        "type": 0,
        "location": {
            "lat": 41.759,
            "lng": 82.088372
        },
        "ad_info": {
            "adcode": 652926,
            "province": "新疆维吾尔自治区",
            "city": "阿克苏地区",
            "district": "拜城县"
        }
    },
    {
        "id": "2419196460138455150",
        "title": "公共厕所",
        "address": "新疆维吾尔自治区阿克苏地区新和县乌喀东路与乌喀中路交叉口西南方向112米左右",
        "tel": "",
        "category": "基础设施:公共设施:公共厕所",
        "type": 0,
        "location": {
            "lat": 41.550632,
            "lng": 82.61408
        },
        "ad_info": {
            "adcode": 652925,
            "province": "新疆维吾尔自治区",
            "city": "阿克苏地区",
            "district": "新和县"
        }
    },
    {
        "id": "2770581865196362278",
        "title": "公共厕所",
        "address": "新疆维吾尔自治区阿克苏地区阿克苏市解放南路(阿克苏市十三中)",
        "tel": "",
        "category": "基础设施:公共设施:公共厕所",
        "type": 0,
        "location": {
            "lat": 41.159273,
            "lng": 80.307748
        },
        "ad_info": {
            "adcode": 652901,
            "province": "新疆维吾尔自治区",
            "city": "阿克苏地区",
            "district": "阿克苏市"
        }
    },
    {
        "id": "7718703238020833459",
        "title": "公共厕所",
        "address": "新疆维吾尔自治区阿克苏地区阿克苏市G314与北外环路交叉口正东方向139米左右",
        "tel": "",
        "category": "基础设施:公共设施:公共厕所",
        "type": 0,
        "location": {
            "lat": 41.286893,
            "lng": 80.352978
        },
        "ad_info": {
            "adcode": 652901,
            "province": "新疆维吾尔自治区",
            "city": "阿克苏地区",
            "district": "阿克苏市"
        }
    },
    {
        "id": "9866238295772130464",
        "title": "公共厕所",
        "address": "新疆维吾尔自治区阿克苏地区拜城县拜城镇阿克苏公路局拜城公路管理分局",
        "tel": "",
        "category": "基础设施:公共设施:公共厕所",
        "type": 0,
        "location": {
            "lat": 41.796895,
            "lng": 81.868013
        },
        "ad_info": {
            "adcode": 652926,
            "province": "新疆维吾尔自治区",
            "city": "阿克苏地区",
            "district": "拜城县"
        }
    },
    {
        "id": "13688889457532927531",
        "title": "公共厕所",
        "address": "新疆维吾尔自治区阿克苏地区库车市YD77与天山东路交叉口西南方向81米左右",
        "tel": "",
        "category": "基础设施:公共设施:公共厕所",
        "type": 0,
        "location": {
            "lat": 41.722854,
            "lng": 83.068383
        },
        "ad_info": {
            "adcode": 652902,
            "province": "新疆维吾尔自治区",
            "city": "阿克苏地区",
            "district": "库车市"
        }
    },
    {
        "id": "5610453173776043263",
        "title": "公共厕所",
        "address": "新疆维吾尔自治区阿克苏地区拜城县交通路与团结路交叉口东南方向204米左右",
        "tel": "",
        "category": "基础设施:公共设施:公共厕所",
        "type": 0,
        "location": {
            "lat": 41.791179,
            "lng": 81.867465
        },
        "ad_info": {
            "adcode": 652926,
            "province": "新疆维吾尔自治区",
            "city": "阿克苏地区",
            "district": "拜城县"
        }
    },
    {
        "id": "14595670102255189888",
        "title": "公共厕所",
        "address": "新疆维吾尔自治区阿克苏地区阿克苏市西大街与小南街交叉处西侧路南正东方向40米",
        "tel": "",
        "category": "基础设施:公共设施:公共厕所",
        "type": 0,
        "location": {
            "lat": 41.167852,
            "lng": 80.260926
        },
        "ad_info": {
            "adcode": 652901,
            "province": "新疆维吾尔自治区",
            "city": "阿克苏地区",
            "district": "阿克苏市"
        }
    },
    {
        "id": "14171918011921290926",
        "title": "公共厕所",
        "address": "新疆维吾尔自治区阿克苏地区库车市G217与中兴路交叉口正南方向122米左右",
        "tel": "",
        "category": "基础设施:公共设施:公共厕所",
        "type": 0,
        "location": {
            "lat": 41.632659,
            "lng": 82.89574
        },
        "ad_info": {
            "adcode": 652902,
            "province": "新疆维吾尔自治区",
            "city": "阿克苏地区",
            "district": "库车市"
        }
    },
    {
        "id": "2182844117374147571",
        "title": "公共厕所",
        "address": "新疆维吾尔自治区阿克苏地区拜城县步行街与胜利路交叉口东南方向56米左右",
        "tel": "",
        "category": "基础设施:公共设施:公共厕所",
        "type": 0,
        "location": {
            "lat": 41.798079,
            "lng": 81.867475
        },
        "ad_info": {
            "adcode": 652926,
            "province": "新疆维吾尔自治区",
            "city": "阿克苏地区",
            "district": "拜城县"
        }
    },
    {
        "id": "17223347590397584659",
        "title": "公共厕所",
        "address": "新疆维吾尔自治区阿克苏地区阿克苏市217国道西50米",
        "tel": "",
        "category": "基础设施:公共设施:公共厕所",
        "type": 0,
        "location": {
            "lat": 40.393169,
            "lng": 81.212384
        },
        "ad_info": {
            "adcode": 652901,
            "province": "新疆维吾尔自治区",
            "city": "阿克苏地区",
            "district": "阿克苏市"
        }
    },
    {
        "id": "12876379831293797925",
        "title": "公共厕所",
        "address": "新疆维吾尔自治区阿克苏地区阿克苏市人民路与团结路交叉口正北方向113米左右",
        "tel": "",
        "category": "基础设施:公共设施:公共厕所",
        "type": 0,
        "location": {
            "lat": 41.024906,
            "lng": 80.26952
        },
        "ad_info": {
            "adcode": 652901,
            "province": "新疆维吾尔自治区",
            "city": "阿克苏地区",
            "district": "阿克苏市"
        }
    },
    {
        "id": "15400313453654479471",
        "title": "公共厕所",
        "address": "新疆维吾尔自治区阿克苏地区拜城县步行街与胜利路交叉口西南方向77米左右",
        "tel": "",
        "category": "基础设施:公共设施:公共厕所",
        "type": 0,
        "location": {
            "lat": 41.798029,
            "lng": 81.8662
        },
        "ad_info": {
            "adcode": 652926,
            "province": "新疆维吾尔自治区",
            "city": "阿克苏地区",
            "district": "拜城县"
        }
    },
    {
        "id": "15331735749287793267",
        "title": "公共厕所",
        "address": "新疆维吾尔自治区阿克苏地区新和县和谐东路与和谐西路交叉口正东方向184米左右",
        "tel": "",
        "category": "基础设施:公共设施:公共厕所",
        "type": 0,
        "location": {
            "lat": 41.542218,
            "lng": 82.610566
        },
        "ad_info": {
            "adcode": 652925,
            "province": "新疆维吾尔自治区",
            "city": "阿克苏地区",
            "district": "新和县"
        }
    },
    {
        "id": "9037727243848857829",
        "title": "公共厕所",
        "address": "新疆维吾尔自治区阿克苏地区阿克苏市S207与塔南路交叉口西南方向87米",
        "tel": "",
        "category": "基础设施:公共设施:公共厕所",
        "type": 0,
        "location": {
            "lat": 41.130834,
            "lng": 80.293412
        },
        "ad_info": {
            "adcode": 652901,
            "province": "新疆维吾尔自治区",
            "city": "阿克苏地区",
            "district": "阿克苏市"
        }
    },
    {
        "id": "12879176942776936331",
        "title": "公共厕所",
        "address": "新疆维吾尔自治区阿克苏地区阿克苏市喀什路与迎宾路交叉口正北方向322米左右",
        "tel": "",
        "category": "基础设施:公共设施:公共厕所",
        "type": 0,
        "location": {
            "lat": 40.798664,
            "lng": 80.495104
        },
        "ad_info": {
            "adcode": 652901,
            "province": "新疆维吾尔自治区",
            "city": "阿克苏地区",
            "district": "阿克苏市"
        }
    },
    {
        "id": "638008295434501156",
        "title": "公共厕所",
        "address": "新疆维吾尔自治区阿克苏地区阿克苏市兰干路与新华路交叉口东南方向106米左右",
        "tel": "",
        "category": "基础设施:公共设施:公共厕所",
        "type": 0,
        "location": {
            "lat": 41.172582,
            "lng": 80.263548
        },
        "ad_info": {
            "adcode": 652901,
            "province": "新疆维吾尔自治区",
            "city": "阿克苏地区",
            "district": "阿克苏市"
        }
    },
    {
        "id": "1631963154059564646",
        "title": "公共厕所",
        "address": "新疆维吾尔自治区阿克苏地区拜城县S307中国石油拜城城西加油站",
        "tel": "",
        "category": "基础设施:公共设施:公共厕所",
        "type": 0,
        "location": {
            "lat": 41.766788,
            "lng": 81.826582
        },
        "ad_info": {
            "adcode": 652926,
            "province": "新疆维吾尔自治区",
            "city": "阿克苏地区",
            "district": "拜城县"
        }
    },
    {
        "id": "6212397844123950645",
        "title": "公共厕所(XJ-AK-0357)",
        "address": "新疆维吾尔自治区阿克苏地区阿瓦提县Y017与Y503交叉口西南方向1139米左右",
        "tel": "",
        "category": "基础设施:公共设施:公共厕所",
        "type": 0,
        "location": {
            "lat": 40.787643,
            "lng": 80.164872
        },
        "ad_info": {
            "adcode": 652928,
            "province": "新疆维吾尔自治区",
            "city": "阿克苏地区",
            "district": "阿瓦提县"
        }
    },
    {
        "id": "4938198091169090666",
        "title": "公共厕所",
        "address": "新疆维吾尔自治区阿克苏地区拜城县克孜旅游专线东50米",
        "tel": "",
        "category": "基础设施:公共设施:公共厕所",
        "type": 0,
        "location": {
            "lat": 41.78145,
            "lng": 82.50273
        },
        "ad_info": {
            "adcode": 652926,
            "province": "新疆维吾尔自治区",
            "city": "阿克苏地区",
            "district": "拜城县"
        }
    },
    {
        "id": "13306299823675919508",
        "title": "公共厕所",
        "address": "新疆维吾尔自治区阿克苏地区新和县乌喀中路与建设路交叉口正东方向55米左右",
        "tel": "",
        "category": "基础设施:公共设施:公共厕所",
        "type": 0,
        "location": {
            "lat": 41.548519,
            "lng": 82.599925
        },
        "ad_info": {
            "adcode": 652925,
            "province": "新疆维吾尔自治区",
            "city": "阿克苏地区",
            "district": "新和县"
        }
    },
    {
        "id": "12270383730810428358",
        "title": "佳木服务区公共厕所",
        "address": "新疆维吾尔自治区阿克苏地区温宿县G3012吐和高速附近",
        "tel": "",
        "category": "基础设施:公共设施:公共厕所",
        "type": 0,
        "location": {
            "lat": 41.37851,
            "lng": 80.621794
        },
        "ad_info": {
            "adcode": 652922,
            "province": "新疆维吾尔自治区",
            "city": "阿克苏地区",
            "district": "温宿县"
        }
    },
    {
        "id": "9482530281498405668",
        "title": "公共厕所",
        "address": "新疆维吾尔自治区阿克苏地区阿瓦提县团结东路与天山东路交叉口东北方向168米左右",
        "tel": "",
        "category": "基础设施:公共设施:公共厕所",
        "type": 0,
        "location": {
            "lat": 40.64143,
            "lng": 80.389653
        },
        "ad_info": {
            "adcode": 652928,
            "province": "新疆维吾尔自治区",
            "city": "阿克苏地区",
            "district": "阿瓦提县"
        }
    },
    {
        "id": "5055845145939207831",
        "title": "公共厕所",
        "address": "新疆维吾尔自治区阿克苏地区阿瓦提县上海东路与上海中路交叉口东南方向148米左右",
        "tel": "",
        "category": "基础设施:公共设施:公共厕所",
        "type": 0,
        "location": {
            "lat": 40.660243,
            "lng": 80.365122
        },
        "ad_info": {
            "adcode": 652928,
            "province": "新疆维吾尔自治区",
            "city": "阿克苏地区",
            "district": "阿瓦提县"
        }
    },
    {
        "id": "12231135429970099617",
        "title": "公共厕所",
        "address": "新疆维吾尔自治区阿克苏地区库车市天山东路中国石油塔里木加油站",
        "tel": "",
        "category": "基础设施:公共设施:公共厕所",
        "type": 0,
        "location": {
            "lat": 41.711755,
            "lng": 83.01868
        },
        "ad_info": {
            "adcode": 652902,
            "province": "新疆维吾尔自治区",
            "city": "阿克苏地区",
            "district": "库车市"
        }
    },
    {
        "id": "8913229867996279897",
        "title": "公共厕所",
        "address": "新疆维吾尔自治区阿克苏地区阿瓦提县S360与Y474交叉口正北方向1373米左右",
        "tel": "",
        "category": "基础设施:公共设施:公共厕所",
        "type": 0,
        "location": {
            "lat": 40.575407,
            "lng": 80.38623
        },
        "ad_info": {
            "adcode": 652928,
            "province": "新疆维吾尔自治区",
            "city": "阿克苏地区",
            "district": "阿瓦提县"
        }
    },
    {
        "id": "5258605300069658648",
        "title": "公共厕所",
        "address": "新疆维吾尔自治区阿克苏地区沙雅县S211与人民北路交叉口正南方向105米左右",
        "tel": "",
        "category": "基础设施:公共设施:公共厕所",
        "type": 0,
        "location": {
            "lat": 41.362491,
            "lng": 82.634852
        },
        "ad_info": {
            "adcode": 652924,
            "province": "新疆维吾尔自治区",
            "city": "阿克苏地区",
            "district": "沙雅县"
        }
    },
    {
        "id": "16704695014833490363",
        "title": "乌什县燕泉山风景区公共厕所",
        "address": "新疆维吾尔自治区阿克苏地区乌什县公园街与燕山路交叉口西北方向57米左右",
        "tel": "",
        "category": "基础设施:公共设施:公共厕所",
        "type": 0,
        "location": {
            "lat": 41.21672,
            "lng": 79.22083
        },
        "ad_info": {
            "adcode": 652927,
            "province": "新疆维吾尔自治区",
            "city": "阿克苏地区",
            "district": "乌什县"
        }
    },
    {
        "id": "14763938834137337305",
        "title": "公共厕所",
        "address": "新疆维吾尔自治区阿克苏地区新和县G3012吐和高速南50米",
        "tel": "",
        "category": "基础设施:公共设施:公共厕所",
        "type": 0,
        "location": {
            "lat": 41.530023,
            "lng": 82.19979
        },
        "ad_info": {
            "adcode": 652925,
            "province": "新疆维吾尔自治区",
            "city": "阿克苏地区",
            "district": "新和县"
        }
    },
    {
        "id": "18295002538598644587",
        "title": "库勒服务区公共厕所",
        "address": "新疆维吾尔自治区阿克苏地区阿克苏市浙江路与西湖路交叉口东南方向619米左右",
        "tel": "",
        "category": "基础设施:公共设施:公共厕所",
        "type": 0,
        "location": {
            "lat": 41.081353,
            "lng": 80.197536
        },
        "ad_info": {
            "adcode": 652901,
            "province": "新疆维吾尔自治区",
            "city": "阿克苏地区",
            "district": "阿克苏市"
        }
    },
    {
        "id": "8537481633081553253",
        "title": "亿隆大酒店-洗手间",
        "address": "新疆维吾尔自治区阿克苏地区阿克苏市市区东大街26号",
        "tel": "",
        "category": "基础设施:公共设施:公共厕所",
        "type": 0,
        "location": {
            "lat": 41.1732,
            "lng": 80.2722
        },
        "ad_info": {
            "adcode": 652901,
            "province": "新疆维吾尔自治区",
            "city": "阿克苏地区",
            "district": "阿克苏市"
        }
    },
    {
        "id": "31152866177898835",
        "title": "佳木服务区公共厕所",
        "address": "新疆维吾尔自治区阿克苏地区温宿县吐和高速佳木服务区",
        "tel": "",
        "category": "基础设施:公共设施:公共厕所",
        "type": 0,
        "location": {
            "lat": 41.376096,
            "lng": 80.621452
        },
        "ad_info": {
            "adcode": 652922,
            "province": "新疆维吾尔自治区",
            "city": "阿克苏地区",
            "district": "温宿县"
        }
    },
    {
        "id": "13825276426354167913",
        "title": "无障碍公共厕所",
        "address": "新疆维吾尔自治区阿克苏地区阿克苏市人民路与北京西路交叉口东南方向191米左右",
        "tel": "",
        "category": "基础设施:公共设施:公共厕所",
        "type": 0,
        "location": {
            "lat": 41.165084,
            "lng": 80.256789
        },
        "ad_info": {
            "adcode": 652901,
            "province": "新疆维吾尔自治区",
            "city": "阿克苏地区",
            "district": "阿克苏市"
        }
    },
    {
        "id": "14741875602717638889",
        "title": "公共厕所",
        "address": "新疆维吾尔自治区阿克苏地区新和县益康路与迎宾路交叉口正北方向306米左右",
        "tel": "",
        "category": "基础设施:公共设施:公共厕所",
        "type": 0,
        "location": {
            "lat": 41.561213,
            "lng": 82.600194
        },
        "ad_info": {
            "adcode": 652925,
            "province": "新疆维吾尔自治区",
            "city": "阿克苏地区",
            "district": "新和县"
        }
    },
    {
        "id": "11680395134550820797",
        "title": "公共厕所",
        "address": "新疆维吾尔自治区阿克苏地区库车市长宁路与长春路交叉口东南方向402米左右",
        "tel": "",
        "category": "基础设施:公共设施:公共厕所",
        "type": 0,
        "location": {
            "lat": 41.742525,
            "lng": 83.033946
        },
        "ad_info": {
            "adcode": 652902,
            "province": "新疆维吾尔自治区",
            "city": "阿克苏地区",
            "district": "库车市"
        }
    },
    {
        "id": "3977949252025472754",
        "title": "库车服务区公共厕所",
        "address": "新疆维吾尔自治区阿克苏地区库车市恰其库木村七组一巷与恰其库木村四路交叉口东北方向931米左右",
        "tel": "",
        "category": "基础设施:公共设施:公共厕所",
        "type": 0,
        "location": {
            "lat": 41.752748,
            "lng": 83.313457
        },
        "ad_info": {
            "adcode": 652902,
            "province": "新疆维吾尔自治区",
            "city": "阿克苏地区",
            "district": "库车市"
        }
    },
    {
        "id": "3944667109637132122",
        "title": "库车服务区公共厕所",
        "address": "新疆维吾尔自治区阿克苏地区库车市库车市服务区南侧",
        "tel": "",
        "category": "基础设施:公共设施:公共厕所",
        "type": 0,
        "location": {
            "lat": 41.754645,
            "lng": 83.302403
        },
        "ad_info": {
            "adcode": 652902,
            "province": "新疆维吾尔自治区",
            "city": "阿克苏地区",
            "district": "库车市"
        }
    },
    {
        "id": "7983040507878036369",
        "title": "公共厕所",
        "address": "新疆维吾尔自治区阿克苏地区阿瓦提县光明南路与北京中路交叉口东南方向199米左右",
        "tel": "",
        "category": "基础设施:公共设施:公共厕所",
        "type": 0,
        "location": {
            "lat": 40.636396,
            "lng": 80.379324
        },
        "ad_info": {
            "adcode": 652928,
            "province": "新疆维吾尔自治区",
            "city": "阿克苏地区",
            "district": "阿瓦提县"
        }
    },
    {
        "id": "3536957135920094755",
        "title": "新和服务区第一公共厕所",
        "address": "新疆维吾尔自治区阿克苏地区新和县桑塔木农场吐和高速公路新和服务区",
        "tel": "",
        "category": "基础设施:公共设施:公共厕所",
        "type": 0,
        "location": {
            "lat": 41.684221,
            "lng": 82.63169
        },
        "ad_info": {
            "adcode": 652925,
            "province": "新疆维吾尔自治区",
            "city": "阿克苏地区",
            "district": "新和县"
        }
    },
    {
        "id": "10405239535136119462",
        "title": "羊塔克库都克服务区公共厕所",
        "address": "新疆维吾尔自治区阿克苏地区新和县吐和高速羊塔克库都克服务区",
        "tel": "",
        "category": "基础设施:公共设施:公共厕所",
        "type": 0,
        "location": {
            "lat": 41.402855,
            "lng": 81.536415
        },
        "ad_info": {
            "adcode": 652925,
            "province": "新疆维吾尔自治区",
            "city": "阿克苏地区",
            "district": "新和县"
        }
    },
    {
        "id": "17077045381777421050",
        "title": "新和服务区-公共厕所",
        "address": "新疆维吾尔自治区阿克苏地区新和县",
        "tel": "",
        "category": "基础设施:公共设施:公共厕所",
        "type": 0,
        "location": {
            "lat": 41.684256,
            "lng": 82.630957
        },
        "ad_info": {
            "adcode": 652925,
            "province": "新疆维吾尔自治区",
            "city": "阿克苏地区",
            "district": "新和县"
        }
    },
    {
        "id": "11522349569659241876",
        "title": "新和服务区第二公共厕所",
        "address": "新疆维吾尔自治区阿克苏地区新和县G3012吐和高速附近",
        "tel": "",
        "category": "基础设施:公共设施:公共厕所",
        "type": 0,
        "location": {
            "lat": 41.6843,
            "lng": 82.627982
        },
        "ad_info": {
            "adcode": 652925,
            "province": "新疆维吾尔自治区",
            "city": "阿克苏地区",
            "district": "新和县"
        }
    },
    {
        "id": "1458750950695759939",
        "title": "公共厕所",
        "address": "新疆维吾尔自治区阿克苏地区库车市鑫客隆商务宾馆东侧",
        "tel": "",
        "category": "基础设施:公共设施:公共厕所",
        "type": 0,
        "location": {
            "lat": 41.695665,
            "lng": 83.017574
        },
        "ad_info": {
            "adcode": 652902,
            "province": "新疆维吾尔自治区",
            "city": "阿克苏地区",
            "district": "库车市"
        }
    },
    {
        "id": "16837514375788051366",
        "title": "公共厕所",
        "address": "新疆维吾尔自治区阿克苏地区温宿县308县道与645乡道交叉口西240米",
        "tel": "",
        "category": "基础设施:公共设施:公共厕所",
        "type": 0,
        "location": {
            "lat": 41.106245,
            "lng": 80.543951
        },
        "ad_info": {
            "adcode": 652922,
            "province": "新疆维吾尔自治区",
            "city": "阿克苏地区",
            "district": "温宿县"
        }
    },
    {
        "id": "10565145182623379907",
        "title": "服务区第二公共厕所",
        "address": "新疆维吾尔自治区阿克苏地区库车市Z627与Z627线交叉口正西方向263米左右",
        "tel": "",
        "category": "基础设施:公共设施:公共厕所",
        "type": 0,
        "location": {
            "lat": 41.679072,
            "lng": 82.712655
        },
        "ad_info": {
            "adcode": 652902,
            "province": "新疆维吾尔自治区",
            "city": "阿克苏地区",
            "district": "库车市"
        }
    },
    {
        "id": "9451561852592734752",
        "title": "公共厕所(沙雅县139秘境游客服务中心终点站)",
        "address": "新疆维吾尔自治区阿克苏地区沙雅县217国道139胡杨秘境自驾公路",
        "tel": "",
        "category": "基础设施:公共设施:公共厕所",
        "type": 0,
        "location": {
            "lat": 40.83909,
            "lng": 82.137983
        },
        "ad_info": {
            "adcode": 652924,
            "province": "新疆维吾尔自治区",
            "city": "阿克苏地区",
            "district": "沙雅县"
        }
    },
    {
        "id": "11602428755751550771",
        "title": "公共厕所",
        "address": "新疆维吾尔自治区阿克苏地区新和县丽水路与环城南路交叉口正北方向123米左右",
        "tel": "",
        "category": "基础设施:公共设施:公共厕所",
        "type": 0,
        "location": {
            "lat": 41.537806,
            "lng": 82.621776
        },
        "ad_info": {
            "adcode": 652925,
            "province": "新疆维吾尔自治区",
            "city": "阿克苏地区",
            "district": "新和县"
        }
    },
    {
        "id": "13589862151692010839",
        "title": "公共厕所",
        "address": "新疆维吾尔自治区阿克苏地区阿瓦提县塔木托格拉克镇吐格贝希村电子商务服务点北侧70米",
        "tel": "",
        "category": "基础设施:公共设施:公共厕所",
        "type": 0,
        "location": {
            "lat": 40.757,
            "lng": 80.239521
        },
        "ad_info": {
            "adcode": 652928,
            "province": "新疆维吾尔自治区",
            "city": "阿克苏地区",
            "district": "阿瓦提县"
        }
    },
    {
        "id": "13448507828232575718",
        "title": "阿恰服务区公共厕所",
        "address": "新疆维吾尔自治区阿克苏地区柯坪县G3012吐和高速东100米",
        "tel": "",
        "category": "基础设施:公共设施:公共厕所",
        "type": 0,
        "location": {
            "lat": 40.48982,
            "lng": 79.309764
        },
        "ad_info": {
            "adcode": 652929,
            "province": "新疆维吾尔自治区",
            "city": "阿克苏地区",
            "district": "柯坪县"
        }
    },
    {
        "id": "1691129501466156836",
        "title": "公园东路公共厕所",
        "address": "新疆维吾尔自治区阿克苏地区拜城县公园东路与金晖路交叉口东南方向140米左右",
        "tel": "",
        "category": "基础设施:公共设施:公共厕所",
        "type": 0,
        "location": {
            "lat": 41.804601,
            "lng": 81.843786
        },
        "ad_info": {
            "adcode": 652926,
            "province": "新疆维吾尔自治区",
            "city": "阿克苏地区",
            "district": "拜城县"
        }
    },
    {
        "id": "11474869047143364568",
        "title": "公共厕所",
        "address": "新疆维吾尔自治区阿克苏地区库车市建设路与文化路交叉口西北方向63米左右",
        "tel": "",
        "category": "基础设施:公共设施:公共厕所",
        "type": 0,
        "location": {
            "lat": 41.488876,
            "lng": 83.018917
        },
        "ad_info": {
            "adcode": 652902,
            "province": "新疆维吾尔自治区",
            "city": "阿克苏地区",
            "district": "库车市"
        }
    },
    {
        "id": "17552784223674190182",
        "title": "公共厕所",
        "address": "新疆维吾尔自治区阿克苏地区乌什县X354与前进大桥交叉口正南方向365米左右",
        "tel": "",
        "category": "基础设施:公共设施:公共厕所",
        "type": 0,
        "location": {
            "lat": 41.317637,
            "lng": 79.466808
        },
        "ad_info": {
            "adcode": 652927,
            "province": "新疆维吾尔自治区",
            "city": "阿克苏地区",
            "district": "乌什县"
        }
    },
    {
        "id": "2816653324968271462",
        "title": "公共厕所",
        "address": "新疆维吾尔自治区阿克苏地区阿瓦提县S360与Y474交叉口正北方向983米左右",
        "tel": "",
        "category": "基础设施:公共设施:公共厕所",
        "type": 0,
        "location": {
            "lat": 40.571885,
            "lng": 80.386153
        },
        "ad_info": {
            "adcode": 652928,
            "province": "新疆维吾尔自治区",
            "city": "阿克苏地区",
            "district": "阿瓦提县"
        }
    },
    {
        "id": "6739389775463651576",
        "title": "公共厕所",
        "address": "新疆维吾尔自治区阿克苏地区阿瓦提县拜什艾日克镇玉斯屯克拜什艾日克村旅游景区",
        "tel": "",
        "category": "基础设施:公共设施:公共厕所",
        "type": 0,
        "location": {
            "lat": 40.802471,
            "lng": 80.373652
        },
        "ad_info": {
            "adcode": 652928,
            "province": "新疆维吾尔自治区",
            "city": "阿克苏地区",
            "district": "阿瓦提县"
        }
    },
    {
        "id": "1289060128656312542",
        "title": "公共厕所",
        "address": "新疆维吾尔自治区阿克苏地区阿克苏市解放中路23号",
        "tel": "",
        "category": "基础设施:公共设施:公共厕所",
        "type": 0,
        "location": {
            "lat": 41.170202,
            "lng": 80.294076
        },
        "ad_info": {
            "adcode": 652901,
            "province": "新疆维吾尔自治区",
            "city": "阿克苏地区",
            "district": "阿克苏市"
        }
    },
    {
        "id": "15893777763300937878",
        "title": "公共厕所",
        "address": "新疆维吾尔自治区阿克苏地区阿克苏市沙海湾影视基地西南侧150米",
        "tel": "",
        "category": "基础设施:公共设施:公共厕所",
        "type": 0,
        "location": {
            "lat": 40.392847,
            "lng": 81.22187
        },
        "ad_info": {
            "adcode": 652901,
            "province": "新疆维吾尔自治区",
            "city": "阿克苏地区",
            "district": "阿克苏市"
        }
    },
    {
        "id": "4786943892756523562",
        "title": "阿合雅镇吐曼村公共厕所",
        "address": "新疆维吾尔自治区阿克苏地区乌什县吐曼人生林果业种植农民专业合作社",
        "tel": "13899218052",
        "category": "基础设施:公共设施:公共厕所",
        "type": 0,
        "location": {
            "lat": 41.126867,
            "lng": 79.794876
        },
        "ad_info": {
            "adcode": 652927,
            "province": "新疆维吾尔自治区",
            "city": "阿克苏地区",
            "district": "乌什县"
        }
    },
    {
        "id": "11371341069608835856",
        "title": "公共厕所(BT-11S-002)",
        "address": "新疆维吾尔自治区阿克苏地区温宿县Y090与玉民段交叉口西北方向1718米左右",
        "tel": "",
        "category": "基础设施:公共设施:公共厕所",
        "type": 0,
        "location": {
            "lat": 41.360153,
            "lng": 80.859549
        },
        "ad_info": {
            "adcode": 652922,
            "province": "新疆维吾尔自治区",
            "city": "阿克苏地区",
            "district": "温宿县"
        }
    },
    {
        "id": "15950918929415149342",
        "title": "公共厕所",
        "address": "新疆维吾尔自治区阿克苏地区温宿县复兴大道与长兴街交叉口西南方向153米左右",
        "tel": "",
        "category": "基础设施:公共设施:公共厕所",
        "type": 0,
        "location": {
            "lat": 41.242689,
            "lng": 80.236126
        },
        "ad_info": {
            "adcode": 652922,
            "province": "新疆维吾尔自治区",
            "city": "阿克苏地区",
            "district": "温宿县"
        }
    },
    {
        "id": "12509716974566832980",
        "title": "库车服务区公共厕所",
        "address": "新疆维吾尔自治区阿克苏地区库车市恰其库木村七组一巷与恰其库木村四路交叉口东北方向1147米左右",
        "tel": "",
        "category": "基础设施:公共设施:公共厕所",
        "type": 0,
        "location": {
            "lat": 41.75513,
            "lng": 83.31447
        },
        "ad_info": {
            "adcode": 652902,
            "province": "新疆维吾尔自治区",
            "city": "阿克苏地区",
            "district": "库车市"
        }
    },
    {
        "id": "2309624912826998605",
        "title": "洗手间(颐养居)",
        "address": "新疆维吾尔自治区阿克苏地区沙雅县人民北路123号",
        "tel": "",
        "category": "基础设施:公共设施:公共厕所",
        "type": 0,
        "location": {
            "lat": 41.250119,
            "lng": 82.77261
        },
        "ad_info": {
            "adcode": 652924,
            "province": "新疆维吾尔自治区",
            "city": "阿克苏地区",
            "district": "沙雅县"
        }
    },
    {
        "id": "16738685119640258923",
        "title": "公共厕所",
        "address": "新疆维吾尔自治区阿克苏地区库车市团结路与独库公路交叉口正南方向530米左右",
        "tel": "",
        "category": "基础设施:公共设施:公共厕所",
        "type": 0,
        "location": {
            "lat": 42.146134,
            "lng": 83.110264
        },
        "ad_info": {
            "adcode": 652902,
            "province": "新疆维吾尔自治区",
            "city": "阿克苏地区",
            "district": "库车市"
        }
    },
    {
        "id": "7797132031316446515",
        "title": "公共厕所",
        "address": "新疆维吾尔自治区阿克苏地区阿瓦提县和谐路与团结东路交叉口正南方向190米左右",
        "tel": "",
        "category": "基础设施:公共设施:公共厕所",
        "type": 0,
        "location": {
            "lat": 40.637325,
            "lng": 80.383226
        },
        "ad_info": {
            "adcode": 652928,
            "province": "新疆维吾尔自治区",
            "city": "阿克苏地区",
            "district": "阿瓦提县"
        }
    },
    {
        "id": "4279888124476880926",
        "title": "公共厕所(XJ-AK-0393)",
        "address": "新疆维吾尔自治区阿克苏地区库车市G217(独库公路)",
        "tel": "",
        "category": "基础设施:公共设施:公共厕所",
        "type": 0,
        "location": {
            "lat": 42.076105,
            "lng": 83.043985
        },
        "ad_info": {
            "adcode": 652902,
            "province": "新疆维吾尔自治区",
            "city": "阿克苏地区",
            "district": "库车市"
        }
    },
    {
        "id": "3016426423294985409",
        "title": "公共厕所",
        "address": "新疆维吾尔自治区阿克苏地区拜城县S307与克孜尔大桥交叉口正东方向830米左右",
        "tel": "",
        "category": "基础设施:公共设施:公共厕所",
        "type": 0,
        "location": {
            "lat": 41.827768,
            "lng": 82.44441
        },
        "ad_info": {
            "adcode": 652926,
            "province": "新疆维吾尔自治区",
            "city": "阿克苏地区",
            "district": "拜城县"
        }
    },
    {
        "id": "17440220699119746006",
        "title": "公共厕所",
        "address": "新疆维吾尔自治区阿克苏地区乌什县S306与Y431交叉口正北方向239米左右",
        "tel": "",
        "category": "基础设施:公共设施:公共厕所",
        "type": 0,
        "location": {
            "lat": 41.215373,
            "lng": 79.70742
        },
        "ad_info": {
            "adcode": 652927,
            "province": "新疆维吾尔自治区",
            "city": "阿克苏地区",
            "district": "乌什县"
        }
    },
    {
        "id": "15231913330875204674",
        "title": "公共厕所",
        "address": "新疆维吾尔自治区阿克苏地区库车市御景湾西南侧230米",
        "tel": "",
        "category": "基础设施:公共设施:公共厕所",
        "type": 0,
        "location": {
            "lat": 41.707181,
            "lng": 82.981662
        },
        "ad_info": {
            "adcode": 652902,
            "province": "新疆维吾尔自治区",
            "city": "阿克苏地区",
            "district": "库车市"
        }
    },
    {
        "id": "5095387946812613451",
        "title": "公共厕所",
        "address": "新疆维吾尔自治区阿克苏地区温宿县复兴大道与红旗东街交叉口东南方向108米左右",
        "tel": "",
        "category": "基础设施:公共设施:公共厕所",
        "type": 0,
        "location": {
            "lat": 41.237222,
            "lng": 80.236649
        },
        "ad_info": {
            "adcode": 652922,
            "province": "新疆维吾尔自治区",
            "city": "阿克苏地区",
            "district": "温宿县"
        }
    },
    {
        "id": "14666970930335085661",
        "title": "公共厕所",
        "address": "新疆维吾尔自治区阿克苏地区阿克苏市中原路与教育路交叉口东北方向138米左右",
        "tel": "",
        "category": "基础设施:公共设施:公共厕所",
        "type": 0,
        "location": {
            "lat": 41.165492,
            "lng": 80.289572
        },
        "ad_info": {
            "adcode": 652901,
            "province": "新疆维吾尔自治区",
            "city": "阿克苏地区",
            "district": "阿克苏市"
        }
    },
    {
        "id": "4472466392205537272",
        "title": "公共厕所(沙雅县塔和管委会玉其库尔迪村游客服务中心)",
        "address": "新疆维吾尔自治区阿克苏地区沙雅县139胡杨秘境自驾公路东侧",
        "tel": "",
        "category": "基础设施:公共设施:公共厕所",
        "type": 0,
        "location": {
            "lat": 40.879201,
            "lng": 82.260037
        },
        "ad_info": {
            "adcode": 652924,
            "province": "新疆维吾尔自治区",
            "city": "阿克苏地区",
            "district": "沙雅县"
        }
    },
    {
        "id": "6455888658727416139",
        "title": "库勒服务区公共厕所",
        "address": "新疆维吾尔自治区阿克苏地区阿克苏市浙江路与西湖路交叉口正南方向257米左右",
        "tel": "",
        "category": "基础设施:公共设施:公共厕所",
        "type": 0,
        "location": {
            "lat": 41.084238,
            "lng": 80.195403
        },
        "ad_info": {
            "adcode": 652901,
            "province": "新疆维吾尔自治区",
            "city": "阿克苏地区",
            "district": "阿克苏市"
        }
    },
    {
        "id": "15854665432226772732",
        "title": "公共厕所",
        "address": "新疆维吾尔自治区阿克苏地区拜城县风情园小区东侧250米",
        "tel": "",
        "category": "基础设施:公共设施:公共厕所",
        "type": 0,
        "location": {
            "lat": 41.801635,
            "lng": 81.863048
        },
        "ad_info": {
            "adcode": 652926,
            "province": "新疆维吾尔自治区",
            "city": "阿克苏地区",
            "district": "拜城县"
        }
    },
    {
        "id": "7478461127657490132",
        "title": "公共厕所",
        "address": "新疆维吾尔自治区阿克苏地区库车市库车步行街901号37层",
        "tel": "",
        "category": "基础设施:公共设施:公共厕所",
        "type": 0,
        "location": {
            "lat": 41.711523,
            "lng": 82.970781
        },
        "ad_info": {
            "adcode": 652902,
            "province": "新疆维吾尔自治区",
            "city": "阿克苏地区",
            "district": "库车市"
        }
    },
    {
        "id": "17528690666809165210",
        "title": "公共厕所",
        "address": "新疆维吾尔自治区阿克苏地区阿克苏市新华路与绿苑巷交叉口西北方向157米左右",
        "tel": "",
        "category": "基础设施:公共设施:公共厕所",
        "type": 0,
        "location": {
            "lat": 41.188543,
            "lng": 80.288139
        },
        "ad_info": {
            "adcode": 652901,
            "province": "新疆维吾尔自治区",
            "city": "阿克苏地区",
            "district": "阿克苏市"
        }
    },
    {
        "id": "4421996396406564110",
        "title": "公共厕所",
        "address": "新疆维吾尔自治区阿克苏地区新和县团结路与幸福路二巷交叉口西南方向139米左右",
        "tel": "",
        "category": "基础设施:公共设施:公共厕所",
        "type": 0,
        "location": {
            "lat": 41.549301,
            "lng": 82.606031
        },
        "ad_info": {
            "adcode": 652925,
            "province": "新疆维吾尔自治区",
            "city": "阿克苏地区",
            "district": "新和县"
        }
    },
    {
        "id": "5608125683102216150",
        "title": "公共厕所",
        "address": "新疆维吾尔自治区阿克苏地区沙雅县孙氏特色农庄",
        "tel": "",
        "category": "基础设施:公共设施:公共厕所",
        "type": 0,
        "location": {
            "lat": 41.274811,
            "lng": 82.770085
        },
        "ad_info": {
            "adcode": 652924,
            "province": "新疆维吾尔自治区",
            "city": "阿克苏地区",
            "district": "沙雅县"
        }
    },
    {
        "id": "6382176381766715547",
        "title": "公共厕所",
        "address": "新疆维吾尔自治区阿克苏地区阿克苏市人民路与民主路交叉口正西方向346米左右",
        "tel": "",
        "category": "基础设施:公共设施:公共厕所",
        "type": 0,
        "location": {
            "lat": 40.908346,
            "lng": 80.278062
        },
        "ad_info": {
            "adcode": 652901,
            "province": "新疆维吾尔自治区",
            "city": "阿克苏地区",
            "district": "阿克苏市"
        }
    },
    {
        "id": "14758016719927245651",
        "title": "公共厕所",
        "address": "新疆维吾尔自治区阿克苏地区新和县建设路与改革路步行街交叉口正南方向167米左右",
        "tel": "",
        "category": "基础设施:公共设施:公共厕所",
        "type": 0,
        "location": {
            "lat": 41.546647,
            "lng": 82.604259
        },
        "ad_info": {
            "adcode": 652925,
            "province": "新疆维吾尔自治区",
            "city": "阿克苏地区",
            "district": "新和县"
        }
    },
    {
        "id": "2330858287162756263",
        "title": "公共厕所",
        "address": "新疆维吾尔自治区阿克苏地区拜城县交通路与温拜同心街交叉口西南方向90米左右",
        "tel": "",
        "category": "基础设施:公共设施:公共厕所",
        "type": 0,
        "location": {
            "lat": 41.794431,
            "lng": 81.877724
        },
        "ad_info": {
            "adcode": 652926,
            "province": "新疆维吾尔自治区",
            "city": "阿克苏地区",
            "district": "拜城县"
        }
    },
    {
        "id": "317147783368353401",
        "title": "公共厕所",
        "address": "新疆维吾尔自治区阿克苏地区阿克苏市金桥路18号",
        "tel": "",
        "category": "基础设施:公共设施:公共厕所",
        "type": 0,
        "location": {
            "lat": 41.16207,
            "lng": 80.277731
        },
        "ad_info": {
            "adcode": 652901,
            "province": "新疆维吾尔自治区",
            "city": "阿克苏地区",
            "district": "阿克苏市"
        }
    },
    {
        "id": "5973402355811610614",
        "title": "公共厕所",
        "address": "新疆维吾尔自治区阿克苏地区阿克苏市塔北路15号",
        "tel": "",
        "category": "基础设施:公共设施:公共厕所",
        "type": 0,
        "location": {
            "lat": 41.162354,
            "lng": 80.279057
        },
        "ad_info": {
            "adcode": 652901,
            "province": "新疆维吾尔自治区",
            "city": "阿克苏地区",
            "district": "阿克苏市"
        }
    },
    {
        "id": "10772318042458449402",
        "title": "公共厕所",
        "address": "新疆维吾尔自治区阿克苏地区温宿县311县道与088乡道交叉口东北280米",
        "tel": "",
        "category": "基础设施:公共设施:公共厕所",
        "type": 0,
        "location": {
            "lat": 41.257762,
            "lng": 79.925933
        },
        "ad_info": {
            "adcode": 652922,
            "province": "新疆维吾尔自治区",
            "city": "阿克苏地区",
            "district": "温宿县"
        }
    },
    {
        "id": "10306936459462319965",
        "title": "公共厕所",
        "address": "新疆维吾尔自治区阿克苏地区阿瓦提县恰其乐和乡村旅游景区游客服务中心",
        "tel": "",
        "category": "基础设施:公共设施:公共厕所",
        "type": 0,
        "location": {
            "lat": 40.893556,
            "lng": 80.164986
        },
        "ad_info": {
            "adcode": 652928,
            "province": "新疆维吾尔自治区",
            "city": "阿克苏地区",
            "district": "阿瓦提县"
        }
    },
    {
        "id": "4591900449029366414",
        "title": "公共厕所",
        "address": "新疆维吾尔自治区阿克苏地区阿瓦提县359县道与476乡道交叉口西南60米",
        "tel": "",
        "category": "基础设施:公共设施:公共厕所",
        "type": 0,
        "location": {
            "lat": 40.652454,
            "lng": 80.299176
        },
        "ad_info": {
            "adcode": 652928,
            "province": "新疆维吾尔自治区",
            "city": "阿克苏地区",
            "district": "阿瓦提县"
        }
    },
    {
        "id": "5274594096486192099",
        "title": "公共厕所",
        "address": "新疆维吾尔自治区阿克苏地区阿克苏市兴业街与锦绣路交叉口西北方向206米左右",
        "tel": "",
        "category": "基础设施:公共设施:公共厕所",
        "type": 0,
        "location": {
            "lat": 41.179792,
            "lng": 80.243928
        },
        "ad_info": {
            "adcode": 652901,
            "province": "新疆维吾尔自治区",
            "city": "阿克苏地区",
            "district": "阿克苏市"
        }
    },
    {
        "id": "5099576498833997406",
        "title": "公共厕所",
        "address": "新疆维吾尔自治区阿克苏地区柯坪县杏花村客栈东侧240米",
        "tel": "",
        "category": "基础设施:公共设施:公共厕所",
        "type": 0,
        "location": {
            "lat": 40.518944,
            "lng": 79.075924
        },
        "ad_info": {
            "adcode": 652929,
            "province": "新疆维吾尔自治区",
            "city": "阿克苏地区",
            "district": "柯坪县"
        }
    },
    {
        "id": "8332172498515799587",
        "title": "公共厕所",
        "address": "新疆维吾尔自治区阿克苏地区温宿县建设路与迎宾路交叉口东北方向153米左右",
        "tel": "",
        "category": "基础设施:公共设施:公共厕所",
        "type": 0,
        "location": {
            "lat": 40.95561,
            "lng": 80.475143
        },
        "ad_info": {
            "adcode": 652922,
            "province": "新疆维吾尔自治区",
            "city": "阿克苏地区",
            "district": "温宿县"
        }
    },
    {
        "id": "9980546599096179011",
        "title": "服务区公第一共厕所",
        "address": "新疆维吾尔自治区阿克苏地区库车市闽源燃气服务区CNG加气站西侧50米",
        "tel": "",
        "category": "基础设施:公共设施:公共厕所",
        "type": 0,
        "location": {
            "lat": 41.678943,
            "lng": 82.713344
        },
        "ad_info": {
            "adcode": 652902,
            "province": "新疆维吾尔自治区",
            "city": "阿克苏地区",
            "district": "库车市"
        }
    },
    {
        "id": "12857681034643584123",
        "title": "公共厕所(XJ-AK-0423)",
        "address": "新疆维吾尔自治区阿克苏地区沙雅县江南小镇旁",
        "tel": "",
        "category": "基础设施:公共设施:公共厕所",
        "type": 0,
        "location": {
            "lat": 41.220418,
            "lng": 82.77424
        },
        "ad_info": {
            "adcode": 652924,
            "province": "新疆维吾尔自治区",
            "city": "阿克苏地区",
            "district": "沙雅县"
        }
    },
    {
        "id": "7433949961381209017",
        "title": "公共厕所(归园田居塔村游客服务中心)",
        "address": "新疆维吾尔自治区阿克苏地区温宿县塔克拉格村归园田居塔村游客服务中心",
        "tel": "",
        "category": "基础设施:公共设施:公共厕所",
        "type": 0,
        "location": {
            "lat": 41.673741,
            "lng": 80.414447
        },
        "ad_info": {
            "adcode": 652922,
            "province": "新疆维吾尔自治区",
            "city": "阿克苏地区",
            "district": "温宿县"
        }
    },
    {
        "id": "10926838777902856538",
        "title": "公共厕所",
        "address": "新疆维吾尔自治区阿克苏地区沙雅县G217与明德路交叉口东北方向120米左右",
        "tel": "",
        "category": "基础设施:公共设施:公共厕所",
        "type": 0,
        "location": {
            "lat": 40.909453,
            "lng": 82.184126
        },
        "ad_info": {
            "adcode": 652924,
            "province": "新疆维吾尔自治区",
            "city": "阿克苏地区",
            "district": "沙雅县"
        }
    },
    {
        "id": "16329712043170390226",
        "title": "公共厕所",
        "address": "新疆维吾尔自治区阿克苏地区阿瓦提县团结南路与建设南路交叉口正东方向145米左右",
        "tel": "",
        "category": "基础设施:公共设施:公共厕所",
        "type": 0,
        "location": {
            "lat": 40.636333,
            "lng": 80.376407
        },
        "ad_info": {
            "adcode": 652928,
            "province": "新疆维吾尔自治区",
            "city": "阿克苏地区",
            "district": "阿瓦提县"
        }
    },
    {
        "id": "14910852182011739933",
        "title": "旅游公共厕所",
        "address": "新疆维吾尔自治区阿克苏地区温宿县托乎拉街与龙泉北路交叉口正西方向221米左右",
        "tel": "",
        "category": "基础设施:公共设施:公共厕所",
        "type": 0,
        "location": {
            "lat": 41.266606,
            "lng": 80.249931
        },
        "ad_info": {
            "adcode": 652922,
            "province": "新疆维吾尔自治区",
            "city": "阿克苏地区",
            "district": "温宿县"
        }
    },
    {
        "id": "7758397898026072238",
        "title": "公共厕所(天山托木尔景区游客服务中心西南角)",
        "address": "新疆维吾尔自治区阿克苏地区温宿县天山托木尔景区南侧100米",
        "tel": "",
        "category": "基础设施:公共设施:公共厕所",
        "type": 0,
        "location": {
            "lat": 41.419568,
            "lng": 80.682705
        },
        "ad_info": {
            "adcode": 652922,
            "province": "新疆维吾尔自治区",
            "city": "阿克苏地区",
            "district": "温宿县"
        }
    },
    {
        "id": "5717729448792596185",
        "title": "公共厕所",
        "address": "新疆维吾尔自治区阿克苏地区阿克苏市中石化加油站里",
        "tel": "",
        "category": "基础设施:公共设施:公共厕所",
        "type": 0,
        "location": {
            "lat": 41.177988,
            "lng": 80.269488
        },
        "ad_info": {
            "adcode": 652901,
            "province": "新疆维吾尔自治区",
            "city": "阿克苏地区",
            "district": "阿克苏市"
        }
    },
    {
        "id": "11289589234398795074",
        "title": "公共厕所",
        "address": "新疆维吾尔自治区阿克苏地区沙雅县人民南路42号",
        "tel": "",
        "category": "基础设施:公共设施:公共厕所",
        "type": 0,
        "location": {
            "lat": 41.216317,
            "lng": 82.783657
        },
        "ad_info": {
            "adcode": 652924,
            "province": "新疆维吾尔自治区",
            "city": "阿克苏地区",
            "district": "沙雅县"
        }
    },
    {
        "id": "6011032450851028356",
        "title": "公共厕所",
        "address": "新疆维吾尔自治区阿克苏地区阿克苏市柯柯牙路柯柯牙生态园华东农庄",
        "tel": "",
        "category": "基础设施:公共设施:公共厕所",
        "type": 0,
        "location": {
            "lat": 41.211477,
            "lng": 80.27225
        },
        "ad_info": {
            "adcode": 652901,
            "province": "新疆维吾尔自治区",
            "city": "阿克苏地区",
            "district": "阿克苏市"
        }
    },
    {
        "id": "147073038868389779",
        "title": "塔村平台子公共厕所",
        "address": "新疆维吾尔自治区阿克苏地区温宿县塔村侏罗纪公园东侧210米",
        "tel": "",
        "category": "基础设施:公共设施:公共厕所",
        "type": 0,
        "location": {
            "lat": 41.736656,
            "lng": 80.38568
        },
        "ad_info": {
            "adcode": 652922,
            "province": "新疆维吾尔自治区",
            "city": "阿克苏地区",
            "district": "温宿县"
        }
    },
    {
        "id": "7477178229192124491",
        "title": "公共厕所(温宿县托峰营地2号)",
        "address": "新疆维吾尔自治区阿克苏地区温宿县柯柯牙镇塔格拉克村云上乐园",
        "tel": "",
        "category": "基础设施:公共设施:公共厕所",
        "type": 0,
        "location": {
            "lat": 41.71898,
            "lng": 80.350558
        },
        "ad_info": {
            "adcode": 652922,
            "province": "新疆维吾尔自治区",
            "city": "阿克苏地区",
            "district": "温宿县"
        }
    },
    {
        "id": "8441481726777494027",
        "title": "库车服务区第二公共厕所",
        "address": "新疆维吾尔自治区阿克苏地区库车市恰其库木村七组一巷与恰其库木村四路交叉口东北方向1177米左右",
        "tel": "",
        "category": "基础设施:公共设施:公共厕所",
        "type": 0,
        "location": {
            "lat": 41.753381,
            "lng": 83.316355
        },
        "ad_info": {
            "adcode": 652902,
            "province": "新疆维吾尔自治区",
            "city": "阿克苏地区",
            "district": "库车市"
        }
    },
    {
        "id": "13026641344409255617",
        "title": "服务区公共厕所",
        "address": "新疆维吾尔自治区阿克苏地区库车市G3012吐和高速与服务区交叉口西220米",
        "tel": "",
        "category": "基础设施:公共设施:公共厕所",
        "type": 0,
        "location": {
            "lat": 41.782029,
            "lng": 83.502795
        },
        "ad_info": {
            "adcode": 652902,
            "province": "新疆维吾尔自治区",
            "city": "阿克苏地区",
            "district": "库车市"
        }
    },
    {
        "id": "11004368342533425616",
        "title": "公共厕所",
        "address": "新疆维吾尔自治区阿克苏地区阿克苏市G580与河南西路交叉口东北方向219米左右",
        "tel": "",
        "category": "基础设施:公共设施:公共厕所",
        "type": 0,
        "location": {
            "lat": 41.11718,
            "lng": 80.220985
        },
        "ad_info": {
            "adcode": 652901,
            "province": "新疆维吾尔自治区",
            "city": "阿克苏地区",
            "district": "阿克苏市"
        }
    },
    {
        "id": "9828768408773633128",
        "title": "公共厕所",
        "address": "新疆维吾尔自治区阿克苏地区阿克苏市南昌路与锦绣路交叉口西北方向144米左右",
        "tel": "",
        "category": "基础设施:公共设施:公共厕所",
        "type": 0,
        "location": {
            "lat": 41.174344,
            "lng": 80.247817
        },
        "ad_info": {
            "adcode": 652901,
            "province": "新疆维吾尔自治区",
            "city": "阿克苏地区",
            "district": "阿克苏市"
        }
    },
    {
        "id": "14998770336745646040",
        "title": "公共厕所",
        "address": "新疆维吾尔自治区阿克苏地区阿克苏市健康路39号",
        "tel": "",
        "category": "基础设施:公共设施:公共厕所",
        "type": 0,
        "location": {
            "lat": 41.158706,
            "lng": 80.275714
        },
        "ad_info": {
            "adcode": 652901,
            "province": "新疆维吾尔自治区",
            "city": "阿克苏地区",
            "district": "阿克苏市"
        }
    },
    {
        "id": "8877205039479833779",
        "title": "公共厕所",
        "address": "新疆维吾尔自治区阿克苏地区库车市甬泰畜牧有限公司西南侧220米",
        "tel": "",
        "category": "基础设施:公共设施:公共厕所",
        "type": 0,
        "location": {
            "lat": 41.711713,
            "lng": 83.07655
        },
        "ad_info": {
            "adcode": 652902,
            "province": "新疆维吾尔自治区",
            "city": "阿克苏地区",
            "district": "库车市"
        }
    },
    {
        "id": "16234745473434076432",
        "title": "公共厕所",
        "address": "新疆维吾尔自治区阿克苏地区拜城县商场北街与胜利路交叉口东南方向86米左右",
        "tel": "",
        "category": "基础设施:公共设施:公共厕所",
        "type": 0,
        "location": {
            "lat": 41.799942,
            "lng": 81.875466
        },
        "ad_info": {
            "adcode": 652926,
            "province": "新疆维吾尔自治区",
            "city": "阿克苏地区",
            "district": "拜城县"
        }
    },
    {
        "id": "15204464225345242283",
        "title": "公共厕所",
        "address": "新疆维吾尔自治区阿克苏地区拜城县S307与Y350交叉口正西方向156米左右",
        "tel": "",
        "category": "基础设施:公共设施:公共厕所",
        "type": 0,
        "location": {
            "lat": 41.795938,
            "lng": 82.205517
        },
        "ad_info": {
            "adcode": 652926,
            "province": "新疆维吾尔自治区",
            "city": "阿克苏地区",
            "district": "拜城县"
        }
    },
    {
        "id": "10942973887283913037",
        "title": "公共厕所",
        "address": "新疆维吾尔自治区阿克苏地区阿克苏市交通东路与塔南路交叉口正北方向273米左右",
        "tel": "",
        "category": "基础设施:公共设施:公共厕所",
        "type": 0,
        "location": {
            "lat": 41.143743,
            "lng": 80.289819
        },
        "ad_info": {
            "adcode": 652901,
            "province": "新疆维吾尔自治区",
            "city": "阿克苏地区",
            "district": "阿克苏市"
        }
    },
    {
        "id": "6503778757248794075",
        "title": "公共厕所(沙雅县塔和管委会玉其库尔迪村游客服务中心)",
        "address": "新疆维吾尔自治区阿克苏地区沙雅县塔和管委会玉其库尔迪村游客服务中心",
        "tel": "",
        "category": "基础设施:公共设施:公共厕所",
        "type": 0,
        "location": {
            "lat": 40.879029,
            "lng": 82.26044
        },
        "ad_info": {
            "adcode": 652924,
            "province": "新疆维吾尔自治区",
            "city": "阿克苏地区",
            "district": "沙雅县"
        }
    },
    {
        "id": "6831511377955057989",
        "title": "公共厕所",
        "address": "新疆维吾尔自治区阿克苏地区阿瓦提县恰其村卫生室西南侧80米",
        "tel": "",
        "category": "基础设施:公共设施:公共厕所",
        "type": 0,
        "location": {
            "lat": 40.882578,
            "lng": 80.164286
        },
        "ad_info": {
            "adcode": 652928,
            "province": "新疆维吾尔自治区",
            "city": "阿克苏地区",
            "district": "阿瓦提县"
        }
    },
    {
        "id": "4479652258802519852",
        "title": "羊塔克库都克服务区第一公共厕所",
        "address": "新疆维吾尔自治区阿克苏地区新和县吐和高速羊塔克库都克服务区",
        "tel": "",
        "category": "基础设施:公共设施:公共厕所",
        "type": 0,
        "location": {
            "lat": 41.401039,
            "lng": 81.53549
        },
        "ad_info": {
            "adcode": 652925,
            "province": "新疆维吾尔自治区",
            "city": "阿克苏地区",
            "district": "新和县"
        }
    },
    {
        "id": "13055330537477760901",
        "title": "公共厕所",
        "address": "新疆维吾尔自治区阿克苏地区库车市文化东路180号",
        "tel": "",
        "category": "基础设施:公共设施:公共厕所",
        "type": 0,
        "location": {
            "lat": 41.717126,
            "lng": 82.997645
        },
        "ad_info": {
            "adcode": 652902,
            "province": "新疆维吾尔自治区",
            "city": "阿克苏地区",
            "district": "库车市"
        }
    },
    {
        "id": "8561877953634992780",
        "title": "公共厕所",
        "address": "新疆维吾尔自治区阿克苏地区新和县幸福南路步行街与幸福路二巷交叉口正南方向61米左右",
        "tel": "",
        "category": "基础设施:公共设施:公共厕所",
        "type": 0,
        "location": {
            "lat": 41.549248,
            "lng": 82.610509
        },
        "ad_info": {
            "adcode": 652925,
            "province": "新疆维吾尔自治区",
            "city": "阿克苏地区",
            "district": "新和县"
        }
    },
    {
        "id": "12488716021115771906",
        "title": "公共厕所",
        "address": "新疆维吾尔自治区阿克苏地区阿克苏市玉溪巷与稻香北路交叉口正西方向284米左右",
        "tel": "",
        "category": "基础设施:公共设施:公共厕所",
        "type": 0,
        "location": {
            "lat": 41.210726,
            "lng": 80.228816
        },
        "ad_info": {
            "adcode": 652901,
            "province": "新疆维吾尔自治区",
            "city": "阿克苏地区",
            "district": "阿克苏市"
        }
    },
    {
        "id": "14866497290804386565",
        "title": "公共厕所(香港街夜市)",
        "address": "新疆维吾尔自治区阿克苏地区沙雅县人民北路6号",
        "tel": "",
        "category": "基础设施:公共设施:公共厕所",
        "type": 0,
        "location": {
            "lat": 41.225942,
            "lng": 82.777883
        },
        "ad_info": {
            "adcode": 652924,
            "province": "新疆维吾尔自治区",
            "city": "阿克苏地区",
            "district": "沙雅县"
        }
    },
    {
        "id": "10840662268185479980",
        "title": "天山神秘大峡谷公共厕所",
        "address": "新疆维吾尔自治区阿克苏地区库车市天山神秘大峡谷接待部东侧70米",
        "tel": "",
        "category": "基础设施:公共设施:公共厕所",
        "type": 0,
        "location": {
            "lat": 42.109745,
            "lng": 83.059995
        },
        "ad_info": {
            "adcode": 652902,
            "province": "新疆维吾尔自治区",
            "city": "阿克苏地区",
            "district": "库车市"
        }
    },
    {
        "id": "11325833104939640608",
        "title": "公共厕所",
        "address": "新疆维吾尔自治区阿克苏地区阿克苏市杭州大道阿克苏市第七小校左边",
        "tel": "",
        "category": "基础设施:公共设施:公共厕所",
        "type": 0,
        "location": {
            "lat": 41.158101,
            "lng": 80.248304
        },
        "ad_info": {
            "adcode": 652901,
            "province": "新疆维吾尔自治区",
            "city": "阿克苏地区",
            "district": "阿克苏市"
        }
    },
    {
        "id": "14566038315650425543",
        "title": "公共厕所",
        "address": "新疆维吾尔自治区阿克苏地区阿克苏市五一路与友谊北路交叉口正北方向205米左右",
        "tel": "",
        "category": "基础设施:公共设施:公共厕所",
        "type": 0,
        "location": {
            "lat": 41.171909,
            "lng": 80.243879
        },
        "ad_info": {
            "adcode": 652901,
            "province": "新疆维吾尔自治区",
            "city": "阿克苏地区",
            "district": "阿克苏市"
        }
    },
    {
        "id": "1728437242695119089",
        "title": "公共厕所",
        "address": "新疆维吾尔自治区阿克苏地区阿克苏市交通西路与河南西路交叉口正南方向122米左右",
        "tel": "",
        "category": "基础设施:公共设施:公共厕所",
        "type": 0,
        "location": {
            "lat": 41.125281,
            "lng": 80.226347
        },
        "ad_info": {
            "adcode": 652901,
            "province": "新疆维吾尔自治区",
            "city": "阿克苏地区",
            "district": "阿克苏市"
        }
    },
    {
        "id": "1964272021711609011",
        "title": "公共厕所",
        "address": "新疆维吾尔自治区阿克苏地区乌什县光明南路与林基路东街交叉口正东方向215米左右",
        "tel": "",
        "category": "基础设施:公共设施:公共厕所",
        "type": 0,
        "location": {
            "lat": 41.219884,
            "lng": 79.255479
        },
        "ad_info": {
            "adcode": 652927,
            "province": "新疆维吾尔自治区",
            "city": "阿克苏地区",
            "district": "乌什县"
        }
    },
    {
        "id": "4730110673396329360",
        "title": "公共厕所",
        "address": "新疆维吾尔自治区阿克苏地区阿克苏市月亮泊温泉景区内",
        "tel": "",
        "category": "基础设施:公共设施:公共厕所",
        "type": 0,
        "location": {
            "lat": 40.936864,
            "lng": 79.977606
        },
        "ad_info": {
            "adcode": 652901,
            "province": "新疆维吾尔自治区",
            "city": "阿克苏地区",
            "district": "阿克苏市"
        }
    },
    {
        "id": "8902770793618590563",
        "title": "公共厕所",
        "address": "新疆维吾尔自治区阿克苏地区柯坪县团结大道与民主路交叉口正南方向121米左右",
        "tel": "",
        "category": "基础设施:公共设施:公共厕所",
        "type": 0,
        "location": {
            "lat": 40.501648,
            "lng": 79.049876
        },
        "ad_info": {
            "adcode": 652929,
            "province": "新疆维吾尔自治区",
            "city": "阿克苏地区",
            "district": "柯坪县"
        }
    },
    {
        "id": "139718659438681578",
        "title": "公共厕所",
        "address": "新疆维吾尔自治区阿克苏地区阿克苏市北京路与外环路交叉口正南方向97米左右",
        "tel": "",
        "category": "基础设施:公共设施:公共厕所",
        "type": 0,
        "location": {
            "lat": 40.792486,
            "lng": 80.493513
        },
        "ad_info": {
            "adcode": 652901,
            "province": "新疆维吾尔自治区",
            "city": "阿克苏地区",
            "district": "阿克苏市"
        }
    },
    {
        "id": "17194499189164373316",
        "title": "公共厕所",
        "address": "新疆维吾尔自治区阿克苏地区阿克苏市交通东路与塔南路交叉口正南方向654米左右",
        "tel": "",
        "category": "基础设施:公共设施:公共厕所",
        "type": 0,
        "location": {
            "lat": 41.135489,
            "lng": 80.290998
        },
        "ad_info": {
            "adcode": 652901,
            "province": "新疆维吾尔自治区",
            "city": "阿克苏地区",
            "district": "阿克苏市"
        }
    },
    {
        "id": "8877205039479833779",
        "title": "公共厕所",
        "address": "新疆维吾尔自治区阿克苏地区库车市甬泰畜牧有限公司西南侧220米",
        "tel": "",
        "category": "基础设施:公共设施:公共厕所",
        "type": 0,
        "location": {
            "lat": 41.711713,
            "lng": 83.07655
        },
        "ad_info": {
            "adcode": 652902,
            "province": "新疆维吾尔自治区",
            "city": "阿克苏地区",
            "district": "库车市"
        }
    },
    {
        "id": "16234745473434076432",
        "title": "公共厕所",
        "address": "新疆维吾尔自治区阿克苏地区拜城县商场北街与胜利路交叉口东南方向86米左右",
        "tel": "",
        "category": "基础设施:公共设施:公共厕所",
        "type": 0,
        "location": {
            "lat": 41.799942,
            "lng": 81.875466
        },
        "ad_info": {
            "adcode": 652926,
            "province": "新疆维吾尔自治区",
            "city": "阿克苏地区",
            "district": "拜城县"
        }
    },
    {
        "id": "15204464225345242283",
        "title": "公共厕所",
        "address": "新疆维吾尔自治区阿克苏地区拜城县S307与Y350交叉口正西方向156米左右",
        "tel": "",
        "category": "基础设施:公共设施:公共厕所",
        "type": 0,
        "location": {
            "lat": 41.795938,
            "lng": 82.205517
        },
        "ad_info": {
            "adcode": 652926,
            "province": "新疆维吾尔自治区",
            "city": "阿克苏地区",
            "district": "拜城县"
        }
    },
    {
        "id": "10942973887283913037",
        "title": "公共厕所",
        "address": "新疆维吾尔自治区阿克苏地区阿克苏市交通东路与塔南路交叉口正北方向273米左右",
        "tel": "",
        "category": "基础设施:公共设施:公共厕所",
        "type": 0,
        "location": {
            "lat": 41.143743,
            "lng": 80.289819
        },
        "ad_info": {
            "adcode": 652901,
            "province": "新疆维吾尔自治区",
            "city": "阿克苏地区",
            "district": "阿克苏市"
        }
    },
    {
        "id": "6503778757248794075",
        "title": "公共厕所(沙雅县塔和管委会玉其库尔迪村游客服务中心)",
        "address": "新疆维吾尔自治区阿克苏地区沙雅县塔和管委会玉其库尔迪村游客服务中心",
        "tel": "",
        "category": "基础设施:公共设施:公共厕所",
        "type": 0,
        "location": {
            "lat": 40.879029,
            "lng": 82.26044
        },
        "ad_info": {
            "adcode": 652924,
            "province": "新疆维吾尔自治区",
            "city": "阿克苏地区",
            "district": "沙雅县"
        }
    },
    {
        "id": "6831511377955057989",
        "title": "公共厕所",
        "address": "新疆维吾尔自治区阿克苏地区阿瓦提县恰其村卫生室西南侧80米",
        "tel": "",
        "category": "基础设施:公共设施:公共厕所",
        "type": 0,
        "location": {
            "lat": 40.882578,
            "lng": 80.164286
        },
        "ad_info": {
            "adcode": 652928,
            "province": "新疆维吾尔自治区",
            "city": "阿克苏地区",
            "district": "阿瓦提县"
        }
    },
    {
        "id": "4479652258802519852",
        "title": "羊塔克库都克服务区第一公共厕所",
        "address": "新疆维吾尔自治区阿克苏地区新和县吐和高速羊塔克库都克服务区",
        "tel": "",
        "category": "基础设施:公共设施:公共厕所",
        "type": 0,
        "location": {
            "lat": 41.401039,
            "lng": 81.53549
        },
        "ad_info": {
            "adcode": 652925,
            "province": "新疆维吾尔自治区",
            "city": "阿克苏地区",
            "district": "新和县"
        }
    },
    {
        "id": "13055330537477760901",
        "title": "公共厕所",
        "address": "新疆维吾尔自治区阿克苏地区库车市文化东路180号",
        "tel": "",
        "category": "基础设施:公共设施:公共厕所",
        "type": 0,
        "location": {
            "lat": 41.717126,
            "lng": 82.997645
        },
        "ad_info": {
            "adcode": 652902,
            "province": "新疆维吾尔自治区",
            "city": "阿克苏地区",
            "district": "库车市"
        }
    },
    {
        "id": "8561877953634992780",
        "title": "公共厕所",
        "address": "新疆维吾尔自治区阿克苏地区新和县幸福南路步行街与幸福路二巷交叉口正南方向61米左右",
        "tel": "",
        "category": "基础设施:公共设施:公共厕所",
        "type": 0,
        "location": {
            "lat": 41.549248,
            "lng": 82.610509
        },
        "ad_info": {
            "adcode": 652925,
            "province": "新疆维吾尔自治区",
            "city": "阿克苏地区",
            "district": "新和县"
        }
    },
    {
        "id": "12488716021115771906",
        "title": "公共厕所",
        "address": "新疆维吾尔自治区阿克苏地区阿克苏市玉溪巷与稻香北路交叉口正西方向284米左右",
        "tel": "",
        "category": "基础设施:公共设施:公共厕所",
        "type": 0,
        "location": {
            "lat": 41.210726,
            "lng": 80.228816
        },
        "ad_info": {
            "adcode": 652901,
            "province": "新疆维吾尔自治区",
            "city": "阿克苏地区",
            "district": "阿克苏市"
        }
    },
    {
        "id": "14866497290804386565",
        "title": "公共厕所(香港街夜市)",
        "address": "新疆维吾尔自治区阿克苏地区沙雅县人民北路6号",
        "tel": "",
        "category": "基础设施:公共设施:公共厕所",
        "type": 0,
        "location": {
            "lat": 41.225942,
            "lng": 82.777883
        },
        "ad_info": {
            "adcode": 652924,
            "province": "新疆维吾尔自治区",
            "city": "阿克苏地区",
            "district": "沙雅县"
        }
    },
    {
        "id": "10840662268185479980",
        "title": "天山神秘大峡谷公共厕所",
        "address": "新疆维吾尔自治区阿克苏地区库车市天山神秘大峡谷接待部东侧70米",
        "tel": "",
        "category": "基础设施:公共设施:公共厕所",
        "type": 0,
        "location": {
            "lat": 42.109745,
            "lng": 83.059995
        },
        "ad_info": {
            "adcode": 652902,
            "province": "新疆维吾尔自治区",
            "city": "阿克苏地区",
            "district": "库车市"
        }
    },
    {
        "id": "11325833104939640608",
        "title": "公共厕所",
        "address": "新疆维吾尔自治区阿克苏地区阿克苏市杭州大道阿克苏市第七小校左边",
        "tel": "",
        "category": "基础设施:公共设施:公共厕所",
        "type": 0,
        "location": {
            "lat": 41.158101,
            "lng": 80.248304
        },
        "ad_info": {
            "adcode": 652901,
            "province": "新疆维吾尔自治区",
            "city": "阿克苏地区",
            "district": "阿克苏市"
        }
    },
    {
        "id": "14566038315650425543",
        "title": "公共厕所",
        "address": "新疆维吾尔自治区阿克苏地区阿克苏市五一路与友谊北路交叉口正北方向205米左右",
        "tel": "",
        "category": "基础设施:公共设施:公共厕所",
        "type": 0,
        "location": {
            "lat": 41.171909,
            "lng": 80.243879
        },
        "ad_info": {
            "adcode": 652901,
            "province": "新疆维吾尔自治区",
            "city": "阿克苏地区",
            "district": "阿克苏市"
        }
    },
    {
        "id": "1728437242695119089",
        "title": "公共厕所",
        "address": "新疆维吾尔自治区阿克苏地区阿克苏市交通西路与河南西路交叉口正南方向122米左右",
        "tel": "",
        "category": "基础设施:公共设施:公共厕所",
        "type": 0,
        "location": {
            "lat": 41.125281,
            "lng": 80.226347
        },
        "ad_info": {
            "adcode": 652901,
            "province": "新疆维吾尔自治区",
            "city": "阿克苏地区",
            "district": "阿克苏市"
        }
    },
    {
        "id": "1964272021711609011",
        "title": "公共厕所",
        "address": "新疆维吾尔自治区阿克苏地区乌什县光明南路与林基路东街交叉口正东方向215米左右",
        "tel": "",
        "category": "基础设施:公共设施:公共厕所",
        "type": 0,
        "location": {
            "lat": 41.219884,
            "lng": 79.255479
        },
        "ad_info": {
            "adcode": 652927,
            "province": "新疆维吾尔自治区",
            "city": "阿克苏地区",
            "district": "乌什县"
        }
    },
    {
        "id": "4730110673396329360",
        "title": "公共厕所",
        "address": "新疆维吾尔自治区阿克苏地区阿克苏市月亮泊温泉景区内",
        "tel": "",
        "category": "基础设施:公共设施:公共厕所",
        "type": 0,
        "location": {
            "lat": 40.936864,
            "lng": 79.977606
        },
        "ad_info": {
            "adcode": 652901,
            "province": "新疆维吾尔自治区",
            "city": "阿克苏地区",
            "district": "阿克苏市"
        }
    },
    {
        "id": "8902770793618590563",
        "title": "公共厕所",
        "address": "新疆维吾尔自治区阿克苏地区柯坪县团结大道与民主路交叉口正南方向121米左右",
        "tel": "",
        "category": "基础设施:公共设施:公共厕所",
        "type": 0,
        "location": {
            "lat": 40.501648,
            "lng": 79.049876
        },
        "ad_info": {
            "adcode": 652929,
            "province": "新疆维吾尔自治区",
            "city": "阿克苏地区",
            "district": "柯坪县"
        }
    },
    {
        "id": "139718659438681578",
        "title": "公共厕所",
        "address": "新疆维吾尔自治区阿克苏地区阿克苏市北京路与外环路交叉口正南方向97米左右",
        "tel": "",
        "category": "基础设施:公共设施:公共厕所",
        "type": 0,
        "location": {
            "lat": 40.792486,
            "lng": 80.493513
        },
        "ad_info": {
            "adcode": 652901,
            "province": "新疆维吾尔自治区",
            "city": "阿克苏地区",
            "district": "阿克苏市"
        }
    },
    {
        "id": "17194499189164373316",
        "title": "公共厕所",
        "address": "新疆维吾尔自治区阿克苏地区阿克苏市交通东路与塔南路交叉口正南方向654米左右",
        "tel": "",
        "category": "基础设施:公共设施:公共厕所",
        "type": 0,
        "location": {
            "lat": 41.135489,
            "lng": 80.290998
        },
        "ad_info": {
            "adcode": 652901,
            "province": "新疆维吾尔自治区",
            "city": "阿克苏地区",
            "district": "阿克苏市"
        }
    },
    {
        "id": "8877205039479833779",
        "title": "公共厕所",
        "address": "新疆维吾尔自治区阿克苏地区库车市甬泰畜牧有限公司西南侧220米",
        "tel": "",
        "category": "基础设施:公共设施:公共厕所",
        "type": 0,
        "location": {
            "lat": 41.711713,
            "lng": 83.07655
        },
        "ad_info": {
            "adcode": 652902,
            "province": "新疆维吾尔自治区",
            "city": "阿克苏地区",
            "district": "库车市"
        }
    },
    {
        "id": "16234745473434076432",
        "title": "公共厕所",
        "address": "新疆维吾尔自治区阿克苏地区拜城县商场北街与胜利路交叉口东南方向86米左右",
        "tel": "",
        "category": "基础设施:公共设施:公共厕所",
        "type": 0,
        "location": {
            "lat": 41.799942,
            "lng": 81.875466
        },
        "ad_info": {
            "adcode": 652926,
            "province": "新疆维吾尔自治区",
            "city": "阿克苏地区",
            "district": "拜城县"
        }
    },
    {
        "id": "15204464225345242283",
        "title": "公共厕所",
        "address": "新疆维吾尔自治区阿克苏地区拜城县S307与Y350交叉口正西方向156米左右",
        "tel": "",
        "category": "基础设施:公共设施:公共厕所",
        "type": 0,
        "location": {
            "lat": 41.795938,
            "lng": 82.205517
        },
        "ad_info": {
            "adcode": 652926,
            "province": "新疆维吾尔自治区",
            "city": "阿克苏地区",
            "district": "拜城县"
        }
    },
    {
        "id": "10942973887283913037",
        "title": "公共厕所",
        "address": "新疆维吾尔自治区阿克苏地区阿克苏市交通东路与塔南路交叉口正北方向273米左右",
        "tel": "",
        "category": "基础设施:公共设施:公共厕所",
        "type": 0,
        "location": {
            "lat": 41.143743,
            "lng": 80.289819
        },
        "ad_info": {
            "adcode": 652901,
            "province": "新疆维吾尔自治区",
            "city": "阿克苏地区",
            "district": "阿克苏市"
        }
    },
    {
        "id": "6503778757248794075",
        "title": "公共厕所(沙雅县塔和管委会玉其库尔迪村游客服务中心)",
        "address": "新疆维吾尔自治区阿克苏地区沙雅县塔和管委会玉其库尔迪村游客服务中心",
        "tel": "",
        "category": "基础设施:公共设施:公共厕所",
        "type": 0,
        "location": {
            "lat": 40.879029,
            "lng": 82.26044
        },
        "ad_info": {
            "adcode": 652924,
            "province": "新疆维吾尔自治区",
            "city": "阿克苏地区",
            "district": "沙雅县"
        }
    },
    {
        "id": "6831511377955057989",
        "title": "公共厕所",
        "address": "新疆维吾尔自治区阿克苏地区阿瓦提县恰其村卫生室西南侧80米",
        "tel": "",
        "category": "基础设施:公共设施:公共厕所",
        "type": 0,
        "location": {
            "lat": 40.882578,
            "lng": 80.164286
        },
        "ad_info": {
            "adcode": 652928,
            "province": "新疆维吾尔自治区",
            "city": "阿克苏地区",
            "district": "阿瓦提县"
        }
    },
    {
        "id": "4479652258802519852",
        "title": "羊塔克库都克服务区第一公共厕所",
        "address": "新疆维吾尔自治区阿克苏地区新和县吐和高速羊塔克库都克服务区",
        "tel": "",
        "category": "基础设施:公共设施:公共厕所",
        "type": 0,
        "location": {
            "lat": 41.401039,
            "lng": 81.53549
        },
        "ad_info": {
            "adcode": 652925,
            "province": "新疆维吾尔自治区",
            "city": "阿克苏地区",
            "district": "新和县"
        }
    },
    {
        "id": "13055330537477760901",
        "title": "公共厕所",
        "address": "新疆维吾尔自治区阿克苏地区库车市文化东路180号",
        "tel": "",
        "category": "基础设施:公共设施:公共厕所",
        "type": 0,
        "location": {
            "lat": 41.717126,
            "lng": 82.997645
        },
        "ad_info": {
            "adcode": 652902,
            "province": "新疆维吾尔自治区",
            "city": "阿克苏地区",
            "district": "库车市"
        }
    },
    {
        "id": "8561877953634992780",
        "title": "公共厕所",
        "address": "新疆维吾尔自治区阿克苏地区新和县幸福南路步行街与幸福路二巷交叉口正南方向61米左右",
        "tel": "",
        "category": "基础设施:公共设施:公共厕所",
        "type": 0,
        "location": {
            "lat": 41.549248,
            "lng": 82.610509
        },
        "ad_info": {
            "adcode": 652925,
            "province": "新疆维吾尔自治区",
            "city": "阿克苏地区",
            "district": "新和县"
        }
    },
    {
        "id": "12488716021115771906",
        "title": "公共厕所",
        "address": "新疆维吾尔自治区阿克苏地区阿克苏市玉溪巷与稻香北路交叉口正西方向284米左右",
        "tel": "",
        "category": "基础设施:公共设施:公共厕所",
        "type": 0,
        "location": {
            "lat": 41.210726,
            "lng": 80.228816
        },
        "ad_info": {
            "adcode": 652901,
            "province": "新疆维吾尔自治区",
            "city": "阿克苏地区",
            "district": "阿克苏市"
        }
    },
    {
        "id": "14866497290804386565",
        "title": "公共厕所(香港街夜市)",
        "address": "新疆维吾尔自治区阿克苏地区沙雅县人民北路6号",
        "tel": "",
        "category": "基础设施:公共设施:公共厕所",
        "type": 0,
        "location": {
            "lat": 41.225942,
            "lng": 82.777883
        },
        "ad_info": {
            "adcode": 652924,
            "province": "新疆维吾尔自治区",
            "city": "阿克苏地区",
            "district": "沙雅县"
        }
    },
    {
        "id": "10840662268185479980",
        "title": "天山神秘大峡谷公共厕所",
        "address": "新疆维吾尔自治区阿克苏地区库车市天山神秘大峡谷接待部东侧70米",
        "tel": "",
        "category": "基础设施:公共设施:公共厕所",
        "type": 0,
        "location": {
            "lat": 42.109745,
            "lng": 83.059995
        },
        "ad_info": {
            "adcode": 652902,
            "province": "新疆维吾尔自治区",
            "city": "阿克苏地区",
            "district": "库车市"
        }
    },
    {
        "id": "11325833104939640608",
        "title": "公共厕所",
        "address": "新疆维吾尔自治区阿克苏地区阿克苏市杭州大道阿克苏市第七小校左边",
        "tel": "",
        "category": "基础设施:公共设施:公共厕所",
        "type": 0,
        "location": {
            "lat": 41.158101,
            "lng": 80.248304
        },
        "ad_info": {
            "adcode": 652901,
            "province": "新疆维吾尔自治区",
            "city": "阿克苏地区",
            "district": "阿克苏市"
        }
    },
    {
        "id": "14566038315650425543",
        "title": "公共厕所",
        "address": "新疆维吾尔自治区阿克苏地区阿克苏市五一路与友谊北路交叉口正北方向205米左右",
        "tel": "",
        "category": "基础设施:公共设施:公共厕所",
        "type": 0,
        "location": {
            "lat": 41.171909,
            "lng": 80.243879
        },
        "ad_info": {
            "adcode": 652901,
            "province": "新疆维吾尔自治区",
            "city": "阿克苏地区",
            "district": "阿克苏市"
        }
    },
    {
        "id": "1728437242695119089",
        "title": "公共厕所",
        "address": "新疆维吾尔自治区阿克苏地区阿克苏市交通西路与河南西路交叉口正南方向122米左右",
        "tel": "",
        "category": "基础设施:公共设施:公共厕所",
        "type": 0,
        "location": {
            "lat": 41.125281,
            "lng": 80.226347
        },
        "ad_info": {
            "adcode": 652901,
            "province": "新疆维吾尔自治区",
            "city": "阿克苏地区",
            "district": "阿克苏市"
        }
    },
    {
        "id": "1964272021711609011",
        "title": "公共厕所",
        "address": "新疆维吾尔自治区阿克苏地区乌什县光明南路与林基路东街交叉口正东方向215米左右",
        "tel": "",
        "category": "基础设施:公共设施:公共厕所",
        "type": 0,
        "location": {
            "lat": 41.219884,
            "lng": 79.255479
        },
        "ad_info": {
            "adcode": 652927,
            "province": "新疆维吾尔自治区",
            "city": "阿克苏地区",
            "district": "乌什县"
        }
    },
    {
        "id": "4730110673396329360",
        "title": "公共厕所",
        "address": "新疆维吾尔自治区阿克苏地区阿克苏市月亮泊温泉景区内",
        "tel": "",
        "category": "基础设施:公共设施:公共厕所",
        "type": 0,
        "location": {
            "lat": 40.936864,
            "lng": 79.977606
        },
        "ad_info": {
            "adcode": 652901,
            "province": "新疆维吾尔自治区",
            "city": "阿克苏地区",
            "district": "阿克苏市"
        }
    },
    {
        "id": "8902770793618590563",
        "title": "公共厕所",
        "address": "新疆维吾尔自治区阿克苏地区柯坪县团结大道与民主路交叉口正南方向121米左右",
        "tel": "",
        "category": "基础设施:公共设施:公共厕所",
        "type": 0,
        "location": {
            "lat": 40.501648,
            "lng": 79.049876
        },
        "ad_info": {
            "adcode": 652929,
            "province": "新疆维吾尔自治区",
            "city": "阿克苏地区",
            "district": "柯坪县"
        }
    },
    {
        "id": "139718659438681578",
        "title": "公共厕所",
        "address": "新疆维吾尔自治区阿克苏地区阿克苏市北京路与外环路交叉口正南方向97米左右",
        "tel": "",
        "category": "基础设施:公共设施:公共厕所",
        "type": 0,
        "location": {
            "lat": 40.792486,
            "lng": 80.493513
        },
        "ad_info": {
            "adcode": 652901,
            "province": "新疆维吾尔自治区",
            "city": "阿克苏地区",
            "district": "阿克苏市"
        }
    },
    {
        "id": "17194499189164373316",
        "title": "公共厕所",
        "address": "新疆维吾尔自治区阿克苏地区阿克苏市交通东路与塔南路交叉口正南方向654米左右",
        "tel": "",
        "category": "基础设施:公共设施:公共厕所",
        "type": 0,
        "location": {
            "lat": 41.135489,
            "lng": 80.290998
        },
        "ad_info": {
            "adcode": 652901,
            "province": "新疆维吾尔自治区",
            "city": "阿克苏地区",
            "district": "阿克苏市"
        }
    },
    {
        "id": "8877205039479833779",
        "title": "公共厕所",
        "address": "新疆维吾尔自治区阿克苏地区库车市甬泰畜牧有限公司西南侧220米",
        "tel": "",
        "category": "基础设施:公共设施:公共厕所",
        "type": 0,
        "location": {
            "lat": 41.711713,
            "lng": 83.07655
        },
        "ad_info": {
            "adcode": 652902,
            "province": "新疆维吾尔自治区",
            "city": "阿克苏地区",
            "district": "库车市"
        }
    },
    {
        "id": "16234745473434076432",
        "title": "公共厕所",
        "address": "新疆维吾尔自治区阿克苏地区拜城县商场北街与胜利路交叉口东南方向86米左右",
        "tel": "",
        "category": "基础设施:公共设施:公共厕所",
        "type": 0,
        "location": {
            "lat": 41.799942,
            "lng": 81.875466
        },
        "ad_info": {
            "adcode": 652926,
            "province": "新疆维吾尔自治区",
            "city": "阿克苏地区",
            "district": "拜城县"
        }
    },
    {
        "id": "15204464225345242283",
        "title": "公共厕所",
        "address": "新疆维吾尔自治区阿克苏地区拜城县S307与Y350交叉口正西方向156米左右",
        "tel": "",
        "category": "基础设施:公共设施:公共厕所",
        "type": 0,
        "location": {
            "lat": 41.795938,
            "lng": 82.205517
        },
        "ad_info": {
            "adcode": 652926,
            "province": "新疆维吾尔自治区",
            "city": "阿克苏地区",
            "district": "拜城县"
        }
    },
    {
        "id": "10942973887283913037",
        "title": "公共厕所",
        "address": "新疆维吾尔自治区阿克苏地区阿克苏市交通东路与塔南路交叉口正北方向273米左右",
        "tel": "",
        "category": "基础设施:公共设施:公共厕所",
        "type": 0,
        "location": {
            "lat": 41.143743,
            "lng": 80.289819
        },
        "ad_info": {
            "adcode": 652901,
            "province": "新疆维吾尔自治区",
            "city": "阿克苏地区",
            "district": "阿克苏市"
        }
    },
    {
        "id": "6503778757248794075",
        "title": "公共厕所(沙雅县塔和管委会玉其库尔迪村游客服务中心)",
        "address": "新疆维吾尔自治区阿克苏地区沙雅县塔和管委会玉其库尔迪村游客服务中心",
        "tel": "",
        "category": "基础设施:公共设施:公共厕所",
        "type": 0,
        "location": {
            "lat": 40.879029,
            "lng": 82.26044
        },
        "ad_info": {
            "adcode": 652924,
            "province": "新疆维吾尔自治区",
            "city": "阿克苏地区",
            "district": "沙雅县"
        }
    },
    {
        "id": "6831511377955057989",
        "title": "公共厕所",
        "address": "新疆维吾尔自治区阿克苏地区阿瓦提县恰其村卫生室西南侧80米",
        "tel": "",
        "category": "基础设施:公共设施:公共厕所",
        "type": 0,
        "location": {
            "lat": 40.882578,
            "lng": 80.164286
        },
        "ad_info": {
            "adcode": 652928,
            "province": "新疆维吾尔自治区",
            "city": "阿克苏地区",
            "district": "阿瓦提县"
        }
    },
    {
        "id": "4479652258802519852",
        "title": "羊塔克库都克服务区第一公共厕所",
        "address": "新疆维吾尔自治区阿克苏地区新和县吐和高速羊塔克库都克服务区",
        "tel": "",
        "category": "基础设施:公共设施:公共厕所",
        "type": 0,
        "location": {
            "lat": 41.401039,
            "lng": 81.53549
        },
        "ad_info": {
            "adcode": 652925,
            "province": "新疆维吾尔自治区",
            "city": "阿克苏地区",
            "district": "新和县"
        }
    },
    {
        "id": "13055330537477760901",
        "title": "公共厕所",
        "address": "新疆维吾尔自治区阿克苏地区库车市文化东路180号",
        "tel": "",
        "category": "基础设施:公共设施:公共厕所",
        "type": 0,
        "location": {
            "lat": 41.717126,
            "lng": 82.997645
        },
        "ad_info": {
            "adcode": 652902,
            "province": "新疆维吾尔自治区",
            "city": "阿克苏地区",
            "district": "库车市"
        }
    },
    {
        "id": "8561877953634992780",
        "title": "公共厕所",
        "address": "新疆维吾尔自治区阿克苏地区新和县幸福南路步行街与幸福路二巷交叉口正南方向61米左右",
        "tel": "",
        "category": "基础设施:公共设施:公共厕所",
        "type": 0,
        "location": {
            "lat": 41.549248,
            "lng": 82.610509
        },
        "ad_info": {
            "adcode": 652925,
            "province": "新疆维吾尔自治区",
            "city": "阿克苏地区",
            "district": "新和县"
        }
    },
    {
        "id": "12488716021115771906",
        "title": "公共厕所",
        "address": "新疆维吾尔自治区阿克苏地区阿克苏市玉溪巷与稻香北路交叉口正西方向284米左右",
        "tel": "",
        "category": "基础设施:公共设施:公共厕所",
        "type": 0,
        "location": {
            "lat": 41.210726,
            "lng": 80.228816
        },
        "ad_info": {
            "adcode": 652901,
            "province": "新疆维吾尔自治区",
            "city": "阿克苏地区",
            "district": "阿克苏市"
        }
    },
    {
        "id": "14866497290804386565",
        "title": "公共厕所(香港街夜市)",
        "address": "新疆维吾尔自治区阿克苏地区沙雅县人民北路6号",
        "tel": "",
        "category": "基础设施:公共设施:公共厕所",
        "type": 0,
        "location": {
            "lat": 41.225942,
            "lng": 82.777883
        },
        "ad_info": {
            "adcode": 652924,
            "province": "新疆维吾尔自治区",
            "city": "阿克苏地区",
            "district": "沙雅县"
        }
    },
    {
        "id": "10840662268185479980",
        "title": "天山神秘大峡谷公共厕所",
        "address": "新疆维吾尔自治区阿克苏地区库车市天山神秘大峡谷接待部东侧70米",
        "tel": "",
        "category": "基础设施:公共设施:公共厕所",
        "type": 0,
        "location": {
            "lat": 42.109745,
            "lng": 83.059995
        },
        "ad_info": {
            "adcode": 652902,
            "province": "新疆维吾尔自治区",
            "city": "阿克苏地区",
            "district": "库车市"
        }
    },
    {
        "id": "11325833104939640608",
        "title": "公共厕所",
        "address": "新疆维吾尔自治区阿克苏地区阿克苏市杭州大道阿克苏市第七小校左边",
        "tel": "",
        "category": "基础设施:公共设施:公共厕所",
        "type": 0,
        "location": {
            "lat": 41.158101,
            "lng": 80.248304
        },
        "ad_info": {
            "adcode": 652901,
            "province": "新疆维吾尔自治区",
            "city": "阿克苏地区",
            "district": "阿克苏市"
        }
    },
    {
        "id": "14566038315650425543",
        "title": "公共厕所",
        "address": "新疆维吾尔自治区阿克苏地区阿克苏市五一路与友谊北路交叉口正北方向205米左右",
        "tel": "",
        "category": "基础设施:公共设施:公共厕所",
        "type": 0,
        "location": {
            "lat": 41.171909,
            "lng": 80.243879
        },
        "ad_info": {
            "adcode": 652901,
            "province": "新疆维吾尔自治区",
            "city": "阿克苏地区",
            "district": "阿克苏市"
        }
    },
    {
        "id": "1728437242695119089",
        "title": "公共厕所",
        "address": "新疆维吾尔自治区阿克苏地区阿克苏市交通西路与河南西路交叉口正南方向122米左右",
        "tel": "",
        "category": "基础设施:公共设施:公共厕所",
        "type": 0,
        "location": {
            "lat": 41.125281,
            "lng": 80.226347
        },
        "ad_info": {
            "adcode": 652901,
            "province": "新疆维吾尔自治区",
            "city": "阿克苏地区",
            "district": "阿克苏市"
        }
    },
    {
        "id": "1964272021711609011",
        "title": "公共厕所",
        "address": "新疆维吾尔自治区阿克苏地区乌什县光明南路与林基路东街交叉口正东方向215米左右",
        "tel": "",
        "category": "基础设施:公共设施:公共厕所",
        "type": 0,
        "location": {
            "lat": 41.219884,
            "lng": 79.255479
        },
        "ad_info": {
            "adcode": 652927,
            "province": "新疆维吾尔自治区",
            "city": "阿克苏地区",
            "district": "乌什县"
        }
    },
    {
        "id": "4730110673396329360",
        "title": "公共厕所",
        "address": "新疆维吾尔自治区阿克苏地区阿克苏市月亮泊温泉景区内",
        "tel": "",
        "category": "基础设施:公共设施:公共厕所",
        "type": 0,
        "location": {
            "lat": 40.936864,
            "lng": 79.977606
        },
        "ad_info": {
            "adcode": 652901,
            "province": "新疆维吾尔自治区",
            "city": "阿克苏地区",
            "district": "阿克苏市"
        }
    },
    {
        "id": "8902770793618590563",
        "title": "公共厕所",
        "address": "新疆维吾尔自治区阿克苏地区柯坪县团结大道与民主路交叉口正南方向121米左右",
        "tel": "",
        "category": "基础设施:公共设施:公共厕所",
        "type": 0,
        "location": {
            "lat": 40.501648,
            "lng": 79.049876
        },
        "ad_info": {
            "adcode": 652929,
            "province": "新疆维吾尔自治区",
            "city": "阿克苏地区",
            "district": "柯坪县"
        }
    },
    {
        "id": "139718659438681578",
        "title": "公共厕所",
        "address": "新疆维吾尔自治区阿克苏地区阿克苏市北京路与外环路交叉口正南方向97米左右",
        "tel": "",
        "category": "基础设施:公共设施:公共厕所",
        "type": 0,
        "location": {
            "lat": 40.792486,
            "lng": 80.493513
        },
        "ad_info": {
            "adcode": 652901,
            "province": "新疆维吾尔自治区",
            "city": "阿克苏地区",
            "district": "阿克苏市"
        }
    },
    {
        "id": "17194499189164373316",
        "title": "公共厕所",
        "address": "新疆维吾尔自治区阿克苏地区阿克苏市交通东路与塔南路交叉口正南方向654米左右",
        "tel": "",
        "category": "基础设施:公共设施:公共厕所",
        "type": 0,
        "location": {
            "lat": 41.135489,
            "lng": 80.290998
        },
        "ad_info": {
            "adcode": 652901,
            "province": "新疆维吾尔自治区",
            "city": "阿克苏地区",
            "district": "阿克苏市"
        }
    }
]