[
    {
        "id": "6194401015116928872",
        "title": "公共厕所",
        "address": "新疆维吾尔自治区阿勒泰地区布尔津县额河路辅路与风口巷交叉口西南方向127米左右",
        "tel": "",
        "category": "基础设施:公共设施:公共厕所",
        "type": 0,
        "location": {
            "lat": 47.697533,
            "lng": 86.87907
        },
        "ad_info": {
            "adcode": 654321,
            "province": "新疆维吾尔自治区",
            "city": "阿勒泰地区",
            "district": "布尔津县"
        }
    },
    {
        "id": "2352283998343682789",
        "title": "公共厕所",
        "address": "新疆维吾尔自治区阿勒泰地区布尔津县喀纳斯路与神湖路交叉口东南方向160米左右",
        "tel": "",
        "category": "基础设施:公共设施:公共厕所",
        "type": 0,
        "location": {
            "lat": 47.702957,
            "lng": 86.868342
        },
        "ad_info": {
            "adcode": 654321,
            "province": "新疆维吾尔自治区",
            "city": "阿勒泰地区",
            "district": "布尔津县"
        }
    },
    {
        "id": "113828900698976413",
        "title": "公共厕所",
        "address": "新疆维吾尔自治区阿勒泰地区阿勒泰市团结南路36号",
        "tel": "",
        "category": "基础设施:公共设施:公共厕所",
        "type": 0,
        "location": {
            "lat": 47.806648,
            "lng": 88.121808
        },
        "ad_info": {
            "adcode": 654301,
            "province": "新疆维吾尔自治区",
            "city": "阿勒泰地区",
            "district": "阿勒泰市"
        }
    },
    {
        "id": "9730760440280204733",
        "title": "公共厕所",
        "address": "新疆维吾尔自治区阿勒泰地区吉木乃县团结路与萨吾尔路交叉口正西方向143米左右",
        "tel": "",
        "category": "基础设施:公共设施:公共厕所",
        "type": 0,
        "location": {
            "lat": 47.446396,
            "lng": 85.875928
        },
        "ad_info": {
            "adcode": 654326,
            "province": "新疆维吾尔自治区",
            "city": "阿勒泰地区",
            "district": "吉木乃县"
        }
    },
    {
        "id": "4856239726292819184",
        "title": "公共厕所",
        "address": "新疆维吾尔自治区阿勒泰地区布尔津县喀纳斯路与百花园路交叉口西北方向162米左右",
        "tel": "",
        "category": "基础设施:公共设施:公共厕所",
        "type": 0,
        "location": {
            "lat": 47.701817,
            "lng": 86.86273
        },
        "ad_info": {
            "adcode": 654321,
            "province": "新疆维吾尔自治区",
            "city": "阿勒泰地区",
            "district": "布尔津县"
        }
    },
    {
        "id": "14431323661478010149",
        "title": "公共厕所",
        "address": "新疆维吾尔自治区阿勒泰地区福海县振达步行街与济海西路交叉口正南方向162米左右",
        "tel": "",
        "category": "基础设施:公共设施:公共厕所",
        "type": 0,
        "location": {
            "lat": 47.112774,
            "lng": 87.492124
        },
        "ad_info": {
            "adcode": 654323,
            "province": "新疆维吾尔自治区",
            "city": "阿勒泰地区",
            "district": "福海县"
        }
    },
    {
        "id": "11776044182632281051",
        "title": "公共厕所",
        "address": "新疆维吾尔自治区阿勒泰地区福海县人民东路9号",
        "tel": "",
        "category": "基础设施:公共设施:公共厕所",
        "type": 0,
        "location": {
            "lat": 47.110609,
            "lng": 87.497353
        },
        "ad_info": {
            "adcode": 654323,
            "province": "新疆维吾尔自治区",
            "city": "阿勒泰地区",
            "district": "福海县"
        }
    },
    {
        "id": "14971642317544048903",
        "title": "公共厕所",
        "address": "新疆维吾尔自治区阿勒泰地区布尔津县友谊峰路与神湖路交叉口东北方向67米左右",
        "tel": "",
        "category": "基础设施:公共设施:公共厕所",
        "type": 0,
        "location": {
            "lat": 47.705302,
            "lng": 86.862981
        },
        "ad_info": {
            "adcode": 654321,
            "province": "新疆维吾尔自治区",
            "city": "阿勒泰地区",
            "district": "布尔津县"
        }
    },
    {
        "id": "17819888130762951737",
        "title": "公共厕所",
        "address": "新疆维吾尔自治区阿勒泰地区哈巴河县友谊路与文化中路交叉口正东方向214米左右",
        "tel": "",
        "category": "基础设施:公共设施:公共厕所",
        "type": 0,
        "location": {
            "lat": 48.056121,
            "lng": 86.421531
        },
        "ad_info": {
            "adcode": 654324,
            "province": "新疆维吾尔自治区",
            "city": "阿勒泰地区",
            "district": "哈巴河县"
        }
    },
    {
        "id": "12444151128105690723",
        "title": "公共厕所",
        "address": "新疆维吾尔自治区阿勒泰地区青河县幸福路与文化南路交叉口东北方向26米左右",
        "tel": "",
        "category": "基础设施:公共设施:公共厕所",
        "type": 0,
        "location": {
            "lat": 46.671336,
            "lng": 90.381063
        },
        "ad_info": {
            "adcode": 654325,
            "province": "新疆维吾尔自治区",
            "city": "阿勒泰地区",
            "district": "青河县"
        }
    },
    {
        "id": "179340151971158117",
        "title": "公共厕所",
        "address": "新疆维吾尔自治区阿勒泰地区青河县光明路5号",
        "tel": "",
        "category": "基础设施:公共设施:公共厕所",
        "type": 0,
        "location": {
            "lat": 46.673628,
            "lng": 90.379095
        },
        "ad_info": {
            "adcode": 654325,
            "province": "新疆维吾尔自治区",
            "city": "阿勒泰地区",
            "district": "青河县"
        }
    },
    {
        "id": "10411102009299581465",
        "title": "公共厕所",
        "address": "新疆维吾尔自治区阿勒泰地区布尔津县友谊峰路与禾木路交叉口西南方向67米左右",
        "tel": "",
        "category": "基础设施:公共设施:公共厕所",
        "type": 0,
        "location": {
            "lat": 47.706265,
            "lng": 86.86282
        },
        "ad_info": {
            "adcode": 654321,
            "province": "新疆维吾尔自治区",
            "city": "阿勒泰地区",
            "district": "布尔津县"
        }
    },
    {
        "id": "13860345314358169127",
        "title": "公共厕所",
        "address": "新疆维吾尔自治区阿勒泰地区富蕴县建设路与文化东路交叉口西北方向83米左右",
        "tel": "",
        "category": "基础设施:公共设施:公共厕所",
        "type": 0,
        "location": {
            "lat": 47.216972,
            "lng": 89.825215
        },
        "ad_info": {
            "adcode": 654322,
            "province": "新疆维吾尔自治区",
            "city": "阿勒泰地区",
            "district": "富蕴县"
        }
    },
    {
        "id": "17332425627296588854",
        "title": "公共厕所",
        "address": "新疆维吾尔自治区阿勒泰地区青河县S228与富民路交叉口正北方向93米左右",
        "tel": "",
        "category": "基础设施:公共设施:公共厕所",
        "type": 0,
        "location": {
            "lat": 46.52786,
            "lng": 90.226193
        },
        "ad_info": {
            "adcode": 654325,
            "province": "新疆维吾尔自治区",
            "city": "阿勒泰地区",
            "district": "青河县"
        }
    },
    {
        "id": "8160421492793242012",
        "title": "公共厕所",
        "address": "新疆维吾尔自治区阿勒泰地区哈巴河县人民路与岔克段交叉口西北方向29米左右",
        "tel": "",
        "category": "基础设施:公共设施:公共厕所",
        "type": 0,
        "location": {
            "lat": 48.084493,
            "lng": 86.480394
        },
        "ad_info": {
            "adcode": 654324,
            "province": "新疆维吾尔自治区",
            "city": "阿勒泰地区",
            "district": "哈巴河县"
        }
    },
    {
        "id": "12390664367472654819",
        "title": "公共厕所",
        "address": "新疆维吾尔自治区阿勒泰地区哈巴河县阿克布拉克村",
        "tel": "",
        "category": "基础设施:公共设施:公共厕所",
        "type": 0,
        "location": {
            "lat": 48.335141,
            "lng": 86.792055
        },
        "ad_info": {
            "adcode": 654324,
            "province": "新疆维吾尔自治区",
            "city": "阿勒泰地区",
            "district": "哈巴河县"
        }
    },
    {
        "id": "13136957281914607814",
        "title": "公共厕所",
        "address": "新疆维吾尔自治区阿勒泰地区福海县人民路与文化巷交叉口正东方向96米左右",
        "tel": "",
        "category": "基础设施:公共设施:公共厕所",
        "type": 0,
        "location": {
            "lat": 47.112727,
            "lng": 87.490146
        },
        "ad_info": {
            "adcode": 654323,
            "province": "新疆维吾尔自治区",
            "city": "阿勒泰地区",
            "district": "福海县"
        }
    },
    {
        "id": "10734965404848900882",
        "title": "公共厕所",
        "address": "新疆维吾尔自治区阿勒泰地区哈巴河县(大喀纳斯旅游区)",
        "tel": "",
        "category": "基础设施:公共设施:公共厕所",
        "type": 0,
        "location": {
            "lat": 48.867305,
            "lng": 86.944724
        },
        "ad_info": {
            "adcode": 654324,
            "province": "新疆维吾尔自治区",
            "city": "阿勒泰地区",
            "district": "哈巴河县"
        }
    },
    {
        "id": "119311410141153361",
        "title": "公共厕所",
        "address": "新疆维吾尔自治区阿勒泰地区哈巴河县幸福南路与幸福路交叉口东北方向63米左右",
        "tel": "",
        "category": "基础设施:公共设施:公共厕所",
        "type": 0,
        "location": {
            "lat": 48.057866,
            "lng": 86.426153
        },
        "ad_info": {
            "adcode": 654324,
            "province": "新疆维吾尔自治区",
            "city": "阿勒泰地区",
            "district": "哈巴河县"
        }
    },
    {
        "id": "3186870248718292233",
        "title": "公共厕所",
        "address": "新疆维吾尔自治区阿勒泰地区富蕴县团结南路与迎宾东路交叉口正南方向91米左右",
        "tel": "",
        "category": "基础设施:公共设施:公共厕所",
        "type": 0,
        "location": {
            "lat": 46.989525,
            "lng": 89.527849
        },
        "ad_info": {
            "adcode": 654322,
            "province": "新疆维吾尔自治区",
            "city": "阿勒泰地区",
            "district": "富蕴县"
        }
    },
    {
        "id": "6587218343162000644",
        "title": "公共厕所(XJ-AL-0131)",
        "address": "新疆维吾尔自治区阿勒泰地区哈巴河县幸福北路春天花园",
        "tel": "",
        "category": "基础设施:公共设施:公共厕所",
        "type": 0,
        "location": {
            "lat": 48.061971,
            "lng": 86.426449
        },
        "ad_info": {
            "adcode": 654324,
            "province": "新疆维吾尔自治区",
            "city": "阿勒泰地区",
            "district": "哈巴河县"
        }
    },
    {
        "id": "16192423335463965608",
        "title": "公共厕所",
        "address": "新疆维吾尔自治区阿勒泰地区吉木乃县军民街与广汇路交叉口正南方向91米左右",
        "tel": "",
        "category": "基础设施:公共设施:公共厕所",
        "type": 0,
        "location": {
            "lat": 47.424627,
            "lng": 85.869172
        },
        "ad_info": {
            "adcode": 654326,
            "province": "新疆维吾尔自治区",
            "city": "阿勒泰地区",
            "district": "吉木乃县"
        }
    },
    {
        "id": "1130571764728173845",
        "title": "公共厕所",
        "address": "新疆维吾尔自治区阿勒泰地区阿勒泰市前进巷与金山路交叉口西南方向83米左右",
        "tel": "",
        "category": "基础设施:公共设施:公共厕所",
        "type": 0,
        "location": {
            "lat": 47.849891,
            "lng": 88.137721
        },
        "ad_info": {
            "adcode": 654301,
            "province": "新疆维吾尔自治区",
            "city": "阿勒泰地区",
            "district": "阿勒泰市"
        }
    },
    {
        "id": "6943458511735692692",
        "title": "公共厕所(XJ-AL-0256)",
        "address": "新疆维吾尔自治区阿勒泰地区布尔津县河滨路融合民俗风情园",
        "tel": "",
        "category": "基础设施:公共设施:公共厕所",
        "type": 0,
        "location": {
            "lat": 47.699452,
            "lng": 86.858699
        },
        "ad_info": {
            "adcode": 654321,
            "province": "新疆维吾尔自治区",
            "city": "阿勒泰地区",
            "district": "布尔津县"
        }
    },
    {
        "id": "3631378945759943606",
        "title": "公共厕所",
        "address": "新疆维吾尔自治区阿勒泰地区布尔津县G217与S319交叉口东南方向284米左右",
        "tel": "",
        "category": "基础设施:公共设施:公共厕所",
        "type": 0,
        "location": {
            "lat": 47.664906,
            "lng": 86.895083
        },
        "ad_info": {
            "adcode": 654321,
            "province": "新疆维吾尔自治区",
            "city": "阿勒泰地区",
            "district": "布尔津县"
        }
    },
    {
        "id": "7249291812769794476",
        "title": "公共厕所",
        "address": "新疆维吾尔自治区阿勒泰地区富蕴县可可托海拉菲克民宿北侧",
        "tel": "",
        "category": "基础设施:公共设施:公共厕所",
        "type": 0,
        "location": {
            "lat": 47.229826,
            "lng": 89.878575
        },
        "ad_info": {
            "adcode": 654322,
            "province": "新疆维吾尔自治区",
            "city": "阿勒泰地区",
            "district": "富蕴县"
        }
    },
    {
        "id": "16546799766622149598",
        "title": "公共厕所",
        "address": "新疆维吾尔自治区阿勒泰地区布尔津县喀纳斯景区换乘中心",
        "tel": "",
        "category": "基础设施:公共设施:公共厕所",
        "type": 0,
        "location": {
            "lat": 48.397084,
            "lng": 87.189508
        },
        "ad_info": {
            "adcode": 654321,
            "province": "新疆维吾尔自治区",
            "city": "阿勒泰地区",
            "district": "布尔津县"
        }
    },
    {
        "id": "13994528381314388700",
        "title": "公共厕所",
        "address": "新疆维吾尔自治区阿勒泰地区哈巴河县铁扎段与铁白段交叉口正西方向559米左右",
        "tel": "",
        "category": "基础设施:公共设施:公共厕所",
        "type": 0,
        "location": {
            "lat": 48.47417,
            "lng": 86.686371
        },
        "ad_info": {
            "adcode": 654324,
            "province": "新疆维吾尔自治区",
            "city": "阿勒泰地区",
            "district": "哈巴河县"
        }
    },
    {
        "id": "18081225473246621151",
        "title": "公共厕所",
        "address": "新疆维吾尔自治区阿勒泰地区吉木乃县草原石城风景区",
        "tel": "",
        "category": "基础设施:公共设施:公共厕所",
        "type": 0,
        "location": {
            "lat": 47.175105,
            "lng": 86.128292
        },
        "ad_info": {
            "adcode": 654326,
            "province": "新疆维吾尔自治区",
            "city": "阿勒泰地区",
            "district": "吉木乃县"
        }
    },
    {
        "id": "7806035518819097718",
        "title": "公共厕所",
        "address": "新疆维吾尔自治区阿勒泰地区阿勒泰市东街与解放路交叉口正南方向52米左右",
        "tel": "",
        "category": "基础设施:公共设施:公共厕所",
        "type": 0,
        "location": {
            "lat": 47.848993,
            "lng": 88.140224
        },
        "ad_info": {
            "adcode": 654301,
            "province": "新疆维吾尔自治区",
            "city": "阿勒泰地区",
            "district": "阿勒泰市"
        }
    },
    {
        "id": "10713940757950118263",
        "title": "公共厕所",
        "address": "新疆维吾尔自治区阿勒泰地区富蕴县天富路与富兴路交叉口西南方向1091米左右",
        "tel": "",
        "category": "基础设施:公共设施:公共厕所",
        "type": 0,
        "location": {
            "lat": 46.979793,
            "lng": 89.514853
        },
        "ad_info": {
            "adcode": 654322,
            "province": "新疆维吾尔自治区",
            "city": "阿勒泰地区",
            "district": "富蕴县"
        }
    },
    {
        "id": "3759250755108385498",
        "title": "公共厕所",
        "address": "新疆维吾尔自治区阿勒泰地区阿勒泰市迎宾路与靛石路交叉口正南方向644米左右",
        "tel": "",
        "category": "基础设施:公共设施:公共厕所",
        "type": 0,
        "location": {
            "lat": 47.781085,
            "lng": 88.132917
        },
        "ad_info": {
            "adcode": 654301,
            "province": "新疆维吾尔自治区",
            "city": "阿勒泰地区",
            "district": "阿勒泰市"
        }
    },
    {
        "id": "12671177193519143029",
        "title": "公共厕所",
        "address": "新疆维吾尔自治区阿勒泰地区布尔津县五彩滩路38-2号",
        "tel": "",
        "category": "基础设施:公共设施:公共厕所",
        "type": 0,
        "location": {
            "lat": 47.708426,
            "lng": 86.865597
        },
        "ad_info": {
            "adcode": 654321,
            "province": "新疆维吾尔自治区",
            "city": "阿勒泰地区",
            "district": "布尔津县"
        }
    },
    {
        "id": "12813588203084948759",
        "title": "公共厕所",
        "address": "新疆维吾尔自治区阿勒泰地区哈巴河县团结路与外环路交叉口东南方向168米左右",
        "tel": "",
        "category": "基础设施:公共设施:公共厕所",
        "type": 0,
        "location": {
            "lat": 47.893521,
            "lng": 86.159779
        },
        "ad_info": {
            "adcode": 654324,
            "province": "新疆维吾尔自治区",
            "city": "阿勒泰地区",
            "district": "哈巴河县"
        }
    },
    {
        "id": "5557562174414202460",
        "title": "公共厕所",
        "address": "新疆维吾尔自治区阿勒泰地区哈巴河县民主中路29号",
        "tel": "",
        "category": "基础设施:公共设施:公共厕所",
        "type": 0,
        "location": {
            "lat": 48.056231,
            "lng": 86.419917
        },
        "ad_info": {
            "adcode": 654324,
            "province": "新疆维吾尔自治区",
            "city": "阿勒泰地区",
            "district": "哈巴河县"
        }
    },
    {
        "id": "3628286085482052304",
        "title": "公共厕所",
        "address": "新疆维吾尔自治区阿勒泰地区布尔津县团结路与江也段交叉口东南方向14米左右",
        "tel": "",
        "category": "基础设施:公共设施:公共厕所",
        "type": 0,
        "location": {
            "lat": 47.878466,
            "lng": 86.989509
        },
        "ad_info": {
            "adcode": 654321,
            "province": "新疆维吾尔自治区",
            "city": "阿勒泰地区",
            "district": "布尔津县"
        }
    },
    {
        "id": "2837492739312760856",
        "title": "公共厕所",
        "address": "新疆维吾尔自治区阿勒泰地区哈巴河县G219与S229交叉口西北方向979米",
        "tel": "",
        "category": "基础设施:公共设施:公共厕所",
        "type": 0,
        "location": {
            "lat": 47.903806,
            "lng": 86.290305
        },
        "ad_info": {
            "adcode": 654324,
            "province": "新疆维吾尔自治区",
            "city": "阿勒泰地区",
            "district": "哈巴河县"
        }
    },
    {
        "id": "10125744058736849414",
        "title": "公共厕所",
        "address": "新疆维吾尔自治区阿勒泰地区布尔津县喀纳斯旅游景区内",
        "tel": "",
        "category": "基础设施:公共设施:公共厕所",
        "type": 0,
        "location": {
            "lat": 48.304275,
            "lng": 87.108929
        },
        "ad_info": {
            "adcode": 654321,
            "province": "新疆维吾尔自治区",
            "city": "阿勒泰地区",
            "district": "布尔津县"
        }
    },
    {
        "id": "2881984486696362212",
        "title": "公共厕所",
        "address": "新疆维吾尔自治区阿勒泰地区阿勒泰市解放南路与银水桥交叉口正北方向47米左右",
        "tel": "",
        "category": "基础设施:公共设施:公共厕所",
        "type": 0,
        "location": {
            "lat": 47.832019,
            "lng": 88.137773
        },
        "ad_info": {
            "adcode": 654301,
            "province": "新疆维吾尔自治区",
            "city": "阿勒泰地区",
            "district": "阿勒泰市"
        }
    },
    {
        "id": "3338115255051695332",
        "title": "公共厕所",
        "address": "新疆维吾尔自治区阿勒泰地区福海县银海路福海县职业高中",
        "tel": "",
        "category": "基础设施:公共设施:公共厕所",
        "type": 0,
        "location": {
            "lat": 47.11788,
            "lng": 87.494869
        },
        "ad_info": {
            "adcode": 654323,
            "province": "新疆维吾尔自治区",
            "city": "阿勒泰地区",
            "district": "福海县"
        }
    },
    {
        "id": "16183066698690986708",
        "title": "公共厕所",
        "address": "新疆维吾尔自治区阿勒泰地区哈巴河县G219与团结路交叉口东北方向1856米左右",
        "tel": "",
        "category": "基础设施:公共设施:公共厕所",
        "type": 0,
        "location": {
            "lat": 48.123692,
            "lng": 86.417956
        },
        "ad_info": {
            "adcode": 654324,
            "province": "新疆维吾尔自治区",
            "city": "阿勒泰地区",
            "district": "哈巴河县"
        }
    },
    {
        "id": "6070477167746310746",
        "title": "公共厕所",
        "address": "新疆维吾尔自治区阿勒泰地区哈巴河县友谊路与幸福南路交叉口正北方向60米左右",
        "tel": "",
        "category": "基础设施:公共设施:公共厕所",
        "type": 0,
        "location": {
            "lat": 48.056186,
            "lng": 86.425504
        },
        "ad_info": {
            "adcode": 654324,
            "province": "新疆维吾尔自治区",
            "city": "阿勒泰地区",
            "district": "哈巴河县"
        }
    },
    {
        "id": "4080954616764759730",
        "title": "公共厕所",
        "address": "新疆维吾尔自治区阿勒泰地区富蕴县G216与S324交叉口正南方向360米左右",
        "tel": "",
        "category": "基础设施:公共设施:公共厕所",
        "type": 0,
        "location": {
            "lat": 46.347282,
            "lng": 89.540773
        },
        "ad_info": {
            "adcode": 654322,
            "province": "新疆维吾尔自治区",
            "city": "阿勒泰地区",
            "district": "富蕴县"
        }
    },
    {
        "id": "1768209135690699014",
        "title": "公共厕所",
        "address": "新疆维吾尔自治区阿勒泰地区阿勒泰市制毡厂路与银水路交叉口东北方向38米左右",
        "tel": "",
        "category": "基础设施:公共设施:公共厕所",
        "type": 0,
        "location": {
            "lat": 47.823604,
            "lng": 88.129848
        },
        "ad_info": {
            "adcode": 654301,
            "province": "新疆维吾尔自治区",
            "city": "阿勒泰地区",
            "district": "阿勒泰市"
        }
    },
    {
        "id": "13782656928463057400",
        "title": "公共厕所",
        "address": "新疆维吾尔自治区阿勒泰地区阿勒泰市七道巷与金山路交叉口正南方向37米左右",
        "tel": "",
        "category": "基础设施:公共设施:公共厕所",
        "type": 0,
        "location": {
            "lat": 47.853037,
            "lng": 88.133537
        },
        "ad_info": {
            "adcode": 654301,
            "province": "新疆维吾尔自治区",
            "city": "阿勒泰地区",
            "district": "阿勒泰市"
        }
    },
    {
        "id": "8865673848550663969",
        "title": "公共厕所",
        "address": "新疆维吾尔自治区阿勒泰地区福海县农行北巷与团结路交叉口西北方向129米左右",
        "tel": "",
        "category": "基础设施:公共设施:公共厕所",
        "type": 0,
        "location": {
            "lat": 47.111436,
            "lng": 87.492413
        },
        "ad_info": {
            "adcode": 654323,
            "province": "新疆维吾尔自治区",
            "city": "阿勒泰地区",
            "district": "福海县"
        }
    },
    {
        "id": "15168724663660537882",
        "title": "公共厕所",
        "address": "新疆维吾尔自治区阿勒泰地区吉木乃县S319与文明路交叉口东北方向357米左右",
        "tel": "",
        "category": "基础设施:公共设施:公共厕所",
        "type": 0,
        "location": {
            "lat": 47.532259,
            "lng": 86.148539
        },
        "ad_info": {
            "adcode": 654326,
            "province": "新疆维吾尔自治区",
            "city": "阿勒泰地区",
            "district": "吉木乃县"
        }
    },
    {
        "id": "4073032836442248212",
        "title": "公共厕所",
        "address": "新疆维吾尔自治区阿勒泰地区青河县228省道东100米",
        "tel": "",
        "category": "基础设施:公共设施:公共厕所",
        "type": 0,
        "location": {
            "lat": 45.191909,
            "lng": 90.118985
        },
        "ad_info": {
            "adcode": 654325,
            "province": "新疆维吾尔自治区",
            "city": "阿勒泰地区",
            "district": "青河县"
        }
    },
    {
        "id": "11663232552561811862",
        "title": "公共厕所",
        "address": "新疆维吾尔自治区阿勒泰地区青河县S320与X876交叉口西北方向334米左右",
        "tel": "",
        "category": "基础设施:公共设施:公共厕所",
        "type": 0,
        "location": {
            "lat": 46.314531,
            "lng": 90.396847
        },
        "ad_info": {
            "adcode": 654325,
            "province": "新疆维吾尔自治区",
            "city": "阿勒泰地区",
            "district": "青河县"
        }
    },
    {
        "id": "921554947653137754",
        "title": "公共厕所(XJ-AL-0263)",
        "address": "新疆维吾尔自治区阿勒泰地区阿勒泰市G217与惠民路交叉口东南方向400米左右",
        "tel": "",
        "category": "基础设施:公共设施:公共厕所",
        "type": 0,
        "location": {
            "lat": 47.744724,
            "lng": 87.523658
        },
        "ad_info": {
            "adcode": 654301,
            "province": "新疆维吾尔自治区",
            "city": "阿勒泰地区",
            "district": "阿勒泰市"
        }
    },
    {
        "id": "6090758900760911502",
        "title": "公共厕所",
        "address": "新疆维吾尔自治区阿勒泰地区阿勒泰市制毡厂路与红墩路交叉口正北方向115米左右",
        "tel": "",
        "category": "基础设施:公共设施:公共厕所",
        "type": 0,
        "location": {
            "lat": 47.816992,
            "lng": 88.131994
        },
        "ad_info": {
            "adcode": 654301,
            "province": "新疆维吾尔自治区",
            "city": "阿勒泰地区",
            "district": "阿勒泰市"
        }
    },
    {
        "id": "1483448531630464231",
        "title": "公共厕所",
        "address": "新疆维吾尔自治区阿勒泰地区阿勒泰市喀拉塔斯路与园艺南路交叉口正北方向45米左右",
        "tel": "",
        "category": "基础设施:公共设施:公共厕所",
        "type": 0,
        "location": {
            "lat": 47.797672,
            "lng": 87.968606
        },
        "ad_info": {
            "adcode": 654301,
            "province": "新疆维吾尔自治区",
            "city": "阿勒泰地区",
            "district": "阿勒泰市"
        }
    },
    {
        "id": "12049655046242719692",
        "title": "公共厕所",
        "address": "新疆维吾尔自治区阿勒泰地区阿勒泰市红墩路7-9号",
        "tel": "",
        "category": "基础设施:公共设施:公共厕所",
        "type": 0,
        "location": {
            "lat": 47.812551,
            "lng": 88.134341
        },
        "ad_info": {
            "adcode": 654301,
            "province": "新疆维吾尔自治区",
            "city": "阿勒泰地区",
            "district": "阿勒泰市"
        }
    },
    {
        "id": "14222930747058472246",
        "title": "公共厕所",
        "address": "新疆维吾尔自治区阿勒泰地区阿勒泰市公园路与林场路交叉口正南方向42米左右",
        "tel": "",
        "category": "基础设施:公共设施:公共厕所",
        "type": 0,
        "location": {
            "lat": 47.856738,
            "lng": 88.123501
        },
        "ad_info": {
            "adcode": 654301,
            "province": "新疆维吾尔自治区",
            "city": "阿勒泰地区",
            "district": "阿勒泰市"
        }
    },
    {
        "id": "7764903197132709437",
        "title": "公共厕所",
        "address": "新疆维吾尔自治区阿勒泰地区阿勒泰市公园路与团结路交叉口正南方向45米左右",
        "tel": "",
        "category": "基础设施:公共设施:公共厕所",
        "type": 0,
        "location": {
            "lat": 47.840835,
            "lng": 88.134909
        },
        "ad_info": {
            "adcode": 654301,
            "province": "新疆维吾尔自治区",
            "city": "阿勒泰地区",
            "district": "阿勒泰市"
        }
    },
    {
        "id": "475288363880357730",
        "title": "公共厕所(XJ-AL-0123)",
        "address": "新疆维吾尔自治区阿勒泰地区阿勒泰市Y004与红阔段交叉口东南方向67米左右",
        "tel": "",
        "category": "基础设施:公共设施:公共厕所",
        "type": 0,
        "location": {
            "lat": 47.706489,
            "lng": 88.209926
        },
        "ad_info": {
            "adcode": 654301,
            "province": "新疆维吾尔自治区",
            "city": "阿勒泰地区",
            "district": "阿勒泰市"
        }
    },
    {
        "id": "16352932896517562641",
        "title": "公共厕所",
        "address": "新疆维吾尔自治区阿勒泰地区阿勒泰市文化路与金山北路交叉口西南方向102米左右",
        "tel": "",
        "category": "基础设施:公共设施:公共厕所",
        "type": 0,
        "location": {
            "lat": 47.854635,
            "lng": 88.129424
        },
        "ad_info": {
            "adcode": 654301,
            "province": "新疆维吾尔自治区",
            "city": "阿勒泰地区",
            "district": "阿勒泰市"
        }
    },
    {
        "id": "6281504424805758097",
        "title": "公共厕所",
        "address": "新疆维吾尔自治区阿勒泰地区福海县216国道北50米",
        "tel": "",
        "category": "基础设施:公共设施:公共厕所",
        "type": 0,
        "location": {
            "lat": 47.217307,
            "lng": 88.522375
        },
        "ad_info": {
            "adcode": 654323,
            "province": "新疆维吾尔自治区",
            "city": "阿勒泰地区",
            "district": "福海县"
        }
    },
    {
        "id": "9302882465421305797",
        "title": "公共厕所",
        "address": "新疆维吾尔自治区阿勒泰地区阿勒泰市托普乌英克西巷与盐湖东巷交叉口西北方向156米左右",
        "tel": "",
        "category": "基础设施:公共设施:公共厕所",
        "type": 0,
        "location": {
            "lat": 47.74732,
            "lng": 87.500252
        },
        "ad_info": {
            "adcode": 654301,
            "province": "新疆维吾尔自治区",
            "city": "阿勒泰地区",
            "district": "阿勒泰市"
        }
    },
    {
        "id": "4972808365776733232",
        "title": "公共厕所(XJ-AL-0241)",
        "address": "新疆维吾尔自治区阿勒泰地区阿勒泰市G216与振兴路交叉口正东方向1556米左右",
        "tel": "",
        "category": "基础设施:公共设施:公共厕所",
        "type": 0,
        "location": {
            "lat": 47.416418,
            "lng": 87.870659
        },
        "ad_info": {
            "adcode": 654301,
            "province": "新疆维吾尔自治区",
            "city": "阿勒泰地区",
            "district": "阿勒泰市"
        }
    },
    {
        "id": "13954297780161565002",
        "title": "公共厕所",
        "address": "新疆维吾尔自治区阿勒泰地区富蕴县Z842与团结东路交叉口正西方向76米左右",
        "tel": "",
        "category": "基础设施:公共设施:公共厕所",
        "type": 0,
        "location": {
            "lat": 47.210483,
            "lng": 89.805472
        },
        "ad_info": {
            "adcode": 654322,
            "province": "新疆维吾尔自治区",
            "city": "阿勒泰地区",
            "district": "富蕴县"
        }
    },
    {
        "id": "8464183126843231403",
        "title": "公共厕所",
        "address": "新疆维吾尔自治区阿勒泰地区阿勒泰市G216与塘巴湖线交叉口正东方向435米左右",
        "tel": "",
        "category": "基础设施:公共设施:公共厕所",
        "type": 0,
        "location": {
            "lat": 47.701846,
            "lng": 88.251816
        },
        "ad_info": {
            "adcode": 654301,
            "province": "新疆维吾尔自治区",
            "city": "阿勒泰地区",
            "district": "阿勒泰市"
        }
    },
    {
        "id": "185722602719279129",
        "title": "公共厕所",
        "address": "新疆维吾尔自治区阿勒泰地区阿勒泰市G331与阿禾公路交叉口西南方向398米左右",
        "tel": "",
        "category": "基础设施:公共设施:公共厕所",
        "type": 0,
        "location": {
            "lat": 47.887934,
            "lng": 88.117346
        },
        "ad_info": {
            "adcode": 654301,
            "province": "新疆维吾尔自治区",
            "city": "阿勒泰地区",
            "district": "阿勒泰市"
        }
    },
    {
        "id": "10977793477486538775",
        "title": "公共厕所",
        "address": "新疆维吾尔自治区阿勒泰地区阿勒泰市东沟路与团结南路交叉口东北方向79米左右",
        "tel": "",
        "category": "基础设施:公共设施:公共厕所",
        "type": 0,
        "location": {
            "lat": 47.812296,
            "lng": 88.127351
        },
        "ad_info": {
            "adcode": 654301,
            "province": "新疆维吾尔自治区",
            "city": "阿勒泰地区",
            "district": "阿勒泰市"
        }
    },
    {
        "id": "8004436581563490846",
        "title": "哈巴河县双语幼儿园旅游公共厕所户外劳动者服务站点",
        "address": "新疆维吾尔自治区阿勒泰地区哈巴河县人民东路10号",
        "tel": "15199532366",
        "category": "基础设施:公共设施:公共厕所",
        "type": 0,
        "location": {
            "lat": 48.06056,
            "lng": 86.429564
        },
        "ad_info": {
            "adcode": 654324,
            "province": "新疆维吾尔自治区",
            "city": "阿勒泰地区",
            "district": "哈巴河县"
        }
    },
    {
        "id": "14664563538357406470",
        "title": "公共厕所(XJ-AL-0107)",
        "address": "新疆维吾尔自治区阿勒泰地区阿勒泰市团结南路与新生巷交叉口东北方向223米左右",
        "tel": "",
        "category": "基础设施:公共设施:公共厕所",
        "type": 0,
        "location": {
            "lat": 47.821348,
            "lng": 88.129366
        },
        "ad_info": {
            "adcode": 654301,
            "province": "新疆维吾尔自治区",
            "city": "阿勒泰地区",
            "district": "阿勒泰市"
        }
    },
    {
        "id": "3085582176807116253",
        "title": "公共厕所(内部专用)",
        "address": "新疆维吾尔自治区阿勒泰地区阿勒泰市阿勒泰雪都机场",
        "tel": "",
        "category": "基础设施:公共设施:公共厕所",
        "type": 0,
        "location": {
            "lat": 47.75455,
            "lng": 88.089264
        },
        "ad_info": {
            "adcode": 654301,
            "province": "新疆维吾尔自治区",
            "city": "阿勒泰地区",
            "district": "阿勒泰市"
        }
    },
    {
        "id": "8425514001707726097",
        "title": "公共厕所",
        "address": "新疆维吾尔自治区阿勒泰地区布尔津县喀纳斯路与禾木路交叉口正西方向34米左右",
        "tel": "",
        "category": "基础设施:公共设施:公共厕所",
        "type": 0,
        "location": {
            "lat": 47.705228,
            "lng": 86.867138
        },
        "ad_info": {
            "adcode": 654321,
            "province": "新疆维吾尔自治区",
            "city": "阿勒泰地区",
            "district": "布尔津县"
        }
    },
    {
        "id": "8194484608791861318",
        "title": "公共厕所",
        "address": "新疆维吾尔自治区阿勒泰地区布尔津县G331与S227交叉口正西方向509米",
        "tel": "",
        "category": "基础设施:公共设施:公共厕所",
        "type": 0,
        "location": {
            "lat": 47.840628,
            "lng": 86.674945
        },
        "ad_info": {
            "adcode": 654321,
            "province": "新疆维吾尔自治区",
            "city": "阿勒泰地区",
            "district": "布尔津县"
        }
    },
    {
        "id": "6929735009089350491",
        "title": "黄花沟服务区公共厕所",
        "address": "新疆维吾尔自治区阿勒泰地区福海县与S21阿乌高速交叉口南460米",
        "tel": "",
        "category": "基础设施:公共设施:公共厕所",
        "type": 0,
        "location": {
            "lat": 46.533606,
            "lng": 87.549855
        },
        "ad_info": {
            "adcode": 654323,
            "province": "新疆维吾尔自治区",
            "city": "阿勒泰地区",
            "district": "福海县"
        }
    },
    {
        "id": "14959525785215321754",
        "title": "克拉美丽服务区公共厕所",
        "address": "新疆维吾尔自治区阿勒泰地区福海县克拉美丽服务区西30米",
        "tel": "",
        "category": "基础设施:公共设施:公共厕所",
        "type": 0,
        "location": {
            "lat": 45.251552,
            "lng": 87.404165
        },
        "ad_info": {
            "adcode": 654323,
            "province": "新疆维吾尔自治区",
            "city": "阿勒泰地区",
            "district": "福海县"
        }
    },
    {
        "id": "868947400928708336",
        "title": "黄花沟服务区公共厕所",
        "address": "新疆维吾尔自治区阿勒泰地区福海县黄花沟服务区东侧",
        "tel": "",
        "category": "基础设施:公共设施:公共厕所",
        "type": 0,
        "location": {
            "lat": 46.532778,
            "lng": 87.552898
        },
        "ad_info": {
            "adcode": 654323,
            "province": "新疆维吾尔自治区",
            "city": "阿勒泰地区",
            "district": "福海县"
        }
    },
    {
        "id": "9898894175187632528",
        "title": "阿勒泰市塘巴湖水上乐园公共厕所",
        "address": "新疆维吾尔自治区阿勒泰地区阿勒泰市阿勒泰塘巴湖度假酒店西侧110米",
        "tel": "",
        "category": "基础设施:公共设施:公共厕所",
        "type": 0,
        "location": {
            "lat": 47.619802,
            "lng": 88.262607
        },
        "ad_info": {
            "adcode": 654301,
            "province": "新疆维吾尔自治区",
            "city": "阿勒泰地区",
            "district": "阿勒泰市"
        }
    },
    {
        "id": "1974201984599289466",
        "title": "喀拉玛盖乡服务区公共厕所",
        "address": "新疆维吾尔自治区阿勒泰地区福海县喀拉玛盖乡服务区北40米",
        "tel": "",
        "category": "基础设施:公共设施:公共厕所",
        "type": 0,
        "location": {
            "lat": 47.187354,
            "lng": 88.428923
        },
        "ad_info": {
            "adcode": 654323,
            "province": "新疆维吾尔自治区",
            "city": "阿勒泰地区",
            "district": "福海县"
        }
    },
    {
        "id": "9757586532012334512",
        "title": "喀拉玛盖乡服务区公共厕所",
        "address": "新疆维吾尔自治区阿勒泰地区福海县喀拉玛盖乡服务区南40米",
        "tel": "",
        "category": "基础设施:公共设施:公共厕所",
        "type": 0,
        "location": {
            "lat": 47.189113,
            "lng": 88.430127
        },
        "ad_info": {
            "adcode": 654323,
            "province": "新疆维吾尔自治区",
            "city": "阿勒泰地区",
            "district": "福海县"
        }
    },
    {
        "id": "293718473713699378",
        "title": "喀纳斯天缘山庄-洗手间",
        "address": "新疆维吾尔自治区阿勒泰地区哈巴河县",
        "tel": "",
        "category": "基础设施:公共设施:公共厕所",
        "type": 0,
        "location": {
            "lat": 48.815509,
            "lng": 86.917169
        },
        "ad_info": {
            "adcode": 654324,
            "province": "新疆维吾尔自治区",
            "city": "阿勒泰地区",
            "district": "哈巴河县"
        }
    },
    {
        "id": "3151101194889100537",
        "title": "吉木乃草原石城景区厕所",
        "address": "新疆维吾尔自治区阿勒泰地区吉木乃县托斯特乡附近",
        "tel": "",
        "category": "基础设施:公共设施:公共厕所",
        "type": 0,
        "location": {
            "lat": 47.175011,
            "lng": 86.12779
        },
        "ad_info": {
            "adcode": 654326,
            "province": "新疆维吾尔自治区",
            "city": "阿勒泰地区",
            "district": "吉木乃县"
        }
    },
    {
        "id": "14553665063315149575",
        "title": "福海渔场服务区公共厕所",
        "address": "新疆维吾尔自治区阿勒泰地区福海县中国石油福海渔场服务区加油站西北侧220米",
        "tel": "",
        "category": "基础设施:公共设施:公共厕所",
        "type": 0,
        "location": {
            "lat": 47.013839,
            "lng": 87.267571
        },
        "ad_info": {
            "adcode": 654323,
            "province": "新疆维吾尔自治区",
            "city": "阿勒泰地区",
            "district": "福海县"
        }
    },
    {
        "id": "18121868447918376275",
        "title": "福海渔场服务区公共厕所",
        "address": "新疆维吾尔自治区阿勒泰地区福海县奎阿高速福海渔场服务区",
        "tel": "",
        "category": "基础设施:公共设施:公共厕所",
        "type": 0,
        "location": {
            "lat": 47.012334,
            "lng": 87.264348
        },
        "ad_info": {
            "adcode": 654323,
            "province": "新疆维吾尔自治区",
            "city": "阿勒泰地区",
            "district": "福海县"
        }
    }
]