[
    {
        "id": "3005099785138068459",
        "title": "公共厕所",
        "address": "新疆维吾尔自治区阿拉尔市南泥湾大道与阿拉尔大街交叉口西南方向135米左右",
        "tel": "",
        "category": "基础设施:公共设施:公共厕所",
        "type": 0,
        "location": {
            "lat": 40.555098,
            "lng": 81.280803
        },
        "ad_info": {
            "adcode": 659002,
            "province": "新疆维吾尔自治区",
            "city": "",
            "district": "阿拉尔市"
        }
    },
    {
        "id": "5569098929950971842",
        "title": "公共厕所",
        "address": "新疆维吾尔自治区阿拉尔市塔里木大道与青松路交叉口东南方向257米左右",
        "tel": "",
        "category": "基础设施:公共设施:公共厕所",
        "type": 0,
        "location": {
            "lat": 40.540038,
            "lng": 81.266765
        },
        "ad_info": {
            "adcode": 659002,
            "province": "新疆维吾尔自治区",
            "city": "",
            "district": "阿拉尔市"
        }
    },
    {
        "id": "13185290101941624748",
        "title": "公共厕所",
        "address": "新疆维吾尔自治区阿拉尔市新井子路明珠商业街",
        "tel": "",
        "category": "基础设施:公共设施:公共厕所",
        "type": 0,
        "location": {
            "lat": 40.549707,
            "lng": 81.269143
        },
        "ad_info": {
            "adcode": 659002,
            "province": "新疆维吾尔自治区",
            "city": "",
            "district": "阿拉尔市"
        }
    },
    {
        "id": "6795691695733447607",
        "title": "公共厕所",
        "address": "新疆维吾尔自治区阿拉尔市塔里木大道与阿拉尔桃源商业步行街交叉口正北方向74米左右",
        "tel": "",
        "category": "基础设施:公共设施:公共厕所",
        "type": 0,
        "location": {
            "lat": 40.54034,
            "lng": 81.28649
        },
        "ad_info": {
            "adcode": 659002,
            "province": "新疆维吾尔自治区",
            "city": "",
            "district": "阿拉尔市"
        }
    },
    {
        "id": "17454304070816750488",
        "title": "公共厕所",
        "address": "新疆维吾尔自治区阿拉尔市文苑路与青松路交叉口西南方向37米左右",
        "tel": "",
        "category": "基础设施:公共设施:公共厕所",
        "type": 0,
        "location": {
            "lat": 40.544073,
            "lng": 81.264354
        },
        "ad_info": {
            "adcode": 659002,
            "province": "新疆维吾尔自治区",
            "city": "",
            "district": "阿拉尔市"
        }
    },
    {
        "id": "3899793164010424486",
        "title": "公共厕所",
        "address": "新疆维吾尔自治区阿拉尔市云秀路与大学路交叉口正东方向56米左右",
        "tel": "",
        "category": "基础设施:公共设施:公共厕所",
        "type": 0,
        "location": {
            "lat": 40.550167,
            "lng": 81.295806
        },
        "ad_info": {
            "adcode": 659002,
            "province": "新疆维吾尔自治区",
            "city": "",
            "district": "阿拉尔市"
        }
    },
    {
        "id": "996308950477039536",
        "title": "公共厕所",
        "address": "新疆维吾尔自治区阿拉尔市南泥湾大道与阿拉尔大街交叉口正南方向199米左右",
        "tel": "",
        "category": "基础设施:公共设施:公共厕所",
        "type": 0,
        "location": {
            "lat": 40.554247,
            "lng": 81.282099
        },
        "ad_info": {
            "adcode": 659002,
            "province": "新疆维吾尔自治区",
            "city": "",
            "district": "阿拉尔市"
        }
    },
    {
        "id": "16768244512904176469",
        "title": "公共厕所",
        "address": "新疆维吾尔自治区阿拉尔市新一路与洁五路交叉口正南方向307米左右",
        "tel": "",
        "category": "基础设施:公共设施:公共厕所",
        "type": 0,
        "location": {
            "lat": 40.549632,
            "lng": 81.221862
        },
        "ad_info": {
            "adcode": 659002,
            "province": "新疆维吾尔自治区",
            "city": "",
            "district": "阿拉尔市"
        }
    },
    {
        "id": "5926872056522102312",
        "title": "公共厕所",
        "address": "新疆维吾尔自治区阿拉尔市胜利大道与青松路交叉口正东方向118米左右",
        "tel": "",
        "category": "基础设施:公共设施:公共厕所",
        "type": 0,
        "location": {
            "lat": 40.546856,
            "lng": 81.266217
        },
        "ad_info": {
            "adcode": 659002,
            "province": "新疆维吾尔自治区",
            "city": "",
            "district": "阿拉尔市"
        }
    },
    {
        "id": "12358458824044021108",
        "title": "公共厕所",
        "address": "新疆维吾尔自治区阿拉尔市十六团第二中学西北侧180米",
        "tel": "",
        "category": "基础设施:公共设施:公共厕所",
        "type": 0,
        "location": {
            "lat": 40.495123,
            "lng": 80.841811
        },
        "ad_info": {
            "adcode": 659002,
            "province": "新疆维吾尔自治区",
            "city": "",
            "district": "阿拉尔市"
        }
    },
    {
        "id": "4479126613154065927",
        "title": "公共厕所",
        "address": "新疆维吾尔自治区阿拉尔市云秀路与阿拉尔大街交叉口正北方向270米左右",
        "tel": "",
        "category": "基础设施:公共设施:公共厕所",
        "type": 0,
        "location": {
            "lat": 40.55349,
            "lng": 81.280373
        },
        "ad_info": {
            "adcode": 659002,
            "province": "新疆维吾尔自治区",
            "city": "",
            "district": "阿拉尔市"
        }
    },
    {
        "id": "11422486353103914554",
        "title": "公共厕所",
        "address": "新疆维吾尔自治区阿拉尔市云秀路与兴业巷交叉口正北方向254米左右",
        "tel": "",
        "category": "基础设施:公共设施:公共厕所",
        "type": 0,
        "location": {
            "lat": 40.553405,
            "lng": 81.281944
        },
        "ad_info": {
            "adcode": 659002,
            "province": "新疆维吾尔自治区",
            "city": "",
            "district": "阿拉尔市"
        }
    },
    {
        "id": "14132850400949899424",
        "title": "公共厕所",
        "address": "新疆维吾尔自治区阿拉尔市南口路789号",
        "tel": "",
        "category": "基础设施:公共设施:公共厕所",
        "type": 0,
        "location": {
            "lat": 40.541793,
            "lng": 81.254994
        },
        "ad_info": {
            "adcode": 659002,
            "province": "新疆维吾尔自治区",
            "city": "",
            "district": "阿拉尔市"
        }
    },
    {
        "id": "7868483625657840069",
        "title": "公共厕所",
        "address": "新疆维吾尔自治区阿拉尔市将军大街与长安路交叉口东南方向116米左右",
        "tel": "",
        "category": "基础设施:公共设施:公共厕所",
        "type": 0,
        "location": {
            "lat": 40.506649,
            "lng": 81.306617
        },
        "ad_info": {
            "adcode": 659002,
            "province": "新疆维吾尔自治区",
            "city": "",
            "district": "阿拉尔市"
        }
    },
    {
        "id": "1691270051018460967",
        "title": "公共厕所",
        "address": "新疆维吾尔自治区阿拉尔市南一路与迎宾路交叉口西北方向45米左右",
        "tel": "",
        "category": "基础设施:公共设施:公共厕所",
        "type": 0,
        "location": {
            "lat": 40.606101,
            "lng": 81.331269
        },
        "ad_info": {
            "adcode": 659002,
            "province": "新疆维吾尔自治区",
            "city": "",
            "district": "阿拉尔市"
        }
    },
    {
        "id": "17301928317453922343",
        "title": "公共厕所",
        "address": "新疆维吾尔自治区阿拉尔市十二团三五九旅是模范红色演绎区内2号公厕",
        "tel": "",
        "category": "基础设施:公共设施:公共厕所",
        "type": 0,
        "location": {
            "lat": 40.520632,
            "lng": 81.29829
        },
        "ad_info": {
            "adcode": 659002,
            "province": "新疆维吾尔自治区",
            "city": "",
            "district": "阿拉尔市"
        }
    },
    {
        "id": "18219557707498456332",
        "title": "公共厕所",
        "address": "新疆维吾尔自治区阿拉尔市G217与S308交叉口正西方向55米左右",
        "tel": "",
        "category": "基础设施:公共设施:公共厕所",
        "type": 0,
        "location": {
            "lat": 40.626741,
            "lng": 81.559055
        },
        "ad_info": {
            "adcode": 659002,
            "province": "新疆维吾尔自治区",
            "city": "",
            "district": "阿拉尔市"
        }
    },
    {
        "id": "17200024027468068363",
        "title": "公共厕所",
        "address": "新疆维吾尔自治区阿拉尔市将军大街与振兴路交叉口正西方向192米左右",
        "tel": "",
        "category": "基础设施:公共设施:公共厕所",
        "type": 0,
        "location": {
            "lat": 40.50492,
            "lng": 81.304962
        },
        "ad_info": {
            "adcode": 659002,
            "province": "新疆维吾尔自治区",
            "city": "",
            "district": "阿拉尔市"
        }
    },
    {
        "id": "4501446949686255279",
        "title": "公共厕所",
        "address": "新疆维吾尔自治区阿拉尔市G217",
        "tel": "",
        "category": "基础设施:公共设施:公共厕所",
        "type": 0,
        "location": {
            "lat": 40.618636,
            "lng": 81.791049
        },
        "ad_info": {
            "adcode": 659002,
            "province": "新疆维吾尔自治区",
            "city": "",
            "district": "阿拉尔市"
        }
    },
    {
        "id": "13381789315708284923",
        "title": "公共厕所",
        "address": "新疆维吾尔自治区阿拉尔市S309与白云路交叉口正西方向1182米左右",
        "tel": "",
        "category": "基础设施:公共设施:公共厕所",
        "type": 0,
        "location": {
            "lat": 40.493839,
            "lng": 81.231139
        },
        "ad_info": {
            "adcode": 659002,
            "province": "新疆维吾尔自治区",
            "city": "",
            "district": "阿拉尔市"
        }
    },
    {
        "id": "18070068427561722565",
        "title": "公共厕所",
        "address": "新疆维吾尔自治区阿拉尔市三五九旅是模范红色演绎区入口",
        "tel": "",
        "category": "基础设施:公共设施:公共厕所",
        "type": 0,
        "location": {
            "lat": 40.518413,
            "lng": 81.297717
        },
        "ad_info": {
            "adcode": 659002,
            "province": "新疆维吾尔自治区",
            "city": "",
            "district": "阿拉尔市"
        }
    },
    {
        "id": "12161780382716418539",
        "title": "公共厕所",
        "address": "新疆维吾尔自治区阿拉尔市团结东路2-28号",
        "tel": "",
        "category": "基础设施:公共设施:公共厕所",
        "type": 0,
        "location": {
            "lat": 40.493222,
            "lng": 80.833504
        },
        "ad_info": {
            "adcode": 659002,
            "province": "新疆维吾尔自治区",
            "city": "",
            "district": "阿拉尔市"
        }
    },
    {
        "id": "16590779224865184211",
        "title": "公共厕所",
        "address": "新疆维吾尔自治区阿拉尔市X005与玛十段交叉口西南方向612米左右",
        "tel": "",
        "category": "基础设施:公共设施:公共厕所",
        "type": 0,
        "location": {
            "lat": 40.602541,
            "lng": 80.691816
        },
        "ad_info": {
            "adcode": 659002,
            "province": "新疆维吾尔自治区",
            "city": "",
            "district": "阿拉尔市"
        }
    },
    {
        "id": "12370851234966632991",
        "title": "公共厕所",
        "address": "新疆维吾尔自治区阿拉尔市大学路与阳光巷交叉口正东方向230米左右",
        "tel": "",
        "category": "基础设施:公共设施:公共厕所",
        "type": 0,
        "location": {
            "lat": 40.565256,
            "lng": 81.29982
        },
        "ad_info": {
            "adcode": 659002,
            "province": "新疆维吾尔自治区",
            "city": "",
            "district": "阿拉尔市"
        }
    },
    {
        "id": "12805562309119559745",
        "title": "免费公共厕所",
        "address": "新疆维吾尔自治区阿拉尔市云秀路与幸福路交叉口西北方向50米左右",
        "tel": "",
        "category": "基础设施:公共设施:公共厕所",
        "type": 0,
        "location": {
            "lat": 40.550757,
            "lng": 81.288799
        },
        "ad_info": {
            "adcode": 659002,
            "province": "新疆维吾尔自治区",
            "city": "",
            "district": "阿拉尔市"
        }
    },
    {
        "id": "10701413003536035380",
        "title": "公共厕所",
        "address": "新疆维吾尔自治区阿拉尔市梧桐路(塔里木大学东区操场旁)",
        "tel": "",
        "category": "基础设施:公共设施:公共厕所",
        "type": 0,
        "location": {
            "lat": 40.546817,
            "lng": 81.298661
        },
        "ad_info": {
            "adcode": 659002,
            "province": "新疆维吾尔自治区",
            "city": "",
            "district": "阿拉尔市"
        }
    },
    {
        "id": "17533586615613184437",
        "title": "金银川路公共厕所",
        "address": "新疆维吾尔自治区阿拉尔市云秀路与金银川路交叉口正北方向195米左右",
        "tel": "",
        "category": "基础设施:公共设施:公共厕所",
        "type": 0,
        "location": {
            "lat": 40.553222,
            "lng": 81.276296
        },
        "ad_info": {
            "adcode": 659002,
            "province": "新疆维吾尔自治区",
            "city": "",
            "district": "阿拉尔市"
        }
    },
    {
        "id": "14285654258841783274",
        "title": "印象蓝泊湾生态观光园公共厕所",
        "address": "新疆维吾尔自治区阿拉尔市印象蓝泊湾生态观光园内",
        "tel": "",
        "category": "基础设施:公共设施:公共厕所",
        "type": 0,
        "location": {
            "lat": 40.566455,
            "lng": 81.262246
        },
        "ad_info": {
            "adcode": 659002,
            "province": "新疆维吾尔自治区",
            "city": "",
            "district": "阿拉尔市"
        }
    },
    {
        "id": "17814327582401928912",
        "title": "荷花公园西湖-公共厕所",
        "address": "新疆维吾尔自治区阿拉尔市新一段与新农段交叉口西南方向1898米左右",
        "tel": "",
        "category": "基础设施:公共设施:公共厕所",
        "type": 0,
        "location": {
            "lat": 40.494475,
            "lng": 80.831593
        },
        "ad_info": {
            "adcode": 659002,
            "province": "新疆维吾尔自治区",
            "city": "",
            "district": "阿拉尔市"
        }
    },
    {
        "id": "6432931724213651402",
        "title": "荷花公园-公共厕所",
        "address": "新疆维吾尔自治区阿拉尔市团结东路2-28号",
        "tel": "",
        "category": "基础设施:公共设施:公共厕所",
        "type": 0,
        "location": {
            "lat": 40.49176,
            "lng": 80.83938
        },
        "ad_info": {
            "adcode": 659002,
            "province": "新疆维吾尔自治区",
            "city": "",
            "district": "阿拉尔市"
        }
    }
]