[
    {
        "id": "2917419068459262900",
        "title": "公共厕所",
        "address": "内蒙古自治区阿拉善盟额济纳旗劳动渠路与胡杨东街交叉口西南方向47米左右",
        "tel": "",
        "category": "基础设施:公共设施:公共厕所",
        "type": 0,
        "location": {
            "lat": 41.961893,
            "lng": 101.063722
        },
        "ad_info": {
            "adcode": 152923,
            "province": "内蒙古自治区",
            "city": "阿拉善盟",
            "district": "额济纳旗"
        }
    },
    {
        "id": "6123270066695112315",
        "title": "公共厕所",
        "address": "内蒙古自治区阿拉善盟阿拉善右旗广场路与曼德拉路交叉口西北方向65米左右",
        "tel": "",
        "category": "基础设施:公共设施:公共厕所",
        "type": 0,
        "location": {
            "lat": 39.215559,
            "lng": 101.671776
        },
        "ad_info": {
            "adcode": 152922,
            "province": "内蒙古自治区",
            "city": "阿拉善盟",
            "district": "阿拉善右旗"
        }
    },
    {
        "id": "3158560564991453342",
        "title": "公共卫生间",
        "address": "内蒙古自治区阿拉善盟额济纳旗湿地文化公园西南角",
        "tel": "",
        "category": "基础设施:公共设施:公共厕所",
        "type": 0,
        "location": {
            "lat": 41.966943,
            "lng": 101.045113
        },
        "ad_info": {
            "adcode": 152923,
            "province": "内蒙古自治区",
            "city": "阿拉善盟",
            "district": "额济纳旗"
        }
    },
    {
        "id": "860842707768421013",
        "title": "公共卫生间",
        "address": "内蒙古自治区阿拉善盟额济纳旗算井子巷",
        "tel": "",
        "category": "基础设施:公共设施:公共厕所",
        "type": 0,
        "location": {
            "lat": 41.954419,
            "lng": 101.067003
        },
        "ad_info": {
            "adcode": 152923,
            "province": "内蒙古自治区",
            "city": "阿拉善盟",
            "district": "额济纳旗"
        }
    },
    {
        "id": "17994115089613882939",
        "title": "公共卫生间",
        "address": "内蒙古自治区阿拉善盟额济纳旗赛汗东街",
        "tel": "",
        "category": "基础设施:公共设施:公共厕所",
        "type": 0,
        "location": {
            "lat": 41.970404,
            "lng": 101.05732
        },
        "ad_info": {
            "adcode": 152923,
            "province": "内蒙古自治区",
            "city": "阿拉善盟",
            "district": "额济纳旗"
        }
    },
    {
        "id": "12372119925752742000",
        "title": "公共厕所",
        "address": "内蒙古自治区阿拉善盟阿拉善右旗团结巷与树贵路交叉口正北方向108米左右",
        "tel": "",
        "category": "基础设施:公共设施:公共厕所",
        "type": 0,
        "location": {
            "lat": 39.210862,
            "lng": 101.668856
        },
        "ad_info": {
            "adcode": 152922,
            "province": "内蒙古自治区",
            "city": "阿拉善盟",
            "district": "阿拉善右旗"
        }
    },
    {
        "id": "10544774603194617497",
        "title": "公共卫生间",
        "address": "内蒙古自治区阿拉善盟额济纳旗居延西街居延海公园北侧出口西",
        "tel": "",
        "category": "基础设施:公共设施:公共厕所",
        "type": 0,
        "location": {
            "lat": 41.951719,
            "lng": 101.046956
        },
        "ad_info": {
            "adcode": 152923,
            "province": "内蒙古自治区",
            "city": "阿拉善盟",
            "district": "额济纳旗"
        }
    },
    {
        "id": "5535435575935771359",
        "title": "公共卫生间",
        "address": "内蒙古自治区阿拉善盟额济纳旗环城南路",
        "tel": "",
        "category": "基础设施:公共设施:公共厕所",
        "type": 0,
        "location": {
            "lat": 41.946269,
            "lng": 101.046658
        },
        "ad_info": {
            "adcode": 152923,
            "province": "内蒙古自治区",
            "city": "阿拉善盟",
            "district": "额济纳旗"
        }
    },
    {
        "id": "1766441435976012988",
        "title": "公共厕所",
        "address": "内蒙古自治区阿拉善盟额济纳旗额旗纳中铁一局东北(786县道)",
        "tel": "",
        "category": "基础设施:公共设施:公共厕所",
        "type": 0,
        "location": {
            "lat": 42.03006,
            "lng": 100.917097
        },
        "ad_info": {
            "adcode": 152923,
            "province": "内蒙古自治区",
            "city": "阿拉善盟",
            "district": "额济纳旗"
        }
    },
    {
        "id": "17106062747340685687",
        "title": "公共厕所",
        "address": "内蒙古自治区阿拉善盟阿拉善右旗东环城路与居民巷交叉口正南方向92米左右",
        "tel": "",
        "category": "基础设施:公共设施:公共厕所",
        "type": 0,
        "location": {
            "lat": 39.210986,
            "lng": 101.683526
        },
        "ad_info": {
            "adcode": 152922,
            "province": "内蒙古自治区",
            "city": "阿拉善盟",
            "district": "阿拉善右旗"
        }
    },
    {
        "id": "17743333391205507967",
        "title": "公共卫生间",
        "address": "内蒙古自治区阿拉善盟额济纳旗牧人东街",
        "tel": "",
        "category": "基础设施:公共设施:公共厕所",
        "type": 0,
        "location": {
            "lat": 41.966644,
            "lng": 101.070118
        },
        "ad_info": {
            "adcode": 152923,
            "province": "内蒙古自治区",
            "city": "阿拉善盟",
            "district": "额济纳旗"
        }
    },
    {
        "id": "3869493914871899731",
        "title": "公共卫生间",
        "address": "内蒙古自治区阿拉善盟额济纳旗赛汗东街",
        "tel": "",
        "category": "基础设施:公共设施:公共厕所",
        "type": 0,
        "location": {
            "lat": 41.970161,
            "lng": 101.063668
        },
        "ad_info": {
            "adcode": 152923,
            "province": "内蒙古自治区",
            "city": "阿拉善盟",
            "district": "额济纳旗"
        }
    },
    {
        "id": "7336319586040057596",
        "title": "公共卫生间",
        "address": "内蒙古自治区阿拉善盟额济纳旗牧人西街",
        "tel": "",
        "category": "基础设施:公共设施:公共厕所",
        "type": 0,
        "location": {
            "lat": 41.966601,
            "lng": 101.048668
        },
        "ad_info": {
            "adcode": 152923,
            "province": "内蒙古自治区",
            "city": "阿拉善盟",
            "district": "额济纳旗"
        }
    },
    {
        "id": "2271745508507499784",
        "title": "公共卫生间",
        "address": "内蒙古自治区阿拉善盟额济纳旗胡杨西街",
        "tel": "",
        "category": "基础设施:公共设施:公共厕所",
        "type": 0,
        "location": {
            "lat": 41.96375,
            "lng": 101.046268
        },
        "ad_info": {
            "adcode": 152923,
            "province": "内蒙古自治区",
            "city": "阿拉善盟",
            "district": "额济纳旗"
        }
    },
    {
        "id": "11085573121586347842",
        "title": "公共卫生间",
        "address": "内蒙古自治区阿拉善盟额济纳旗航天南路额济纳旗检察院西侧",
        "tel": "",
        "category": "基础设施:公共设施:公共厕所",
        "type": 0,
        "location": {
            "lat": 41.950108,
            "lng": 101.051548
        },
        "ad_info": {
            "adcode": 152923,
            "province": "内蒙古自治区",
            "city": "阿拉善盟",
            "district": "额济纳旗"
        }
    },
    {
        "id": "10926334790619974345",
        "title": "公共卫生间",
        "address": "内蒙古自治区阿拉善盟额济纳旗苏泊淖尔南路与居延街交叉路口西南角",
        "tel": "",
        "category": "基础设施:公共设施:公共厕所",
        "type": 0,
        "location": {
            "lat": 41.951742,
            "lng": 101.070481
        },
        "ad_info": {
            "adcode": 152923,
            "province": "内蒙古自治区",
            "city": "阿拉善盟",
            "district": "额济纳旗"
        }
    },
    {
        "id": "527846292259320002",
        "title": "公共厕所",
        "address": "内蒙古自治区阿拉善盟阿拉善右旗北环城路与阿拉腾路交叉口东南方向48米左右",
        "tel": "",
        "category": "基础设施:公共设施:公共厕所",
        "type": 0,
        "location": {
            "lat": 39.219409,
            "lng": 101.675664
        },
        "ad_info": {
            "adcode": 152922,
            "province": "内蒙古自治区",
            "city": "阿拉善盟",
            "district": "阿拉善右旗"
        }
    },
    {
        "id": "6805421083190874411",
        "title": "公共厕所",
        "address": "内蒙古自治区阿拉善盟额济纳旗北环路与经五路交叉口正南方向488米左右",
        "tel": "",
        "category": "基础设施:公共设施:公共厕所",
        "type": 0,
        "location": {
            "lat": 42.569797,
            "lng": 101.279182
        },
        "ad_info": {
            "adcode": 152923,
            "province": "内蒙古自治区",
            "city": "阿拉善盟",
            "district": "额济纳旗"
        }
    },
    {
        "id": "7303226565643153277",
        "title": "公共厕所",
        "address": "内蒙古自治区阿拉善盟阿拉善右旗S228与南环城路交叉口西北方向133米左右",
        "tel": "",
        "category": "基础设施:公共设施:公共厕所",
        "type": 0,
        "location": {
            "lat": 39.203988,
            "lng": 101.687466
        },
        "ad_info": {
            "adcode": 152922,
            "province": "内蒙古自治区",
            "city": "阿拉善盟",
            "district": "阿拉善右旗"
        }
    },
    {
        "id": "10690382679385654025",
        "title": "公共厕所",
        "address": "内蒙古自治区阿拉善盟额济纳旗G331与朱公桥交叉口正东方向694米左右",
        "tel": "",
        "category": "基础设施:公共设施:公共厕所",
        "type": 0,
        "location": {
            "lat": 41.960663,
            "lng": 101.08688
        },
        "ad_info": {
            "adcode": 152923,
            "province": "内蒙古自治区",
            "city": "阿拉善盟",
            "district": "额济纳旗"
        }
    },
    {
        "id": "15750336727453912386",
        "title": "公共厕所",
        "address": "内蒙古自治区阿拉善盟阿拉善左旗中华路与百灵街交叉口东南方向301米左右",
        "tel": "",
        "category": "基础设施:公共设施:公共厕所",
        "type": 0,
        "location": {
            "lat": 39.41865,
            "lng": 106.661479
        },
        "ad_info": {
            "adcode": 152921,
            "province": "内蒙古自治区",
            "city": "阿拉善盟",
            "district": "阿拉善左旗"
        }
    },
    {
        "id": "6259377972014607654",
        "title": "公共厕所",
        "address": "内蒙古自治区阿拉善盟阿拉善右旗学校巷与树贵路交叉口正北方向179米左右",
        "tel": "",
        "category": "基础设施:公共设施:公共厕所",
        "type": 0,
        "location": {
            "lat": 39.211389,
            "lng": 101.662481
        },
        "ad_info": {
            "adcode": 152922,
            "province": "内蒙古自治区",
            "city": "阿拉善盟",
            "district": "阿拉善右旗"
        }
    },
    {
        "id": "17950444505637945988",
        "title": "公共卫生间",
        "address": "内蒙古自治区阿拉善盟额济纳旗环城东路",
        "tel": "",
        "category": "基础设施:公共设施:公共厕所",
        "type": 0,
        "location": {
            "lat": 41.963485,
            "lng": 101.076724
        },
        "ad_info": {
            "adcode": 152923,
            "province": "内蒙古自治区",
            "city": "阿拉善盟",
            "district": "额济纳旗"
        }
    },
    {
        "id": "193137183799711608",
        "title": "公共卫生间",
        "address": "内蒙古自治区阿拉善盟额济纳旗居延名郡小区北50米(环城南路北)",
        "tel": "",
        "category": "基础设施:公共设施:公共厕所",
        "type": 0,
        "location": {
            "lat": 41.946307,
            "lng": 101.052219
        },
        "ad_info": {
            "adcode": 152923,
            "province": "内蒙古自治区",
            "city": "阿拉善盟",
            "district": "额济纳旗"
        }
    },
    {
        "id": "33475005718485612",
        "title": "公共厕所",
        "address": "内蒙古自治区阿拉善盟额济纳旗新华街与苏泊淖尔路交叉口正北方向99米左右",
        "tel": "",
        "category": "基础设施:公共设施:公共厕所",
        "type": 0,
        "location": {
            "lat": 41.960636,
            "lng": 101.07081
        },
        "ad_info": {
            "adcode": 152923,
            "province": "内蒙古自治区",
            "city": "阿拉善盟",
            "district": "额济纳旗"
        }
    },
    {
        "id": "9609843932062153337",
        "title": "公共卫生间",
        "address": "内蒙古自治区阿拉善盟额济纳旗达来呼布南路",
        "tel": "",
        "category": "基础设施:公共设施:公共厕所",
        "type": 0,
        "location": {
            "lat": 41.942807,
            "lng": 101.060377
        },
        "ad_info": {
            "adcode": 152923,
            "province": "内蒙古自治区",
            "city": "阿拉善盟",
            "district": "额济纳旗"
        }
    },
    {
        "id": "5070228932219975953",
        "title": "公共卫生间",
        "address": "内蒙古自治区阿拉善盟额济纳旗温图高勒路南500号华东大酒店",
        "tel": "",
        "category": "基础设施:公共设施:公共厕所",
        "type": 0,
        "location": {
            "lat": 41.959808,
            "lng": 101.075414
        },
        "ad_info": {
            "adcode": 152923,
            "province": "内蒙古自治区",
            "city": "阿拉善盟",
            "district": "额济纳旗"
        }
    },
    {
        "id": "14982315986823442497",
        "title": "公共厕所",
        "address": "内蒙古自治区阿拉善盟阿拉善右旗G307与S212交叉口正东方向342米左右",
        "tel": "",
        "category": "基础设施:公共设施:公共厕所",
        "type": 0,
        "location": {
            "lat": 39.434838,
            "lng": 102.784092
        },
        "ad_info": {
            "adcode": 152922,
            "province": "内蒙古自治区",
            "city": "阿拉善盟",
            "district": "阿拉善右旗"
        }
    },
    {
        "id": "4584105747155161527",
        "title": "公共厕所",
        "address": "内蒙古自治区阿拉善盟阿拉善右旗居民巷与气象巷交叉口正西方向138米左右",
        "tel": "",
        "category": "基础设施:公共设施:公共厕所",
        "type": 0,
        "location": {
            "lat": 39.211617,
            "lng": 101.677555
        },
        "ad_info": {
            "adcode": 152922,
            "province": "内蒙古自治区",
            "city": "阿拉善盟",
            "district": "阿拉善右旗"
        }
    },
    {
        "id": "2040138652292573790",
        "title": "公共卫生间",
        "address": "内蒙古自治区阿拉善盟额济纳旗胡杨西街",
        "tel": "",
        "category": "基础设施:公共设施:公共厕所",
        "type": 0,
        "location": {
            "lat": 41.962097,
            "lng": 101.047647
        },
        "ad_info": {
            "adcode": 152923,
            "province": "内蒙古自治区",
            "city": "阿拉善盟",
            "district": "额济纳旗"
        }
    },
    {
        "id": "13436651731698602806",
        "title": "公共厕所",
        "address": "内蒙古自治区阿拉善盟额济纳旗军民东街",
        "tel": "",
        "category": "基础设施:公共设施:公共厕所",
        "type": 0,
        "location": {
            "lat": 41.95794,
            "lng": 101.064699
        },
        "ad_info": {
            "adcode": 152923,
            "province": "内蒙古自治区",
            "city": "阿拉善盟",
            "district": "额济纳旗"
        }
    },
    {
        "id": "12871439690674768723",
        "title": "公共厕所",
        "address": "内蒙古自治区阿拉善盟额济纳旗312省道北100米",
        "tel": "",
        "category": "基础设施:公共设施:公共厕所",
        "type": 0,
        "location": {
            "lat": 42.040409,
            "lng": 101.316186
        },
        "ad_info": {
            "adcode": 152923,
            "province": "内蒙古自治区",
            "city": "阿拉善盟",
            "district": "额济纳旗"
        }
    },
    {
        "id": "3854920076215818312",
        "title": "公共厕所",
        "address": "内蒙古自治区阿拉善盟阿拉善右旗G307与S317交叉口西北方向1973米左右",
        "tel": "",
        "category": "基础设施:公共设施:公共厕所",
        "type": 0,
        "location": {
            "lat": 40.264293,
            "lng": 104.518826
        },
        "ad_info": {
            "adcode": 152922,
            "province": "内蒙古自治区",
            "city": "阿拉善盟",
            "district": "阿拉善右旗"
        }
    },
    {
        "id": "3950831635958262613",
        "title": "公共厕所",
        "address": "内蒙古自治区阿拉善盟阿拉善右旗317省道北100米",
        "tel": "",
        "category": "基础设施:公共设施:公共厕所",
        "type": 0,
        "location": {
            "lat": 40.266487,
            "lng": 104.510801
        },
        "ad_info": {
            "adcode": 152922,
            "province": "内蒙古自治区",
            "city": "阿拉善盟",
            "district": "阿拉善右旗"
        }
    },
    {
        "id": "11625159135027155837",
        "title": "公共厕所",
        "address": "内蒙古自治区阿拉善盟阿拉善左旗政通路阿拉善盟体育馆",
        "tel": "",
        "category": "基础设施:公共设施:公共厕所",
        "type": 0,
        "location": {
            "lat": 38.848191,
            "lng": 105.727738
        },
        "ad_info": {
            "adcode": 152921,
            "province": "内蒙古自治区",
            "city": "阿拉善盟",
            "district": "阿拉善左旗"
        }
    },
    {
        "id": "11175361877168163000",
        "title": "公共厕所",
        "address": "内蒙古自治区阿拉善盟阿拉善左旗安德街与民族东街交叉口东南方向98米左右",
        "tel": "",
        "category": "基础设施:公共设施:公共厕所",
        "type": 0,
        "location": {
            "lat": 38.832198,
            "lng": 105.725596
        },
        "ad_info": {
            "adcode": 152921,
            "province": "内蒙古自治区",
            "city": "阿拉善盟",
            "district": "阿拉善左旗"
        }
    },
    {
        "id": "4346275911228991686",
        "title": "公共厕所",
        "address": "内蒙古自治区阿拉善盟阿拉善左旗华源宾馆(乌兰布和路北)",
        "tel": "",
        "category": "基础设施:公共设施:公共厕所",
        "type": 0,
        "location": {
            "lat": 39.438107,
            "lng": 106.71876
        },
        "ad_info": {
            "adcode": 152921,
            "province": "内蒙古自治区",
            "city": "阿拉善盟",
            "district": "阿拉善左旗"
        }
    },
    {
        "id": "13549226057791819841",
        "title": "公共厕所",
        "address": "内蒙古自治区阿拉善盟阿拉善左旗公园东路与北环路交叉口东北方向229米左右",
        "tel": "",
        "category": "基础设施:公共设施:公共厕所",
        "type": 0,
        "location": {
            "lat": 38.863346,
            "lng": 105.704663
        },
        "ad_info": {
            "adcode": 152921,
            "province": "内蒙古自治区",
            "city": "阿拉善盟",
            "district": "阿拉善左旗"
        }
    },
    {
        "id": "7434083304460348623",
        "title": "公共厕所",
        "address": "内蒙古自治区阿拉善盟阿拉善左旗漠西戈宿集东侧350米",
        "tel": "",
        "category": "基础设施:公共设施:公共厕所",
        "type": 0,
        "location": {
            "lat": 37.606007,
            "lng": 104.847691
        },
        "ad_info": {
            "adcode": 152921,
            "province": "内蒙古自治区",
            "city": "阿拉善盟",
            "district": "阿拉善左旗"
        }
    },
    {
        "id": "4692547860346594176",
        "title": "公共厕所",
        "address": "内蒙古自治区阿拉善盟阿拉善左旗乌兰布和路与后西花园路交叉口正西方向273米左右",
        "tel": "",
        "category": "基础设施:公共设施:公共厕所",
        "type": 0,
        "location": {
            "lat": 38.84164,
            "lng": 105.653686
        },
        "ad_info": {
            "adcode": 152921,
            "province": "内蒙古自治区",
            "city": "阿拉善盟",
            "district": "阿拉善左旗"
        }
    },
    {
        "id": "13466089015092089707",
        "title": "公共厕所",
        "address": "内蒙古自治区阿拉善盟阿拉善左旗团结一区三巷与巴丹吉林街交叉口正东方向71米左右",
        "tel": "",
        "category": "基础设施:公共设施:公共厕所",
        "type": 0,
        "location": {
            "lat": 38.828012,
            "lng": 105.698577
        },
        "ad_info": {
            "adcode": 152921,
            "province": "内蒙古自治区",
            "city": "阿拉善盟",
            "district": "阿拉善左旗"
        }
    },
    {
        "id": "12631392039158215135",
        "title": "公共厕所",
        "address": "内蒙古自治区阿拉善盟阿拉善左旗和硕特路与民生一路交叉口东南方向268米左右",
        "tel": "",
        "category": "基础设施:公共设施:公共厕所",
        "type": 0,
        "location": {
            "lat": 38.831392,
            "lng": 105.704565
        },
        "ad_info": {
            "adcode": 152921,
            "province": "内蒙古自治区",
            "city": "阿拉善盟",
            "district": "阿拉善左旗"
        }
    },
    {
        "id": "13475788165822140373",
        "title": "公共厕所",
        "address": "内蒙古自治区阿拉善盟阿拉善左旗邮电小区西南侧140米",
        "tel": "",
        "category": "基础设施:公共设施:公共厕所",
        "type": 0,
        "location": {
            "lat": 38.845983,
            "lng": 105.709721
        },
        "ad_info": {
            "adcode": 152921,
            "province": "内蒙古自治区",
            "city": "阿拉善盟",
            "district": "阿拉善左旗"
        }
    },
    {
        "id": "3922692426910099922",
        "title": "公共厕所",
        "address": "内蒙古自治区阿拉善盟阿拉善左旗乌兰布和大道乌达工业园区",
        "tel": "",
        "category": "基础设施:公共设施:公共厕所",
        "type": 0,
        "location": {
            "lat": 39.435555,
            "lng": 106.715414
        },
        "ad_info": {
            "adcode": 152921,
            "province": "内蒙古自治区",
            "city": "阿拉善盟",
            "district": "阿拉善左旗"
        }
    },
    {
        "id": "4524841351674467784",
        "title": "公共厕所",
        "address": "内蒙古自治区阿拉善盟阿拉善左旗吉祥路与雅布赖街交叉口正南方向154米左右",
        "tel": "",
        "category": "基础设施:公共设施:公共厕所",
        "type": 0,
        "location": {
            "lat": 38.836911,
            "lng": 105.699768
        },
        "ad_info": {
            "adcode": 152921,
            "province": "内蒙古自治区",
            "city": "阿拉善盟",
            "district": "阿拉善左旗"
        }
    },
    {
        "id": "4131765373229284265",
        "title": "公共厕所",
        "address": "内蒙古自治区阿拉善盟阿拉善左旗公园北路与康乐街十二巷交叉口正南方向196米左右",
        "tel": "",
        "category": "基础设施:公共设施:公共厕所",
        "type": 0,
        "location": {
            "lat": 38.850108,
            "lng": 105.707067
        },
        "ad_info": {
            "adcode": 152921,
            "province": "内蒙古自治区",
            "city": "阿拉善盟",
            "district": "阿拉善左旗"
        }
    },
    {
        "id": "5745306931036945644",
        "title": "公共厕所",
        "address": "内蒙古自治区阿拉善盟阿拉善左旗南环路与贺兰路交叉口西南方向327米左右",
        "tel": "",
        "category": "基础设施:公共设施:公共厕所",
        "type": 0,
        "location": {
            "lat": 38.823006,
            "lng": 105.714508
        },
        "ad_info": {
            "adcode": 152921,
            "province": "内蒙古自治区",
            "city": "阿拉善盟",
            "district": "阿拉善左旗"
        }
    },
    {
        "id": "7616857765532555835",
        "title": "公共厕所",
        "address": "内蒙古自治区阿拉善盟阿拉善左旗新华街9-5号",
        "tel": "",
        "category": "基础设施:公共设施:公共厕所",
        "type": 0,
        "location": {
            "lat": 38.835082,
            "lng": 105.676842
        },
        "ad_info": {
            "adcode": 152921,
            "province": "内蒙古自治区",
            "city": "阿拉善盟",
            "district": "阿拉善左旗"
        }
    },
    {
        "id": "17190220783348475536",
        "title": "公共厕所",
        "address": "内蒙古自治区阿拉善盟阿拉善左旗政通路与额鲁特大街交叉口正南方向116米左右",
        "tel": "",
        "category": "基础设施:公共设施:公共厕所",
        "type": 0,
        "location": {
            "lat": 38.848526,
            "lng": 105.727687
        },
        "ad_info": {
            "adcode": 152921,
            "province": "内蒙古自治区",
            "city": "阿拉善盟",
            "district": "阿拉善左旗"
        }
    },
    {
        "id": "9838097543009114329",
        "title": "公共厕所",
        "address": "内蒙古自治区阿拉善盟阿拉善左旗乌兰布和路与后西花园路交叉口东南方向34米左右",
        "tel": "",
        "category": "基础设施:公共设施:公共厕所",
        "type": 0,
        "location": {
            "lat": 38.841266,
            "lng": 105.657011
        },
        "ad_info": {
            "adcode": 152921,
            "province": "内蒙古自治区",
            "city": "阿拉善盟",
            "district": "阿拉善左旗"
        }
    },
    {
        "id": "1657084258837979615",
        "title": "公共厕所",
        "address": "内蒙古自治区阿拉善盟阿拉善左旗公园东路与北环路交叉口东北方向223米左右",
        "tel": "",
        "category": "基础设施:公共设施:公共厕所",
        "type": 0,
        "location": {
            "lat": 38.863799,
            "lng": 105.703749
        },
        "ad_info": {
            "adcode": 152921,
            "province": "内蒙古自治区",
            "city": "阿拉善盟",
            "district": "阿拉善左旗"
        }
    },
    {
        "id": "12014722381087823996",
        "title": "公共厕所",
        "address": "内蒙古自治区阿拉善盟阿拉善左旗乌力吉路与乌日斯路交叉口西北方向66米左右",
        "tel": "",
        "category": "基础设施:公共设施:公共厕所",
        "type": 0,
        "location": {
            "lat": 38.841917,
            "lng": 105.669416
        },
        "ad_info": {
            "adcode": 152921,
            "province": "内蒙古自治区",
            "city": "阿拉善盟",
            "district": "阿拉善左旗"
        }
    },
    {
        "id": "16303651101762257488",
        "title": "公共厕所",
        "address": "内蒙古自治区阿拉善盟阿拉善左旗南大街与头道巷交叉口东南方向226米左右",
        "tel": "",
        "category": "基础设施:公共设施:公共厕所",
        "type": 0,
        "location": {
            "lat": 38.837234,
            "lng": 105.67881
        },
        "ad_info": {
            "adcode": 152921,
            "province": "内蒙古自治区",
            "city": "阿拉善盟",
            "district": "阿拉善左旗"
        }
    },
    {
        "id": "10321447110079669932",
        "title": "公共厕所",
        "address": "内蒙古自治区阿拉善盟阿拉善左旗人民路与腾格里街交叉口正西方向362米左右",
        "tel": "",
        "category": "基础设施:公共设施:公共厕所",
        "type": 0,
        "location": {
            "lat": 39.425343,
            "lng": 106.646665
        },
        "ad_info": {
            "adcode": 152921,
            "province": "内蒙古自治区",
            "city": "阿拉善盟",
            "district": "阿拉善左旗"
        }
    },
    {
        "id": "2217047093601053813",
        "title": "公共厕所",
        "address": "内蒙古自治区阿拉善盟阿拉善左旗公园北路与康乐街十二巷交叉口西南方向20米左右",
        "tel": "",
        "category": "基础设施:公共设施:公共厕所",
        "type": 0,
        "location": {
            "lat": 38.851768,
            "lng": 105.706932
        },
        "ad_info": {
            "adcode": 152921,
            "province": "内蒙古自治区",
            "city": "阿拉善盟",
            "district": "阿拉善左旗"
        }
    },
    {
        "id": "5991236963417334013",
        "title": "公共厕所",
        "address": "内蒙古自治区阿拉善盟阿拉善左旗吉兰泰路与和硕特路交叉口正西方向91米左右",
        "tel": "",
        "category": "基础设施:公共设施:公共厕所",
        "type": 0,
        "location": {
            "lat": 38.843177,
            "lng": 105.700939
        },
        "ad_info": {
            "adcode": 152921,
            "province": "内蒙古自治区",
            "city": "阿拉善盟",
            "district": "阿拉善左旗"
        }
    },
    {
        "id": "6260663850892118184",
        "title": "公共厕所",
        "address": "内蒙古自治区阿拉善盟阿拉善左旗公园东路与公园北路交叉口西南方向21米左右",
        "tel": "",
        "category": "基础设施:公共设施:公共厕所",
        "type": 0,
        "location": {
            "lat": 38.851621,
            "lng": 105.703304
        },
        "ad_info": {
            "adcode": 152921,
            "province": "内蒙古自治区",
            "city": "阿拉善盟",
            "district": "阿拉善左旗"
        }
    },
    {
        "id": "16920051185223030756",
        "title": "公共厕所",
        "address": "内蒙古自治区阿拉善盟阿拉善左旗人民路与百灵街交叉口正南方向34米左右",
        "tel": "",
        "category": "基础设施:公共设施:公共厕所",
        "type": 0,
        "location": {
            "lat": 39.419171,
            "lng": 106.652231
        },
        "ad_info": {
            "adcode": 152921,
            "province": "内蒙古自治区",
            "city": "阿拉善盟",
            "district": "阿拉善左旗"
        }
    },
    {
        "id": "6261195842097625635",
        "title": "公共厕所",
        "address": "内蒙古自治区阿拉善盟阿拉善左旗S218与乌力吉路交叉口正东方向1256米左右",
        "tel": "",
        "category": "基础设施:公共设施:公共厕所",
        "type": 0,
        "location": {
            "lat": 38.859414,
            "lng": 105.681059
        },
        "ad_info": {
            "adcode": 152921,
            "province": "内蒙古自治区",
            "city": "阿拉善盟",
            "district": "阿拉善左旗"
        }
    },
    {
        "id": "14555981353515052251",
        "title": "公共厕所",
        "address": "内蒙古自治区阿拉善盟阿拉善左旗卫拉特路与通古勒格淖尔路交叉口正南方向258米左右",
        "tel": "",
        "category": "基础设施:公共设施:公共厕所",
        "type": 0,
        "location": {
            "lat": 38.820461,
            "lng": 105.65126
        },
        "ad_info": {
            "adcode": 152921,
            "province": "内蒙古自治区",
            "city": "阿拉善盟",
            "district": "阿拉善左旗"
        }
    },
    {
        "id": "15028485625167396940",
        "title": "公共厕所",
        "address": "内蒙古自治区阿拉善盟阿拉善左旗314省道北50米",
        "tel": "",
        "category": "基础设施:公共设施:公共厕所",
        "type": 0,
        "location": {
            "lat": 39.257795,
            "lng": 106.194135
        },
        "ad_info": {
            "adcode": 152921,
            "province": "内蒙古自治区",
            "city": "阿拉善盟",
            "district": "阿拉善左旗"
        }
    },
    {
        "id": "4946382707389256001",
        "title": "公共厕所",
        "address": "内蒙古自治区阿拉善盟阿拉善左旗卫拉特路与西花园南街交叉口正西方向221米左右",
        "tel": "",
        "category": "基础设施:公共设施:公共厕所",
        "type": 0,
        "location": {
            "lat": 38.830036,
            "lng": 105.647398
        },
        "ad_info": {
            "adcode": 152921,
            "province": "内蒙古自治区",
            "city": "阿拉善盟",
            "district": "阿拉善左旗"
        }
    },
    {
        "id": "15510981455524672663",
        "title": "公共厕所",
        "address": "内蒙古自治区阿拉善盟阿拉善左旗草原东北侧180米",
        "tel": "",
        "category": "基础设施:公共设施:公共厕所",
        "type": 0,
        "location": {
            "lat": 38.849835,
            "lng": 105.755512
        },
        "ad_info": {
            "adcode": 152921,
            "province": "内蒙古自治区",
            "city": "阿拉善盟",
            "district": "阿拉善左旗"
        }
    },
    {
        "id": "7157810884643081732",
        "title": "公共厕所",
        "address": "内蒙古自治区阿拉善盟阿拉善左旗南环路与土尔扈特大街交叉口东南方向756米左右",
        "tel": "",
        "category": "基础设施:公共设施:公共厕所",
        "type": 0,
        "location": {
            "lat": 38.813365,
            "lng": 105.715319
        },
        "ad_info": {
            "adcode": 152921,
            "province": "内蒙古自治区",
            "city": "阿拉善盟",
            "district": "阿拉善左旗"
        }
    },
    {
        "id": "1212096080392474716",
        "title": "公共厕所",
        "address": "内蒙古自治区阿拉善盟阿拉善左旗南环路与土尔扈特大街交叉口东南方向931米左右",
        "tel": "",
        "category": "基础设施:公共设施:公共厕所",
        "type": 0,
        "location": {
            "lat": 38.812924,
            "lng": 105.717996
        },
        "ad_info": {
            "adcode": 152921,
            "province": "内蒙古自治区",
            "city": "阿拉善盟",
            "district": "阿拉善左旗"
        }
    },
    {
        "id": "14004221128325585895",
        "title": "公共厕所",
        "address": "内蒙古自治区阿拉善盟阿拉善左旗",
        "tel": "",
        "category": "基础设施:公共设施:公共厕所",
        "type": 0,
        "location": {
            "lat": 38.835941,
            "lng": 105.713325
        },
        "ad_info": {
            "adcode": 152921,
            "province": "内蒙古自治区",
            "city": "阿拉善盟",
            "district": "阿拉善左旗"
        }
    },
    {
        "id": "16152147354542192923",
        "title": "公共厕所",
        "address": "内蒙古自治区阿拉善盟阿拉善左旗土尔扈特大街与布固图路交叉口东南方向172米左右",
        "tel": "",
        "category": "基础设施:公共设施:公共厕所",
        "type": 0,
        "location": {
            "lat": 38.821511,
            "lng": 105.711486
        },
        "ad_info": {
            "adcode": 152921,
            "province": "内蒙古自治区",
            "city": "阿拉善盟",
            "district": "阿拉善左旗"
        }
    },
    {
        "id": "3860526826982486875",
        "title": "公共厕所",
        "address": "内蒙古自治区阿拉善盟阿拉善左旗孪照路4号",
        "tel": "",
        "category": "基础设施:公共设施:公共厕所",
        "type": 0,
        "location": {
            "lat": 37.887329,
            "lng": 105.410233
        },
        "ad_info": {
            "adcode": 152921,
            "province": "内蒙古自治区",
            "city": "阿拉善盟",
            "district": "阿拉善左旗"
        }
    },
    {
        "id": "8675091230570304796",
        "title": "公共厕所",
        "address": "内蒙古自治区阿拉善盟阿拉善左旗新华街与腾格里路交叉口正南方向101米左右",
        "tel": "",
        "category": "基础设施:公共设施:公共厕所",
        "type": 0,
        "location": {
            "lat": 38.833455,
            "lng": 105.671252
        },
        "ad_info": {
            "adcode": 152921,
            "province": "内蒙古自治区",
            "city": "阿拉善盟",
            "district": "阿拉善左旗"
        }
    },
    {
        "id": "17524122340774143219",
        "title": "公共厕所",
        "address": "内蒙古自治区阿拉善盟阿拉善左旗西环路乌日斯草原文化旅游区西南",
        "tel": "",
        "category": "基础设施:公共设施:公共厕所",
        "type": 0,
        "location": {
            "lat": 38.844333,
            "lng": 105.645517
        },
        "ad_info": {
            "adcode": 152921,
            "province": "内蒙古自治区",
            "city": "阿拉善盟",
            "district": "阿拉善左旗"
        }
    },
    {
        "id": "15704424866789177404",
        "title": "公共厕所",
        "address": "内蒙古自治区阿拉善盟阿拉善左旗卫拉特路与西花园南街交叉口正北方向76米左右",
        "tel": "",
        "category": "基础设施:公共设施:公共厕所",
        "type": 0,
        "location": {
            "lat": 38.830639,
            "lng": 105.650222
        },
        "ad_info": {
            "adcode": 152921,
            "province": "内蒙古自治区",
            "city": "阿拉善盟",
            "district": "阿拉善左旗"
        }
    },
    {
        "id": "997915146439080331",
        "title": "公共厕所",
        "address": "内蒙古自治区阿拉善盟阿拉善左旗和平南路十二巷与雅布赖街交叉口正南方向443米左右",
        "tel": "",
        "category": "基础设施:公共设施:公共厕所",
        "type": 0,
        "location": {
            "lat": 38.834778,
            "lng": 105.70792
        },
        "ad_info": {
            "adcode": 152921,
            "province": "内蒙古自治区",
            "city": "阿拉善盟",
            "district": "阿拉善左旗"
        }
    },
    {
        "id": "5414769531115797981",
        "title": "公共厕所",
        "address": "内蒙古自治区阿拉善盟阿拉善左旗创业路与前进路交叉口正北方向309米左右",
        "tel": "",
        "category": "基础设施:公共设施:公共厕所",
        "type": 0,
        "location": {
            "lat": 39.432174,
            "lng": 106.71605
        },
        "ad_info": {
            "adcode": 152921,
            "province": "内蒙古自治区",
            "city": "阿拉善盟",
            "district": "阿拉善左旗"
        }
    },
    {
        "id": "13364377802304697180",
        "title": "公共厕所",
        "address": "内蒙古自治区阿拉善盟阿拉善左旗G110与前进路交叉口正北方向338米左右",
        "tel": "",
        "category": "基础设施:公共设施:公共厕所",
        "type": 0,
        "location": {
            "lat": 39.432163,
            "lng": 106.721822
        },
        "ad_info": {
            "adcode": 152921,
            "province": "内蒙古自治区",
            "city": "阿拉善盟",
            "district": "阿拉善左旗"
        }
    },
    {
        "id": "10816270064084367643",
        "title": "公共厕所",
        "address": "内蒙古自治区阿拉善盟阿拉善左旗乌兰布和北路与永康街交叉口正北方向1394米左右",
        "tel": "",
        "category": "基础设施:公共设施:公共厕所",
        "type": 0,
        "location": {
            "lat": 39.773718,
            "lng": 105.755468
        },
        "ad_info": {
            "adcode": 152921,
            "province": "内蒙古自治区",
            "city": "阿拉善盟",
            "district": "阿拉善左旗"
        }
    },
    {
        "id": "6904261288586448912",
        "title": "公共厕所",
        "address": "内蒙古自治区阿拉善盟阿拉善左旗S218与S317交叉口西南方向549米左右",
        "tel": "",
        "category": "基础设施:公共设施:公共厕所",
        "type": 0,
        "location": {
            "lat": 40.166746,
            "lng": 104.810196
        },
        "ad_info": {
            "adcode": 152921,
            "province": "内蒙古自治区",
            "city": "阿拉善盟",
            "district": "阿拉善左旗"
        }
    },
    {
        "id": "10337544563227348130",
        "title": "公共厕所",
        "address": "内蒙古自治区阿拉善盟阿拉善左旗巴丹吉林街与巴丹吉林路交叉口正南方向493米左右",
        "tel": "",
        "category": "基础设施:公共设施:公共厕所",
        "type": 0,
        "location": {
            "lat": 38.822597,
            "lng": 105.688102
        },
        "ad_info": {
            "adcode": 152921,
            "province": "内蒙古自治区",
            "city": "阿拉善盟",
            "district": "阿拉善左旗"
        }
    },
    {
        "id": "15498963498462116786",
        "title": "公共厕所",
        "address": "内蒙古自治区阿拉善盟阿拉善左旗腾格里达来月亮湖沙漠生态探险度假营地南侧130米",
        "tel": "",
        "category": "基础设施:公共设施:公共厕所",
        "type": 0,
        "location": {
            "lat": 38.497268,
            "lng": 105.270726
        },
        "ad_info": {
            "adcode": 152921,
            "province": "内蒙古自治区",
            "city": "阿拉善盟",
            "district": "阿拉善左旗"
        }
    },
    {
        "id": "9240761338638956324",
        "title": "公共厕所",
        "address": "内蒙古自治区阿拉善盟阿拉善左旗东关街与锡林南街交叉口西南方向247米左右",
        "tel": "",
        "category": "基础设施:公共设施:公共厕所",
        "type": 0,
        "location": {
            "lat": 38.845746,
            "lng": 105.691139
        },
        "ad_info": {
            "adcode": 152921,
            "province": "内蒙古自治区",
            "city": "阿拉善盟",
            "district": "阿拉善左旗"
        }
    },
    {
        "id": "7431922696773921343",
        "title": "公共厕所",
        "address": "内蒙古自治区阿拉善盟阿拉善左旗乌日斯路与卫拉特路交叉口正北方向377米左右",
        "tel": "",
        "category": "基础设施:公共设施:公共厕所",
        "type": 0,
        "location": {
            "lat": 38.848258,
            "lng": 105.648243
        },
        "ad_info": {
            "adcode": 152921,
            "province": "内蒙古自治区",
            "city": "阿拉善盟",
            "district": "阿拉善左旗"
        }
    },
    {
        "id": "11338426260244155888",
        "title": "公共厕所",
        "address": "内蒙古自治区阿拉善盟阿拉善左旗和美路与民族街交叉口西北方向90米左右",
        "tel": "",
        "category": "基础设施:公共设施:公共厕所",
        "type": 0,
        "location": {
            "lat": 38.830238,
            "lng": 105.685157
        },
        "ad_info": {
            "adcode": 152921,
            "province": "内蒙古自治区",
            "city": "阿拉善盟",
            "district": "阿拉善左旗"
        }
    },
    {
        "id": "12566457584763999421",
        "title": "公共厕所",
        "address": "内蒙古自治区阿拉善盟阿拉善左旗巴丹吉林街与民族街交叉口正南方向398米左右",
        "tel": "",
        "category": "基础设施:公共设施:公共厕所",
        "type": 0,
        "location": {
            "lat": 38.823966,
            "lng": 105.693481
        },
        "ad_info": {
            "adcode": 152921,
            "province": "内蒙古自治区",
            "city": "阿拉善盟",
            "district": "阿拉善左旗"
        }
    },
    {
        "id": "12926203303417013752",
        "title": "公共厕所",
        "address": "内蒙古自治区阿拉善盟阿拉善左旗218省道东50米",
        "tel": "",
        "category": "基础设施:公共设施:公共厕所",
        "type": 0,
        "location": {
            "lat": 38.68917,
            "lng": 105.641803
        },
        "ad_info": {
            "adcode": 152921,
            "province": "内蒙古自治区",
            "city": "阿拉善盟",
            "district": "阿拉善左旗"
        }
    },
    {
        "id": "14571886211098909329",
        "title": "公共厕所",
        "address": "内蒙古自治区阿拉善盟阿拉善左旗",
        "tel": "",
        "category": "基础设施:公共设施:公共厕所",
        "type": 0,
        "location": {
            "lat": 38.841192,
            "lng": 105.776925
        },
        "ad_info": {
            "adcode": 152921,
            "province": "内蒙古自治区",
            "city": "阿拉善盟",
            "district": "阿拉善左旗"
        }
    },
    {
        "id": "14403590054406801233",
        "title": "公共厕所",
        "address": "内蒙古自治区阿拉善盟阿拉善左旗南环路与机场公路交叉口正南方向1430米左右",
        "tel": "",
        "category": "基础设施:公共设施:公共厕所",
        "type": 0,
        "location": {
            "lat": 38.800611,
            "lng": 105.672454
        },
        "ad_info": {
            "adcode": 152921,
            "province": "内蒙古自治区",
            "city": "阿拉善盟",
            "district": "阿拉善左旗"
        }
    },
    {
        "id": "9695757708125328288",
        "title": "公共厕所",
        "address": "内蒙古自治区阿拉善盟阿拉善左旗永宁九巷与永宁十巷交叉口东北方向35米左右",
        "tel": "",
        "category": "基础设施:公共设施:公共厕所",
        "type": 0,
        "location": {
            "lat": 38.825854,
            "lng": 105.709571
        },
        "ad_info": {
            "adcode": 152921,
            "province": "内蒙古自治区",
            "city": "阿拉善盟",
            "district": "阿拉善左旗"
        }
    },
    {
        "id": "18098837374399793746",
        "title": "公共厕所",
        "address": "内蒙古自治区阿拉善盟阿拉善左旗西环路与都兰街交叉口东北方向48米左右",
        "tel": "",
        "category": "基础设施:公共设施:公共厕所",
        "type": 0,
        "location": {
            "lat": 38.83732,
            "lng": 105.643967
        },
        "ad_info": {
            "adcode": 152921,
            "province": "内蒙古自治区",
            "city": "阿拉善盟",
            "district": "阿拉善左旗"
        }
    },
    {
        "id": "17708375605898823988",
        "title": "呼和包斯格服务区公共厕所",
        "address": "内蒙古自治区阿拉善盟阿拉善右旗呼和包斯格服务区东北侧",
        "tel": "",
        "category": "基础设施:公共设施:公共厕所",
        "type": 0,
        "location": {
            "lat": 41.411258,
            "lng": 103.670097
        },
        "ad_info": {
            "adcode": 152922,
            "province": "内蒙古自治区",
            "city": "阿拉善盟",
            "district": "阿拉善右旗"
        }
    },
    {
        "id": "8814186890694315358",
        "title": "居延驿站公共卫生间",
        "address": "内蒙古自治区阿拉善盟额济纳旗林木种苗站西(居延东街南)",
        "tel": "",
        "category": "基础设施:公共设施:公共厕所",
        "type": 0,
        "location": {
            "lat": 41.951317,
            "lng": 101.074495
        },
        "ad_info": {
            "adcode": 152923,
            "province": "内蒙古自治区",
            "city": "阿拉善盟",
            "district": "额济纳旗"
        }
    },
    {
        "id": "2543969400897462827",
        "title": "公共厕所",
        "address": "内蒙古自治区阿拉善盟阿拉善左旗东关街与锡林南街交叉口西南方向262米左右",
        "tel": "",
        "category": "基础设施:公共设施:公共厕所",
        "type": 0,
        "location": {
            "lat": 38.845779,
            "lng": 105.690795
        },
        "ad_info": {
            "adcode": 152921,
            "province": "内蒙古自治区",
            "city": "阿拉善盟",
            "district": "阿拉善左旗"
        }
    },
    {
        "id": "3932289958127517665",
        "title": "公共厕所",
        "address": "内蒙古自治区阿拉善盟阿拉善左旗巴吉一级公路与218省道交叉口南200米",
        "tel": "",
        "category": "基础设施:公共设施:公共厕所",
        "type": 0,
        "location": {
            "lat": 38.941018,
            "lng": 105.65576
        },
        "ad_info": {
            "adcode": 152921,
            "province": "内蒙古自治区",
            "city": "阿拉善盟",
            "district": "阿拉善左旗"
        }
    },
    {
        "id": "7399156302895720468",
        "title": "公共厕所",
        "address": "内蒙古自治区阿拉善盟阿拉善左旗508省道与757县道交叉口西60米",
        "tel": "",
        "category": "基础设施:公共设施:公共厕所",
        "type": 0,
        "location": {
            "lat": 40.285717,
            "lng": 105.853665
        },
        "ad_info": {
            "adcode": 152921,
            "province": "内蒙古自治区",
            "city": "阿拉善盟",
            "district": "阿拉善左旗"
        }
    },
    {
        "id": "12813769519980211092",
        "title": "公共厕所",
        "address": "内蒙古自治区阿拉善盟阿拉善左旗三角牌轮胎东南侧200米",
        "tel": "",
        "category": "基础设施:公共设施:公共厕所",
        "type": 0,
        "location": {
            "lat": 39.366722,
            "lng": 105.707116
        },
        "ad_info": {
            "adcode": 152921,
            "province": "内蒙古自治区",
            "city": "阿拉善盟",
            "district": "阿拉善左旗"
        }
    },
    {
        "id": "4707365540749496897",
        "title": "公共厕所",
        "address": "内蒙古自治区阿拉善盟阿拉善左旗S218与S312交叉口正北方向265米左右",
        "tel": "",
        "category": "基础设施:公共设施:公共厕所",
        "type": 0,
        "location": {
            "lat": 40.751999,
            "lng": 104.500171
        },
        "ad_info": {
            "adcode": 152921,
            "province": "内蒙古自治区",
            "city": "阿拉善盟",
            "district": "阿拉善左旗"
        }
    },
    {
        "id": "7292486246932661309",
        "title": "公共厕所",
        "address": "内蒙古自治区阿拉善盟阿拉善左旗巴音塔拉巷与绿洲路交叉口正西方向142米左右",
        "tel": "",
        "category": "基础设施:公共设施:公共厕所",
        "type": 0,
        "location": {
            "lat": 37.878551,
            "lng": 105.390712
        },
        "ad_info": {
            "adcode": 152921,
            "province": "内蒙古自治区",
            "city": "阿拉善盟",
            "district": "阿拉善左旗"
        }
    },
    {
        "id": "9248806886315185891",
        "title": "公共厕所",
        "address": "内蒙古自治区阿拉善盟阿拉善左旗永宁九巷与永宁十巷交叉口正东方向62米左右",
        "tel": "",
        "category": "基础设施:公共设施:公共厕所",
        "type": 0,
        "location": {
            "lat": 38.825823,
            "lng": 105.70994
        },
        "ad_info": {
            "adcode": 152921,
            "province": "内蒙古自治区",
            "city": "阿拉善盟",
            "district": "阿拉善左旗"
        }
    },
    {
        "id": "11257728162222715296",
        "title": "公共厕所",
        "address": "内蒙古自治区阿拉善盟阿拉善左旗G307与S227交叉口东南方向1822米左右",
        "tel": "",
        "category": "基础设施:公共设施:公共厕所",
        "type": 0,
        "location": {
            "lat": 39.486741,
            "lng": 105.622887
        },
        "ad_info": {
            "adcode": 152921,
            "province": "内蒙古自治区",
            "city": "阿拉善盟",
            "district": "阿拉善左旗"
        }
    },
    {
        "id": "4955696292737930740",
        "title": "公共厕所",
        "address": "内蒙古自治区阿拉善盟阿拉善左旗218省道西150米",
        "tel": "",
        "category": "基础设施:公共设施:公共厕所",
        "type": 0,
        "location": {
            "lat": 39.682316,
            "lng": 105.083547
        },
        "ad_info": {
            "adcode": 152921,
            "province": "内蒙古自治区",
            "city": "阿拉善盟",
            "district": "阿拉善左旗"
        }
    },
    {
        "id": "3240242007087580561",
        "title": "赛汉陶来服务区公共厕所",
        "address": "内蒙古自治区阿拉善盟额济纳旗赛汉陶来服务区与G7京新高速交叉口东南340米",
        "tel": "",
        "category": "基础设施:公共设施:公共厕所",
        "type": 0,
        "location": {
            "lat": 41.849382,
            "lng": 100.437645
        },
        "ad_info": {
            "adcode": 152923,
            "province": "内蒙古自治区",
            "city": "阿拉善盟",
            "district": "额济纳旗"
        }
    },
    {
        "id": "10090177126679583169",
        "title": "黑鹰山服务区公共厕所",
        "address": "内蒙古自治区阿拉善盟额济纳旗中国石油黑鹰山服务区加油站西南侧170米",
        "tel": "",
        "category": "基础设施:公共设施:公共厕所",
        "type": 0,
        "location": {
            "lat": 42.008365,
            "lng": 98.152445
        },
        "ad_info": {
            "adcode": 152923,
            "province": "内蒙古自治区",
            "city": "阿拉善盟",
            "district": "额济纳旗"
        }
    },
    {
        "id": "17108702286173917922",
        "title": "风雷山服务区公共厕所",
        "address": "内蒙古自治区阿拉善盟额济纳旗京新高速风雷山服务区",
        "tel": "",
        "category": "基础设施:公共设施:公共厕所",
        "type": 0,
        "location": {
            "lat": 41.907409,
            "lng": 99.146074
        },
        "ad_info": {
            "adcode": 152923,
            "province": "内蒙古自治区",
            "city": "阿拉善盟",
            "district": "额济纳旗"
        }
    },
    {
        "id": "8051234818862531831",
        "title": "额济纳旗服务区公共厕所",
        "address": "内蒙古自治区阿拉善盟额济纳旗北疆天然气额济纳旗服务区LNG加气站东侧200米",
        "tel": "",
        "category": "基础设施:公共设施:公共厕所",
        "type": 0,
        "location": {
            "lat": 41.890163,
            "lng": 100.956186
        },
        "ad_info": {
            "adcode": 152923,
            "province": "内蒙古自治区",
            "city": "阿拉善盟",
            "district": "额济纳旗"
        }
    },
    {
        "id": "12690601723778668537",
        "title": "雅干服务区公共厕所",
        "address": "内蒙古自治区阿拉善盟额济纳旗G7京新高速与雅干服务区交叉口西380米",
        "tel": "",
        "category": "基础设施:公共设施:公共厕所",
        "type": 0,
        "location": {
            "lat": 41.999217,
            "lng": 102.060199
        },
        "ad_info": {
            "adcode": 152923,
            "province": "内蒙古自治区",
            "city": "阿拉善盟",
            "district": "额济纳旗"
        }
    },
    {
        "id": "7271880305359310928",
        "title": "大漠胡杨林旅游区北门游客中心卫生间",
        "address": "内蒙古自治区阿拉善盟额济纳旗环城南路",
        "tel": "",
        "category": "基础设施:公共设施:公共厕所",
        "type": 0,
        "location": {
            "lat": 41.945761,
            "lng": 101.076453
        },
        "ad_info": {
            "adcode": 152923,
            "province": "内蒙古自治区",
            "city": "阿拉善盟",
            "district": "额济纳旗"
        }
    },
    {
        "id": "9996551458562632817",
        "title": "雅干服务区公共厕所",
        "address": "内蒙古自治区阿拉善盟额济纳旗石油雅干服务区加油站西侧160米",
        "tel": "",
        "category": "基础设施:公共设施:公共厕所",
        "type": 0,
        "location": {
            "lat": 41.997632,
            "lng": 102.058615
        },
        "ad_info": {
            "adcode": 152923,
            "province": "内蒙古自治区",
            "city": "阿拉善盟",
            "district": "额济纳旗"
        }
    },
    {
        "id": "377916564005171396",
        "title": "风雷山服务区公共厕所",
        "address": "内蒙古自治区阿拉善盟额济纳旗中国石油风雷山服务区加油站东侧160米",
        "tel": "",
        "category": "基础设施:公共设施:公共厕所",
        "type": 0,
        "location": {
            "lat": 41.909033,
            "lng": 99.148924
        },
        "ad_info": {
            "adcode": 152923,
            "province": "内蒙古自治区",
            "city": "阿拉善盟",
            "district": "额济纳旗"
        }
    },
    {
        "id": "16205819874274761363",
        "title": "哈尔苏海服务区公共厕所",
        "address": "内蒙古自治区阿拉善盟阿拉善右旗石油哈尔苏海服务区加油站西北侧160米",
        "tel": "",
        "category": "基础设施:公共设施:公共厕所",
        "type": 0,
        "location": {
            "lat": 41.671721,
            "lng": 103.169379
        },
        "ad_info": {
            "adcode": 152922,
            "province": "内蒙古自治区",
            "city": "阿拉善盟",
            "district": "阿拉善右旗"
        }
    },
    {
        "id": "17553450215435211264",
        "title": "赛汉陶来服务区公共厕所",
        "address": "内蒙古自治区阿拉善盟额济纳旗京新高速附近",
        "tel": "",
        "category": "基础设施:公共设施:公共厕所",
        "type": 0,
        "location": {
            "lat": 41.849324,
            "lng": 100.438266
        },
        "ad_info": {
            "adcode": 152923,
            "province": "内蒙古自治区",
            "city": "阿拉善盟",
            "district": "额济纳旗"
        }
    },
    {
        "id": "10226649537990918059",
        "title": "公共厕所",
        "address": "内蒙古自治区阿拉善盟阿拉善左旗南环路与贺兰路交叉口正西方向225米左右",
        "tel": "",
        "category": "基础设施:公共设施:公共厕所",
        "type": 0,
        "location": {
            "lat": 38.825617,
            "lng": 105.714814
        },
        "ad_info": {
            "adcode": 152921,
            "province": "内蒙古自治区",
            "city": "阿拉善盟",
            "district": "阿拉善左旗"
        }
    },
    {
        "id": "15325829642426067154",
        "title": "巴润别立停车区公共厕所",
        "address": "内蒙古自治区阿拉善盟阿拉善左旗乌银高速",
        "tel": "",
        "category": "基础设施:公共设施:公共厕所",
        "type": 0,
        "location": {
            "lat": 38.513479,
            "lng": 105.676487
        },
        "ad_info": {
            "adcode": 152921,
            "province": "内蒙古自治区",
            "city": "阿拉善盟",
            "district": "阿拉善左旗"
        }
    },
    {
        "id": "1904180531876321082",
        "title": "乌力吉服务区公共厕所",
        "address": "内蒙古自治区阿拉善盟阿拉善左旗中国石油乌力吉服务区加油站西南侧180米",
        "tel": "",
        "category": "基础设施:公共设施:公共厕所",
        "type": 0,
        "location": {
            "lat": 40.798247,
            "lng": 104.531886
        },
        "ad_info": {
            "adcode": 152921,
            "province": "内蒙古自治区",
            "city": "阿拉善盟",
            "district": "阿拉善左旗"
        }
    },
    {
        "id": "7222537418080233762",
        "title": "乌力吉服务区公共厕所",
        "address": "内蒙古自治区阿拉善盟阿拉善左旗G7京新高速与乌力吉服务区交叉口北400米",
        "tel": "",
        "category": "基础设施:公共设施:公共厕所",
        "type": 0,
        "location": {
            "lat": 40.797146,
            "lng": 104.535183
        },
        "ad_info": {
            "adcode": 152921,
            "province": "内蒙古自治区",
            "city": "阿拉善盟",
            "district": "阿拉善左旗"
        }
    },
    {
        "id": "5241670265619059671",
        "title": "红古尔玉林服务区公共厕所",
        "address": "内蒙古自治区阿拉善盟阿拉善左旗G7京新高速与红古尔玉林服务区交叉口东南440米",
        "tel": "",
        "category": "基础设施:公共设施:公共厕所",
        "type": 0,
        "location": {
            "lat": 40.451286,
            "lng": 105.401927
        },
        "ad_info": {
            "adcode": 152921,
            "province": "内蒙古自治区",
            "city": "阿拉善盟",
            "district": "阿拉善左旗"
        }
    },
    {
        "id": "8238904233418354285",
        "title": "纳林湖服务区公共厕所",
        "address": "内蒙古自治区阿拉善盟阿拉善左旗纳林湖服务区",
        "tel": "",
        "category": "基础设施:公共设施:公共厕所",
        "type": 0,
        "location": {
            "lat": 40.539999,
            "lng": 106.340413
        },
        "ad_info": {
            "adcode": 152921,
            "province": "内蒙古自治区",
            "city": "阿拉善盟",
            "district": "阿拉善左旗"
        }
    },
    {
        "id": "13405422913305373863",
        "title": "巴润别立停车区备用公共厕所",
        "address": "内蒙古自治区阿拉善盟阿拉善左旗中国石油巴润别立停车区加油站东南侧70米",
        "tel": "",
        "category": "基础设施:公共设施:公共厕所",
        "type": 0,
        "location": {
            "lat": 38.514467,
            "lng": 105.676993
        },
        "ad_info": {
            "adcode": 152921,
            "province": "内蒙古自治区",
            "city": "阿拉善盟",
            "district": "阿拉善左旗"
        }
    },
    {
        "id": "13870408016131842120",
        "title": "纳林湖服务区公共厕所",
        "address": "内蒙古自治区阿拉善盟阿拉善左旗中国石油纳林湖服务区加油站东北侧90米",
        "tel": "",
        "category": "基础设施:公共设施:公共厕所",
        "type": 0,
        "location": {
            "lat": 40.541985,
            "lng": 106.338639
        },
        "ad_info": {
            "adcode": 152921,
            "province": "内蒙古自治区",
            "city": "阿拉善盟",
            "district": "阿拉善左旗"
        }
    },
    {
        "id": "5318349745944394141",
        "title": "巴润别立停车区第二公共厕所",
        "address": "内蒙古自治区阿拉善盟阿拉善左旗S218巴银高速附近",
        "tel": "",
        "category": "基础设施:公共设施:公共厕所",
        "type": 0,
        "location": {
            "lat": 38.514627,
            "lng": 105.674467
        },
        "ad_info": {
            "adcode": 152921,
            "province": "内蒙古自治区",
            "city": "阿拉善盟",
            "district": "阿拉善左旗"
        }
    },
    {
        "id": "5710058667396926879",
        "title": "巴音呼都格服务区公共厕所",
        "address": "内蒙古自治区阿拉善盟阿拉善左旗巴音呼都格服务区与314省道交叉口西北150米",
        "tel": "",
        "category": "基础设施:公共设施:公共厕所",
        "type": 0,
        "location": {
            "lat": 39.318167,
            "lng": 106.316946
        },
        "ad_info": {
            "adcode": 152921,
            "province": "内蒙古自治区",
            "city": "阿拉善盟",
            "district": "阿拉善左旗"
        }
    },
    {
        "id": "9945847565462782429",
        "title": "公共厕所",
        "address": "内蒙古自治区阿拉善盟阿拉善左旗环城南路世纪阳光城小区对面",
        "tel": "",
        "category": "基础设施:公共设施:公共厕所",
        "type": 0,
        "location": {
            "lat": 38.829185,
            "lng": 105.705683
        },
        "ad_info": {
            "adcode": 152921,
            "province": "内蒙古自治区",
            "city": "阿拉善盟",
            "district": "阿拉善左旗"
        }
    },
    {
        "id": "14410631262324852880",
        "title": "公共厕所",
        "address": "内蒙古自治区阿拉善盟阿拉善右旗G569与Y040交叉口东南方向971米左右",
        "tel": "",
        "category": "基础设施:公共设施:公共厕所",
        "type": 0,
        "location": {
            "lat": 39.456324,
            "lng": 104.083178
        },
        "ad_info": {
            "adcode": 152922,
            "province": "内蒙古自治区",
            "city": "阿拉善盟",
            "district": "阿拉善右旗"
        }
    },
    {
        "id": "6223758094245799641",
        "title": "公共厕所",
        "address": "内蒙古自治区阿拉善盟阿拉善左旗政北巷与西花园街交叉口正南方向104米左右",
        "tel": "",
        "category": "基础设施:公共设施:公共厕所",
        "type": 0,
        "location": {
            "lat": 38.832383,
            "lng": 105.667097
        },
        "ad_info": {
            "adcode": 152921,
            "province": "内蒙古自治区",
            "city": "阿拉善盟",
            "district": "阿拉善左旗"
        }
    },
    {
        "id": "231422535927921619",
        "title": "公共厕所",
        "address": "内蒙古自治区阿拉善盟阿拉善左旗政北巷与西花园街交叉口西北方向143米左右",
        "tel": "",
        "category": "基础设施:公共设施:公共厕所",
        "type": 0,
        "location": {
            "lat": 38.834496,
            "lng": 105.666268
        },
        "ad_info": {
            "adcode": 152921,
            "province": "内蒙古自治区",
            "city": "阿拉善盟",
            "district": "阿拉善左旗"
        }
    },
    {
        "id": "16251066568198558621",
        "title": "公共厕所",
        "address": "内蒙古自治区阿拉善盟阿拉善左旗鑫泽源农庄东北(218省道东)",
        "tel": "",
        "category": "基础设施:公共设施:公共厕所",
        "type": 0,
        "location": {
            "lat": 38.543629,
            "lng": 105.655865
        },
        "ad_info": {
            "adcode": 152921,
            "province": "内蒙古自治区",
            "city": "阿拉善盟",
            "district": "阿拉善左旗"
        }
    },
    {
        "id": "5276382771887443482",
        "title": "公共厕所",
        "address": "内蒙古自治区阿拉善盟阿拉善左旗额鲁特西路阿拉善盟蒙医医院",
        "tel": "",
        "category": "基础设施:公共设施:公共厕所",
        "type": 0,
        "location": {
            "lat": 38.848192,
            "lng": 105.698061
        },
        "ad_info": {
            "adcode": 152921,
            "province": "内蒙古自治区",
            "city": "阿拉善盟",
            "district": "阿拉善左旗"
        }
    },
    {
        "id": "15458025603056195866",
        "title": "公共厕所",
        "address": "内蒙古自治区阿拉善盟阿拉善右旗东环城路与新建巷交叉口西南方向43米左右",
        "tel": "",
        "category": "基础设施:公共设施:公共厕所",
        "type": 0,
        "location": {
            "lat": 39.213172,
            "lng": 101.682915
        },
        "ad_info": {
            "adcode": 152922,
            "province": "内蒙古自治区",
            "city": "阿拉善盟",
            "district": "阿拉善右旗"
        }
    },
    {
        "id": "16868531384652051528",
        "title": "公共厕所",
        "address": "内蒙古自治区阿拉善盟阿拉善左旗吉兰泰路与锡林南街交叉口正南方向100米左右",
        "tel": "",
        "category": "基础设施:公共设施:公共厕所",
        "type": 0,
        "location": {
            "lat": 38.841938,
            "lng": 105.692744
        },
        "ad_info": {
            "adcode": 152921,
            "province": "内蒙古自治区",
            "city": "阿拉善盟",
            "district": "阿拉善左旗"
        }
    },
    {
        "id": "7964228225322885196",
        "title": "公共厕所",
        "address": "内蒙古自治区阿拉善盟阿拉善右旗团结巷与特布希路交叉口东北方向28米左右",
        "tel": "",
        "category": "基础设施:公共设施:公共厕所",
        "type": 0,
        "location": {
            "lat": 39.207577,
            "lng": 101.669429
        },
        "ad_info": {
            "adcode": 152922,
            "province": "内蒙古自治区",
            "city": "阿拉善盟",
            "district": "阿拉善右旗"
        }
    },
    {
        "id": "5454662423831119001",
        "title": "巴润别立服务区第三公共厕所",
        "address": "内蒙古自治区阿拉善盟阿拉善左旗乌银高速",
        "tel": "",
        "category": "基础设施:公共设施:公共厕所",
        "type": 0,
        "location": {
            "lat": 38.513546,
            "lng": 105.675216
        },
        "ad_info": {
            "adcode": 152921,
            "province": "内蒙古自治区",
            "city": "阿拉善盟",
            "district": "阿拉善左旗"
        }
    },
    {
        "id": "6253297365293242327",
        "title": "公共厕所",
        "address": "内蒙古自治区阿拉善盟阿拉善左旗和谐路与贺兰路交叉口西南方向202米左右",
        "tel": "",
        "category": "基础设施:公共设施:公共厕所",
        "type": 0,
        "location": {
            "lat": 38.851819,
            "lng": 105.714023
        },
        "ad_info": {
            "adcode": 152921,
            "province": "内蒙古自治区",
            "city": "阿拉善盟",
            "district": "阿拉善左旗"
        }
    },
    {
        "id": "16815205066368665638",
        "title": "公共厕所",
        "address": "内蒙古自治区阿拉善盟额济纳旗新华街与苏泊淖尔路交叉口西南方向39米左右",
        "tel": "",
        "category": "基础设施:公共设施:公共厕所",
        "type": 0,
        "location": {
            "lat": 41.959452,
            "lng": 101.07024
        },
        "ad_info": {
            "adcode": 152923,
            "province": "内蒙古自治区",
            "city": "阿拉善盟",
            "district": "额济纳旗"
        }
    },
    {
        "id": "8455917653777445135",
        "title": "公共厕所",
        "address": "内蒙古自治区阿拉善盟阿拉善左旗X751与Y003交叉口正北方向67米左右",
        "tel": "",
        "category": "基础设施:公共设施:公共厕所",
        "type": 0,
        "location": {
            "lat": 37.969006,
            "lng": 105.376723
        },
        "ad_info": {
            "adcode": 152921,
            "province": "内蒙古自治区",
            "city": "阿拉善盟",
            "district": "阿拉善左旗"
        }
    },
    {
        "id": "15952224879241880784",
        "title": "公共厕所",
        "address": "内蒙古自治区阿拉善盟阿拉善左旗和谐路与贺兰路交叉口西南方向280米左右",
        "tel": "",
        "category": "基础设施:公共设施:公共厕所",
        "type": 0,
        "location": {
            "lat": 38.852108,
            "lng": 105.712265
        },
        "ad_info": {
            "adcode": 152921,
            "province": "内蒙古自治区",
            "city": "阿拉善盟",
            "district": "阿拉善左旗"
        }
    },
    {
        "id": "9366607837432577455",
        "title": "公共厕所",
        "address": "内蒙古自治区阿拉善盟阿拉善左旗S218与长流水大桥交叉口正北方向1200米左右",
        "tel": "",
        "category": "基础设施:公共设施:公共厕所",
        "type": 0,
        "location": {
            "lat": 38.417718,
            "lng": 105.732372
        },
        "ad_info": {
            "adcode": 152921,
            "province": "内蒙古自治区",
            "city": "阿拉善盟",
            "district": "阿拉善左旗"
        }
    },
    {
        "id": "10233949919818491037",
        "title": "公共厕所",
        "address": "内蒙古自治区阿拉善盟额济纳旗G331与朱公桥交叉口东北方向1370米左右",
        "tel": "",
        "category": "基础设施:公共设施:公共厕所",
        "type": 0,
        "location": {
            "lat": 41.96956,
            "lng": 101.092065
        },
        "ad_info": {
            "adcode": 152923,
            "province": "内蒙古自治区",
            "city": "阿拉善盟",
            "district": "额济纳旗"
        }
    },
    {
        "id": "12200041581728545781",
        "title": "公共厕所",
        "address": "内蒙古自治区阿拉善盟额济纳旗吉日乃路",
        "tel": "",
        "category": "基础设施:公共设施:公共厕所",
        "type": 0,
        "location": {
            "lat": 41.950867,
            "lng": 101.056842
        },
        "ad_info": {
            "adcode": 152923,
            "province": "内蒙古自治区",
            "city": "阿拉善盟",
            "district": "额济纳旗"
        }
    },
    {
        "id": "12365410770212870621",
        "title": "公共厕所",
        "address": "内蒙古自治区阿拉善盟阿拉善左旗阿拉善艳蓉电子商务有限公司北侧130米",
        "tel": "",
        "category": "基础设施:公共设施:公共厕所",
        "type": 0,
        "location": {
            "lat": 38.80263,
            "lng": 105.665584
        },
        "ad_info": {
            "adcode": 152921,
            "province": "内蒙古自治区",
            "city": "阿拉善盟",
            "district": "阿拉善左旗"
        }
    },
    {
        "id": "9356580590338718572",
        "title": "公共厕所",
        "address": "内蒙古自治区阿拉善盟阿拉善左旗218省道西100米",
        "tel": "",
        "category": "基础设施:公共设施:公共厕所",
        "type": 0,
        "location": {
            "lat": 39.685219,
            "lng": 105.083245
        },
        "ad_info": {
            "adcode": 152921,
            "province": "内蒙古自治区",
            "city": "阿拉善盟",
            "district": "阿拉善左旗"
        }
    },
    {
        "id": "1387240387689543176",
        "title": "公共厕所",
        "address": "内蒙古自治区阿拉善盟阿拉善左旗文化巷与新华街交叉口正南方向187米左右",
        "tel": "",
        "category": "基础设施:公共设施:公共厕所",
        "type": 0,
        "location": {
            "lat": 38.832945,
            "lng": 105.674104
        },
        "ad_info": {
            "adcode": 152921,
            "province": "内蒙古自治区",
            "city": "阿拉善盟",
            "district": "阿拉善左旗"
        }
    },
    {
        "id": "10822620425087414640",
        "title": "公共厕所",
        "address": "内蒙古自治区阿拉善盟阿拉善左旗南环路与机场公路交叉口正南方向1289米左右",
        "tel": "",
        "category": "基础设施:公共设施:公共厕所",
        "type": 0,
        "location": {
            "lat": 38.802703,
            "lng": 105.668319
        },
        "ad_info": {
            "adcode": 152921,
            "province": "内蒙古自治区",
            "city": "阿拉善盟",
            "district": "阿拉善左旗"
        }
    },
    {
        "id": "16054578178301010259",
        "title": "公共厕所",
        "address": "内蒙古自治区阿拉善盟阿拉善左旗兴府路与如意路交叉口东南方向119米左右",
        "tel": "",
        "category": "基础设施:公共设施:公共厕所",
        "type": 0,
        "location": {
            "lat": 38.83438,
            "lng": 105.683818
        },
        "ad_info": {
            "adcode": 152921,
            "province": "内蒙古自治区",
            "city": "阿拉善盟",
            "district": "阿拉善左旗"
        }
    },
    {
        "id": "17565353967264612410",
        "title": "公共厕所",
        "address": "内蒙古自治区阿拉善盟阿拉善左旗和平南路十二巷与和平路交叉口东南方向35米左右",
        "tel": "",
        "category": "基础设施:公共设施:公共厕所",
        "type": 0,
        "location": {
            "lat": 38.840646,
            "lng": 105.707413
        },
        "ad_info": {
            "adcode": 152921,
            "province": "内蒙古自治区",
            "city": "阿拉善盟",
            "district": "阿拉善左旗"
        }
    },
    {
        "id": "17022668727286655677",
        "title": "公共厕所",
        "address": "内蒙古自治区阿拉善盟额济纳旗X791与环城北路交叉口东南方向100米左右",
        "tel": "",
        "category": "基础设施:公共设施:公共厕所",
        "type": 0,
        "location": {
            "lat": 41.980157,
            "lng": 101.070617
        },
        "ad_info": {
            "adcode": 152923,
            "province": "内蒙古自治区",
            "city": "阿拉善盟",
            "district": "额济纳旗"
        }
    },
    {
        "id": "18130308823795571002",
        "title": "公共卫生间",
        "address": "内蒙古自治区阿拉善盟阿拉善左旗都兰街都兰花园",
        "tel": "",
        "category": "基础设施:公共设施:公共厕所",
        "type": 0,
        "location": {
            "lat": 38.837729,
            "lng": 105.651193
        },
        "ad_info": {
            "adcode": 152921,
            "province": "内蒙古自治区",
            "city": "阿拉善盟",
            "district": "阿拉善左旗"
        }
    },
    {
        "id": "7726702062652641923",
        "title": "公共厕所",
        "address": "内蒙古自治区阿拉善盟阿拉善左旗政北巷与西花园街交叉口正南方向336米左右",
        "tel": "",
        "category": "基础设施:公共设施:公共厕所",
        "type": 0,
        "location": {
            "lat": 38.83029,
            "lng": 105.667275
        },
        "ad_info": {
            "adcode": 152921,
            "province": "内蒙古自治区",
            "city": "阿拉善盟",
            "district": "阿拉善左旗"
        }
    },
    {
        "id": "5201502368432163622",
        "title": "公共厕所",
        "address": "内蒙古自治区阿拉善盟阿拉善左旗玛拉沁路与都兰街交叉口正北方向59米左右",
        "tel": "",
        "category": "基础设施:公共设施:公共厕所",
        "type": 0,
        "location": {
            "lat": 38.838177,
            "lng": 105.653689
        },
        "ad_info": {
            "adcode": 152921,
            "province": "内蒙古自治区",
            "city": "阿拉善盟",
            "district": "阿拉善左旗"
        }
    },
    {
        "id": "4704894307271348060",
        "title": "哈尔苏海服务区公共厕所",
        "address": "内蒙古自治区阿拉善盟阿拉善右旗石油哈尔苏海服务区加油站东南侧140米",
        "tel": "",
        "category": "基础设施:公共设施:公共厕所",
        "type": 0,
        "location": {
            "lat": 41.672036,
            "lng": 103.171832
        },
        "ad_info": {
            "adcode": 152922,
            "province": "内蒙古自治区",
            "city": "阿拉善盟",
            "district": "阿拉善右旗"
        }
    },
    {
        "id": "1625471503928465910",
        "title": "公共厕所",
        "address": "内蒙古自治区阿拉善盟额济纳旗G331与天鹅湖分离立交桥交叉口正西方向643米左右",
        "tel": "",
        "category": "基础设施:公共设施:公共厕所",
        "type": 0,
        "location": {
            "lat": 42.019451,
            "lng": 101.515526
        },
        "ad_info": {
            "adcode": 152923,
            "province": "内蒙古自治区",
            "city": "阿拉善盟",
            "district": "额济纳旗"
        }
    },
    {
        "id": "6481942921243816410",
        "title": "公共厕所",
        "address": "内蒙古自治区阿拉善盟阿拉善右旗骏马酒吧北侧180米",
        "tel": "",
        "category": "基础设施:公共设施:公共厕所",
        "type": 0,
        "location": {
            "lat": 40.26898,
            "lng": 104.512304
        },
        "ad_info": {
            "adcode": 152922,
            "province": "内蒙古自治区",
            "city": "阿拉善盟",
            "district": "阿拉善右旗"
        }
    },
    {
        "id": "2008949110052606999",
        "title": "额济纳旗服务区公共厕所",
        "address": "内蒙古自治区阿拉善盟额济纳旗中国石油额济纳旗服务区加油站东南侧200米",
        "tel": "",
        "category": "基础设施:公共设施:公共厕所",
        "type": 0,
        "location": {
            "lat": 41.888392,
            "lng": 100.954214
        },
        "ad_info": {
            "adcode": 152923,
            "province": "内蒙古自治区",
            "city": "阿拉善盟",
            "district": "额济纳旗"
        }
    },
    {
        "id": "9821964980289949527",
        "title": "公共厕所",
        "address": "内蒙古自治区阿拉善盟额济纳旗苏泊淖尔路西11号",
        "tel": "",
        "category": "基础设施:公共设施:公共厕所",
        "type": 0,
        "location": {
            "lat": 41.96345,
            "lng": 101.070514
        },
        "ad_info": {
            "adcode": 152923,
            "province": "内蒙古自治区",
            "city": "阿拉善盟",
            "district": "额济纳旗"
        }
    },
    {
        "id": "13296536258211418506",
        "title": "公共厕所",
        "address": "内蒙古自治区阿拉善盟阿拉善左旗",
        "tel": "",
        "category": "基础设施:公共设施:公共厕所",
        "type": 0,
        "location": {
            "lat": 38.681435,
            "lng": 105.809368
        },
        "ad_info": {
            "adcode": 152921,
            "province": "内蒙古自治区",
            "city": "阿拉善盟",
            "district": "阿拉善左旗"
        }
    },
    {
        "id": "16741027741827579055",
        "title": "公共厕所",
        "address": "内蒙古自治区阿拉善盟阿拉善左旗S218与S317交叉口东南方向1187米左右",
        "tel": "",
        "category": "基础设施:公共设施:公共厕所",
        "type": 0,
        "location": {
            "lat": 40.161608,
            "lng": 104.826398
        },
        "ad_info": {
            "adcode": 152921,
            "province": "内蒙古自治区",
            "city": "阿拉善盟",
            "district": "阿拉善左旗"
        }
    },
    {
        "id": "4092156191434970367",
        "title": "红古尔玉林服务区公共厕所",
        "address": "内蒙古自治区阿拉善盟阿拉善左旗中国石油红古尔玉林服务区加油站北侧130米",
        "tel": "",
        "category": "基础设施:公共设施:公共厕所",
        "type": 0,
        "location": {
            "lat": 40.451974,
            "lng": 105.404046
        },
        "ad_info": {
            "adcode": 152921,
            "province": "内蒙古自治区",
            "city": "阿拉善盟",
            "district": "阿拉善左旗"
        }
    },
    {
        "id": "12961427486977468164",
        "title": "公共厕所",
        "address": "内蒙古自治区阿拉善盟阿拉善左旗S218与巴丹吉林街交叉口正北方向192米左右",
        "tel": "",
        "category": "基础设施:公共设施:公共厕所",
        "type": 0,
        "location": {
            "lat": 38.828983,
            "lng": 105.673179
        },
        "ad_info": {
            "adcode": 152921,
            "province": "内蒙古自治区",
            "city": "阿拉善盟",
            "district": "阿拉善左旗"
        }
    },
    {
        "id": "3786261179613786712",
        "title": "公共厕所",
        "address": "内蒙古自治区阿拉善盟阿拉善右旗团结巷与树贵路交叉口正南方向71米左右",
        "tel": "",
        "category": "基础设施:公共设施:公共厕所",
        "type": 0,
        "location": {
            "lat": 39.209284,
            "lng": 101.669345
        },
        "ad_info": {
            "adcode": 152922,
            "province": "内蒙古自治区",
            "city": "阿拉善盟",
            "district": "阿拉善右旗"
        }
    },
    {
        "id": "474155742109896314",
        "title": "呼和包斯格服务区公共厕所",
        "address": "内蒙古自治区阿拉善盟阿拉善右旗中国石油呼和包斯格服务区加油站西南侧180米",
        "tel": "",
        "category": "基础设施:公共设施:公共厕所",
        "type": 0,
        "location": {
            "lat": 41.410908,
            "lng": 103.667602
        },
        "ad_info": {
            "adcode": 152922,
            "province": "内蒙古自治区",
            "city": "阿拉善盟",
            "district": "阿拉善右旗"
        }
    },
    {
        "id": "555968957911879934",
        "title": "公共厕所",
        "address": "内蒙古自治区阿拉善盟阿拉善左旗中共特莫乌拉嘎查支部委员会",
        "tel": "",
        "category": "基础设施:公共设施:公共厕所",
        "type": 0,
        "location": {
            "lat": 37.656969,
            "lng": 104.819802
        },
        "ad_info": {
            "adcode": 152921,
            "province": "内蒙古自治区",
            "city": "阿拉善盟",
            "district": "阿拉善左旗"
        }
    },
    {
        "id": "2170618355963892700",
        "title": "公共厕所",
        "address": "内蒙古自治区阿拉善盟阿拉善左旗二零三村道",
        "tel": "",
        "category": "基础设施:公共设施:公共厕所",
        "type": 0,
        "location": {
            "lat": 39.338799,
            "lng": 105.723121
        },
        "ad_info": {
            "adcode": 152921,
            "province": "内蒙古自治区",
            "city": "阿拉善盟",
            "district": "阿拉善左旗"
        }
    },
    {
        "id": "17061509553024028922",
        "title": "公共卫生间",
        "address": "内蒙古自治区阿拉善盟额济纳旗军民东街",
        "tel": "",
        "category": "基础设施:公共设施:公共厕所",
        "type": 0,
        "location": {
            "lat": 41.957427,
            "lng": 101.069749
        },
        "ad_info": {
            "adcode": 152923,
            "province": "内蒙古自治区",
            "city": "阿拉善盟",
            "district": "额济纳旗"
        }
    },
    {
        "id": "13571735623998666117",
        "title": "公共厕所",
        "address": "内蒙古自治区阿拉善盟阿拉善右旗759县道南50米额日布盖峡谷景区附近",
        "tel": "",
        "category": "基础设施:公共设施:公共厕所",
        "type": 0,
        "location": {
            "lat": 38.803477,
            "lng": 101.577264
        },
        "ad_info": {
            "adcode": 152922,
            "province": "内蒙古自治区",
            "city": "阿拉善盟",
            "district": "阿拉善右旗"
        }
    },
    {
        "id": "15287379671999481565",
        "title": "公共厕所",
        "address": "内蒙古自治区阿拉善盟阿拉善左旗翰隆国际·美林湾东侧220米",
        "tel": "",
        "category": "基础设施:公共设施:公共厕所",
        "type": 0,
        "location": {
            "lat": 38.830958,
            "lng": 105.697962
        },
        "ad_info": {
            "adcode": 152921,
            "province": "内蒙古自治区",
            "city": "阿拉善盟",
            "district": "阿拉善左旗"
        }
    },
    {
        "id": "14501239360883992039",
        "title": "公共厕所",
        "address": "内蒙古自治区阿拉善盟阿拉善左旗",
        "tel": "",
        "category": "基础设施:公共设施:公共厕所",
        "type": 0,
        "location": {
            "lat": 40.449418,
            "lng": 106.216638
        },
        "ad_info": {
            "adcode": 152921,
            "province": "内蒙古自治区",
            "city": "阿拉善盟",
            "district": "阿拉善左旗"
        }
    },
    {
        "id": "12760044466784565176",
        "title": "公共厕所",
        "address": "内蒙古自治区阿拉善盟阿拉善右旗317省道东50米",
        "tel": "",
        "category": "基础设施:公共设施:公共厕所",
        "type": 0,
        "location": {
            "lat": 40.058548,
            "lng": 103.908644
        },
        "ad_info": {
            "adcode": 152922,
            "province": "内蒙古自治区",
            "city": "阿拉善盟",
            "district": "阿拉善右旗"
        }
    },
    {
        "id": "17311290851490017086",
        "title": "公共厕所",
        "address": "内蒙古自治区阿拉善盟阿拉善左旗兰太大道与和硕特街交叉口西南方向68米左右",
        "tel": "",
        "category": "基础设施:公共设施:公共厕所",
        "type": 0,
        "location": {
            "lat": 39.460068,
            "lng": 106.65991
        },
        "ad_info": {
            "adcode": 152921,
            "province": "内蒙古自治区",
            "city": "阿拉善盟",
            "district": "阿拉善左旗"
        }
    },
    {
        "id": "11255765877148109294",
        "title": "公共厕所",
        "address": "内蒙古自治区阿拉善盟阿拉善左旗乌兰布和中路与高勒街交叉口正东方向330米左右",
        "tel": "",
        "category": "基础设施:公共设施:公共厕所",
        "type": 0,
        "location": {
            "lat": 39.747697,
            "lng": 105.766202
        },
        "ad_info": {
            "adcode": 152921,
            "province": "内蒙古自治区",
            "city": "阿拉善盟",
            "district": "阿拉善左旗"
        }
    },
    {
        "id": "4511819487424369074",
        "title": "公共厕所",
        "address": "内蒙古自治区阿拉善盟阿拉善左旗东关街与锡林南街交叉口西南方向154米左右",
        "tel": "",
        "category": "基础设施:公共设施:公共厕所",
        "type": 0,
        "location": {
            "lat": 38.846398,
            "lng": 105.691827
        },
        "ad_info": {
            "adcode": 152921,
            "province": "内蒙古自治区",
            "city": "阿拉善盟",
            "district": "阿拉善左旗"
        }
    },
    {
        "id": "3645107808903310829",
        "title": "公共厕所",
        "address": "内蒙古自治区阿拉善盟阿拉善左旗乌日斯路与卫拉特路交叉口正西方向541米左右",
        "tel": "",
        "category": "基础设施:公共设施:公共厕所",
        "type": 0,
        "location": {
            "lat": 38.845962,
            "lng": 105.643438
        },
        "ad_info": {
            "adcode": 152921,
            "province": "内蒙古自治区",
            "city": "阿拉善盟",
            "district": "阿拉善左旗"
        }
    },
    {
        "id": "3814931224581031181",
        "title": "公共厕所",
        "address": "内蒙古自治区阿拉善盟阿拉善左旗公园北路与公园西六巷交叉口正北方向22米左右",
        "tel": "",
        "category": "基础设施:公共设施:公共厕所",
        "type": 0,
        "location": {
            "lat": 38.851722,
            "lng": 105.698449
        },
        "ad_info": {
            "adcode": 152921,
            "province": "内蒙古自治区",
            "city": "阿拉善盟",
            "district": "阿拉善左旗"
        }
    },
    {
        "id": "17879018222335205787",
        "title": "公共厕所",
        "address": "内蒙古自治区阿拉善盟阿拉善左旗七校东一巷与公园北路十五巷交叉口正西方向199米左右",
        "tel": "",
        "category": "基础设施:公共设施:公共厕所",
        "type": 0,
        "location": {
            "lat": 38.854591,
            "lng": 105.698564
        },
        "ad_info": {
            "adcode": 152921,
            "province": "内蒙古自治区",
            "city": "阿拉善盟",
            "district": "阿拉善左旗"
        }
    },
    {
        "id": "2837660215711389086",
        "title": "公共厕所",
        "address": "内蒙古自治区阿拉善盟阿拉善左旗土尔扈特大街与环城南路交叉口东南方向303米左右",
        "tel": "",
        "category": "基础设施:公共设施:公共厕所",
        "type": 0,
        "location": {
            "lat": 38.826815,
            "lng": 105.712526
        },
        "ad_info": {
            "adcode": 152921,
            "province": "内蒙古自治区",
            "city": "阿拉善盟",
            "district": "阿拉善左旗"
        }
    },
    {
        "id": "5032980563514672459",
        "title": "公共厕所",
        "address": "内蒙古自治区阿拉善盟阿拉善右旗316省道北50米",
        "tel": "",
        "category": "基础设施:公共设施:公共厕所",
        "type": 0,
        "location": {
            "lat": 39.625492,
            "lng": 100.685687
        },
        "ad_info": {
            "adcode": 152922,
            "province": "内蒙古自治区",
            "city": "阿拉善盟",
            "district": "阿拉善右旗"
        }
    },
    {
        "id": "1952248552769841392",
        "title": "公共厕所",
        "address": "内蒙古自治区阿拉善盟额济纳旗C014与G331交叉口西南方向47米左右",
        "tel": "",
        "category": "基础设施:公共设施:公共厕所",
        "type": 0,
        "location": {
            "lat": 41.984845,
            "lng": 101.125405
        },
        "ad_info": {
            "adcode": 152923,
            "province": "内蒙古自治区",
            "city": "阿拉善盟",
            "district": "额济纳旗"
        }
    },
    {
        "id": "1024352516393617334",
        "title": "公共厕所",
        "address": "内蒙古自治区阿拉善盟阿拉善右旗212省道北100米",
        "tel": "",
        "category": "基础设施:公共设施:公共厕所",
        "type": 0,
        "location": {
            "lat": 39.382933,
            "lng": 102.8238
        },
        "ad_info": {
            "adcode": 152922,
            "province": "内蒙古自治区",
            "city": "阿拉善盟",
            "district": "阿拉善右旗"
        }
    },
    {
        "id": "12638896515168934283",
        "title": "英雄会4号公共厕所",
        "address": "内蒙古自治区阿拉善盟阿拉善左旗英雄会越野e族湖南大队衡阳分队车韵传奇基地东侧220米",
        "tel": "",
        "category": "基础设施:公共设施:公共厕所",
        "type": 0,
        "location": {
            "lat": 38.663821,
            "lng": 105.144753
        },
        "ad_info": {
            "adcode": 152921,
            "province": "内蒙古自治区",
            "city": "阿拉善盟",
            "district": "阿拉善左旗"
        }
    },
    {
        "id": "788350859295601537",
        "title": "公共厕所",
        "address": "内蒙古自治区阿拉善盟阿拉善左旗南梁街14号",
        "tel": "",
        "category": "基础设施:公共设施:公共厕所",
        "type": 0,
        "location": {
            "lat": 38.825715,
            "lng": 105.681243
        },
        "ad_info": {
            "adcode": 152921,
            "province": "内蒙古自治区",
            "city": "阿拉善盟",
            "district": "阿拉善左旗"
        }
    },
    {
        "id": "13097084577877401817",
        "title": "公共厕所",
        "address": "内蒙古自治区阿拉善盟阿拉善左旗G307与Y007交叉口正北方向608米左右",
        "tel": "",
        "category": "基础设施:公共设施:公共厕所",
        "type": 0,
        "location": {
            "lat": 38.5404,
            "lng": 105.656526
        },
        "ad_info": {
            "adcode": 152921,
            "province": "内蒙古自治区",
            "city": "阿拉善盟",
            "district": "阿拉善左旗"
        }
    },
    {
        "id": "10880956932462368292",
        "title": "公共厕所",
        "address": "内蒙古自治区阿拉善盟阿拉善左旗政北巷与西花园街交叉口西北方向395米左右",
        "tel": "",
        "category": "基础设施:公共设施:公共厕所",
        "type": 0,
        "location": {
            "lat": 38.83503,
            "lng": 105.662926
        },
        "ad_info": {
            "adcode": 152921,
            "province": "内蒙古自治区",
            "city": "阿拉善盟",
            "district": "阿拉善左旗"
        }
    },
    {
        "id": "937180819925593106",
        "title": "公共厕所",
        "address": "内蒙古自治区阿拉善盟阿拉善左旗雅布赖路南一巷与雅布赖路南三巷交叉口正南方向170米左右",
        "tel": "",
        "category": "基础设施:公共设施:公共厕所",
        "type": 0,
        "location": {
            "lat": 38.836508,
            "lng": 105.710708
        },
        "ad_info": {
            "adcode": 152921,
            "province": "内蒙古自治区",
            "city": "阿拉善盟",
            "district": "阿拉善左旗"
        }
    },
    {
        "id": "2748518226526129282",
        "title": "黑鹰山服务区公共厕所",
        "address": "内蒙古自治区阿拉善盟额济纳旗G7京新高速与黑鹰山服务区交叉口西420米",
        "tel": "",
        "category": "基础设施:公共设施:公共厕所",
        "type": 0,
        "location": {
            "lat": 42.009267,
            "lng": 98.155655
        },
        "ad_info": {
            "adcode": 152923,
            "province": "内蒙古自治区",
            "city": "阿拉善盟",
            "district": "额济纳旗"
        }
    },
    {
        "id": "8199153423456288819",
        "title": "赛汉陶来服务区公共厕所",
        "address": "内蒙古自治区阿拉善盟额济纳旗京新高速赛汉陶来服务区",
        "tel": "",
        "category": "基础设施:公共设施:公共厕所",
        "type": 0,
        "location": {
            "lat": 41.850934,
            "lng": 100.440973
        },
        "ad_info": {
            "adcode": 152923,
            "province": "内蒙古自治区",
            "city": "阿拉善盟",
            "district": "额济纳旗"
        }
    },
    {
        "id": "366363062601385614",
        "title": "公共厕所",
        "address": "内蒙古自治区阿拉善盟阿拉善左旗贺兰山南寺",
        "tel": "",
        "category": "基础设施:公共设施:公共厕所",
        "type": 0,
        "location": {
            "lat": 38.665428,
            "lng": 105.790765
        },
        "ad_info": {
            "adcode": 152921,
            "province": "内蒙古自治区",
            "city": "阿拉善盟",
            "district": "阿拉善左旗"
        }
    },
    {
        "id": "8755717559211231494",
        "title": "公共厕所",
        "address": "内蒙古自治区阿拉善盟阿拉善左旗和平南路十二巷与雅布赖街交叉口正南方向271米左右",
        "tel": "",
        "category": "基础设施:公共设施:公共厕所",
        "type": 0,
        "location": {
            "lat": 38.836303,
            "lng": 105.707
        },
        "ad_info": {
            "adcode": 152921,
            "province": "内蒙古自治区",
            "city": "阿拉善盟",
            "district": "阿拉善左旗"
        }
    },
    {
        "id": "2323824228158784445",
        "title": "公共厕所",
        "address": "内蒙古自治区阿拉善盟额济纳旗大漠胡杨林景区内",
        "tel": "",
        "category": "基础设施:公共设施:公共厕所",
        "type": 0,
        "location": {
            "lat": 41.9382,
            "lng": 101.083437
        },
        "ad_info": {
            "adcode": 152923,
            "province": "内蒙古自治区",
            "city": "阿拉善盟",
            "district": "额济纳旗"
        }
    },
    {
        "id": "3606519050492962080",
        "title": "公共厕所",
        "address": "内蒙古自治区阿拉善盟额济纳旗G331与达来湖波桥交叉口正东方向367米左右",
        "tel": "",
        "category": "基础设施:公共设施:公共厕所",
        "type": 0,
        "location": {
            "lat": 41.961505,
            "lng": 101.081842
        },
        "ad_info": {
            "adcode": 152923,
            "province": "内蒙古自治区",
            "city": "阿拉善盟",
            "district": "额济纳旗"
        }
    }
]