[
    {
        "id": "2449660352631249576",
        "title": "公共厕所",
        "address": "西藏自治区阿里地区噶尔县文化路61号",
        "tel": "",
        "category": "基础设施:公共设施:公共厕所",
        "type": 0,
        "location": {
            "lat": 32.503488,
            "lng": 80.108547
        },
        "ad_info": {
            "adcode": 542523,
            "province": "西藏自治区",
            "city": "阿里地区",
            "district": "噶尔县"
        }
    },
    {
        "id": "13863905774239756518",
        "title": "公共厕所",
        "address": "西藏自治区阿里地区噶尔县岗底斯路与滨河南路交叉口正西方向167米左右",
        "tel": "",
        "category": "基础设施:公共设施:公共厕所",
        "type": 0,
        "location": {
            "lat": 32.497055,
            "lng": 80.098638
        },
        "ad_info": {
            "adcode": 542523,
            "province": "西藏自治区",
            "city": "阿里地区",
            "district": "噶尔县"
        }
    },
    {
        "id": "15241010556059051384",
        "title": "公共厕所",
        "address": "西藏自治区阿里地区普兰县G564与平安街交叉口正南方向401米左右",
        "tel": "",
        "category": "基础设施:公共设施:公共厕所",
        "type": 0,
        "location": {
            "lat": 30.28216,
            "lng": 81.178913
        },
        "ad_info": {
            "adcode": 542521,
            "province": "西藏自治区",
            "city": "阿里地区",
            "district": "普兰县"
        }
    },
    {
        "id": "13555254424738724365",
        "title": "公共厕所",
        "address": "西藏自治区阿里地区噶尔县建设大街与滨河北路交叉口西北方向104米左右",
        "tel": "",
        "category": "基础设施:公共设施:公共厕所",
        "type": 0,
        "location": {
            "lat": 32.502903,
            "lng": 80.116615
        },
        "ad_info": {
            "adcode": 542523,
            "province": "西藏自治区",
            "city": "阿里地区",
            "district": "噶尔县"
        }
    },
    {
        "id": "6053847899925885365",
        "title": "公共厕所",
        "address": "西藏自治区阿里地区噶尔县格桑路与陕西路中段交叉口正东方向153米左右",
        "tel": "",
        "category": "基础设施:公共设施:公共厕所",
        "type": 0,
        "location": {
            "lat": 32.503428,
            "lng": 80.09986
        },
        "ad_info": {
            "adcode": 542523,
            "province": "西藏自治区",
            "city": "阿里地区",
            "district": "噶尔县"
        }
    },
    {
        "id": "5020719419835303187",
        "title": "公共厕所",
        "address": "西藏自治区阿里地区噶尔县G317与北京路北段交叉口正东方向56米左右",
        "tel": "",
        "category": "基础设施:公共设施:公共厕所",
        "type": 0,
        "location": {
            "lat": 32.504689,
            "lng": 80.094118
        },
        "ad_info": {
            "adcode": 542523,
            "province": "西藏自治区",
            "city": "阿里地区",
            "district": "噶尔县"
        }
    },
    {
        "id": "7682790732751912145",
        "title": "公共厕所",
        "address": "西藏自治区阿里地区噶尔县文化路与红柳花路交叉口东南方向157米左右",
        "tel": "",
        "category": "基础设施:公共设施:公共厕所",
        "type": 0,
        "location": {
            "lat": 32.500005,
            "lng": 80.105215
        },
        "ad_info": {
            "adcode": 542523,
            "province": "西藏自治区",
            "city": "阿里地区",
            "district": "噶尔县"
        }
    },
    {
        "id": "2496916363361996291",
        "title": "公共厕所",
        "address": "西藏自治区阿里地区札达县古格王朝遗址",
        "tel": "",
        "category": "基础设施:公共设施:公共厕所",
        "type": 0,
        "location": {
            "lat": 31.467645,
            "lng": 79.672025
        },
        "ad_info": {
            "adcode": 542522,
            "province": "西藏自治区",
            "city": "阿里地区",
            "district": "札达县"
        }
    },
    {
        "id": "2418809766574968905",
        "title": "公共厕所",
        "address": "西藏自治区阿里地区噶尔县团结巷与文化路交叉口正北方向44米左右",
        "tel": "",
        "category": "基础设施:公共设施:公共厕所",
        "type": 0,
        "location": {
            "lat": 32.500863,
            "lng": 80.102342
        },
        "ad_info": {
            "adcode": 542523,
            "province": "西藏自治区",
            "city": "阿里地区",
            "district": "噶尔县"
        }
    },
    {
        "id": "15673121048449006792",
        "title": "公共厕所",
        "address": "西藏自治区阿里地区普兰县圣湖大道与圣湖大道东二段交叉口东北方向1022米左右",
        "tel": "",
        "category": "基础设施:公共设施:公共厕所",
        "type": 0,
        "location": {
            "lat": 30.973319,
            "lng": 81.293806
        },
        "ad_info": {
            "adcode": 542521,
            "province": "西藏自治区",
            "city": "阿里地区",
            "district": "普兰县"
        }
    },
    {
        "id": "8358976118299123613",
        "title": "公共厕所",
        "address": "西藏自治区阿里地区噶尔县中学路与北京路南段交叉口西北方向41米左右",
        "tel": "",
        "category": "基础设施:公共设施:公共厕所",
        "type": 0,
        "location": {
            "lat": 32.495505,
            "lng": 80.094244
        },
        "ad_info": {
            "adcode": 542523,
            "province": "西藏自治区",
            "city": "阿里地区",
            "district": "噶尔县"
        }
    },
    {
        "id": "6269476683115822236",
        "title": "公共厕所",
        "address": "西藏自治区阿里地区噶尔县文化路与红柳花路交叉口正北方向176米左右",
        "tel": "",
        "category": "基础设施:公共设施:公共厕所",
        "type": 0,
        "location": {
            "lat": 32.502754,
            "lng": 80.10392
        },
        "ad_info": {
            "adcode": 542523,
            "province": "西藏自治区",
            "city": "阿里地区",
            "district": "噶尔县"
        }
    },
    {
        "id": "5923558054560594606",
        "title": "公共厕所",
        "address": "西藏自治区阿里地区普兰县玛旁雍错游客接待中心内",
        "tel": "",
        "category": "基础设施:公共设施:公共厕所",
        "type": 0,
        "location": {
            "lat": 30.735526,
            "lng": 81.635936
        },
        "ad_info": {
            "adcode": 542521,
            "province": "西藏自治区",
            "city": "阿里地区",
            "district": "普兰县"
        }
    },
    {
        "id": "9354423596995115743",
        "title": "公共厕所",
        "address": "西藏自治区阿里地区改则县G317与文化路交叉口正东方向89米左右",
        "tel": "",
        "category": "基础设施:公共设施:公共厕所",
        "type": 0,
        "location": {
            "lat": 32.30226,
            "lng": 84.063084
        },
        "ad_info": {
            "adcode": 542526,
            "province": "西藏自治区",
            "city": "阿里地区",
            "district": "改则县"
        }
    },
    {
        "id": "10585978975974224082",
        "title": "公共厕所",
        "address": "西藏自治区阿里地区改则县G317与车队路交叉口正东方向89米左右",
        "tel": "",
        "category": "基础设施:公共设施:公共厕所",
        "type": 0,
        "location": {
            "lat": 32.302072,
            "lng": 84.065974
        },
        "ad_info": {
            "adcode": 542526,
            "province": "西藏自治区",
            "city": "阿里地区",
            "district": "改则县"
        }
    },
    {
        "id": "13946507233337545062",
        "title": "公共厕所",
        "address": "西藏自治区阿里地区普兰县207省道",
        "tel": "",
        "category": "基础设施:公共设施:公共厕所",
        "type": 0,
        "location": {
            "lat": 30.708406,
            "lng": 81.369793
        },
        "ad_info": {
            "adcode": 542521,
            "province": "西藏自治区",
            "city": "阿里地区",
            "district": "普兰县"
        }
    },
    {
        "id": "2934357501832234184",
        "title": "公共厕所",
        "address": "西藏自治区阿里地区普兰县玛旁雍错环线楚古寺内",
        "tel": "",
        "category": "基础设施:公共设施:公共厕所",
        "type": 0,
        "location": {
            "lat": 30.557847,
            "lng": 81.446399
        },
        "ad_info": {
            "adcode": 542521,
            "province": "西藏自治区",
            "city": "阿里地区",
            "district": "普兰县"
        }
    },
    {
        "id": "12237142832131522558",
        "title": "公共厕所",
        "address": "西藏自治区阿里地区改则县G317与电信路交叉口正东方向123米左右",
        "tel": "",
        "category": "基础设施:公共设施:公共厕所",
        "type": 0,
        "location": {
            "lat": 32.302369,
            "lng": 84.060835
        },
        "ad_info": {
            "adcode": 542526,
            "province": "西藏自治区",
            "city": "阿里地区",
            "district": "改则县"
        }
    },
    {
        "id": "4799790834894504651",
        "title": "公共厕所",
        "address": "西藏自治区阿里地区札达县离县城30公里处检查站与养路段之间",
        "tel": "",
        "category": "基础设施:公共设施:公共厕所",
        "type": 0,
        "location": {
            "lat": 31.584745,
            "lng": 79.959802
        },
        "ad_info": {
            "adcode": 542522,
            "province": "西藏自治区",
            "city": "阿里地区",
            "district": "札达县"
        }
    },
    {
        "id": "5980000201080894829",
        "title": "公共厕所",
        "address": "西藏自治区阿里地区日土县班公湖度假村219国道旁",
        "tel": "",
        "category": "基础设施:公共设施:公共厕所",
        "type": 0,
        "location": {
            "lat": 33.445133,
            "lng": 79.815973
        },
        "ad_info": {
            "adcode": 542524,
            "province": "西藏自治区",
            "city": "阿里地区",
            "district": "日土县"
        }
    },
    {
        "id": "10984222151468254188",
        "title": "公共厕所",
        "address": "西藏自治区阿里地区日土县G219与道玛尼隧道交叉口正西方向786米左右",
        "tel": "",
        "category": "基础设施:公共设施:公共厕所",
        "type": 0,
        "location": {
            "lat": 33.467951,
            "lng": 79.837793
        },
        "ad_info": {
            "adcode": 542524,
            "province": "西藏自治区",
            "city": "阿里地区",
            "district": "日土县"
        }
    },
    {
        "id": "11938516004360156125",
        "title": "公共厕所",
        "address": "西藏自治区阿里地区普兰县207省道雄巴村",
        "tel": "",
        "category": "基础设施:公共设施:公共厕所",
        "type": 0,
        "location": {
            "lat": 30.764471,
            "lng": 81.370105
        },
        "ad_info": {
            "adcode": 542521,
            "province": "西藏自治区",
            "city": "阿里地区",
            "district": "普兰县"
        }
    },
    {
        "id": "10041762405427146605",
        "title": "公共厕所",
        "address": "西藏自治区阿里地区普兰县巴嘎乡大经幡广场旁",
        "tel": "",
        "category": "基础设施:公共设施:公共厕所",
        "type": 0,
        "location": {
            "lat": 31.011973,
            "lng": 81.262326
        },
        "ad_info": {
            "adcode": 542521,
            "province": "西藏自治区",
            "city": "阿里地区",
            "district": "普兰县"
        }
    },
    {
        "id": "1511254763970043728",
        "title": "公共厕所",
        "address": "西藏自治区阿里地区普兰县",
        "tel": "",
        "category": "基础设施:公共设施:公共厕所",
        "type": 0,
        "location": {
            "lat": 30.492771,
            "lng": 82.618226
        },
        "ad_info": {
            "adcode": 542521,
            "province": "西藏自治区",
            "city": "阿里地区",
            "district": "普兰县"
        }
    },
    {
        "id": "17344664592241616105",
        "title": "公共厕所",
        "address": "西藏自治区阿里地区普兰县207省道",
        "tel": "",
        "category": "基础设施:公共设施:公共厕所",
        "type": 0,
        "location": {
            "lat": 30.759669,
            "lng": 81.375427
        },
        "ad_info": {
            "adcode": 542521,
            "province": "西藏自治区",
            "city": "阿里地区",
            "district": "普兰县"
        }
    },
    {
        "id": "634267857729416060",
        "title": "公共厕所",
        "address": "西藏自治区阿里地区普兰县207省道",
        "tel": "",
        "category": "基础设施:公共设施:公共厕所",
        "type": 0,
        "location": {
            "lat": 30.760753,
            "lng": 81.373564
        },
        "ad_info": {
            "adcode": 542521,
            "province": "西藏自治区",
            "city": "阿里地区",
            "district": "普兰县"
        }
    },
    {
        "id": "16598137148733104941",
        "title": "公共厕所",
        "address": "西藏自治区阿里地区普兰县神山景区单真茶馆旁",
        "tel": "",
        "category": "基础设施:公共设施:公共厕所",
        "type": 0,
        "location": {
            "lat": 31.082701,
            "lng": 81.289465
        },
        "ad_info": {
            "adcode": 542521,
            "province": "西藏自治区",
            "city": "阿里地区",
            "district": "普兰县"
        }
    },
    {
        "id": "6389765700509773076",
        "title": "公共厕所",
        "address": "西藏自治区阿里地区普兰县霍尔乡圣湖游客服务接待中心旁",
        "tel": "",
        "category": "基础设施:公共设施:公共厕所",
        "type": 0,
        "location": {
            "lat": 30.734345,
            "lng": 81.636184
        },
        "ad_info": {
            "adcode": 542521,
            "province": "西藏自治区",
            "city": "阿里地区",
            "district": "普兰县"
        }
    },
    {
        "id": "8183181753219481330",
        "title": "公共厕所",
        "address": "西藏自治区阿里地区措勤县S206与广西中路交叉口正东方向252米左右",
        "tel": "",
        "category": "基础设施:公共设施:公共厕所",
        "type": 0,
        "location": {
            "lat": 31.015412,
            "lng": 85.156646
        },
        "ad_info": {
            "adcode": 542527,
            "province": "西藏自治区",
            "city": "阿里地区",
            "district": "措勤县"
        }
    },
    {
        "id": "2694262259819836773",
        "title": "公共厕所",
        "address": "西藏自治区阿里地区措勤县广西中路与扎日南木错路交叉口正西方向208米左右",
        "tel": "",
        "category": "基础设施:公共设施:公共厕所",
        "type": 0,
        "location": {
            "lat": 31.016471,
            "lng": 85.158461
        },
        "ad_info": {
            "adcode": 542527,
            "province": "西藏自治区",
            "city": "阿里地区",
            "district": "措勤县"
        }
    },
    {
        "id": "14556467588292339684",
        "title": "公共厕所",
        "address": "西藏自治区阿里地区噶尔县国电路与建设大街交叉口正西方向49米左右",
        "tel": "",
        "category": "基础设施:公共设施:公共厕所",
        "type": 0,
        "location": {
            "lat": 32.498573,
            "lng": 80.118541
        },
        "ad_info": {
            "adcode": 542523,
            "province": "西藏自治区",
            "city": "阿里地区",
            "district": "噶尔县"
        }
    },
    {
        "id": "12786044579672630970",
        "title": "公共厕所",
        "address": "西藏自治区阿里地区普兰县玛旁雍错游客接待中心二楼",
        "tel": "",
        "category": "基础设施:公共设施:公共厕所",
        "type": 0,
        "location": {
            "lat": 30.735641,
            "lng": 81.635614
        },
        "ad_info": {
            "adcode": 542521,
            "province": "西藏自治区",
            "city": "阿里地区",
            "district": "普兰县"
        }
    },
    {
        "id": "2884604925660903416",
        "title": "公共厕所",
        "address": "西藏自治区阿里地区噶尔县和谐巷与文化路交叉口正北方向192米左右",
        "tel": "",
        "category": "基础设施:公共设施:公共厕所",
        "type": 0,
        "location": {
            "lat": 32.502392,
            "lng": 80.102562
        },
        "ad_info": {
            "adcode": 542523,
            "province": "西藏自治区",
            "city": "阿里地区",
            "district": "噶尔县"
        }
    },
    {
        "id": "9167832898160368384",
        "title": "公共厕所",
        "address": "西藏自治区阿里地区改则县G317与文化路交叉口西北方向33米左右",
        "tel": "",
        "category": "基础设施:公共设施:公共厕所",
        "type": 0,
        "location": {
            "lat": 32.302697,
            "lng": 84.061918
        },
        "ad_info": {
            "adcode": 542526,
            "province": "西藏自治区",
            "city": "阿里地区",
            "district": "改则县"
        }
    },
    {
        "id": "8510240805267775774",
        "title": "公共厕所",
        "address": "西藏自治区阿里地区普兰县巴嘎乡大经幡广场旁",
        "tel": "",
        "category": "基础设施:公共设施:公共厕所",
        "type": 0,
        "location": {
            "lat": 31.009487,
            "lng": 81.261793
        },
        "ad_info": {
            "adcode": 542521,
            "province": "西藏自治区",
            "city": "阿里地区",
            "district": "普兰县"
        }
    },
    {
        "id": "1021076778443221704",
        "title": "公共厕所",
        "address": "西藏自治区阿里地区措勤县S206与国网路交叉口正东方向210米左右",
        "tel": "",
        "category": "基础设施:公共设施:公共厕所",
        "type": 0,
        "location": {
            "lat": 31.017108,
            "lng": 85.155258
        },
        "ad_info": {
            "adcode": 542527,
            "province": "西藏自治区",
            "city": "阿里地区",
            "district": "措勤县"
        }
    },
    {
        "id": "10510979077695867840",
        "title": "公共厕所",
        "address": "西藏自治区阿里地区改则县洞措乡小学东北侧120米",
        "tel": "",
        "category": "基础设施:公共设施:公共厕所",
        "type": 0,
        "location": {
            "lat": 32.095426,
            "lng": 84.880068
        },
        "ad_info": {
            "adcode": 542526,
            "province": "西藏自治区",
            "city": "阿里地区",
            "district": "改则县"
        }
    },
    {
        "id": "9463627663642157689",
        "title": "公共厕所",
        "address": "西藏自治区阿里地区噶尔县219国道西50米",
        "tel": "",
        "category": "基础设施:公共设施:公共厕所",
        "type": 0,
        "location": {
            "lat": 32.432738,
            "lng": 80.040563
        },
        "ad_info": {
            "adcode": 542523,
            "province": "西藏自治区",
            "city": "阿里地区",
            "district": "噶尔县"
        }
    },
    {
        "id": "187948717291729004",
        "title": "公共厕所",
        "address": "西藏自治区阿里地区噶尔县301省道南100米",
        "tel": "",
        "category": "基础设施:公共设施:公共厕所",
        "type": 0,
        "location": {
            "lat": 32.362593,
            "lng": 80.359259
        },
        "ad_info": {
            "adcode": 542523,
            "province": "西藏自治区",
            "city": "阿里地区",
            "district": "噶尔县"
        }
    },
    {
        "id": "363766134308034786",
        "title": "达雄乡公共厕所",
        "address": "西藏自治区阿里地区措勤县216国道",
        "tel": "",
        "category": "基础设施:公共设施:公共厕所",
        "type": 0,
        "location": {
            "lat": 31.346367,
            "lng": 85.074012
        },
        "ad_info": {
            "adcode": 542527,
            "province": "西藏自治区",
            "city": "阿里地区",
            "district": "措勤县"
        }
    }
]