[
    {
        "id": "16702732612619327354",
        "title": "公共厕所",
        "address": "甘肃省陇南市康县太石乡附近阳山村路口",
        "tel": "",
        "category": "基础设施:公共设施:公共厕所",
        "type": 0,
        "location": {
            "lat": 33.61268,
            "lng": 105.462543
        },
        "ad_info": {
            "adcode": 621224,
            "province": "甘肃省",
            "city": "陇南市",
            "district": "康县"
        }
    },
    {
        "id": "14315127392088762236",
        "title": "公共厕所",
        "address": "甘肃省陇南市武都区商贸西街与盘旋南路交叉口正东方向22米左右",
        "tel": "",
        "category": "基础设施:公共设施:公共厕所",
        "type": 0,
        "location": {
            "lat": 33.384743,
            "lng": 104.931774
        },
        "ad_info": {
            "adcode": 621202,
            "province": "甘肃省",
            "city": "陇南市",
            "district": "武都区"
        }
    },
    {
        "id": "8800087081693636381",
        "title": "公共厕所",
        "address": "甘肃省陇南市武都区东江路与五凤街交叉口正西方向58米左右",
        "tel": "",
        "category": "基础设施:公共设施:公共厕所",
        "type": 0,
        "location": {
            "lat": 33.368346,
            "lng": 104.961774
        },
        "ad_info": {
            "adcode": 621202,
            "province": "甘肃省",
            "city": "陇南市",
            "district": "武都区"
        }
    },
    {
        "id": "4209596461948754244",
        "title": "公共厕所",
        "address": "甘肃省陇南市礼县东新东路与东新北路交叉口正西方向215米左右",
        "tel": "",
        "category": "基础设施:公共设施:公共厕所",
        "type": 0,
        "location": {
            "lat": 34.18942,
            "lng": 105.187214
        },
        "ad_info": {
            "adcode": 621226,
            "province": "甘肃省",
            "city": "陇南市",
            "district": "礼县"
        }
    },
    {
        "id": "13906991241041196147",
        "title": "公共厕所",
        "address": "甘肃省陇南市武都区广场西路与阶州大道交叉口正北方向303米左右",
        "tel": "",
        "category": "基础设施:公共设施:公共厕所",
        "type": 0,
        "location": {
            "lat": 33.374024,
            "lng": 104.961103
        },
        "ad_info": {
            "adcode": 621202,
            "province": "甘肃省",
            "city": "陇南市",
            "district": "武都区"
        }
    },
    {
        "id": "12629490713385449214",
        "title": "公共厕所",
        "address": "甘肃省陇南市武都区梅园街与长江大道交叉口东南方向30米左右",
        "tel": "",
        "category": "基础设施:公共设施:公共厕所",
        "type": 0,
        "location": {
            "lat": 33.371786,
            "lng": 104.942575
        },
        "ad_info": {
            "adcode": 621202,
            "province": "甘肃省",
            "city": "陇南市",
            "district": "武都区"
        }
    },
    {
        "id": "7555942564336035103",
        "title": "公共厕所",
        "address": "甘肃省陇南市武都区三滩街与阶州大道交叉口西南方向58米左右",
        "tel": "",
        "category": "基础设施:公共设施:公共厕所",
        "type": 0,
        "location": {
            "lat": 33.37406,
            "lng": 104.95123
        },
        "ad_info": {
            "adcode": 621202,
            "province": "甘肃省",
            "city": "陇南市",
            "district": "武都区"
        }
    },
    {
        "id": "17055562556586425456",
        "title": "公共厕所",
        "address": "甘肃省陇南市武都区康宁街与西海岸路交叉口正北方向141米左右",
        "tel": "",
        "category": "基础设施:公共设施:公共厕所",
        "type": 0,
        "location": {
            "lat": 33.400109,
            "lng": 104.917045
        },
        "ad_info": {
            "adcode": 621202,
            "province": "甘肃省",
            "city": "陇南市",
            "district": "武都区"
        }
    },
    {
        "id": "12585217008561965646",
        "title": "洗手间",
        "address": "甘肃省陇南市武都区阶州大道与青岛街交叉口正北方向161米左右",
        "tel": "",
        "category": "基础设施:公共设施:公共厕所",
        "type": 0,
        "location": {
            "lat": 33.373527,
            "lng": 104.958018
        },
        "ad_info": {
            "adcode": 621202,
            "province": "甘肃省",
            "city": "陇南市",
            "district": "武都区"
        }
    },
    {
        "id": "12849868662872106464",
        "title": "公共厕所",
        "address": "甘肃省陇南市武都区阶州大道与青岛街交叉口东北方向133米左右",
        "tel": "",
        "category": "基础设施:公共设施:公共厕所",
        "type": 0,
        "location": {
            "lat": 33.373058,
            "lng": 104.959296
        },
        "ad_info": {
            "adcode": 621202,
            "province": "甘肃省",
            "city": "陇南市",
            "district": "武都区"
        }
    },
    {
        "id": "13652105965798635070",
        "title": "公共厕所",
        "address": "甘肃省陇南市武都区前方医疗器械有限公司西北侧",
        "tel": "",
        "category": "基础设施:公共设施:公共厕所",
        "type": 0,
        "location": {
            "lat": 33.481702,
            "lng": 105.091353
        },
        "ad_info": {
            "adcode": 621202,
            "province": "甘肃省",
            "city": "陇南市",
            "district": "武都区"
        }
    },
    {
        "id": "8215129419153134101",
        "title": "公共厕所",
        "address": "甘肃省陇南市武都区G345",
        "tel": "",
        "category": "基础设施:公共设施:公共厕所",
        "type": 0,
        "location": {
            "lat": 33.520671,
            "lng": 104.694802
        },
        "ad_info": {
            "adcode": 621202,
            "province": "甘肃省",
            "city": "陇南市",
            "district": "武都区"
        }
    },
    {
        "id": "7504884173091282367",
        "title": "公共厕所",
        "address": "甘肃省陇南市成县S205与幸福路交叉口正西方向167米左右",
        "tel": "",
        "category": "基础设施:公共设施:公共厕所",
        "type": 0,
        "location": {
            "lat": 33.736309,
            "lng": 105.721076
        },
        "ad_info": {
            "adcode": 621221,
            "province": "甘肃省",
            "city": "陇南市",
            "district": "成县"
        }
    },
    {
        "id": "14826356907289008448",
        "title": "公共厕所",
        "address": "甘肃省陇南市礼县G247与G567交叉口正东方向483米左右",
        "tel": "",
        "category": "基础设施:公共设施:公共厕所",
        "type": 0,
        "location": {
            "lat": 34.229779,
            "lng": 105.396236
        },
        "ad_info": {
            "adcode": 621226,
            "province": "甘肃省",
            "city": "陇南市",
            "district": "礼县"
        }
    },
    {
        "id": "14509057326291173092",
        "title": "公共厕所",
        "address": "甘肃省陇南市武都区三滩街与东江路交叉口正北方向21米左右",
        "tel": "",
        "category": "基础设施:公共设施:公共厕所",
        "type": 0,
        "location": {
            "lat": 33.372126,
            "lng": 104.95055
        },
        "ad_info": {
            "adcode": 621202,
            "province": "甘肃省",
            "city": "陇南市",
            "district": "武都区"
        }
    },
    {
        "id": "15675489777355435538",
        "title": "公共厕所",
        "address": "甘肃省陇南市武都区陇南体育中心大厦南(新市街东)",
        "tel": "",
        "category": "基础设施:公共设施:公共厕所",
        "type": 0,
        "location": {
            "lat": 33.390113,
            "lng": 104.925987
        },
        "ad_info": {
            "adcode": 621202,
            "province": "甘肃省",
            "city": "陇南市",
            "district": "武都区"
        }
    },
    {
        "id": "9749275963626667224",
        "title": "公共厕所",
        "address": "甘肃省陇南市武都区康宁街与椒都路交叉口正西方向158米左右",
        "tel": "",
        "category": "基础设施:公共设施:公共厕所",
        "type": 0,
        "location": {
            "lat": 33.397773,
            "lng": 104.914131
        },
        "ad_info": {
            "adcode": 621202,
            "province": "甘肃省",
            "city": "陇南市",
            "district": "武都区"
        }
    },
    {
        "id": "13815412399549809728",
        "title": "公共厕所",
        "address": "甘肃省陇南市康县燕河南路与阳平巷交叉口正东方向204米左右",
        "tel": "",
        "category": "基础设施:公共设施:公共厕所",
        "type": 0,
        "location": {
            "lat": 33.326668,
            "lng": 105.61122
        },
        "ad_info": {
            "adcode": 621224,
            "province": "甘肃省",
            "city": "陇南市",
            "district": "康县"
        }
    },
    {
        "id": "4933862133847326884",
        "title": "公共厕所",
        "address": "甘肃省陇南市武都区北山东路与阶州大道交叉口正北方向195米左右",
        "tel": "",
        "category": "基础设施:公共设施:公共厕所",
        "type": 0,
        "location": {
            "lat": 33.377827,
            "lng": 104.938161
        },
        "ad_info": {
            "adcode": 621202,
            "province": "甘肃省",
            "city": "陇南市",
            "district": "武都区"
        }
    },
    {
        "id": "5161694882435916728",
        "title": "公共厕所",
        "address": "甘肃省陇南市康县咀台桥与燕河西路交叉口正西方向43米左右",
        "tel": "",
        "category": "基础设施:公共设施:公共厕所",
        "type": 0,
        "location": {
            "lat": 33.326617,
            "lng": 105.596016
        },
        "ad_info": {
            "adcode": 621224,
            "province": "甘肃省",
            "city": "陇南市",
            "district": "康县"
        }
    },
    {
        "id": "7660170406373180786",
        "title": "公共厕所",
        "address": "甘肃省陇南市成县青少年校外活动中心(同谷北路西)",
        "tel": "",
        "category": "基础设施:公共设施:公共厕所",
        "type": 0,
        "location": {
            "lat": 33.743412,
            "lng": 105.733059
        },
        "ad_info": {
            "adcode": 621221,
            "province": "甘肃省",
            "city": "陇南市",
            "district": "成县"
        }
    },
    {
        "id": "2184260034152143190",
        "title": "公共厕所",
        "address": "甘肃省陇南市礼县南大街与环城南路交叉口东南方向59米左右",
        "tel": "",
        "category": "基础设施:公共设施:公共厕所",
        "type": 0,
        "location": {
            "lat": 34.186123,
            "lng": 105.181659
        },
        "ad_info": {
            "adcode": 621226,
            "province": "甘肃省",
            "city": "陇南市",
            "district": "礼县"
        }
    },
    {
        "id": "925791620138504385",
        "title": "公共厕所",
        "address": "甘肃省陇南市武都区S206与S549交叉口东北方向264米左右",
        "tel": "",
        "category": "基础设施:公共设施:公共厕所",
        "type": 0,
        "location": {
            "lat": 33.299325,
            "lng": 105.170854
        },
        "ad_info": {
            "adcode": 621202,
            "province": "甘肃省",
            "city": "陇南市",
            "district": "武都区"
        }
    },
    {
        "id": "17732213622235760572",
        "title": "公共厕所",
        "address": "甘肃省陇南市武都区S206与S549交叉口正东方向69米左右",
        "tel": "",
        "category": "基础设施:公共设施:公共厕所",
        "type": 0,
        "location": {
            "lat": 33.297914,
            "lng": 105.169476
        },
        "ad_info": {
            "adcode": 621202,
            "province": "甘肃省",
            "city": "陇南市",
            "district": "武都区"
        }
    },
    {
        "id": "3271678778431715511",
        "title": "公共厕所",
        "address": "甘肃省陇南市徽县西街与金源路交叉口正北方向36米左右",
        "tel": "",
        "category": "基础设施:公共设施:公共厕所",
        "type": 0,
        "location": {
            "lat": 33.767118,
            "lng": 106.084916
        },
        "ad_info": {
            "adcode": 621227,
            "province": "甘肃省",
            "city": "陇南市",
            "district": "徽县"
        }
    },
    {
        "id": "17847583371454759615",
        "title": "公共厕所",
        "address": "甘肃省陇南市文县G212与Y712交叉口正西方向1988米左右",
        "tel": "",
        "category": "基础设施:公共设施:公共厕所",
        "type": 0,
        "location": {
            "lat": 33.038547,
            "lng": 104.87206
        },
        "ad_info": {
            "adcode": 621222,
            "province": "甘肃省",
            "city": "陇南市",
            "district": "文县"
        }
    },
    {
        "id": "3031065746228814255",
        "title": "公共厕所",
        "address": "甘肃省陇南市康县G567与毛坝大桥交叉口西北方向1010米左右",
        "tel": "",
        "category": "基础设施:公共设施:公共厕所",
        "type": 0,
        "location": {
            "lat": 33.586915,
            "lng": 105.539528
        },
        "ad_info": {
            "adcode": 621224,
            "province": "甘肃省",
            "city": "陇南市",
            "district": "康县"
        }
    },
    {
        "id": "5896367845454655049",
        "title": "公共厕所",
        "address": "甘肃省陇南市西和县滨河路与香山街交叉口西北方向38米左右",
        "tel": "",
        "category": "基础设施:公共设施:公共厕所",
        "type": 0,
        "location": {
            "lat": 34.017433,
            "lng": 105.301411
        },
        "ad_info": {
            "adcode": 621225,
            "province": "甘肃省",
            "city": "陇南市",
            "district": "西和县"
        }
    },
    {
        "id": "8179039204756961968",
        "title": "公共厕所",
        "address": "甘肃省陇南市康县燕河西路与白云山路交叉口正南方向189米左右",
        "tel": "",
        "category": "基础设施:公共设施:公共厕所",
        "type": 0,
        "location": {
            "lat": 33.326047,
            "lng": 105.601576
        },
        "ad_info": {
            "adcode": 621224,
            "province": "甘肃省",
            "city": "陇南市",
            "district": "康县"
        }
    },
    {
        "id": "8232142437276216838",
        "title": "公共厕所",
        "address": "甘肃省陇南市文县双桥街与白水江大道交叉口西南方向10米左右",
        "tel": "",
        "category": "基础设施:公共设施:公共厕所",
        "type": 0,
        "location": {
            "lat": 32.941364,
            "lng": 104.681002
        },
        "ad_info": {
            "adcode": 621222,
            "province": "甘肃省",
            "city": "陇南市",
            "district": "文县"
        }
    },
    {
        "id": "3294163896759907323",
        "title": "公共厕所",
        "address": "甘肃省陇南市两当县公园路与广香西路交叉口正东方向143米左右",
        "tel": "",
        "category": "基础设施:公共设施:公共厕所",
        "type": 0,
        "location": {
            "lat": 33.910993,
            "lng": 106.311509
        },
        "ad_info": {
            "adcode": 621228,
            "province": "甘肃省",
            "city": "陇南市",
            "district": "两当县"
        }
    },
    {
        "id": "7610325520214532381",
        "title": "公共厕所",
        "address": "甘肃省陇南市武都区萃英街与西海岸路交叉口东南方向44米左右",
        "tel": "",
        "category": "基础设施:公共设施:公共厕所",
        "type": 0,
        "location": {
            "lat": 33.400078,
            "lng": 104.915607
        },
        "ad_info": {
            "adcode": 621202,
            "province": "甘肃省",
            "city": "陇南市",
            "district": "武都区"
        }
    },
    {
        "id": "16338431264014253849",
        "title": "公共厕所",
        "address": "甘肃省陇南市武都区弘文街与西海岸路交叉口西北方向93米左右",
        "tel": "",
        "category": "基础设施:公共设施:公共厕所",
        "type": 0,
        "location": {
            "lat": 33.402867,
            "lng": 104.912429
        },
        "ad_info": {
            "adcode": 621202,
            "province": "甘肃省",
            "city": "陇南市",
            "district": "武都区"
        }
    },
    {
        "id": "8126729403805977138",
        "title": "公共厕所",
        "address": "甘肃省陇南市武都区南桥路与盘旋西路交叉口正东方向51米左右",
        "tel": "",
        "category": "基础设施:公共设施:公共厕所",
        "type": 0,
        "location": {
            "lat": 33.388874,
            "lng": 104.928573
        },
        "ad_info": {
            "adcode": 621202,
            "province": "甘肃省",
            "city": "陇南市",
            "district": "武都区"
        }
    },
    {
        "id": "15948321704993447814",
        "title": "公共厕所",
        "address": "甘肃省陇南市武都区云屏街与长江大道交叉口东南方向58米左右",
        "tel": "",
        "category": "基础设施:公共设施:公共厕所",
        "type": 0,
        "location": {
            "lat": 33.365597,
            "lng": 104.9736
        },
        "ad_info": {
            "adcode": 621202,
            "province": "甘肃省",
            "city": "陇南市",
            "district": "武都区"
        }
    },
    {
        "id": "9884071141016833989",
        "title": "公共厕所",
        "address": "甘肃省陇南市徽县十天高速与西滨河路交叉口正西方向1792米左右",
        "tel": "",
        "category": "基础设施:公共设施:公共厕所",
        "type": 0,
        "location": {
            "lat": 33.749461,
            "lng": 105.946014
        },
        "ad_info": {
            "adcode": 621227,
            "province": "甘肃省",
            "city": "陇南市",
            "district": "徽县"
        }
    },
    {
        "id": "9189827807400885031",
        "title": "公共厕所",
        "address": "甘肃省陇南市武都区人民街与县门街交叉口西南方向42米左右",
        "tel": "",
        "category": "基础设施:公共设施:公共厕所",
        "type": 0,
        "location": {
            "lat": 33.391884,
            "lng": 104.925784
        },
        "ad_info": {
            "adcode": 621202,
            "province": "甘肃省",
            "city": "陇南市",
            "district": "武都区"
        }
    },
    {
        "id": "17327786595994466341",
        "title": "公共厕所",
        "address": "甘肃省陇南市康县G345与康略高速交叉口西北方向606米左右",
        "tel": "",
        "category": "基础设施:公共设施:公共厕所",
        "type": 0,
        "location": {
            "lat": 33.363461,
            "lng": 105.556628
        },
        "ad_info": {
            "adcode": 621224,
            "province": "甘肃省",
            "city": "陇南市",
            "district": "康县"
        }
    },
    {
        "id": "2255506566085756679",
        "title": "公共厕所",
        "address": "甘肃省陇南市康县S222与梅园南路交叉口西南方向47米左右",
        "tel": "",
        "category": "基础设施:公共设施:公共厕所",
        "type": 0,
        "location": {
            "lat": 33.323373,
            "lng": 105.610128
        },
        "ad_info": {
            "adcode": 621224,
            "province": "甘肃省",
            "city": "陇南市",
            "district": "康县"
        }
    },
    {
        "id": "3036180769744260810",
        "title": "公共卫生间(青泥路)",
        "address": "甘肃省陇南市徽县X481",
        "tel": "",
        "category": "基础设施:公共设施:公共厕所",
        "type": 0,
        "location": {
            "lat": 33.754497,
            "lng": 106.092641
        },
        "ad_info": {
            "adcode": 621227,
            "province": "甘肃省",
            "city": "陇南市",
            "district": "徽县"
        }
    },
    {
        "id": "7713984073529795652",
        "title": "公共厕所",
        "address": "甘肃省陇南市两当县站儿巷镇大山村",
        "tel": "",
        "category": "基础设施:公共设施:公共厕所",
        "type": 0,
        "location": {
            "lat": 33.762024,
            "lng": 106.361889
        },
        "ad_info": {
            "adcode": 621228,
            "province": "甘肃省",
            "city": "陇南市",
            "district": "两当县"
        }
    },
    {
        "id": "9333149718918184410",
        "title": "公共厕所",
        "address": "甘肃省陇南市宕昌县G212与G345交叉口西南方向252米左右",
        "tel": "",
        "category": "基础设施:公共设施:公共厕所",
        "type": 0,
        "location": {
            "lat": 33.692747,
            "lng": 104.48746
        },
        "ad_info": {
            "adcode": 621223,
            "province": "甘肃省",
            "city": "陇南市",
            "district": "宕昌县"
        }
    },
    {
        "id": "4457059298848969602",
        "title": "公共厕所",
        "address": "甘肃省陇南市两当县云屏小学西北侧210米",
        "tel": "",
        "category": "基础设施:公共设施:公共厕所",
        "type": 0,
        "location": {
            "lat": 33.695235,
            "lng": 106.416976
        },
        "ad_info": {
            "adcode": 621228,
            "province": "甘肃省",
            "city": "陇南市",
            "district": "两当县"
        }
    },
    {
        "id": "4159847057791196347",
        "title": "公共厕所",
        "address": "甘肃省陇南市两当县云屏山地旅游度假区西侧160米",
        "tel": "",
        "category": "基础设施:公共设施:公共厕所",
        "type": 0,
        "location": {
            "lat": 33.693645,
            "lng": 106.474597
        },
        "ad_info": {
            "adcode": 621228,
            "province": "甘肃省",
            "city": "陇南市",
            "district": "两当县"
        }
    },
    {
        "id": "7637101470438320444",
        "title": "公共厕所",
        "address": "甘肃省陇南市礼县东新东路与北滨河路交叉口正北方向59米左右",
        "tel": "",
        "category": "基础设施:公共设施:公共厕所",
        "type": 0,
        "location": {
            "lat": 34.190265,
            "lng": 105.194503
        },
        "ad_info": {
            "adcode": 621226,
            "province": "甘肃省",
            "city": "陇南市",
            "district": "礼县"
        }
    },
    {
        "id": "13954836116353921514",
        "title": "公共厕所",
        "address": "甘肃省陇南市两当县站儿巷镇九年制学校西南侧240米",
        "tel": "",
        "category": "基础设施:公共设施:公共厕所",
        "type": 0,
        "location": {
            "lat": 33.772056,
            "lng": 106.304624
        },
        "ad_info": {
            "adcode": 621228,
            "province": "甘肃省",
            "city": "陇南市",
            "district": "两当县"
        }
    },
    {
        "id": "6282106631983830840",
        "title": "公共厕所",
        "address": "甘肃省陇南市两当县S218",
        "tel": "",
        "category": "基础设施:公共设施:公共厕所",
        "type": 0,
        "location": {
            "lat": 34.173271,
            "lng": 106.314677
        },
        "ad_info": {
            "adcode": 621228,
            "province": "甘肃省",
            "city": "陇南市",
            "district": "两当县"
        }
    },
    {
        "id": "14097469228762953996",
        "title": "公共厕所",
        "address": "甘肃省陇南市礼县小南街与西大街交叉口正东方向85米左右",
        "tel": "",
        "category": "基础设施:公共设施:公共厕所",
        "type": 0,
        "location": {
            "lat": 34.188545,
            "lng": 105.178596
        },
        "ad_info": {
            "adcode": 621226,
            "province": "甘肃省",
            "city": "陇南市",
            "district": "礼县"
        }
    },
    {
        "id": "6841033213957476770",
        "title": "公共厕所",
        "address": "甘肃省陇南市宕昌县长征中路与长征西路交叉口西北方向83米左右",
        "tel": "",
        "category": "基础设施:公共设施:公共厕所",
        "type": 0,
        "location": {
            "lat": 34.044053,
            "lng": 104.393874
        },
        "ad_info": {
            "adcode": 621223,
            "province": "甘肃省",
            "city": "陇南市",
            "district": "宕昌县"
        }
    },
    {
        "id": "18144661089015721086",
        "title": "公共厕所",
        "address": "甘肃省陇南市礼县秦华路与秦汉大道交叉口正北方向115米左右",
        "tel": "",
        "category": "基础设施:公共设施:公共厕所",
        "type": 0,
        "location": {
            "lat": 34.192084,
            "lng": 105.208441
        },
        "ad_info": {
            "adcode": 621226,
            "province": "甘肃省",
            "city": "陇南市",
            "district": "礼县"
        }
    },
    {
        "id": "2795057068334748470",
        "title": "公共厕所",
        "address": "甘肃省陇南市文县G212与何家湾大桥交叉口东南方向45米左右",
        "tel": "",
        "category": "基础设施:公共设施:公共厕所",
        "type": 0,
        "location": {
            "lat": 32.759792,
            "lng": 105.242531
        },
        "ad_info": {
            "adcode": 621222,
            "province": "甘肃省",
            "city": "陇南市",
            "district": "文县"
        }
    },
    {
        "id": "11336141090598158849",
        "title": "公共厕所",
        "address": "甘肃省陇南市成县北泉中巷与西滨中路交叉口正东方向248米左右",
        "tel": "",
        "category": "基础设施:公共设施:公共厕所",
        "type": 0,
        "location": {
            "lat": 33.748035,
            "lng": 105.737998
        },
        "ad_info": {
            "adcode": 621221,
            "province": "甘肃省",
            "city": "陇南市",
            "district": "成县"
        }
    },
    {
        "id": "13480009578407566522",
        "title": "公共厕所",
        "address": "甘肃省陇南市文县即墨路与所城南街交叉口东南方向32米左右",
        "tel": "",
        "category": "基础设施:公共设施:公共厕所",
        "type": 0,
        "location": {
            "lat": 32.939978,
            "lng": 104.676148
        },
        "ad_info": {
            "adcode": 621222,
            "province": "甘肃省",
            "city": "陇南市",
            "district": "文县"
        }
    },
    {
        "id": "12599174543135792669",
        "title": "公共厕所",
        "address": "甘肃省陇南市礼县秦华路与秦汉大道交叉口正南方向37米左右",
        "tel": "",
        "category": "基础设施:公共设施:公共厕所",
        "type": 0,
        "location": {
            "lat": 34.190739,
            "lng": 105.208651
        },
        "ad_info": {
            "adcode": 621226,
            "province": "甘肃省",
            "city": "陇南市",
            "district": "礼县"
        }
    },
    {
        "id": "579210943966453707",
        "title": "公共厕所",
        "address": "甘肃省陇南市武都区G8513平绵高速出口与345国道交叉口西北20米",
        "tel": "",
        "category": "基础设施:公共设施:公共厕所",
        "type": 0,
        "location": {
            "lat": 33.448483,
            "lng": 105.357583
        },
        "ad_info": {
            "adcode": 621202,
            "province": "甘肃省",
            "city": "陇南市",
            "district": "武都区"
        }
    },
    {
        "id": "11400518120340464966",
        "title": "公共厕所",
        "address": "甘肃省陇南市礼县北关路与北大街交叉口西南方向37米左右",
        "tel": "",
        "category": "基础设施:公共设施:公共厕所",
        "type": 0,
        "location": {
            "lat": 34.191057,
            "lng": 105.180715
        },
        "ad_info": {
            "adcode": 621226,
            "province": "甘肃省",
            "city": "陇南市",
            "district": "礼县"
        }
    },
    {
        "id": "9869322163681975406",
        "title": "公共厕所",
        "address": "甘肃省陇南市成县西滨中路与隆昌巷交叉口西北方向67米左右",
        "tel": "",
        "category": "基础设施:公共设施:公共厕所",
        "type": 0,
        "location": {
            "lat": 33.742448,
            "lng": 105.740232
        },
        "ad_info": {
            "adcode": 621221,
            "province": "甘肃省",
            "city": "陇南市",
            "district": "成县"
        }
    },
    {
        "id": "11163345717628661280",
        "title": "公共厕所",
        "address": "甘肃省陇南市文县G212与S559交叉口正南方向957米左右",
        "tel": "",
        "category": "基础设施:公共设施:公共厕所",
        "type": 0,
        "location": {
            "lat": 33.075178,
            "lng": 104.819336
        },
        "ad_info": {
            "adcode": 621222,
            "province": "甘肃省",
            "city": "陇南市",
            "district": "文县"
        }
    },
    {
        "id": "8017481003075699728",
        "title": "公共厕所",
        "address": "甘肃省陇南市宕昌县和谐路与长征东路交叉口正南方向30米左右",
        "tel": "",
        "category": "基础设施:公共设施:公共厕所",
        "type": 0,
        "location": {
            "lat": 34.0401,
            "lng": 104.399829
        },
        "ad_info": {
            "adcode": 621223,
            "province": "甘肃省",
            "city": "陇南市",
            "district": "宕昌县"
        }
    },
    {
        "id": "15883920600628018348",
        "title": "公共厕所",
        "address": "甘肃省陇南市西和县仇池路与夫子街交叉口西北方向35米左右",
        "tel": "",
        "category": "基础设施:公共设施:公共厕所",
        "type": 0,
        "location": {
            "lat": 34.010049,
            "lng": 105.300859
        },
        "ad_info": {
            "adcode": 621225,
            "province": "甘肃省",
            "city": "陇南市",
            "district": "西和县"
        }
    },
    {
        "id": "8341954801698275488",
        "title": "公共厕所",
        "address": "甘肃省陇南市礼县南滨河路与韦山路交叉口东北方向118米左右",
        "tel": "",
        "category": "基础设施:公共设施:公共厕所",
        "type": 0,
        "location": {
            "lat": 34.183392,
            "lng": 105.192889
        },
        "ad_info": {
            "adcode": 621226,
            "province": "甘肃省",
            "city": "陇南市",
            "district": "礼县"
        }
    },
    {
        "id": "11159491780554362029",
        "title": "公共厕所",
        "address": "甘肃省陇南市礼县G247与秦汉大道交叉口正西方向108米左右",
        "tel": "",
        "category": "基础设施:公共设施:公共厕所",
        "type": 0,
        "location": {
            "lat": 34.191818,
            "lng": 105.219253
        },
        "ad_info": {
            "adcode": 621226,
            "province": "甘肃省",
            "city": "陇南市",
            "district": "礼县"
        }
    },
    {
        "id": "11449898429995194968",
        "title": "公共厕所",
        "address": "甘肃省陇南市礼县中山西路与环城东路交叉口正西方向54米左右",
        "tel": "",
        "category": "基础设施:公共设施:公共厕所",
        "type": 0,
        "location": {
            "lat": 34.190677,
            "lng": 105.183294
        },
        "ad_info": {
            "adcode": 621226,
            "province": "甘肃省",
            "city": "陇南市",
            "district": "礼县"
        }
    },
    {
        "id": "1711209208289197398",
        "title": "公共厕所",
        "address": "甘肃省陇南市武都区G212与Y714交叉口西南方向1690米左右",
        "tel": "",
        "category": "基础设施:公共设施:公共厕所",
        "type": 0,
        "location": {
            "lat": 33.143847,
            "lng": 104.988178
        },
        "ad_info": {
            "adcode": 621202,
            "province": "甘肃省",
            "city": "陇南市",
            "district": "武都区"
        }
    },
    {
        "id": "1448235314551228504",
        "title": "公共厕所",
        "address": "甘肃省陇南市康县人民西路与小康路交叉口西北方向215米左右",
        "tel": "",
        "category": "基础设施:公共设施:公共厕所",
        "type": 0,
        "location": {
            "lat": 33.33014,
            "lng": 105.588708
        },
        "ad_info": {
            "adcode": 621224,
            "province": "甘肃省",
            "city": "陇南市",
            "district": "康县"
        }
    },
    {
        "id": "15765951401310180230",
        "title": "公共厕所",
        "address": "甘肃省陇南市文县G212(兰渝线)",
        "tel": "",
        "category": "基础设施:公共设施:公共厕所",
        "type": 0,
        "location": {
            "lat": 33.058386,
            "lng": 104.624904
        },
        "ad_info": {
            "adcode": 621222,
            "province": "甘肃省",
            "city": "陇南市",
            "district": "文县"
        }
    },
    {
        "id": "17193481708180462838",
        "title": "公共厕所",
        "address": "甘肃省陇南市武都区205省道北100米",
        "tel": "",
        "category": "基础设施:公共设施:公共厕所",
        "type": 0,
        "location": {
            "lat": 33.455668,
            "lng": 104.94309
        },
        "ad_info": {
            "adcode": 621202,
            "province": "甘肃省",
            "city": "陇南市",
            "district": "武都区"
        }
    },
    {
        "id": "10867308911968180672",
        "title": "公共厕所",
        "address": "甘肃省陇南市武都区S206与福津河中桥交叉口西南方向545米左右",
        "tel": "",
        "category": "基础设施:公共设施:公共厕所",
        "type": 0,
        "location": {
            "lat": 33.286745,
            "lng": 105.131284
        },
        "ad_info": {
            "adcode": 621202,
            "province": "甘肃省",
            "city": "陇南市",
            "district": "武都区"
        }
    },
    {
        "id": "17459819442640219813",
        "title": "公共厕所",
        "address": "甘肃省陇南市武都区G345与S208交叉口正东方向764米左右",
        "tel": "",
        "category": "基础设施:公共设施:公共厕所",
        "type": 0,
        "location": {
            "lat": 33.465557,
            "lng": 104.972464
        },
        "ad_info": {
            "adcode": 621202,
            "province": "甘肃省",
            "city": "陇南市",
            "district": "武都区"
        }
    },
    {
        "id": "4982360143557013781",
        "title": "公共厕所",
        "address": "甘肃省陇南市徽县建新路与金徽大道交叉口东北方向172米左右",
        "tel": "",
        "category": "基础设施:公共设施:公共厕所",
        "type": 0,
        "location": {
            "lat": 33.772286,
            "lng": 106.082921
        },
        "ad_info": {
            "adcode": 621227,
            "province": "甘肃省",
            "city": "陇南市",
            "district": "徽县"
        }
    },
    {
        "id": "150488215865192383",
        "title": "公共厕所",
        "address": "甘肃省陇南市徽县嘉陵镇电子商务服务站西侧190米",
        "tel": "",
        "category": "基础设施:公共设施:公共厕所",
        "type": 0,
        "location": {
            "lat": 33.738367,
            "lng": 106.178323
        },
        "ad_info": {
            "adcode": 621227,
            "province": "甘肃省",
            "city": "陇南市",
            "district": "徽县"
        }
    },
    {
        "id": "13954487416344595053",
        "title": "公共厕所",
        "address": "甘肃省陇南市礼县秦华路与秦汉大道交叉口正北方向269米左右",
        "tel": "",
        "category": "基础设施:公共设施:公共厕所",
        "type": 0,
        "location": {
            "lat": 34.1935,
            "lng": 105.208527
        },
        "ad_info": {
            "adcode": 621226,
            "province": "甘肃省",
            "city": "陇南市",
            "district": "礼县"
        }
    },
    {
        "id": "2394855662587384369",
        "title": "公共厕所",
        "address": "甘肃省陇南市康县梅园北路与沙窝巷交叉口正西方向77米左右",
        "tel": "",
        "category": "基础设施:公共设施:公共厕所",
        "type": 0,
        "location": {
            "lat": 33.331139,
            "lng": 105.611362
        },
        "ad_info": {
            "adcode": 621224,
            "province": "甘肃省",
            "city": "陇南市",
            "district": "康县"
        }
    },
    {
        "id": "8893242990853205577",
        "title": "公共厕所",
        "address": "甘肃省陇南市宕昌县",
        "tel": "",
        "category": "基础设施:公共设施:公共厕所",
        "type": 0,
        "location": {
            "lat": 33.987282,
            "lng": 104.376341
        },
        "ad_info": {
            "adcode": 621223,
            "province": "甘肃省",
            "city": "陇南市",
            "district": "宕昌县"
        }
    },
    {
        "id": "13090906560550898783",
        "title": "公共厕所",
        "address": "甘肃省陇南市康县S222与康阳路交叉口正西方向1300米左右",
        "tel": "",
        "category": "基础设施:公共设施:公共厕所",
        "type": 0,
        "location": {
            "lat": 33.269056,
            "lng": 105.666865
        },
        "ad_info": {
            "adcode": 621224,
            "province": "甘肃省",
            "city": "陇南市",
            "district": "康县"
        }
    },
    {
        "id": "68974017185717019",
        "title": "公共厕所",
        "address": "甘肃省陇南市两当县站广段云屏镇店子村",
        "tel": "",
        "category": "基础设施:公共设施:公共厕所",
        "type": 0,
        "location": {
            "lat": 33.732296,
            "lng": 106.398031
        },
        "ad_info": {
            "adcode": 621228,
            "province": "甘肃省",
            "city": "陇南市",
            "district": "两当县"
        }
    },
    {
        "id": "16923946864470787596",
        "title": "公共厕所",
        "address": "甘肃省陇南市康县人民东路与后坝桥交叉口西北方向66米左右",
        "tel": "",
        "category": "基础设施:公共设施:公共厕所",
        "type": 0,
        "location": {
            "lat": 33.328964,
            "lng": 105.601774
        },
        "ad_info": {
            "adcode": 621224,
            "province": "甘肃省",
            "city": "陇南市",
            "district": "康县"
        }
    },
    {
        "id": "7560427446338767265",
        "title": "公共厕所",
        "address": "甘肃省陇南市礼县城关镇北关路北关小学",
        "tel": "",
        "category": "基础设施:公共设施:公共厕所",
        "type": 0,
        "location": {
            "lat": 34.193444,
            "lng": 105.181744
        },
        "ad_info": {
            "adcode": 621226,
            "province": "甘肃省",
            "city": "陇南市",
            "district": "礼县"
        }
    },
    {
        "id": "2821904320686089806",
        "title": "公共厕所",
        "address": "甘肃省陇南市徽县东关桥与东街交叉口东南方向26米左右",
        "tel": "",
        "category": "基础设施:公共设施:公共厕所",
        "type": 0,
        "location": {
            "lat": 33.772885,
            "lng": 106.091909
        },
        "ad_info": {
            "adcode": 621227,
            "province": "甘肃省",
            "city": "陇南市",
            "district": "徽县"
        }
    },
    {
        "id": "12179983062804091211",
        "title": "公共厕所",
        "address": "甘肃省陇南市康县人民东路与咀台巷交叉口西北方向20米左右",
        "tel": "",
        "category": "基础设施:公共设施:公共厕所",
        "type": 0,
        "location": {
            "lat": 33.327978,
            "lng": 105.598001
        },
        "ad_info": {
            "adcode": 621224,
            "province": "甘肃省",
            "city": "陇南市",
            "district": "康县"
        }
    },
    {
        "id": "3593507630585708286",
        "title": "公共厕所",
        "address": "甘肃省陇南市文县212国道东50米",
        "tel": "",
        "category": "基础设施:公共设施:公共厕所",
        "type": 0,
        "location": {
            "lat": 33.065961,
            "lng": 104.82892
        },
        "ad_info": {
            "adcode": 621222,
            "province": "甘肃省",
            "city": "陇南市",
            "district": "文县"
        }
    },
    {
        "id": "11048541924939481105",
        "title": "公共厕所",
        "address": "甘肃省陇南市礼县礼县特殊教育学校东侧130米",
        "tel": "",
        "category": "基础设施:公共设施:公共厕所",
        "type": 0,
        "location": {
            "lat": 34.178635,
            "lng": 105.166318
        },
        "ad_info": {
            "adcode": 621226,
            "province": "甘肃省",
            "city": "陇南市",
            "district": "礼县"
        }
    },
    {
        "id": "2726475434190611874",
        "title": "公共厕所",
        "address": "甘肃省陇南市文县G212(兰渝线)",
        "tel": "",
        "category": "基础设施:公共设施:公共厕所",
        "type": 0,
        "location": {
            "lat": 33.058805,
            "lng": 104.714623
        },
        "ad_info": {
            "adcode": 621222,
            "province": "甘肃省",
            "city": "陇南市",
            "district": "文县"
        }
    },
    {
        "id": "3227882541626356929",
        "title": "公共厕所",
        "address": "甘肃省陇南市成县G567与小山段交叉口西南方向14米左右",
        "tel": "",
        "category": "基础设施:公共设施:公共厕所",
        "type": 0,
        "location": {
            "lat": 33.718861,
            "lng": 105.529416
        },
        "ad_info": {
            "adcode": 621221,
            "province": "甘肃省",
            "city": "陇南市",
            "district": "成县"
        }
    },
    {
        "id": "3275813909993745117",
        "title": "公共厕所",
        "address": "甘肃省陇南市徽县G316与永宁大桥交叉口西南方向142米左右",
        "tel": "",
        "category": "基础设施:公共设施:公共厕所",
        "type": 0,
        "location": {
            "lat": 33.829821,
            "lng": 106.192098
        },
        "ad_info": {
            "adcode": 621227,
            "province": "甘肃省",
            "city": "陇南市",
            "district": "徽县"
        }
    },
    {
        "id": "12624654409647901435",
        "title": "公共厕所",
        "address": "甘肃省陇南市两当县东大街与广香西路交叉口正南方向112米左右",
        "tel": "",
        "category": "基础设施:公共设施:公共厕所",
        "type": 0,
        "location": {
            "lat": 33.907553,
            "lng": 106.309779
        },
        "ad_info": {
            "adcode": 621228,
            "province": "甘肃省",
            "city": "陇南市",
            "district": "两当县"
        }
    },
    {
        "id": "12513861096742090153",
        "title": "公共厕所",
        "address": "甘肃省陇南市两当县G316与东大街交叉口西南方向76米左右",
        "tel": "",
        "category": "基础设施:公共设施:公共厕所",
        "type": 0,
        "location": {
            "lat": 33.908229,
            "lng": 106.30802
        },
        "ad_info": {
            "adcode": 621228,
            "province": "甘肃省",
            "city": "陇南市",
            "district": "两当县"
        }
    },
    {
        "id": "10905004620500708286",
        "title": "公共厕所",
        "address": "甘肃省陇南市成县G567与毛坝大桥交叉口西北方向229米左右",
        "tel": "",
        "category": "基础设施:公共设施:公共厕所",
        "type": 0,
        "location": {
            "lat": 33.580637,
            "lng": 105.543436
        },
        "ad_info": {
            "adcode": 621221,
            "province": "甘肃省",
            "city": "陇南市",
            "district": "成县"
        }
    },
    {
        "id": "7627747803500535066",
        "title": "公共厕所",
        "address": "甘肃省陇南市礼县厚德路与秦华路交叉口西北方向39米左右",
        "tel": "",
        "category": "基础设施:公共设施:公共厕所",
        "type": 0,
        "location": {
            "lat": 34.189164,
            "lng": 105.20869
        },
        "ad_info": {
            "adcode": 621226,
            "province": "甘肃省",
            "city": "陇南市",
            "district": "礼县"
        }
    },
    {
        "id": "17059378584320799662",
        "title": "公共厕所",
        "address": "甘肃省陇南市宕昌县G212与兰海高速交叉口东南方向1474米左右",
        "tel": "",
        "category": "基础设施:公共设施:公共厕所",
        "type": 0,
        "location": {
            "lat": 34.20302,
            "lng": 104.249498
        },
        "ad_info": {
            "adcode": 621223,
            "province": "甘肃省",
            "city": "陇南市",
            "district": "宕昌县"
        }
    },
    {
        "id": "14096581439036030146",
        "title": "公共厕所",
        "address": "甘肃省陇南市礼县东新北路与北滨河路交叉口正北方向232米左右",
        "tel": "",
        "category": "基础设施:公共设施:公共厕所",
        "type": 0,
        "location": {
            "lat": 34.199161,
            "lng": 105.187674
        },
        "ad_info": {
            "adcode": 621226,
            "province": "甘肃省",
            "city": "陇南市",
            "district": "礼县"
        }
    },
    {
        "id": "16208597516468311220",
        "title": "公共厕所",
        "address": "甘肃省陇南市宕昌县G212与沙湾四桥交叉口正北方向1741米左右",
        "tel": "",
        "category": "基础设施:公共设施:公共厕所",
        "type": 0,
        "location": {
            "lat": 33.633826,
            "lng": 104.553384
        },
        "ad_info": {
            "adcode": 621223,
            "province": "甘肃省",
            "city": "陇南市",
            "district": "宕昌县"
        }
    },
    {
        "id": "1057750615000912842",
        "title": "公共厕所",
        "address": "甘肃省陇南市西和县小杜生态停车场",
        "tel": "",
        "category": "基础设施:公共设施:公共厕所",
        "type": 0,
        "location": {
            "lat": 34.04776,
            "lng": 105.316188
        },
        "ad_info": {
            "adcode": 621225,
            "province": "甘肃省",
            "city": "陇南市",
            "district": "西和县"
        }
    },
    {
        "id": "8031985299948454532",
        "title": "公共厕所",
        "address": "甘肃省陇南市西和县G567与S545交叉口正北方向30米左右",
        "tel": "",
        "category": "基础设施:公共设施:公共厕所",
        "type": 0,
        "location": {
            "lat": 33.775344,
            "lng": 105.401785
        },
        "ad_info": {
            "adcode": 621225,
            "province": "甘肃省",
            "city": "陇南市",
            "district": "西和县"
        }
    },
    {
        "id": "16944242089343879937",
        "title": "公共厕所",
        "address": "甘肃省陇南市西和县G567与X510交叉口正北方向468米左右",
        "tel": "",
        "category": "基础设施:公共设施:公共厕所",
        "type": 0,
        "location": {
            "lat": 34.08786,
            "lng": 105.318606
        },
        "ad_info": {
            "adcode": 621225,
            "province": "甘肃省",
            "city": "陇南市",
            "district": "西和县"
        }
    },
    {
        "id": "14322075322195380510",
        "title": "公共厕所",
        "address": "甘肃省陇南市宕昌县G212与沙湾四桥交叉口东南方向1598米左右",
        "tel": "",
        "category": "基础设施:公共设施:公共厕所",
        "type": 0,
        "location": {
            "lat": 33.608458,
            "lng": 104.574239
        },
        "ad_info": {
            "adcode": 621223,
            "province": "甘肃省",
            "city": "陇南市",
            "district": "宕昌县"
        }
    },
    {
        "id": "5030302936244613735",
        "title": "毛坝农贸市场-公共厕所",
        "address": "甘肃省陇南市成县S205与Y720交叉口东南方向464米左右",
        "tel": "",
        "category": "基础设施:公共设施:公共厕所",
        "type": 0,
        "location": {
            "lat": 33.575328,
            "lng": 105.549595
        },
        "ad_info": {
            "adcode": 621221,
            "province": "甘肃省",
            "city": "陇南市",
            "district": "成县"
        }
    },
    {
        "id": "9397585029347770228",
        "title": "公共厕所",
        "address": "甘肃省陇南市西和县中山路与解放街交叉口正西方向173米左右",
        "tel": "",
        "category": "基础设施:公共设施:公共厕所",
        "type": 0,
        "location": {
            "lat": 34.015004,
            "lng": 105.297132
        },
        "ad_info": {
            "adcode": 621225,
            "province": "甘肃省",
            "city": "陇南市",
            "district": "西和县"
        }
    },
    {
        "id": "17894558883450293174",
        "title": "徽县服务区公共厕所",
        "address": "甘肃省陇南市徽县十天高速徽县服务区",
        "tel": "",
        "category": "基础设施:公共设施:公共厕所",
        "type": 0,
        "location": {
            "lat": 33.74747,
            "lng": 105.953258
        },
        "ad_info": {
            "adcode": 621227,
            "province": "甘肃省",
            "city": "陇南市",
            "district": "徽县"
        }
    },
    {
        "id": "9240373458286060506",
        "title": "临江服务区公共厕所",
        "address": "甘肃省陇南市武都区G212与Y714交叉口西南方向827米左右",
        "tel": "",
        "category": "基础设施:公共设施:公共厕所",
        "type": 0,
        "location": {
            "lat": 33.149105,
            "lng": 104.995301
        },
        "ad_info": {
            "adcode": 621202,
            "province": "甘肃省",
            "city": "陇南市",
            "district": "武都区"
        }
    },
    {
        "id": "15490466583240765263",
        "title": "武都服务区公共厕所",
        "address": "甘肃省陇南市武都区东交街与中和路交叉口东南方向287米左右",
        "tel": "",
        "category": "基础设施:公共设施:公共厕所",
        "type": 0,
        "location": {
            "lat": 33.362416,
            "lng": 104.960921
        },
        "ad_info": {
            "adcode": 621202,
            "province": "甘肃省",
            "city": "陇南市",
            "district": "武都区"
        }
    },
    {
        "id": "16087104757730923060",
        "title": "周家坝社区广场公共厕所",
        "address": "甘肃省陇南市康县S329与周豆段交叉口东南方向32米左右",
        "tel": "",
        "category": "基础设施:公共设施:公共厕所",
        "type": 0,
        "location": {
            "lat": 33.574349,
            "lng": 105.530982
        },
        "ad_info": {
            "adcode": 621224,
            "province": "甘肃省",
            "city": "陇南市",
            "district": "康县"
        }
    },
    {
        "id": "17531062433628933588",
        "title": "礼县服务区公共厕所",
        "address": "甘肃省陇南市礼县G247与G567交叉口正东方向1555米左右",
        "tel": "",
        "category": "基础设施:公共设施:公共厕所",
        "type": 0,
        "location": {
            "lat": 34.233247,
            "lng": 105.407478
        },
        "ad_info": {
            "adcode": 621226,
            "province": "甘肃省",
            "city": "陇南市",
            "district": "礼县"
        }
    },
    {
        "id": "5188807598609405217",
        "title": "洛塘服务区公共厕所",
        "address": "甘肃省陇南市武都区G75兰海高速与洛塘服务区交叉口东北220米",
        "tel": "",
        "category": "基础设施:公共设施:公共厕所",
        "type": 0,
        "location": {
            "lat": 33.048091,
            "lng": 105.261117
        },
        "ad_info": {
            "adcode": 621202,
            "province": "甘肃省",
            "city": "陇南市",
            "district": "武都区"
        }
    },
    {
        "id": "2229235140206309263",
        "title": "石坊服务区公共厕所",
        "address": "甘肃省陇南市文县G8513平绵高速与石坊服务区交叉口东460米",
        "tel": "",
        "category": "基础设施:公共设施:公共厕所",
        "type": 0,
        "location": {
            "lat": 33.003194,
            "lng": 104.554336
        },
        "ad_info": {
            "adcode": 621222,
            "province": "甘肃省",
            "city": "陇南市",
            "district": "文县"
        }
    },
    {
        "id": "14705062393356821642",
        "title": "石坊服务区公共厕所",
        "address": "甘肃省陇南市文县石坊服务区西侧",
        "tel": "",
        "category": "基础设施:公共设施:公共厕所",
        "type": 0,
        "location": {
            "lat": 33.0037,
            "lng": 104.556658
        },
        "ad_info": {
            "adcode": 621222,
            "province": "甘肃省",
            "city": "陇南市",
            "district": "文县"
        }
    },
    {
        "id": "4690065247879455739",
        "title": "临江服务区公共厕所",
        "address": "甘肃省陇南市武都区临江服务区北40米",
        "tel": "",
        "category": "基础设施:公共设施:公共厕所",
        "type": 0,
        "location": {
            "lat": 33.14713,
            "lng": 104.996004
        },
        "ad_info": {
            "adcode": 621202,
            "province": "甘肃省",
            "city": "陇南市",
            "district": "武都区"
        }
    },
    {
        "id": "3595858168881451109",
        "title": "杨店服务区公共厕所",
        "address": "甘肃省陇南市两当县太凤高速入口与S10凤合高速入口交叉口东南300米",
        "tel": "",
        "category": "基础设施:公共设施:公共厕所",
        "type": 0,
        "location": {
            "lat": 33.934063,
            "lng": 106.423669
        },
        "ad_info": {
            "adcode": 621228,
            "province": "甘肃省",
            "city": "陇南市",
            "district": "两当县"
        }
    },
    {
        "id": "4711732623544712956",
        "title": "洛塘服务区公共厕所",
        "address": "甘肃省陇南市武都区洛塘服务区与G75兰海高速交叉口南140米",
        "tel": "",
        "category": "基础设施:公共设施:公共厕所",
        "type": 0,
        "location": {
            "lat": 33.045059,
            "lng": 105.259929
        },
        "ad_info": {
            "adcode": 621202,
            "province": "甘肃省",
            "city": "陇南市",
            "district": "武都区"
        }
    },
    {
        "id": "1660062474520573617",
        "title": "公共厕所",
        "address": "甘肃省陇南市徽县X481",
        "tel": "",
        "category": "基础设施:公共设施:公共厕所",
        "type": 0,
        "location": {
            "lat": 33.758053,
            "lng": 106.094018
        },
        "ad_info": {
            "adcode": 621227,
            "province": "甘肃省",
            "city": "陇南市",
            "district": "徽县"
        }
    },
    {
        "id": "11194843121280631388",
        "title": "沙湾服务区公共厕所",
        "address": "甘肃省陇南市宕昌县中国石油公航旅集团沙湾服务区加油站西北侧160米",
        "tel": "",
        "category": "基础设施:公共设施:公共厕所",
        "type": 0,
        "location": {
            "lat": 33.603631,
            "lng": 104.572516
        },
        "ad_info": {
            "adcode": 621223,
            "province": "甘肃省",
            "city": "陇南市",
            "district": "宕昌县"
        }
    },
    {
        "id": "12337500675265914748",
        "title": "沙湾服务区公共厕所",
        "address": "甘肃省陇南市宕昌县G212与沙湾四桥交叉口东南方向1845米左右",
        "tel": "",
        "category": "基础设施:公共设施:公共厕所",
        "type": 0,
        "location": {
            "lat": 33.603869,
            "lng": 104.572837
        },
        "ad_info": {
            "adcode": 621223,
            "province": "甘肃省",
            "city": "陇南市",
            "district": "宕昌县"
        }
    },
    {
        "id": "15652732388464736735",
        "title": "宕昌服务区公共厕所",
        "address": "甘肃省陇南市宕昌县中国石油加油站东侧150米",
        "tel": "",
        "category": "基础设施:公共设施:公共厕所",
        "type": 0,
        "location": {
            "lat": 34.097881,
            "lng": 104.255547
        },
        "ad_info": {
            "adcode": 621223,
            "province": "甘肃省",
            "city": "陇南市",
            "district": "宕昌县"
        }
    },
    {
        "id": "9923772006389336120",
        "title": "杨店服务区公共厕所",
        "address": "甘肃省陇南市两当县G316与杨左路交叉口正北方向336米左右",
        "tel": "",
        "category": "基础设施:公共设施:公共厕所",
        "type": 0,
        "location": {
            "lat": 33.942909,
            "lng": 106.415119
        },
        "ad_info": {
            "adcode": 621228,
            "province": "甘肃省",
            "city": "陇南市",
            "district": "两当县"
        }
    },
    {
        "id": "15707326702820359162",
        "title": "礼县服务区公共厕所",
        "address": "甘肃省陇南市礼县G247与G567交叉口正东方向1777米左右",
        "tel": "",
        "category": "基础设施:公共设施:公共厕所",
        "type": 0,
        "location": {
            "lat": 34.230915,
            "lng": 105.410283
        },
        "ad_info": {
            "adcode": 621226,
            "province": "甘肃省",
            "city": "陇南市",
            "district": "礼县"
        }
    },
    {
        "id": "2048297510266802021",
        "title": "佛崖服务区公共厕所",
        "address": "甘肃省陇南市武都区G8513平绵高速入口与G8513平绵高速出口交叉口东220米",
        "tel": "",
        "category": "基础设施:公共设施:公共厕所",
        "type": 0,
        "location": {
            "lat": 33.431565,
            "lng": 105.265107
        },
        "ad_info": {
            "adcode": 621202,
            "province": "甘肃省",
            "city": "陇南市",
            "district": "武都区"
        }
    },
    {
        "id": "17394563949134227131",
        "title": "徽县服务区公共厕所",
        "address": "甘肃省陇南市徽县十天高速与西滨河路交叉口西南方向1158米左右",
        "tel": "",
        "category": "基础设施:公共设施:公共厕所",
        "type": 0,
        "location": {
            "lat": 33.745204,
            "lng": 105.955306
        },
        "ad_info": {
            "adcode": 621227,
            "province": "甘肃省",
            "city": "陇南市",
            "district": "徽县"
        }
    },
    {
        "id": "7855845272558960625",
        "title": "谢家坝停车区公共厕所",
        "address": "甘肃省陇南市宕昌县谢家坝停车区与G75兰海高速交叉口西北200米",
        "tel": "",
        "category": "基础设施:公共设施:公共厕所",
        "type": 0,
        "location": {
            "lat": 33.915513,
            "lng": 104.538185
        },
        "ad_info": {
            "adcode": 621223,
            "province": "甘肃省",
            "city": "陇南市",
            "district": "宕昌县"
        }
    },
    {
        "id": "3126452408192907075",
        "title": "西和服务区公共厕所",
        "address": "甘肃省陇南市西和县G567与十天高速交叉口西北方向207米左右",
        "tel": "",
        "category": "基础设施:公共设施:公共厕所",
        "type": 0,
        "location": {
            "lat": 33.805031,
            "lng": 105.379518
        },
        "ad_info": {
            "adcode": 621225,
            "province": "甘肃省",
            "city": "陇南市",
            "district": "西和县"
        }
    },
    {
        "id": "8289328368124081603",
        "title": "哈达铺停车区公共厕所",
        "address": "甘肃省陇南市宕昌县哈达铺停车区与G75兰海高速交叉口西北320米",
        "tel": "",
        "category": "基础设施:公共设施:公共厕所",
        "type": 0,
        "location": {
            "lat": 34.254255,
            "lng": 104.187069
        },
        "ad_info": {
            "adcode": 621223,
            "province": "甘肃省",
            "city": "陇南市",
            "district": "宕昌县"
        }
    },
    {
        "id": "1163798310476997402",
        "title": "哈达铺停车区公共厕所",
        "address": "甘肃省陇南市宕昌县G75兰海高速与哈达铺停车区交叉口东南280米",
        "tel": "",
        "category": "基础设施:公共设施:公共厕所",
        "type": 0,
        "location": {
            "lat": 34.253393,
            "lng": 104.185007
        },
        "ad_info": {
            "adcode": 621223,
            "province": "甘肃省",
            "city": "陇南市",
            "district": "宕昌县"
        }
    },
    {
        "id": "12889473613779764722",
        "title": "公共厕所",
        "address": "甘肃省陇南市文县白马河景区",
        "tel": "",
        "category": "基础设施:公共设施:公共厕所",
        "type": 0,
        "location": {
            "lat": 32.892007,
            "lng": 104.425864
        },
        "ad_info": {
            "adcode": 621222,
            "province": "甘肃省",
            "city": "陇南市",
            "district": "文县"
        }
    },
    {
        "id": "16367120882829569496",
        "title": "公共厕所",
        "address": "甘肃省陇南市成县陇南大道52号",
        "tel": "",
        "category": "基础设施:公共设施:公共厕所",
        "type": 0,
        "location": {
            "lat": 33.754976,
            "lng": 105.739012
        },
        "ad_info": {
            "adcode": 621221,
            "province": "甘肃省",
            "city": "陇南市",
            "district": "成县"
        }
    },
    {
        "id": "5053383143230212166",
        "title": "宕昌服务区公共厕所",
        "address": "甘肃省陇南市宕昌县G75兰海高速与宕昌服务区交叉口西北380米",
        "tel": "",
        "category": "基础设施:公共设施:公共厕所",
        "type": 0,
        "location": {
            "lat": 34.072762,
            "lng": 104.292081
        },
        "ad_info": {
            "adcode": 621223,
            "province": "甘肃省",
            "city": "陇南市",
            "district": "宕昌县"
        }
    },
    {
        "id": "8944308363432520016",
        "title": "公共厕所",
        "address": "甘肃省陇南市康县G345与黑马关隧道交叉口西北方向1607米左右",
        "tel": "",
        "category": "基础设施:公共设施:公共厕所",
        "type": 0,
        "location": {
            "lat": 33.383837,
            "lng": 105.471744
        },
        "ad_info": {
            "adcode": 621224,
            "province": "甘肃省",
            "city": "陇南市",
            "district": "康县"
        }
    },
    {
        "id": "7430933538971453378",
        "title": "公共厕所",
        "address": "甘肃省陇南市徽县先农街与青泥路交叉口西北方向156米左右",
        "tel": "",
        "category": "基础设施:公共设施:公共厕所",
        "type": 0,
        "location": {
            "lat": 33.75201,
            "lng": 106.096391
        },
        "ad_info": {
            "adcode": 621227,
            "province": "甘肃省",
            "city": "陇南市",
            "district": "徽县"
        }
    },
    {
        "id": "4945863919686084173",
        "title": "公共厕所",
        "address": "甘肃省陇南市文县芳芳餐馆东侧",
        "tel": "",
        "category": "基础设施:公共设施:公共厕所",
        "type": 0,
        "location": {
            "lat": 33.057216,
            "lng": 104.452402
        },
        "ad_info": {
            "adcode": 621222,
            "province": "甘肃省",
            "city": "陇南市",
            "district": "文县"
        }
    },
    {
        "id": "6857476951075192557",
        "title": "西和服务区公共厕所",
        "address": "甘肃省陇南市西和县G7011十天高速入口与G7011十天高速出口交叉口西南160米",
        "tel": "",
        "category": "基础设施:公共设施:公共厕所",
        "type": 0,
        "location": {
            "lat": 33.805241,
            "lng": 105.379892
        },
        "ad_info": {
            "adcode": 621225,
            "province": "甘肃省",
            "city": "陇南市",
            "district": "西和县"
        }
    },
    {
        "id": "11732563832031824248",
        "title": "公共厕所",
        "address": "甘肃省陇南市礼县G247与G316交叉口正南方向54米",
        "tel": "",
        "category": "基础设施:公共设施:公共厕所",
        "type": 0,
        "location": {
            "lat": 34.262135,
            "lng": 105.474396
        },
        "ad_info": {
            "adcode": 621226,
            "province": "甘肃省",
            "city": "陇南市",
            "district": "礼县"
        }
    },
    {
        "id": "17912719630567591907",
        "title": "公共厕所",
        "address": "甘肃省陇南市武都区南桥路与盘旋西路交叉口正北方向39米左右",
        "tel": "",
        "category": "基础设施:公共设施:公共厕所",
        "type": 0,
        "location": {
            "lat": 33.38918,
            "lng": 104.928024
        },
        "ad_info": {
            "adcode": 621202,
            "province": "甘肃省",
            "city": "陇南市",
            "district": "武都区"
        }
    },
    {
        "id": "962648907881098882",
        "title": "公共厕所",
        "address": "甘肃省陇南市礼县东一路与纬一路交叉口正东方向1618米左右",
        "tel": "",
        "category": "基础设施:公共设施:公共厕所",
        "type": 0,
        "location": {
            "lat": 34.218948,
            "lng": 105.34962
        },
        "ad_info": {
            "adcode": 621226,
            "province": "甘肃省",
            "city": "陇南市",
            "district": "礼县"
        }
    },
    {
        "id": "5113417952412758557",
        "title": "西和服务区公共厕所",
        "address": "甘肃省陇南市西和县G567与十天高速交叉口西北方向180米左右",
        "tel": "",
        "category": "基础设施:公共设施:公共厕所",
        "type": 0,
        "location": {
            "lat": 33.804885,
            "lng": 105.379754
        },
        "ad_info": {
            "adcode": 621225,
            "province": "甘肃省",
            "city": "陇南市",
            "district": "西和县"
        }
    },
    {
        "id": "5305075767190530980",
        "title": "公共厕所",
        "address": "甘肃省陇南市文县文昌街与白水江大道交叉口正北方向253米左右",
        "tel": "",
        "category": "基础设施:公共设施:公共厕所",
        "type": 0,
        "location": {
            "lat": 32.941823,
            "lng": 104.69066
        },
        "ad_info": {
            "adcode": 621222,
            "province": "甘肃省",
            "city": "陇南市",
            "district": "文县"
        }
    },
    {
        "id": "10505105169052915292",
        "title": "公共厕所",
        "address": "甘肃省陇南市礼县东新北路与北滨河路交叉口正东方向111米左右",
        "tel": "",
        "category": "基础设施:公共设施:公共厕所",
        "type": 0,
        "location": {
            "lat": 34.19681,
            "lng": 105.188399
        },
        "ad_info": {
            "adcode": 621226,
            "province": "甘肃省",
            "city": "陇南市",
            "district": "礼县"
        }
    },
    {
        "id": "2602213569287837801",
        "title": "公共厕所",
        "address": "甘肃省陇南市礼县",
        "tel": "",
        "category": "基础设施:公共设施:公共厕所",
        "type": 0,
        "location": {
            "lat": 34.484405,
            "lng": 105.157564
        },
        "ad_info": {
            "adcode": 621226,
            "province": "甘肃省",
            "city": "陇南市",
            "district": "礼县"
        }
    },
    {
        "id": "4196133520123453726",
        "title": "武都服务区公共厕所",
        "address": "甘肃省陇南市武都区东交街与龙江大道交叉口东南方向239米左右",
        "tel": "",
        "category": "基础设施:公共设施:公共厕所",
        "type": 0,
        "location": {
            "lat": 33.363933,
            "lng": 104.960559
        },
        "ad_info": {
            "adcode": 621202,
            "province": "甘肃省",
            "city": "陇南市",
            "district": "武都区"
        }
    },
    {
        "id": "15839858225926684322",
        "title": "公共厕所",
        "address": "甘肃省陇南市武都区橄榄路与西海岸路交叉口西北方向234米左右",
        "tel": "",
        "category": "基础设施:公共设施:公共厕所",
        "type": 0,
        "location": {
            "lat": 33.406317,
            "lng": 104.908937
        },
        "ad_info": {
            "adcode": 621202,
            "province": "甘肃省",
            "city": "陇南市",
            "district": "武都区"
        }
    },
    {
        "id": "2999660476027102269",
        "title": "公共厕所",
        "address": "甘肃省陇南市礼县小南街与西大街交叉口西北方向115米左右",
        "tel": "",
        "category": "基础设施:公共设施:公共厕所",
        "type": 0,
        "location": {
            "lat": 34.189372,
            "lng": 105.176674
        },
        "ad_info": {
            "adcode": 621226,
            "province": "甘肃省",
            "city": "陇南市",
            "district": "礼县"
        }
    },
    {
        "id": "3388081013456804799",
        "title": "公共厕所",
        "address": "甘肃省陇南市宕昌县G212与兰渝线交叉口东北方向477米左右",
        "tel": "",
        "category": "基础设施:公共设施:公共厕所",
        "type": 0,
        "location": {
            "lat": 33.743244,
            "lng": 104.534544
        },
        "ad_info": {
            "adcode": 621223,
            "province": "甘肃省",
            "city": "陇南市",
            "district": "宕昌县"
        }
    },
    {
        "id": "8743655697911122727",
        "title": "公共厕所",
        "address": "甘肃省陇南市成县S205与青岛路交叉口东北方向173米左右",
        "tel": "",
        "category": "基础设施:公共设施:公共厕所",
        "type": 0,
        "location": {
            "lat": 33.751184,
            "lng": 105.755562
        },
        "ad_info": {
            "adcode": 621221,
            "province": "甘肃省",
            "city": "陇南市",
            "district": "成县"
        }
    },
    {
        "id": "5483919950297699045",
        "title": "公共厕所",
        "address": "甘肃省陇南市成县北滨东路与西滨南路交叉口东北方向236米左右",
        "tel": "",
        "category": "基础设施:公共设施:公共厕所",
        "type": 0,
        "location": {
            "lat": 33.740019,
            "lng": 105.747418
        },
        "ad_info": {
            "adcode": 621221,
            "province": "甘肃省",
            "city": "陇南市",
            "district": "成县"
        }
    },
    {
        "id": "2482806586138353955",
        "title": "免费公共厕所",
        "address": "甘肃省陇南市成县东新路与城阳大桥交叉口西北方向86米左右",
        "tel": "",
        "category": "基础设施:公共设施:公共厕所",
        "type": 0,
        "location": {
            "lat": 33.744019,
            "lng": 105.738831
        },
        "ad_info": {
            "adcode": 621221,
            "province": "甘肃省",
            "city": "陇南市",
            "district": "成县"
        }
    },
    {
        "id": "5395425273265325348",
        "title": "公共厕所",
        "address": "甘肃省陇南市宕昌县212国道东50米",
        "tel": "",
        "category": "基础设施:公共设施:公共厕所",
        "type": 0,
        "location": {
            "lat": 34.171155,
            "lng": 104.259083
        },
        "ad_info": {
            "adcode": 621223,
            "province": "甘肃省",
            "city": "陇南市",
            "district": "宕昌县"
        }
    },
    {
        "id": "16879073310348309191",
        "title": "公共厕所",
        "address": "甘肃省陇南市西和县219省道西50米",
        "tel": "",
        "category": "基础设施:公共设施:公共厕所",
        "type": 0,
        "location": {
            "lat": 33.886179,
            "lng": 105.330068
        },
        "ad_info": {
            "adcode": 621225,
            "province": "甘肃省",
            "city": "陇南市",
            "district": "西和县"
        }
    },
    {
        "id": "378748180523687203",
        "title": "公共厕所",
        "address": "甘肃省陇南市武都区北峪河大桥与旧城路交叉口西北方向110米左右",
        "tel": "",
        "category": "基础设施:公共设施:公共厕所",
        "type": 0,
        "location": {
            "lat": 33.398542,
            "lng": 104.921685
        },
        "ad_info": {
            "adcode": 621202,
            "province": "甘肃省",
            "city": "陇南市",
            "district": "武都区"
        }
    },
    {
        "id": "11401901691374095327",
        "title": "公共厕所",
        "address": "甘肃省陇南市两当县太凤高速入口与S10凤合高速入口交叉口南380米",
        "tel": "",
        "category": "基础设施:公共设施:公共厕所",
        "type": 0,
        "location": {
            "lat": 33.932852,
            "lng": 106.422599
        },
        "ad_info": {
            "adcode": 621228,
            "province": "甘肃省",
            "city": "陇南市",
            "district": "两当县"
        }
    },
    {
        "id": "12625666715132717460",
        "title": "公共厕所",
        "address": "甘肃省陇南市礼县G247与G567交叉口西南方向121米左右",
        "tel": "",
        "category": "基础设施:公共设施:公共厕所",
        "type": 0,
        "location": {
            "lat": 34.229608,
            "lng": 105.389867
        },
        "ad_info": {
            "adcode": 621226,
            "province": "甘肃省",
            "city": "陇南市",
            "district": "礼县"
        }
    },
    {
        "id": "5305192228531378415",
        "title": "公共厕所",
        "address": "甘肃省陇南市徽县田河小学西南侧250米",
        "tel": "",
        "category": "基础设施:公共设施:公共厕所",
        "type": 0,
        "location": {
            "lat": 33.736919,
            "lng": 106.174777
        },
        "ad_info": {
            "adcode": 621227,
            "province": "甘肃省",
            "city": "陇南市",
            "district": "徽县"
        }
    },
    {
        "id": "3987164667583123881",
        "title": "公共厕所",
        "address": "甘肃省陇南市康县后坝桥与燕河东路交叉口正东方向78米左右",
        "tel": "",
        "category": "基础设施:公共设施:公共厕所",
        "type": 0,
        "location": {
            "lat": 33.32758,
            "lng": 105.602698
        },
        "ad_info": {
            "adcode": 621224,
            "province": "甘肃省",
            "city": "陇南市",
            "district": "康县"
        }
    },
    {
        "id": "6579691692420052134",
        "title": "公共厕所",
        "address": "甘肃省陇南市武都区三滩街与东江路交叉口西南方向35米左右",
        "tel": "",
        "category": "基础设施:公共设施:公共厕所",
        "type": 0,
        "location": {
            "lat": 33.371689,
            "lng": 104.950416
        },
        "ad_info": {
            "adcode": 621202,
            "province": "甘肃省",
            "city": "陇南市",
            "district": "武都区"
        }
    },
    {
        "id": "1558291343277973203",
        "title": "宕昌服务区公共厕所",
        "address": "甘肃省陇南市宕昌县212国道东50米",
        "tel": "",
        "category": "基础设施:公共设施:公共厕所",
        "type": 0,
        "location": {
            "lat": 34.072544,
            "lng": 104.289437
        },
        "ad_info": {
            "adcode": 621223,
            "province": "甘肃省",
            "city": "陇南市",
            "district": "宕昌县"
        }
    },
    {
        "id": "5190055857101935640",
        "title": "公共厕所",
        "address": "甘肃省陇南市宕昌县长征中路与长征西路交叉口西北方向257米左右",
        "tel": "",
        "category": "基础设施:公共设施:公共厕所",
        "type": 0,
        "location": {
            "lat": 34.045775,
            "lng": 104.393381
        },
        "ad_info": {
            "adcode": 621223,
            "province": "甘肃省",
            "city": "陇南市",
            "district": "宕昌县"
        }
    },
    {
        "id": "2620084856714660688",
        "title": "公共厕所",
        "address": "甘肃省陇南市徽县北街与官井巷交叉口西南方向109米左右",
        "tel": "",
        "category": "基础设施:公共设施:公共厕所",
        "type": 0,
        "location": {
            "lat": 33.769078,
            "lng": 106.0841
        },
        "ad_info": {
            "adcode": 621227,
            "province": "甘肃省",
            "city": "陇南市",
            "district": "徽县"
        }
    },
    {
        "id": "9061963686848461565",
        "title": "公共厕所",
        "address": "甘肃省陇南市西和县仕途二手车南侧190米",
        "tel": "",
        "category": "基础设施:公共设施:公共厕所",
        "type": 0,
        "location": {
            "lat": 34.046362,
            "lng": 105.314794
        },
        "ad_info": {
            "adcode": 621225,
            "province": "甘肃省",
            "city": "陇南市",
            "district": "西和县"
        }
    },
    {
        "id": "16747836174483740983",
        "title": "公共厕所",
        "address": "甘肃省陇南市康县人民东路与滨河路交叉口西南方向92米左右",
        "tel": "",
        "category": "基础设施:公共设施:公共厕所",
        "type": 0,
        "location": {
            "lat": 33.32819,
            "lng": 105.6101
        },
        "ad_info": {
            "adcode": 621224,
            "province": "甘肃省",
            "city": "陇南市",
            "district": "康县"
        }
    },
    {
        "id": "10916418201718688559",
        "title": "公共厕所",
        "address": "甘肃省陇南市宕昌县幸福路与滨河西路交叉口东北方向199米左右",
        "tel": "",
        "category": "基础设施:公共设施:公共厕所",
        "type": 0,
        "location": {
            "lat": 34.028921,
            "lng": 104.379634
        },
        "ad_info": {
            "adcode": 621223,
            "province": "甘肃省",
            "city": "陇南市",
            "district": "宕昌县"
        }
    },
    {
        "id": "16301089274016385117",
        "title": "公共厕所",
        "address": "甘肃省陇南市武都区205省道西50米",
        "tel": "",
        "category": "基础设施:公共设施:公共厕所",
        "type": 0,
        "location": {
            "lat": 33.437574,
            "lng": 105.220253
        },
        "ad_info": {
            "adcode": 621202,
            "province": "甘肃省",
            "city": "陇南市",
            "district": "武都区"
        }
    },
    {
        "id": "6779788086640085481",
        "title": "公共厕所",
        "address": "甘肃省陇南市两当县G316与公园路交叉口正西方向77米左右",
        "tel": "",
        "category": "基础设施:公共设施:公共厕所",
        "type": 0,
        "location": {
            "lat": 33.91117,
            "lng": 106.306506
        },
        "ad_info": {
            "adcode": 621228,
            "province": "甘肃省",
            "city": "陇南市",
            "district": "两当县"
        }
    },
    {
        "id": "9878611321662068844",
        "title": "公共厕所",
        "address": "甘肃省陇南市两当县陈沟景区西北侧50米",
        "tel": "",
        "category": "基础设施:公共设施:公共厕所",
        "type": 0,
        "location": {
            "lat": 33.930551,
            "lng": 106.359604
        },
        "ad_info": {
            "adcode": 621228,
            "province": "甘肃省",
            "city": "陇南市",
            "district": "两当县"
        }
    },
    {
        "id": "4533185292571667764",
        "title": "公共厕所",
        "address": "甘肃省陇南市文县G212与X496交叉口正西方向1932米左右",
        "tel": "",
        "category": "基础设施:公共设施:公共厕所",
        "type": 0,
        "location": {
            "lat": 32.762694,
            "lng": 105.221251
        },
        "ad_info": {
            "adcode": 621222,
            "province": "甘肃省",
            "city": "陇南市",
            "district": "文县"
        }
    },
    {
        "id": "3084075742011152171",
        "title": "公共厕所",
        "address": "甘肃省陇南市礼县东新南路与北滨河路交叉口西南方向52米左右",
        "tel": "",
        "category": "基础设施:公共设施:公共厕所",
        "type": 0,
        "location": {
            "lat": 34.18422,
            "lng": 105.19049
        },
        "ad_info": {
            "adcode": 621226,
            "province": "甘肃省",
            "city": "陇南市",
            "district": "礼县"
        }
    },
    {
        "id": "10278812054849503813",
        "title": "公共厕所",
        "address": "甘肃省陇南市成县567国道与G7011十天高速出口交叉口东北220米",
        "tel": "",
        "category": "基础设施:公共设施:公共厕所",
        "type": 0,
        "location": {
            "lat": 33.690911,
            "lng": 105.579999
        },
        "ad_info": {
            "adcode": 621221,
            "province": "甘肃省",
            "city": "陇南市",
            "district": "成县"
        }
    },
    {
        "id": "13685207014591791669",
        "title": "公共厕所",
        "address": "甘肃省陇南市礼县环城东路与环城南路交叉口正南方向592米左右",
        "tel": "",
        "category": "基础设施:公共设施:公共厕所",
        "type": 0,
        "location": {
            "lat": 34.180874,
            "lng": 105.183577
        },
        "ad_info": {
            "adcode": 621226,
            "province": "甘肃省",
            "city": "陇南市",
            "district": "礼县"
        }
    },
    {
        "id": "12576546186633010305",
        "title": "公共厕所",
        "address": "甘肃省陇南市武都区东堤路与人民路交叉口西南方向60米左右",
        "tel": "",
        "category": "基础设施:公共设施:公共厕所",
        "type": 0,
        "location": {
            "lat": 33.397541,
            "lng": 104.923892
        },
        "ad_info": {
            "adcode": 621202,
            "province": "甘肃省",
            "city": "陇南市",
            "district": "武都区"
        }
    },
    {
        "id": "4219301166542538135",
        "title": "公共厕所",
        "address": "甘肃省陇南市徽县官井巷与建新路交叉口西北方向129米左右",
        "tel": "",
        "category": "基础设施:公共设施:公共厕所",
        "type": 0,
        "location": {
            "lat": 33.769485,
            "lng": 106.08249
        },
        "ad_info": {
            "adcode": 621227,
            "province": "甘肃省",
            "city": "陇南市",
            "district": "徽县"
        }
    },
    {
        "id": "17994510956426851685",
        "title": "佛崖服务区公共厕所",
        "address": "甘肃省陇南市武都区平绵高速佛崖服务区",
        "tel": "",
        "category": "基础设施:公共设施:公共厕所",
        "type": 0,
        "location": {
            "lat": 33.432693,
            "lng": 105.267952
        },
        "ad_info": {
            "adcode": 621202,
            "province": "甘肃省",
            "city": "陇南市",
            "district": "武都区"
        }
    },
    {
        "id": "16566960827292563569",
        "title": "公共厕所",
        "address": "甘肃省陇南市成县北泉南巷与西滨中路交叉口东南方向132米左右",
        "tel": "",
        "category": "基础设施:公共设施:公共厕所",
        "type": 0,
        "location": {
            "lat": 33.745193,
            "lng": 105.737961
        },
        "ad_info": {
            "adcode": 621221,
            "province": "甘肃省",
            "city": "陇南市",
            "district": "成县"
        }
    },
    {
        "id": "10041727325519635359",
        "title": "公共厕所",
        "address": "甘肃省陇南市徽县西街与青泥路交叉口西北方向196米左右",
        "tel": "",
        "category": "基础设施:公共设施:公共厕所",
        "type": 0,
        "location": {
            "lat": 33.766936,
            "lng": 106.08171
        },
        "ad_info": {
            "adcode": 621227,
            "province": "甘肃省",
            "city": "陇南市",
            "district": "徽县"
        }
    },
    {
        "id": "9184441808206921793",
        "title": "公共厕所",
        "address": "甘肃省陇南市康县康惠超市(康北商贸城店)西北侧50米",
        "tel": "",
        "category": "基础设施:公共设施:公共厕所",
        "type": 0,
        "location": {
            "lat": 33.575287,
            "lng": 105.538773
        },
        "ad_info": {
            "adcode": 621224,
            "province": "甘肃省",
            "city": "陇南市",
            "district": "康县"
        }
    },
    {
        "id": "13506283307011842013",
        "title": "公共厕所",
        "address": "甘肃省陇南市成县南桥路与杜公路交叉口西南方向864米左右",
        "tel": "",
        "category": "基础设施:公共设施:公共厕所",
        "type": 0,
        "location": {
            "lat": 33.724499,
            "lng": 105.728663
        },
        "ad_info": {
            "adcode": 621221,
            "province": "甘肃省",
            "city": "陇南市",
            "district": "成县"
        }
    },
    {
        "id": "15029635851329023853",
        "title": "沙湾服务区公共厕所",
        "address": "甘肃省陇南市宕昌县中国石油公航旅集团沙湾服务区加油站东侧190米",
        "tel": "",
        "category": "基础设施:公共设施:公共厕所",
        "type": 0,
        "location": {
            "lat": 33.602725,
            "lng": 104.576302
        },
        "ad_info": {
            "adcode": 621223,
            "province": "甘肃省",
            "city": "陇南市",
            "district": "宕昌县"
        }
    },
    {
        "id": "766380601198102772",
        "title": "公共厕所",
        "address": "甘肃省陇南市成县北泉南巷与西滨中路交叉口东南方向95米左右",
        "tel": "",
        "category": "基础设施:公共设施:公共厕所",
        "type": 0,
        "location": {
            "lat": 33.745342,
            "lng": 105.737579
        },
        "ad_info": {
            "adcode": 621221,
            "province": "甘肃省",
            "city": "陇南市",
            "district": "成县"
        }
    },
    {
        "id": "10052731028584212475",
        "title": "公共厕所",
        "address": "甘肃省陇南市成县南环西路与西滨中路交叉口西北方向39米左右",
        "tel": "",
        "category": "基础设施:公共设施:公共厕所",
        "type": 0,
        "location": {
            "lat": 33.742023,
            "lng": 105.741413
        },
        "ad_info": {
            "adcode": 621221,
            "province": "甘肃省",
            "city": "陇南市",
            "district": "成县"
        }
    },
    {
        "id": "15846627074205181555",
        "title": "公共卫生间",
        "address": "甘肃省陇南市武都区北山西路与南桥路交叉口东南方向265米左右",
        "tel": "",
        "category": "基础设施:公共设施:公共厕所",
        "type": 0,
        "location": {
            "lat": 33.388961,
            "lng": 104.932051
        },
        "ad_info": {
            "adcode": 621202,
            "province": "甘肃省",
            "city": "陇南市",
            "district": "武都区"
        }
    },
    {
        "id": "15406188687867356069",
        "title": "公共厕所",
        "address": "甘肃省陇南市武都区姚武公路与龙江大道交叉口正西方向68米左右",
        "tel": "",
        "category": "基础设施:公共设施:公共厕所",
        "type": 0,
        "location": {
            "lat": 33.384979,
            "lng": 104.924083
        },
        "ad_info": {
            "adcode": 621202,
            "province": "甘肃省",
            "city": "陇南市",
            "district": "武都区"
        }
    },
    {
        "id": "3915919354365908008",
        "title": "公共厕所",
        "address": "甘肃省陇南市文县212国道南50米",
        "tel": "",
        "category": "基础设施:公共设施:公共厕所",
        "type": 0,
        "location": {
            "lat": 33.034962,
            "lng": 104.86796
        },
        "ad_info": {
            "adcode": 621222,
            "province": "甘肃省",
            "city": "陇南市",
            "district": "文县"
        }
    },
    {
        "id": "13374604150780049619",
        "title": "公共厕所",
        "address": "甘肃省陇南市康县G345与S222交叉口东南方向615米左右",
        "tel": "",
        "category": "基础设施:公共设施:公共厕所",
        "type": 0,
        "location": {
            "lat": 33.37335,
            "lng": 105.545691
        },
        "ad_info": {
            "adcode": 621224,
            "province": "甘肃省",
            "city": "陇南市",
            "district": "康县"
        }
    },
    {
        "id": "14153525479532267698",
        "title": "公共厕所",
        "address": "甘肃省陇南市礼县东新北路与中山东路交叉口西南方向66米左右",
        "tel": "",
        "category": "基础设施:公共设施:公共厕所",
        "type": 0,
        "location": {
            "lat": 34.190454,
            "lng": 105.188511
        },
        "ad_info": {
            "adcode": 621226,
            "province": "甘肃省",
            "city": "陇南市",
            "district": "礼县"
        }
    },
    {
        "id": "17670451752062725183",
        "title": "万象洞-公共厕所",
        "address": "甘肃省陇南市武都区G212与长江大道交叉口正东方向84米左右",
        "tel": "",
        "category": "基础设施:公共设施:公共厕所",
        "type": 0,
        "location": {
            "lat": 33.341248,
            "lng": 105.004151
        },
        "ad_info": {
            "adcode": 621202,
            "province": "甘肃省",
            "city": "陇南市",
            "district": "武都区"
        }
    },
    {
        "id": "6376286568015161027",
        "title": "公共厕所",
        "address": "甘肃省陇南市徽县东街与北街交叉口东北方向239米左右",
        "tel": "",
        "category": "基础设施:公共设施:公共厕所",
        "type": 0,
        "location": {
            "lat": 33.769512,
            "lng": 106.088192
        },
        "ad_info": {
            "adcode": 621227,
            "province": "甘肃省",
            "city": "陇南市",
            "district": "徽县"
        }
    },
    {
        "id": "15931524350328142332",
        "title": "公共厕所",
        "address": "甘肃省陇南市宕昌县G212与滨河东路交叉口正南方向355米左右",
        "tel": "",
        "category": "基础设施:公共设施:公共厕所",
        "type": 0,
        "location": {
            "lat": 34.030102,
            "lng": 104.40939
        },
        "ad_info": {
            "adcode": 621223,
            "province": "甘肃省",
            "city": "陇南市",
            "district": "宕昌县"
        }
    },
    {
        "id": "10400507332407836804",
        "title": "公共厕所",
        "address": "甘肃省陇南市武都区韵味农家乐西侧140米",
        "tel": "",
        "category": "基础设施:公共设施:公共厕所",
        "type": 0,
        "location": {
            "lat": 33.325492,
            "lng": 104.873395
        },
        "ad_info": {
            "adcode": 621202,
            "province": "甘肃省",
            "city": "陇南市",
            "district": "武都区"
        }
    },
    {
        "id": "11768244158728133383",
        "title": "公共厕所",
        "address": "甘肃省陇南市武都区弘文街与钟楼路交叉口东南方向48米左右",
        "tel": "",
        "category": "基础设施:公共设施:公共厕所",
        "type": 0,
        "location": {
            "lat": 33.403463,
            "lng": 104.915467
        },
        "ad_info": {
            "adcode": 621202,
            "province": "甘肃省",
            "city": "陇南市",
            "district": "武都区"
        }
    },
    {
        "id": "4599844282795935338",
        "title": "公共厕所",
        "address": "甘肃省陇南市武都区人民路与北山西路交叉口正南方向127米左右",
        "tel": "",
        "category": "基础设施:公共设施:公共厕所",
        "type": 0,
        "location": {
            "lat": 33.39492,
            "lng": 104.924674
        },
        "ad_info": {
            "adcode": 621202,
            "province": "甘肃省",
            "city": "陇南市",
            "district": "武都区"
        }
    },
    {
        "id": "17286703623014241586",
        "title": "公共厕所",
        "address": "甘肃省陇南市康县人民西路与小康路交叉口东北方向22米左右",
        "tel": "",
        "category": "基础设施:公共设施:公共厕所",
        "type": 0,
        "location": {
            "lat": 33.329215,
            "lng": 105.590711
        },
        "ad_info": {
            "adcode": 621224,
            "province": "甘肃省",
            "city": "陇南市",
            "district": "康县"
        }
    }
]