[
    {
        "id": "601456243288840728",
        "title": "公共厕所",
        "address": "海南省陵水黎族自治县清水湾大道90号",
        "tel": "",
        "category": "基础设施:公共设施:公共厕所",
        "type": 0,
        "location": {
            "lat": 18.403859,
            "lng": 109.874403
        },
        "ad_info": {
            "adcode": 469028,
            "province": "海南省",
            "city": "",
            "district": "陵水黎族自治县"
        }
    },
    {
        "id": "12773003254197114274",
        "title": "公共厕所",
        "address": "海南省陵水黎族自治县清水湾大道与碧海一路交叉口正南方向250米左右",
        "tel": "",
        "category": "基础设施:公共设施:公共厕所",
        "type": 0,
        "location": {
            "lat": 18.407192,
            "lng": 109.878171
        },
        "ad_info": {
            "adcode": 469028,
            "province": "海南省",
            "city": "",
            "district": "陵水黎族自治县"
        }
    },
    {
        "id": "5643628025819684888",
        "title": "公共厕所",
        "address": "海南省陵水黎族自治县英榆大道与英环东路交叉口东南方向54米左右",
        "tel": "",
        "category": "基础设施:公共设施:公共厕所",
        "type": 0,
        "location": {
            "lat": 18.420375,
            "lng": 109.861362
        },
        "ad_info": {
            "adcode": 469028,
            "province": "海南省",
            "city": "",
            "district": "陵水黎族自治县"
        }
    },
    {
        "id": "9973819592227540003",
        "title": "公共厕所",
        "address": "海南省陵水黎族自治县架场田东路与架场田南横路交叉口西南方向15米左右",
        "tel": "",
        "category": "基础设施:公共设施:公共厕所",
        "type": 0,
        "location": {
            "lat": 18.504282,
            "lng": 110.032014
        },
        "ad_info": {
            "adcode": 469028,
            "province": "海南省",
            "city": "",
            "district": "陵水黎族自治县"
        }
    },
    {
        "id": "13756804274467283756",
        "title": "公共厕所",
        "address": "海南省陵水黎族自治县珊瑚大道与珊瑚支路交叉口正北方向171米左右",
        "tel": "",
        "category": "基础设施:公共设施:公共厕所",
        "type": 0,
        "location": {
            "lat": 18.396947,
            "lng": 109.844937
        },
        "ad_info": {
            "adcode": 469028,
            "province": "海南省",
            "city": "",
            "district": "陵水黎族自治县"
        }
    },
    {
        "id": "15662541782048232334",
        "title": "洗手间",
        "address": "海南省陵水黎族自治县幸福万象内",
        "tel": "",
        "category": "基础设施:公共设施:公共厕所",
        "type": 0,
        "location": {
            "lat": 18.391759,
            "lng": 109.862818
        },
        "ad_info": {
            "adcode": 469028,
            "province": "海南省",
            "city": "",
            "district": "陵水黎族自治县"
        }
    },
    {
        "id": "4508362147976634913",
        "title": "公共厕所",
        "address": "海南省陵水黎族自治县新港大道与金河路交叉口正西方向38米左右",
        "tel": "",
        "category": "基础设施:公共设施:公共厕所",
        "type": 0,
        "location": {
            "lat": 18.413301,
            "lng": 109.964907
        },
        "ad_info": {
            "adcode": 469028,
            "province": "海南省",
            "city": "",
            "district": "陵水黎族自治县"
        }
    },
    {
        "id": "6463301415358982238",
        "title": "公共厕所",
        "address": "海南省陵水黎族自治县英州大道与英海大道交叉口正北方向41米左右",
        "tel": "",
        "category": "基础设施:公共设施:公共厕所",
        "type": 0,
        "location": {
            "lat": 18.432787,
            "lng": 109.855611
        },
        "ad_info": {
            "adcode": 469028,
            "province": "海南省",
            "city": "",
            "district": "陵水黎族自治县"
        }
    },
    {
        "id": "2262127876191524799",
        "title": "公共厕所",
        "address": "海南省陵水黎族自治县金海路与陵城中心大道交叉口东南方向164米左右",
        "tel": "",
        "category": "基础设施:公共设施:公共厕所",
        "type": 0,
        "location": {
            "lat": 18.502317,
            "lng": 110.037337
        },
        "ad_info": {
            "adcode": 469028,
            "province": "海南省",
            "city": "",
            "district": "陵水黎族自治县"
        }
    },
    {
        "id": "16380028164358921601",
        "title": "公共厕所",
        "address": "海南省陵水黎族自治县三才大道与祖正线交叉口正东方向548米左右",
        "tel": "",
        "category": "基础设施:公共设施:公共厕所",
        "type": 0,
        "location": {
            "lat": 18.4725,
            "lng": 110.000681
        },
        "ad_info": {
            "adcode": 469028,
            "province": "海南省",
            "city": "",
            "district": "陵水黎族自治县"
        }
    },
    {
        "id": "98383221749724199",
        "title": "公共厕所",
        "address": "海南省陵水黎族自治县海榆东线与清水湾三路交叉口正西方向766米左右",
        "tel": "",
        "category": "基础设施:公共设施:公共厕所",
        "type": 0,
        "location": {
            "lat": 18.421512,
            "lng": 109.884582
        },
        "ad_info": {
            "adcode": 469028,
            "province": "海南省",
            "city": "",
            "district": "陵水黎族自治县"
        }
    },
    {
        "id": "13059319347862797185",
        "title": "公共厕所",
        "address": "海南省陵水黎族自治县海南广陵高科实业有限公司北侧",
        "tel": "",
        "category": "基础设施:公共设施:公共厕所",
        "type": 0,
        "location": {
            "lat": 18.494468,
            "lng": 110.041981
        },
        "ad_info": {
            "adcode": 469028,
            "province": "海南省",
            "city": "",
            "district": "陵水黎族自治县"
        }
    },
    {
        "id": "10778168304532990583",
        "title": "公共厕所",
        "address": "海南省陵水黎族自治县后岭路与尔蔚街交叉口东南方向57米左右",
        "tel": "",
        "category": "基础设施:公共设施:公共厕所",
        "type": 0,
        "location": {
            "lat": 18.453269,
            "lng": 110.070662
        },
        "ad_info": {
            "adcode": 469028,
            "province": "海南省",
            "city": "",
            "district": "陵水黎族自治县"
        }
    },
    {
        "id": "6695327438190262913",
        "title": "公共厕所",
        "address": "海南省陵水黎族自治县站前一横路与站前路交叉口正西方向239米左右",
        "tel": "",
        "category": "基础设施:公共设施:公共厕所",
        "type": 0,
        "location": {
            "lat": 18.534495,
            "lng": 110.033177
        },
        "ad_info": {
            "adcode": 469028,
            "province": "海南省",
            "city": "",
            "district": "陵水黎族自治县"
        }
    },
    {
        "id": "16606897092654972359",
        "title": "公共厕所",
        "address": "海南省陵水黎族自治县岭仔路与黎安大道交叉口正南方向440米左右",
        "tel": "",
        "category": "基础设施:公共设施:公共厕所",
        "type": 0,
        "location": {
            "lat": 18.436305,
            "lng": 110.068586
        },
        "ad_info": {
            "adcode": 469028,
            "province": "海南省",
            "city": "",
            "district": "陵水黎族自治县"
        }
    },
    {
        "id": "12199809432515952752",
        "title": "公共厕所",
        "address": "海南省陵水黎族自治县G223与新港大道交叉口西北方向111米左右",
        "tel": "",
        "category": "基础设施:公共设施:公共厕所",
        "type": 0,
        "location": {
            "lat": 18.434247,
            "lng": 109.964541
        },
        "ad_info": {
            "adcode": 469028,
            "province": "海南省",
            "city": "",
            "district": "陵水黎族自治县"
        }
    },
    {
        "id": "493886059366026549",
        "title": "公共厕所",
        "address": "海南省陵水黎族自治县三才大道与文黎大道辅路交叉口西南方向416米左右",
        "tel": "",
        "category": "基础设施:公共设施:公共厕所",
        "type": 0,
        "location": {
            "lat": 18.483876,
            "lng": 110.009261
        },
        "ad_info": {
            "adcode": 469028,
            "province": "海南省",
            "city": "",
            "district": "陵水黎族自治县"
        }
    },
    {
        "id": "5738683508947514121",
        "title": "公共厕所",
        "address": "海南省陵水黎族自治县山水花园南路与桃源大道交叉口正北方向103米左右",
        "tel": "",
        "category": "基础设施:公共设施:公共厕所",
        "type": 0,
        "location": {
            "lat": 18.521585,
            "lng": 110.042927
        },
        "ad_info": {
            "adcode": 469028,
            "province": "海南省",
            "city": "",
            "district": "陵水黎族自治县"
        }
    },
    {
        "id": "6653273763730421396",
        "title": "公共厕所",
        "address": "海南省陵水黎族自治县万隆路与椰林北大道交叉口正南方向103米左右",
        "tel": "",
        "category": "基础设施:公共设施:公共厕所",
        "type": 0,
        "location": {
            "lat": 18.526676,
            "lng": 110.039134
        },
        "ad_info": {
            "adcode": 469028,
            "province": "海南省",
            "city": "",
            "district": "陵水黎族自治县"
        }
    },
    {
        "id": "3852393518753680844",
        "title": "公共厕所",
        "address": "海南省陵水黎族自治县架场田东路与架场田南横路交叉口正南方向65米左右",
        "tel": "",
        "category": "基础设施:公共设施:公共厕所",
        "type": 0,
        "location": {
            "lat": 18.503799,
            "lng": 110.032004
        },
        "ad_info": {
            "adcode": 469028,
            "province": "海南省",
            "city": "",
            "district": "陵水黎族自治县"
        }
    },
    {
        "id": "12623737029121049837",
        "title": "公共厕所",
        "address": "海南省陵水黎族自治县解放西路与解放路交叉口正北方向54米左右",
        "tel": "",
        "category": "基础设施:公共设施:公共厕所",
        "type": 0,
        "location": {
            "lat": 18.507751,
            "lng": 110.039952
        },
        "ad_info": {
            "adcode": 469028,
            "province": "海南省",
            "city": "",
            "district": "陵水黎族自治县"
        }
    },
    {
        "id": "15914888879060089418",
        "title": "公共厕所",
        "address": "海南省陵水黎族自治县滨河南三横路与滨河南路交叉口正南方向102米左右",
        "tel": "",
        "category": "基础设施:公共设施:公共厕所",
        "type": 0,
        "location": {
            "lat": 18.514064,
            "lng": 110.031985
        },
        "ad_info": {
            "adcode": 469028,
            "province": "海南省",
            "city": "",
            "district": "陵水黎族自治县"
        }
    },
    {
        "id": "3759292084395469667",
        "title": "公共厕所",
        "address": "海南省陵水黎族自治县椰林南大道与滨河南路交叉口正西方向67米左右",
        "tel": "",
        "category": "基础设施:公共设施:公共厕所",
        "type": 0,
        "location": {
            "lat": 18.513373,
            "lng": 110.032491
        },
        "ad_info": {
            "adcode": 469028,
            "province": "海南省",
            "city": "",
            "district": "陵水黎族自治县"
        }
    },
    {
        "id": "14931837121488532616",
        "title": "公共厕所",
        "address": "海南省陵水黎族自治县中山路与滨河南路交叉口西北方向76米左右",
        "tel": "",
        "category": "基础设施:公共设施:公共厕所",
        "type": 0,
        "location": {
            "lat": 18.50747,
            "lng": 110.041847
        },
        "ad_info": {
            "adcode": 469028,
            "province": "海南省",
            "city": "",
            "district": "陵水黎族自治县"
        }
    },
    {
        "id": "15874920131702341957",
        "title": "公共厕所",
        "address": "海南省陵水黎族自治县清水湾温德姆酒店一楼",
        "tel": "",
        "category": "基础设施:公共设施:公共厕所",
        "type": 0,
        "location": {
            "lat": 18.385896,
            "lng": 109.845066
        },
        "ad_info": {
            "adcode": 469028,
            "province": "海南省",
            "city": "",
            "district": "陵水黎族自治县"
        }
    },
    {
        "id": "908026739191935433",
        "title": "公共厕所",
        "address": "海南省陵水黎族自治县X664与万隆路交叉口正东方向221米左右",
        "tel": "",
        "category": "基础设施:公共设施:公共厕所",
        "type": 0,
        "location": {
            "lat": 18.504575,
            "lng": 109.905461
        },
        "ad_info": {
            "adcode": 469028,
            "province": "海南省",
            "city": "",
            "district": "陵水黎族自治县"
        }
    },
    {
        "id": "10361426500508043730",
        "title": "公共厕所",
        "address": "海南省陵水黎族自治县新丰北路与新丰西路交叉口正南方向46米左右",
        "tel": "",
        "category": "基础设施:公共设施:公共厕所",
        "type": 0,
        "location": {
            "lat": 18.508194,
            "lng": 110.027866
        },
        "ad_info": {
            "adcode": 469028,
            "province": "海南省",
            "city": "",
            "district": "陵水黎族自治县"
        }
    },
    {
        "id": "7528926496343147579",
        "title": "公共厕所",
        "address": "海南省陵水黎族自治县中山东路与新建路交叉口西南方向37米左右",
        "tel": "",
        "category": "基础设施:公共设施:公共厕所",
        "type": 0,
        "location": {
            "lat": 18.502654,
            "lng": 110.0404
        },
        "ad_info": {
            "adcode": 469028,
            "province": "海南省",
            "city": "",
            "district": "陵水黎族自治县"
        }
    },
    {
        "id": "11552931360193668801",
        "title": "公共厕所",
        "address": "海南省陵水黎族自治县黎安港西北侧150米",
        "tel": "",
        "category": "基础设施:公共设施:公共厕所",
        "type": 0,
        "location": {
            "lat": 18.406705,
            "lng": 110.069588
        },
        "ad_info": {
            "adcode": 469028,
            "province": "海南省",
            "city": "",
            "district": "陵水黎族自治县"
        }
    },
    {
        "id": "17818890741528000032",
        "title": "公共厕所",
        "address": "海南省陵水黎族自治县吊罗山旅游公路旁",
        "tel": "",
        "category": "基础设施:公共设施:公共厕所",
        "type": 0,
        "location": {
            "lat": 18.671423,
            "lng": 109.883422
        },
        "ad_info": {
            "adcode": 469028,
            "province": "海南省",
            "city": "",
            "district": "陵水黎族自治县"
        }
    },
    {
        "id": "17834843072019324949",
        "title": "公共厕所",
        "address": "海南省陵水黎族自治县永阳石材东侧",
        "tel": "",
        "category": "基础设施:公共设施:公共厕所",
        "type": 0,
        "location": {
            "lat": 18.529261,
            "lng": 110.078528
        },
        "ad_info": {
            "adcode": 469028,
            "province": "海南省",
            "city": "",
            "district": "陵水黎族自治县"
        }
    },
    {
        "id": "2677555245896952071",
        "title": "公共厕所",
        "address": "海南省陵水黎族自治县兴旺路北斗小学",
        "tel": "",
        "category": "基础设施:公共设施:公共厕所",
        "type": 0,
        "location": {
            "lat": 18.502419,
            "lng": 110.019522
        },
        "ad_info": {
            "adcode": 469028,
            "province": "海南省",
            "city": "",
            "district": "陵水黎族自治县"
        }
    },
    {
        "id": "9147970190676244171",
        "title": "公共厕所",
        "address": "海南省陵水黎族自治县文兴路与文轩路交叉口正北方向150米左右",
        "tel": "",
        "category": "基础设施:公共设施:公共厕所",
        "type": 0,
        "location": {
            "lat": 18.516722,
            "lng": 109.958302
        },
        "ad_info": {
            "adcode": 469028,
            "province": "海南省",
            "city": "",
            "district": "陵水黎族自治县"
        }
    },
    {
        "id": "7619128632284106335",
        "title": "公共厕所",
        "address": "海南省陵水黎族自治县中科院路与黎安大道交叉口正南方向142米左右",
        "tel": "",
        "category": "基础设施:公共设施:公共厕所",
        "type": 0,
        "location": {
            "lat": 18.429646,
            "lng": 110.069463
        },
        "ad_info": {
            "adcode": 469028,
            "province": "海南省",
            "city": "",
            "district": "陵水黎族自治县"
        }
    },
    {
        "id": "11574565506274863971",
        "title": "公共厕所",
        "address": "海南省陵水黎族自治县环岛高速与陵水互通交叉口正西方向79米左右",
        "tel": "",
        "category": "基础设施:公共设施:公共厕所",
        "type": 0,
        "location": {
            "lat": 18.530828,
            "lng": 110.037723
        },
        "ad_info": {
            "adcode": 469028,
            "province": "海南省",
            "city": "",
            "district": "陵水黎族自治县"
        }
    },
    {
        "id": "1613959776325524172",
        "title": "公共厕所",
        "address": "海南省陵水黎族自治县北文北二巷与陵文路交叉口正西方向18米左右",
        "tel": "",
        "category": "基础设施:公共设施:公共厕所",
        "type": 0,
        "location": {
            "lat": 18.502794,
            "lng": 110.017266
        },
        "ad_info": {
            "adcode": 469028,
            "province": "海南省",
            "city": "",
            "district": "陵水黎族自治县"
        }
    },
    {
        "id": "10395974705644403713",
        "title": "公共厕所",
        "address": "海南省陵水黎族自治县吊罗山旅游公路旁",
        "tel": "",
        "category": "基础设施:公共设施:公共厕所",
        "type": 0,
        "location": {
            "lat": 18.696668,
            "lng": 109.884964
        },
        "ad_info": {
            "adcode": 469028,
            "province": "海南省",
            "city": "",
            "district": "陵水黎族自治县"
        }
    },
    {
        "id": "5098894675869380282",
        "title": "公共厕所",
        "address": "海南省陵水黎族自治县G223与建设路交叉口西北方向59米左右",
        "tel": "",
        "category": "基础设施:公共设施:公共厕所",
        "type": 0,
        "location": {
            "lat": 18.509314,
            "lng": 110.038549
        },
        "ad_info": {
            "adcode": 469028,
            "province": "海南省",
            "city": "",
            "district": "陵水黎族自治县"
        }
    },
    {
        "id": "12428424406501462668",
        "title": "公共厕所",
        "address": "海南省陵水黎族自治县桃丛路与椰林北大道交叉口正南方向393米左右",
        "tel": "",
        "category": "基础设施:公共设施:公共厕所",
        "type": 0,
        "location": {
            "lat": 18.520673,
            "lng": 110.038412
        },
        "ad_info": {
            "adcode": 469028,
            "province": "海南省",
            "city": "",
            "district": "陵水黎族自治县"
        }
    },
    {
        "id": "16787696598208597029",
        "title": "公共厕所",
        "address": "海南省陵水黎族自治县丽安路与城中路交叉口西南方向345米左右",
        "tel": "",
        "category": "基础设施:公共设施:公共厕所",
        "type": 0,
        "location": {
            "lat": 18.49598,
            "lng": 110.036402
        },
        "ad_info": {
            "adcode": 469028,
            "province": "海南省",
            "city": "",
            "district": "陵水黎族自治县"
        }
    },
    {
        "id": "8442553817907657261",
        "title": "公共厕所",
        "address": "海南省陵水黎族自治县排沟园路与陵黎路交叉口东南方向305米左右",
        "tel": "",
        "category": "基础设施:公共设施:公共厕所",
        "type": 0,
        "location": {
            "lat": 18.490937,
            "lng": 110.05238
        },
        "ad_info": {
            "adcode": 469028,
            "province": "海南省",
            "city": "",
            "district": "陵水黎族自治县"
        }
    },
    {
        "id": "11688829061366786101",
        "title": "公共厕所",
        "address": "海南省陵水黎族自治县G223与桃源大道交叉口西北方向63米左右",
        "tel": "",
        "category": "基础设施:公共设施:公共厕所",
        "type": 0,
        "location": {
            "lat": 18.512288,
            "lng": 110.040539
        },
        "ad_info": {
            "adcode": 469028,
            "province": "海南省",
            "city": "",
            "district": "陵水黎族自治县"
        }
    },
    {
        "id": "8444243577018104321",
        "title": "公共厕所",
        "address": "海南省陵水黎族自治县G361与祖南线交叉口正西方向743米左右",
        "tel": "",
        "category": "基础设施:公共设施:公共厕所",
        "type": 0,
        "location": {
            "lat": 18.622039,
            "lng": 109.917793
        },
        "ad_info": {
            "adcode": 469028,
            "province": "海南省",
            "city": "",
            "district": "陵水黎族自治县"
        }
    },
    {
        "id": "13912199751028704506",
        "title": "公共厕所",
        "address": "海南省陵水黎族自治县通海路与香水湾大道交叉口东北方向272米左右",
        "tel": "",
        "category": "基础设施:公共设施:公共厕所",
        "type": 0,
        "location": {
            "lat": 18.560242,
            "lng": 110.140276
        },
        "ad_info": {
            "adcode": 469028,
            "province": "海南省",
            "city": "",
            "district": "陵水黎族自治县"
        }
    },
    {
        "id": "17918740709732863604",
        "title": "公共厕所",
        "address": "海南省陵水黎族自治县文明西四横路与文明路交叉口正南方向79米左右",
        "tel": "",
        "category": "基础设施:公共设施:公共厕所",
        "type": 0,
        "location": {
            "lat": 18.59057,
            "lng": 110.052019
        },
        "ad_info": {
            "adcode": 469028,
            "province": "海南省",
            "city": "",
            "district": "陵水黎族自治县"
        }
    },
    {
        "id": "10621344250616384408",
        "title": "公共厕所",
        "address": "海南省陵水黎族自治县环岛高速与红角岭互通交叉口正北方向280米左右",
        "tel": "",
        "category": "基础设施:公共设施:公共厕所",
        "type": 0,
        "location": {
            "lat": 18.55792,
            "lng": 110.117184
        },
        "ad_info": {
            "adcode": 469028,
            "province": "海南省",
            "city": "",
            "district": "陵水黎族自治县"
        }
    },
    {
        "id": "1096375170777145281",
        "title": "公共厕所",
        "address": "海南省陵水黎族自治县环岛高速与英州互通交叉口正北方向214米左右",
        "tel": "",
        "category": "基础设施:公共设施:公共厕所",
        "type": 0,
        "location": {
            "lat": 18.436449,
            "lng": 109.852024
        },
        "ad_info": {
            "adcode": 469028,
            "province": "海南省",
            "city": "",
            "district": "陵水黎族自治县"
        }
    },
    {
        "id": "13640897632998123999",
        "title": "公共厕所",
        "address": "海南省陵水黎族自治县S215",
        "tel": "",
        "category": "基础设施:公共设施:公共厕所",
        "type": 0,
        "location": {
            "lat": 18.753264,
            "lng": 109.942696
        },
        "ad_info": {
            "adcode": 469028,
            "province": "海南省",
            "city": "",
            "district": "陵水黎族自治县"
        }
    },
    {
        "id": "2188402319457038810",
        "title": "公共厕所",
        "address": "海南省陵水黎族自治县S215",
        "tel": "",
        "category": "基础设施:公共设施:公共厕所",
        "type": 0,
        "location": {
            "lat": 18.748587,
            "lng": 109.948222
        },
        "ad_info": {
            "adcode": 469028,
            "province": "海南省",
            "city": "",
            "district": "陵水黎族自治县"
        }
    },
    {
        "id": "832657688928237777",
        "title": "公共厕所",
        "address": "海南省陵水黎族自治县G223与桃源大道交叉口东南方向95米左右",
        "tel": "",
        "category": "基础设施:公共设施:公共厕所",
        "type": 0,
        "location": {
            "lat": 18.511064,
            "lng": 110.041312
        },
        "ad_info": {
            "adcode": 469028,
            "province": "海南省",
            "city": "",
            "district": "陵水黎族自治县"
        }
    },
    {
        "id": "15881692972127532168",
        "title": "温德姆花园酒店-洗手间",
        "address": "海南省陵水黎族自治县椰林南大道与滨河南路交叉口正南方向48米左右",
        "tel": "",
        "category": "基础设施:公共设施:公共厕所",
        "type": 0,
        "location": {
            "lat": 18.512818,
            "lng": 110.03319
        },
        "ad_info": {
            "adcode": 469028,
            "province": "海南省",
            "city": "",
            "district": "陵水黎族自治县"
        }
    },
    {
        "id": "11476312294759500229",
        "title": "陵水瀚海清雅酒店-洗手间",
        "address": "海南省陵水黎族自治县清水湾大道雅居乐清水湾瀚海银滩",
        "tel": "",
        "category": "基础设施:公共设施:公共厕所",
        "type": 0,
        "location": {
            "lat": 18.399372,
            "lng": 109.869753
        },
        "ad_info": {
            "adcode": 469028,
            "province": "海南省",
            "city": "",
            "district": "陵水黎族自治县"
        }
    },
    {
        "id": "2698839669363138096",
        "title": "桐海村委会公共厕所",
        "address": "海南省陵水黎族自治县新村镇桐海村村委会东侧",
        "tel": "",
        "category": "基础设施:公共设施:公共厕所",
        "type": 0,
        "location": {
            "lat": 18.434948,
            "lng": 110.007721
        },
        "ad_info": {
            "adcode": 469028,
            "province": "海南省",
            "city": "",
            "district": "陵水黎族自治县"
        }
    },
    {
        "id": "10670045426844129876",
        "title": "第三公共厕所",
        "address": "海南省陵水黎族自治县椰林第二小学南侧130米",
        "tel": "",
        "category": "基础设施:公共设施:公共厕所",
        "type": 0,
        "location": {
            "lat": 18.519886,
            "lng": 110.039052
        },
        "ad_info": {
            "adcode": 469028,
            "province": "海南省",
            "city": "",
            "district": "陵水黎族自治县"
        }
    },
    {
        "id": "9070237141620174010",
        "title": "椰林镇华东村委会公共厕所",
        "address": "海南省陵水黎族自治县椰林镇华东村委会门口",
        "tel": "",
        "category": "基础设施:公共设施:公共厕所",
        "type": 0,
        "location": {
            "lat": 18.482507,
            "lng": 110.074524
        },
        "ad_info": {
            "adcode": 469028,
            "province": "海南省",
            "city": "",
            "district": "陵水黎族自治县"
        }
    },
    {
        "id": "8625413805799344356",
        "title": "新村镇第二幼儿园公共厕所",
        "address": "海南省陵水黎族自治县新村镇第二幼儿园对面",
        "tel": "",
        "category": "基础设施:公共设施:公共厕所",
        "type": 0,
        "location": {
            "lat": 18.425659,
            "lng": 109.973386
        },
        "ad_info": {
            "adcode": 469028,
            "province": "海南省",
            "city": "",
            "district": "陵水黎族自治县"
        }
    },
    {
        "id": "16467602537947510511",
        "title": "轻松阁公共厕所",
        "address": "海南省陵水黎族自治县本号大道319号",
        "tel": "",
        "category": "基础设施:公共设施:公共厕所",
        "type": 0,
        "location": {
            "lat": 18.615379,
            "lng": 109.960509
        },
        "ad_info": {
            "adcode": 469028,
            "province": "海南省",
            "city": "",
            "district": "陵水黎族自治县"
        }
    },
    {
        "id": "3984687269484169886",
        "title": "第五空间公共厕所",
        "address": "海南省陵水黎族自治县椰林镇红黄蓝幼儿园斜对角",
        "tel": "",
        "category": "基础设施:公共设施:公共厕所",
        "type": 0,
        "location": {
            "lat": 18.494279,
            "lng": 110.054375
        },
        "ad_info": {
            "adcode": 469028,
            "province": "海南省",
            "city": "",
            "district": "陵水黎族自治县"
        }
    },
    {
        "id": "8651753877612250890",
        "title": "一体化智慧公共厕所",
        "address": "海南省陵水黎族自治县铜港渔灯停车区",
        "tel": "",
        "category": "基础设施:公共设施:公共厕所",
        "type": 0,
        "location": {
            "lat": 18.436104,
            "lng": 109.987461
        },
        "ad_info": {
            "adcode": 469028,
            "province": "海南省",
            "city": "",
            "district": "陵水黎族自治县"
        }
    },
    {
        "id": "15929373353846785334",
        "title": "桐海村委会公共厕所",
        "address": "海南省陵水黎族自治县新村镇桐海村村委会东侧",
        "tel": "",
        "category": "基础设施:公共设施:公共厕所",
        "type": 0,
        "location": {
            "lat": 18.434858,
            "lng": 110.007266
        },
        "ad_info": {
            "adcode": 469028,
            "province": "海南省",
            "city": "",
            "district": "陵水黎族自治县"
        }
    },
    {
        "id": "6863555675515282665",
        "title": "陵水服务区公共厕所",
        "address": "海南省陵水黎族自治县文苑路与滨河南二横路交叉口西北方向446米左右",
        "tel": "",
        "category": "基础设施:公共设施:公共厕所",
        "type": 0,
        "location": {
            "lat": 18.519129,
            "lng": 110.024822
        },
        "ad_info": {
            "adcode": 469028,
            "province": "海南省",
            "city": "",
            "district": "陵水黎族自治县"
        }
    },
    {
        "id": "2118555194875147952",
        "title": "椰田古寨公共厕所",
        "address": "海南省陵水黎族自治县英州大道椰田古寨停车场",
        "tel": "",
        "category": "基础设施:公共设施:公共厕所",
        "type": 0,
        "location": {
            "lat": 18.435975,
            "lng": 109.852616
        },
        "ad_info": {
            "adcode": 469028,
            "province": "海南省",
            "city": "",
            "district": "陵水黎族自治县"
        }
    },
    {
        "id": "15695312416398179548",
        "title": "光坡镇坡尾村公共厕所",
        "address": "海南省陵水黎族自治县光坡镇香水湾1号对面",
        "tel": "",
        "category": "基础设施:公共设施:公共厕所",
        "type": 0,
        "location": {
            "lat": 18.560644,
            "lng": 110.141077
        },
        "ad_info": {
            "adcode": 469028,
            "province": "海南省",
            "city": "",
            "district": "陵水黎族自治县"
        }
    },
    {
        "id": "2523682987071142408",
        "title": "椰林服务区公共厕所",
        "address": "海南省陵水黎族自治县G98海南环岛高速与椰林服务区交叉口西南180米",
        "tel": "",
        "category": "基础设施:公共设施:公共厕所",
        "type": 0,
        "location": {
            "lat": 18.54401,
            "lng": 110.075923
        },
        "ad_info": {
            "adcode": 469028,
            "province": "海南省",
            "city": "",
            "district": "陵水黎族自治县"
        }
    },
    {
        "id": "2729783332022289627",
        "title": "陵水服务区公共厕所",
        "address": "海南省陵水黎族自治县陵水服务区与G98海南环岛高速交叉口南40米",
        "tel": "",
        "category": "基础设施:公共设施:公共厕所",
        "type": 0,
        "location": {
            "lat": 18.519012,
            "lng": 110.026423
        },
        "ad_info": {
            "adcode": 469028,
            "province": "海南省",
            "city": "",
            "district": "陵水黎族自治县"
        }
    },
    {
        "id": "15599956818168046950",
        "title": "南湾猴岛生态景区公共厕所",
        "address": "海南省陵水黎族自治县望海大道南湾猴岛生态景区",
        "tel": "",
        "category": "基础设施:公共设施:公共厕所",
        "type": 0,
        "location": {
            "lat": 18.410122,
            "lng": 109.970535
        },
        "ad_info": {
            "adcode": 469028,
            "province": "海南省",
            "city": "",
            "district": "陵水黎族自治县"
        }
    },
    {
        "id": "12367003025505614910",
        "title": "陵水海南雅居乐瀚海度假酒店-洗手间",
        "address": "海南省陵水黎族自治县英州镇清水湾大道(瀚海银滩sa5-206室)",
        "tel": "",
        "category": "基础设施:公共设施:公共厕所",
        "type": 0,
        "location": {
            "lat": 18.399181,
            "lng": 109.869007
        },
        "ad_info": {
            "adcode": 469028,
            "province": "海南省",
            "city": "",
            "district": "陵水黎族自治县"
        }
    },
    {
        "id": "9931545617003210171",
        "title": "公共厕所",
        "address": "海南省陵水黎族自治县聊城陵水雅居东侧240米",
        "tel": "",
        "category": "基础设施:公共设施:公共厕所",
        "type": 0,
        "location": {
            "lat": 18.421799,
            "lng": 109.980228
        },
        "ad_info": {
            "adcode": 469028,
            "province": "海南省",
            "city": "",
            "district": "陵水黎族自治县"
        }
    },
    {
        "id": "3562770966096152634",
        "title": "公共厕所",
        "address": "海南省陵水黎族自治县椰子岛停车区与海南环岛旅游公路交叉口东80米",
        "tel": "",
        "category": "基础设施:公共设施:公共厕所",
        "type": 0,
        "location": {
            "lat": 18.487554,
            "lng": 110.086937
        },
        "ad_info": {
            "adcode": 469028,
            "province": "海南省",
            "city": "",
            "district": "陵水黎族自治县"
        }
    },
    {
        "id": "15759810776934475399",
        "title": "公共厕所",
        "address": "海南省陵水黎族自治县椰子岛停车区与海南环岛旅游公路交叉口东北120米",
        "tel": "",
        "category": "基础设施:公共设施:公共厕所",
        "type": 0,
        "location": {
            "lat": 18.488177,
            "lng": 110.087076
        },
        "ad_info": {
            "adcode": 469028,
            "province": "海南省",
            "city": "",
            "district": "陵水黎族自治县"
        }
    }
]