[
    {
        "id": "6968076231287282846",
        "title": "公共厕所",
        "address": "湖北省随州市广水市东大街29号",
        "tel": "",
        "category": "基础设施:公共设施:公共厕所",
        "type": 0,
        "location": {
            "lat": 31.615935,
            "lng": 113.829861
        },
        "ad_info": {
            "adcode": 421381,
            "province": "湖北省",
            "city": "随州市",
            "district": "广水市"
        }
    },
    {
        "id": "8725307316014670775",
        "title": "公共厕所",
        "address": "湖北省随州市随县天梯路与新菊路交叉口正南方向49米左右",
        "tel": "",
        "category": "基础设施:公共设施:公共厕所",
        "type": 0,
        "location": {
            "lat": 32.312624,
            "lng": 113.730205
        },
        "ad_info": {
            "adcode": 421321,
            "province": "湖北省",
            "city": "随州市",
            "district": "随县"
        }
    },
    {
        "id": "8801516041485270324",
        "title": "公共厕所",
        "address": "湖北省随州市随县G240与Y007交叉口西北方向211米左右",
        "tel": "",
        "category": "基础设施:公共设施:公共厕所",
        "type": 0,
        "location": {
            "lat": 32.0708,
            "lng": 113.513433
        },
        "ad_info": {
            "adcode": 421321,
            "province": "湖北省",
            "city": "随州市",
            "district": "随县"
        }
    },
    {
        "id": "17774990339872248213",
        "title": "公共厕所",
        "address": "湖北省随州市广水市中山大道与解放路交叉口西北方向82米左右",
        "tel": "",
        "category": "基础设施:公共设施:公共厕所",
        "type": 0,
        "location": {
            "lat": 31.618718,
            "lng": 114.010506
        },
        "ad_info": {
            "adcode": 421381,
            "province": "湖北省",
            "city": "随州市",
            "district": "广水市"
        }
    },
    {
        "id": "5010538046694554677",
        "title": "公共厕所",
        "address": "湖北省随州市广水市四贤路与广安路交叉口西北方向97米左右",
        "tel": "",
        "category": "基础设施:公共设施:公共厕所",
        "type": 0,
        "location": {
            "lat": 31.613163,
            "lng": 113.822114
        },
        "ad_info": {
            "adcode": 421381,
            "province": "湖北省",
            "city": "随州市",
            "district": "广水市"
        }
    },
    {
        "id": "17792534318699398592",
        "title": "公共厕所",
        "address": "湖北省随州市曾都区双石巷与汉东路交叉口正东方向416米左右",
        "tel": "",
        "category": "基础设施:公共设施:公共厕所",
        "type": 0,
        "location": {
            "lat": 31.705954,
            "lng": 113.392917
        },
        "ad_info": {
            "adcode": 421303,
            "province": "湖北省",
            "city": "随州市",
            "district": "曾都区"
        }
    },
    {
        "id": "3545762472784447065",
        "title": "公共厕所",
        "address": "湖北省随州市曾都区城建巷与神农大道交叉口正东方向22米左右",
        "tel": "",
        "category": "基础设施:公共设施:公共厕所",
        "type": 0,
        "location": {
            "lat": 31.716163,
            "lng": 113.362861
        },
        "ad_info": {
            "adcode": 421303,
            "province": "湖北省",
            "city": "随州市",
            "district": "曾都区"
        }
    },
    {
        "id": "1878027010485692896",
        "title": "公共厕所",
        "address": "湖北省随州市广水市G316与十马线交叉口正南方向1552米左右",
        "tel": "",
        "category": "基础设施:公共设施:公共厕所",
        "type": 0,
        "location": {
            "lat": 31.572331,
            "lng": 113.552667
        },
        "ad_info": {
            "adcode": 421381,
            "province": "湖北省",
            "city": "随州市",
            "district": "广水市"
        }
    },
    {
        "id": "6612278050163728528",
        "title": "公共厕所",
        "address": "湖北省随州市曾都区汉孟路23号八里岔农电小区",
        "tel": "",
        "category": "基础设施:公共设施:公共厕所",
        "type": 0,
        "location": {
            "lat": 31.739985,
            "lng": 113.371761
        },
        "ad_info": {
            "adcode": 421303,
            "province": "湖北省",
            "city": "随州市",
            "district": "曾都区"
        }
    },
    {
        "id": "4570185778908968439",
        "title": "公共厕所",
        "address": "湖北省随州市广水市前河路与滨河东路交叉口正南方向87米左右",
        "tel": "",
        "category": "基础设施:公共设施:公共厕所",
        "type": 0,
        "location": {
            "lat": 31.619177,
            "lng": 113.837568
        },
        "ad_info": {
            "adcode": 421381,
            "province": "湖北省",
            "city": "随州市",
            "district": "广水市"
        }
    },
    {
        "id": "10912227120486858649",
        "title": "公共厕所",
        "address": "湖北省随州市广水市上余家岗与芦兴大道交叉口正西方向269米左右",
        "tel": "",
        "category": "基础设施:公共设施:公共厕所",
        "type": 0,
        "location": {
            "lat": 31.615406,
            "lng": 113.986042
        },
        "ad_info": {
            "adcode": 421381,
            "province": "湖北省",
            "city": "随州市",
            "district": "广水市"
        }
    },
    {
        "id": "1638552886839288277",
        "title": "公共厕所",
        "address": "湖北省随州市曾都区Y016与随州大道交叉口正东方向1289米左右",
        "tel": "",
        "category": "基础设施:公共设施:公共厕所",
        "type": 0,
        "location": {
            "lat": 31.680881,
            "lng": 113.51198
        },
        "ad_info": {
            "adcode": 421303,
            "province": "湖北省",
            "city": "随州市",
            "district": "曾都区"
        }
    },
    {
        "id": "17030349850115584556",
        "title": "公共厕所",
        "address": "湖北省随州市广水市余店路广水实验中学",
        "tel": "",
        "category": "基础设施:公共设施:公共厕所",
        "type": 0,
        "location": {
            "lat": 31.623189,
            "lng": 113.822044
        },
        "ad_info": {
            "adcode": 421381,
            "province": "湖北省",
            "city": "随州市",
            "district": "广水市"
        }
    },
    {
        "id": "3675182716745614268",
        "title": "公共厕所",
        "address": "湖北省随州市随县幸福大道与日中路交叉口西北方向183米左右",
        "tel": "",
        "category": "基础设施:公共设施:公共厕所",
        "type": 0,
        "location": {
            "lat": 31.861344,
            "lng": 113.300588
        },
        "ad_info": {
            "adcode": 421321,
            "province": "湖北省",
            "city": "随州市",
            "district": "随县"
        }
    },
    {
        "id": "12302992206300418692",
        "title": "公共厕所",
        "address": "湖北省随州市广水市胜利北街与观坡路交叉口东北方向44米左右",
        "tel": "",
        "category": "基础设施:公共设施:公共厕所",
        "type": 0,
        "location": {
            "lat": 31.617146,
            "lng": 113.82892
        },
        "ad_info": {
            "adcode": 421381,
            "province": "湖北省",
            "city": "随州市",
            "district": "广水市"
        }
    },
    {
        "id": "10803885048130018057",
        "title": "公共厕所",
        "address": "湖北省随州市随县Y124与玉石街交叉口正东方向325米左右",
        "tel": "",
        "category": "基础设施:公共设施:公共厕所",
        "type": 0,
        "location": {
            "lat": 31.809756,
            "lng": 113.073171
        },
        "ad_info": {
            "adcode": 421321,
            "province": "湖北省",
            "city": "随州市",
            "district": "随县"
        }
    },
    {
        "id": "3490660940994260797",
        "title": "公共厕所",
        "address": "湖北省随州市广水市云台上街与广武大道交叉口正东方向1976米左右",
        "tel": "",
        "category": "基础设施:公共设施:公共厕所",
        "type": 0,
        "location": {
            "lat": 31.532498,
            "lng": 113.699832
        },
        "ad_info": {
            "adcode": 421381,
            "province": "湖北省",
            "city": "随州市",
            "district": "广水市"
        }
    },
    {
        "id": "13489347982184576665",
        "title": "公共厕所",
        "address": "湖北省随州市广水市马鞍路与驼子岗街交叉口正北方向67米左右",
        "tel": "",
        "category": "基础设施:公共设施:公共厕所",
        "type": 0,
        "location": {
            "lat": 31.5803,
            "lng": 114.024306
        },
        "ad_info": {
            "adcode": 421381,
            "province": "湖北省",
            "city": "随州市",
            "district": "广水市"
        }
    },
    {
        "id": "1712940649100452944",
        "title": "公共厕所",
        "address": "湖北省随州市广水市G107与驼子岗街交叉口正南方向1823米左右",
        "tel": "",
        "category": "基础设施:公共设施:公共厕所",
        "type": 0,
        "location": {
            "lat": 31.547178,
            "lng": 114.042646
        },
        "ad_info": {
            "adcode": 421381,
            "province": "湖北省",
            "city": "随州市",
            "district": "广水市"
        }
    },
    {
        "id": "3435026813065609464",
        "title": "公共厕所",
        "address": "湖北省随州市广水市应十大道与开明路交叉口正南方向146米左右",
        "tel": "",
        "category": "基础设施:公共设施:公共厕所",
        "type": 0,
        "location": {
            "lat": 31.608052,
            "lng": 113.867449
        },
        "ad_info": {
            "adcode": 421381,
            "province": "湖北省",
            "city": "随州市",
            "district": "广水市"
        }
    },
    {
        "id": "16145096961465253872",
        "title": "公共厕所",
        "address": "湖北省随州市广水市107国道与304省道交叉口西北200米",
        "tel": "",
        "category": "基础设施:公共设施:公共厕所",
        "type": 0,
        "location": {
            "lat": 31.603244,
            "lng": 114.052382
        },
        "ad_info": {
            "adcode": 421381,
            "province": "湖北省",
            "city": "随州市",
            "district": "广水市"
        }
    },
    {
        "id": "13277344865214018721",
        "title": "公共厕所",
        "address": "湖北省随州市广水市中山大道与解放路交叉口西南方向153米左右",
        "tel": "",
        "category": "基础设施:公共设施:公共厕所",
        "type": 0,
        "location": {
            "lat": 31.619101,
            "lng": 114.007903
        },
        "ad_info": {
            "adcode": 421381,
            "province": "湖北省",
            "city": "随州市",
            "district": "广水市"
        }
    },
    {
        "id": "2062645521852851842",
        "title": "公共厕所",
        "address": "湖北省随州市曾都区利民路与鹿鹤大道交叉口东北方向91米左右",
        "tel": "",
        "category": "基础设施:公共设施:公共厕所",
        "type": 0,
        "location": {
            "lat": 31.727168,
            "lng": 113.409626
        },
        "ad_info": {
            "adcode": 421303,
            "province": "湖北省",
            "city": "随州市",
            "district": "曾都区"
        }
    },
    {
        "id": "17556687384472805877",
        "title": "公共厕所",
        "address": "湖北省随州市曾都区解放路84号",
        "tel": "",
        "category": "基础设施:公共设施:公共厕所",
        "type": 0,
        "location": {
            "lat": 31.71312,
            "lng": 113.373335
        },
        "ad_info": {
            "adcode": 421303,
            "province": "湖北省",
            "city": "随州市",
            "district": "曾都区"
        }
    },
    {
        "id": "7535127134413885441",
        "title": "公共厕所",
        "address": "湖北省随州市广水市义阳二路与安广线交叉口正北方向678米左右",
        "tel": "",
        "category": "基础设施:公共设施:公共厕所",
        "type": 0,
        "location": {
            "lat": 31.59255,
            "lng": 114.0027
        },
        "ad_info": {
            "adcode": 421381,
            "province": "湖北省",
            "city": "随州市",
            "district": "广水市"
        }
    },
    {
        "id": "12786090725453295244",
        "title": "公共厕所",
        "address": "湖北省随州市曾都区迎宾大道46号",
        "tel": "",
        "category": "基础设施:公共设施:公共厕所",
        "type": 0,
        "location": {
            "lat": 31.698124,
            "lng": 113.389303
        },
        "ad_info": {
            "adcode": 421303,
            "province": "湖北省",
            "city": "随州市",
            "district": "曾都区"
        }
    },
    {
        "id": "15024520764177660536",
        "title": "公共厕所",
        "address": "湖北省随州市曾都区青年西路99号(曾都一中对面)",
        "tel": "",
        "category": "基础设施:公共设施:公共厕所",
        "type": 0,
        "location": {
            "lat": 31.717453,
            "lng": 113.339922
        },
        "ad_info": {
            "adcode": 421303,
            "province": "湖北省",
            "city": "随州市",
            "district": "曾都区"
        }
    },
    {
        "id": "12174577181956379416",
        "title": "公共厕所",
        "address": "湖北省随州市曾都区迎宾大道21号",
        "tel": "",
        "category": "基础设施:公共设施:公共厕所",
        "type": 0,
        "location": {
            "lat": 31.67889,
            "lng": 113.388411
        },
        "ad_info": {
            "adcode": 421303,
            "province": "湖北省",
            "city": "随州市",
            "district": "曾都区"
        }
    },
    {
        "id": "16926726257295389610",
        "title": "公共厕所",
        "address": "湖北省随州市广水市G107与孝子店桥交叉口东北方向1300米左右",
        "tel": "",
        "category": "基础设施:公共设施:公共厕所",
        "type": 0,
        "location": {
            "lat": 31.734447,
            "lng": 114.055383
        },
        "ad_info": {
            "adcode": 421381,
            "province": "湖北省",
            "city": "随州市",
            "district": "广水市"
        }
    },
    {
        "id": "14886149598204208655",
        "title": "公共厕所",
        "address": "湖北省随州市广水市G107与孝子店桥交叉口东北方向1997米左右",
        "tel": "",
        "category": "基础设施:公共设施:公共厕所",
        "type": 0,
        "location": {
            "lat": 31.741533,
            "lng": 114.058504
        },
        "ad_info": {
            "adcode": 421381,
            "province": "湖北省",
            "city": "随州市",
            "district": "广水市"
        }
    },
    {
        "id": "9706250959207517145",
        "title": "公共厕所",
        "address": "湖北省随州市广水市S210与S328交叉口正西方向486米左右",
        "tel": "",
        "category": "基础设施:公共设施:公共厕所",
        "type": 0,
        "location": {
            "lat": 31.724738,
            "lng": 113.833983
        },
        "ad_info": {
            "adcode": 421381,
            "province": "湖北省",
            "city": "随州市",
            "district": "广水市"
        }
    },
    {
        "id": "11781063487652944363",
        "title": "公共厕所",
        "address": "湖北省随州市曾都区汉东路与烈山大道交叉口正南方向191米左右",
        "tel": "",
        "category": "基础设施:公共设施:公共厕所",
        "type": 0,
        "location": {
            "lat": 31.703122,
            "lng": 113.374091
        },
        "ad_info": {
            "adcode": 421303,
            "province": "湖北省",
            "city": "随州市",
            "district": "曾都区"
        }
    },
    {
        "id": "5365613259173630167",
        "title": "公共厕所",
        "address": "湖北省随州市曾都区迎宾大道与鹿鹤大道交叉口正北方向279米左右",
        "tel": "",
        "category": "基础设施:公共设施:公共厕所",
        "type": 0,
        "location": {
            "lat": 31.722476,
            "lng": 113.41601
        },
        "ad_info": {
            "adcode": 421303,
            "province": "湖北省",
            "city": "随州市",
            "district": "曾都区"
        }
    },
    {
        "id": "660014668058700858",
        "title": "公共厕所",
        "address": "湖北省随州市曾都区交通大道中国石油(宏运加油站)",
        "tel": "",
        "category": "基础设施:公共设施:公共厕所",
        "type": 0,
        "location": {
            "lat": 31.694461,
            "lng": 113.408489
        },
        "ad_info": {
            "adcode": 421303,
            "province": "湖北省",
            "city": "随州市",
            "district": "曾都区"
        }
    },
    {
        "id": "2510254581378045892",
        "title": "公共厕所",
        "address": "湖北省随州市曾都区三家巷与解放路交叉口正北方向66米左右",
        "tel": "",
        "category": "基础设施:公共设施:公共厕所",
        "type": 0,
        "location": {
            "lat": 31.709841,
            "lng": 113.351296
        },
        "ad_info": {
            "adcode": 421303,
            "province": "湖北省",
            "city": "随州市",
            "district": "曾都区"
        }
    },
    {
        "id": "10111623484027605293",
        "title": "公共厕所",
        "address": "湖北省随州市曾都区利民路与青年东路交叉口正北方向254米左右",
        "tel": "",
        "category": "基础设施:公共设施:公共厕所",
        "type": 0,
        "location": {
            "lat": 31.729397,
            "lng": 113.404739
        },
        "ad_info": {
            "adcode": 421303,
            "province": "湖北省",
            "city": "随州市",
            "district": "曾都区"
        }
    },
    {
        "id": "10443336235246472363",
        "title": "公共厕所",
        "address": "湖北省随州市曾都区万众路与红旗路交叉口西北方向31米左右",
        "tel": "",
        "category": "基础设施:公共设施:公共厕所",
        "type": 0,
        "location": {
            "lat": 31.682605,
            "lng": 113.439455
        },
        "ad_info": {
            "adcode": 421303,
            "province": "湖北省",
            "city": "随州市",
            "district": "曾都区"
        }
    },
    {
        "id": "10660914519119897953",
        "title": "公共厕所",
        "address": "湖北省随州市曾都区青年路中国石化加油站",
        "tel": "",
        "category": "基础设施:公共设施:公共厕所",
        "type": 0,
        "location": {
            "lat": 31.721733,
            "lng": 113.394939
        },
        "ad_info": {
            "adcode": 421303,
            "province": "湖北省",
            "city": "随州市",
            "district": "曾都区"
        }
    },
    {
        "id": "3319804717788351445",
        "title": "公共厕所",
        "address": "湖北省随州市随县X007与前进路交叉口东南方向1958米左右",
        "tel": "",
        "category": "基础设施:公共设施:公共厕所",
        "type": 0,
        "location": {
            "lat": 31.802507,
            "lng": 113.24073
        },
        "ad_info": {
            "adcode": 421321,
            "province": "湖北省",
            "city": "随州市",
            "district": "随县"
        }
    },
    {
        "id": "4122444235955249883",
        "title": "公共厕所",
        "address": "湖北省随州市随县襄汉大道33号",
        "tel": "",
        "category": "基础设施:公共设施:公共厕所",
        "type": 0,
        "location": {
            "lat": 32.000684,
            "lng": 113.060024
        },
        "ad_info": {
            "adcode": 421321,
            "province": "湖北省",
            "city": "随州市",
            "district": "随县"
        }
    },
    {
        "id": "10230109299217247344",
        "title": "公共厕所",
        "address": "湖北省随州市曾都区烈山大道与襟汉楼街交叉口正西方向56米左右",
        "tel": "",
        "category": "基础设施:公共设施:公共厕所",
        "type": 0,
        "location": {
            "lat": 31.708778,
            "lng": 113.372839
        },
        "ad_info": {
            "adcode": 421303,
            "province": "湖北省",
            "city": "随州市",
            "district": "曾都区"
        }
    },
    {
        "id": "11690946735989807511",
        "title": "公共厕所",
        "address": "湖北省随州市曾都区玉石街25号",
        "tel": "",
        "category": "基础设施:公共设施:公共厕所",
        "type": 0,
        "location": {
            "lat": 31.714168,
            "lng": 113.370125
        },
        "ad_info": {
            "adcode": 421303,
            "province": "湖北省",
            "city": "随州市",
            "district": "曾都区"
        }
    },
    {
        "id": "4001577591222715723",
        "title": "公共厕所",
        "address": "湖北省随州市曾都区文忠大道与沿河大道交叉口正西方向1122米左右",
        "tel": "",
        "category": "基础设施:公共设施:公共厕所",
        "type": 0,
        "location": {
            "lat": 31.752495,
            "lng": 113.353245
        },
        "ad_info": {
            "adcode": 421303,
            "province": "湖北省",
            "city": "随州市",
            "district": "曾都区"
        }
    },
    {
        "id": "3878136127089945074",
        "title": "公共厕所",
        "address": "湖北省随州市广水市S210与十三里桥交叉口东北方向867米左右",
        "tel": "",
        "category": "基础设施:公共设施:公共厕所",
        "type": 0,
        "location": {
            "lat": 31.571047,
            "lng": 113.797256
        },
        "ad_info": {
            "adcode": 421381,
            "province": "湖北省",
            "city": "随州市",
            "district": "广水市"
        }
    },
    {
        "id": "1046787436644486824",
        "title": "公共厕所",
        "address": "湖北省随州市广水市G107与孝子店桥交叉口西北方向179米左右",
        "tel": "",
        "category": "基础设施:公共设施:公共厕所",
        "type": 0,
        "location": {
            "lat": 31.730594,
            "lng": 114.042022
        },
        "ad_info": {
            "adcode": 421381,
            "province": "湖北省",
            "city": "随州市",
            "district": "广水市"
        }
    },
    {
        "id": "7444219948150992061",
        "title": "公共厕所",
        "address": "湖北省随州市广水市316国道西50米",
        "tel": "",
        "category": "基础设施:公共设施:公共厕所",
        "type": 0,
        "location": {
            "lat": 31.454403,
            "lng": 113.584
        },
        "ad_info": {
            "adcode": 421381,
            "province": "湖北省",
            "city": "随州市",
            "district": "广水市"
        }
    },
    {
        "id": "9315421040928129907",
        "title": "公共厕所",
        "address": "湖北省随州市随县G346与怀河街交叉口正南方向35米左右",
        "tel": "",
        "category": "基础设施:公共设施:公共厕所",
        "type": 0,
        "location": {
            "lat": 31.663947,
            "lng": 112.921458
        },
        "ad_info": {
            "adcode": 421321,
            "province": "湖北省",
            "city": "随州市",
            "district": "随县"
        }
    },
    {
        "id": "16842492221647015981",
        "title": "公共厕所",
        "address": "湖北省随州市曾都区004县道西50米",
        "tel": "",
        "category": "基础设施:公共设施:公共厕所",
        "type": 0,
        "location": {
            "lat": 31.595602,
            "lng": 113.372105
        },
        "ad_info": {
            "adcode": 421303,
            "province": "湖北省",
            "city": "随州市",
            "district": "曾都区"
        }
    },
    {
        "id": "8762524076759883588",
        "title": "公共厕所",
        "address": "湖北省随州市广水市广悟大道与应广大道交叉口正西方向405米左右",
        "tel": "",
        "category": "基础设施:公共设施:公共厕所",
        "type": 0,
        "location": {
            "lat": 31.615935,
            "lng": 113.967775
        },
        "ad_info": {
            "adcode": 421381,
            "province": "湖北省",
            "city": "随州市",
            "district": "广水市"
        }
    },
    {
        "id": "12559350094829583256",
        "title": "公共厕所",
        "address": "湖北省随州市广水市G107与驼子岗街交叉口西南方向122米左右",
        "tel": "",
        "category": "基础设施:公共设施:公共厕所",
        "type": 0,
        "location": {
            "lat": 31.561994,
            "lng": 114.047611
        },
        "ad_info": {
            "adcode": 421381,
            "province": "湖北省",
            "city": "随州市",
            "district": "广水市"
        }
    },
    {
        "id": "5442720686970239571",
        "title": "公共厕所",
        "address": "湖北省随州市广水市S328与吴店大桥交叉口西北方向1620米左右",
        "tel": "",
        "category": "基础设施:公共设施:公共厕所",
        "type": 0,
        "location": {
            "lat": 31.948772,
            "lng": 113.631985
        },
        "ad_info": {
            "adcode": 421381,
            "province": "湖北省",
            "city": "随州市",
            "district": "广水市"
        }
    },
    {
        "id": "12818531522532190843",
        "title": "公共厕所",
        "address": "湖北省随州市曾都区淅魏路与随州大道交叉口正南方向579米左右",
        "tel": "",
        "category": "基础设施:公共设施:公共厕所",
        "type": 0,
        "location": {
            "lat": 31.698881,
            "lng": 113.465821
        },
        "ad_info": {
            "adcode": 421303,
            "province": "湖北省",
            "city": "随州市",
            "district": "曾都区"
        }
    },
    {
        "id": "3960682082969096489",
        "title": "公共厕所",
        "address": "湖北省随州市曾都区烈山大道240-8号",
        "tel": "",
        "category": "基础设施:公共设施:公共厕所",
        "type": 0,
        "location": {
            "lat": 31.725006,
            "lng": 113.376559
        },
        "ad_info": {
            "adcode": 421303,
            "province": "湖北省",
            "city": "随州市",
            "district": "曾都区"
        }
    },
    {
        "id": "9765962982011459769",
        "title": "公共厕所",
        "address": "湖北省随州市曾都区文峰西街143号五金城内",
        "tel": "",
        "category": "基础设施:公共设施:公共厕所",
        "type": 0,
        "location": {
            "lat": 31.702844,
            "lng": 113.382275
        },
        "ad_info": {
            "adcode": 421303,
            "province": "湖北省",
            "city": "随州市",
            "district": "曾都区"
        }
    },
    {
        "id": "1756325973950924545",
        "title": "公共厕所",
        "address": "湖北省随州市曾都区乌龙巷与大北街交叉口西北方向183米左右",
        "tel": "",
        "category": "基础设施:公共设施:公共厕所",
        "type": 0,
        "location": {
            "lat": 31.71732,
            "lng": 113.3708
        },
        "ad_info": {
            "adcode": 421303,
            "province": "湖北省",
            "city": "随州市",
            "district": "曾都区"
        }
    },
    {
        "id": "16323416616906747285",
        "title": "公共厕所",
        "address": "湖北省随州市曾都区G70福银高速与G70福银高速出口交叉口南100米",
        "tel": "",
        "category": "基础设施:公共设施:公共厕所",
        "type": 0,
        "location": {
            "lat": 31.634498,
            "lng": 113.302881
        },
        "ad_info": {
            "adcode": 421303,
            "province": "湖北省",
            "city": "随州市",
            "district": "曾都区"
        }
    },
    {
        "id": "15517589104970764296",
        "title": "公共厕所",
        "address": "湖北省随州市曾都区舜井大道与鹿鹤步行街交叉口正南方向79米左右",
        "tel": "",
        "category": "基础设施:公共设施:公共厕所",
        "type": 0,
        "location": {
            "lat": 31.711677,
            "lng": 113.379872
        },
        "ad_info": {
            "adcode": 421303,
            "province": "湖北省",
            "city": "随州市",
            "district": "曾都区"
        }
    },
    {
        "id": "10448764260494891337",
        "title": "公共厕所",
        "address": "湖北省随州市曾都区002县道东50米",
        "tel": "",
        "category": "基础设施:公共设施:公共厕所",
        "type": 0,
        "location": {
            "lat": 31.582814,
            "lng": 113.498605
        },
        "ad_info": {
            "adcode": 421303,
            "province": "湖北省",
            "city": "随州市",
            "district": "曾都区"
        }
    },
    {
        "id": "2142533944296933780",
        "title": "公共厕所",
        "address": "湖北省随州市曾都区002县道东50米",
        "tel": "",
        "category": "基础设施:公共设施:公共厕所",
        "type": 0,
        "location": {
            "lat": 31.470482,
            "lng": 113.565233
        },
        "ad_info": {
            "adcode": 421303,
            "province": "湖北省",
            "city": "随州市",
            "district": "曾都区"
        }
    },
    {
        "id": "4693861282722689791",
        "title": "公共厕所",
        "address": "湖北省随州市曾都区交通大道与粮油巷交叉口西南方向175米左右",
        "tel": "",
        "category": "基础设施:公共设施:公共厕所",
        "type": 0,
        "location": {
            "lat": 31.717854,
            "lng": 113.381442
        },
        "ad_info": {
            "adcode": 421303,
            "province": "湖北省",
            "city": "随州市",
            "district": "曾都区"
        }
    },
    {
        "id": "14428077211796145246",
        "title": "公共厕所",
        "address": "湖北省随州市曾都区周家中巷与沿河大道交叉口正东方向77米左右",
        "tel": "",
        "category": "基础设施:公共设施:公共厕所",
        "type": 0,
        "location": {
            "lat": 31.711131,
            "lng": 113.367469
        },
        "ad_info": {
            "adcode": 421303,
            "province": "湖北省",
            "city": "随州市",
            "district": "曾都区"
        }
    },
    {
        "id": "10995282654016015636",
        "title": "公共厕所",
        "address": "湖北省随州市随县新集中心小学东侧230米",
        "tel": "",
        "category": "基础设施:公共设施:公共厕所",
        "type": 0,
        "location": {
            "lat": 31.61372,
            "lng": 113.085351
        },
        "ad_info": {
            "adcode": 421321,
            "province": "湖北省",
            "city": "随州市",
            "district": "随县"
        }
    },
    {
        "id": "18117261158985881647",
        "title": "公共厕所",
        "address": "湖北省随州市曾都区新春路与沿河大道交叉口正东方向100米左右",
        "tel": "",
        "category": "基础设施:公共设施:公共厕所",
        "type": 0,
        "location": {
            "lat": 31.799994,
            "lng": 113.334661
        },
        "ad_info": {
            "adcode": 421303,
            "province": "湖北省",
            "city": "随州市",
            "district": "曾都区"
        }
    },
    {
        "id": "6610761794351680209",
        "title": "公共厕所",
        "address": "湖北省随州市曾都区Y008",
        "tel": "",
        "category": "基础设施:公共设施:公共厕所",
        "type": 0,
        "location": {
            "lat": 31.862898,
            "lng": 113.52988
        },
        "ad_info": {
            "adcode": 421303,
            "province": "湖北省",
            "city": "随州市",
            "district": "曾都区"
        }
    },
    {
        "id": "8866224733328781512",
        "title": "公共厕所",
        "address": "湖北省随州市曾都区解放路280号副9",
        "tel": "",
        "category": "基础设施:公共设施:公共厕所",
        "type": 0,
        "location": {
            "lat": 31.709786,
            "lng": 113.356409
        },
        "ad_info": {
            "adcode": 421303,
            "province": "湖北省",
            "city": "随州市",
            "district": "曾都区"
        }
    },
    {
        "id": "16898817825681187516",
        "title": "公共厕所",
        "address": "湖北省随州市曾都区S327与Y054交叉口西南方向67米左右",
        "tel": "",
        "category": "基础设施:公共设施:公共厕所",
        "type": 0,
        "location": {
            "lat": 31.459401,
            "lng": 113.353965
        },
        "ad_info": {
            "adcode": 421303,
            "province": "湖北省",
            "city": "随州市",
            "district": "曾都区"
        }
    },
    {
        "id": "10246358213393008570",
        "title": "公共厕所",
        "address": "湖北省随州市曾都区交通大道与汉东路交叉口正西方向98米左右",
        "tel": "",
        "category": "基础设施:公共设施:公共厕所",
        "type": 0,
        "location": {
            "lat": 31.706177,
            "lng": 113.385197
        },
        "ad_info": {
            "adcode": 421303,
            "province": "湖北省",
            "city": "随州市",
            "district": "曾都区"
        }
    },
    {
        "id": "10979157870935891677",
        "title": "公共厕所",
        "address": "湖北省随州市曾都区G240与黄畈桥交叉口正南方向944米左右",
        "tel": "",
        "category": "基础设施:公共设施:公共厕所",
        "type": 0,
        "location": {
            "lat": 31.657262,
            "lng": 113.28705
        },
        "ad_info": {
            "adcode": 421303,
            "province": "湖北省",
            "city": "随州市",
            "district": "曾都区"
        }
    },
    {
        "id": "8823634374941608678",
        "title": "公共厕所",
        "address": "湖北省随州市曾都区",
        "tel": "",
        "category": "基础设施:公共设施:公共厕所",
        "type": 0,
        "location": {
            "lat": 31.582144,
            "lng": 113.309453
        },
        "ad_info": {
            "adcode": 421303,
            "province": "湖北省",
            "city": "随州市",
            "district": "曾都区"
        }
    },
    {
        "id": "3398627739483479503",
        "title": "公共厕所",
        "address": "湖北省随州市曾都区S263与王柳桥交叉口东北方向410米左右",
        "tel": "",
        "category": "基础设施:公共设施:公共厕所",
        "type": 0,
        "location": {
            "lat": 31.558524,
            "lng": 113.29031
        },
        "ad_info": {
            "adcode": 421303,
            "province": "湖北省",
            "city": "随州市",
            "district": "曾都区"
        }
    },
    {
        "id": "540012954102986527",
        "title": "公共厕所",
        "address": "湖北省随州市随县G316与炎帝大道交叉口正南方向237米左右",
        "tel": "",
        "category": "基础设施:公共设施:公共厕所",
        "type": 0,
        "location": {
            "lat": 31.893504,
            "lng": 113.295717
        },
        "ad_info": {
            "adcode": 421321,
            "province": "湖北省",
            "city": "随州市",
            "district": "随县"
        }
    },
    {
        "id": "4697434131967632645",
        "title": "公共厕所",
        "address": "湖北省随州市曾都区东门口街与银河路交叉口东北方向118米左右",
        "tel": "",
        "category": "基础设施:公共设施:公共厕所",
        "type": 0,
        "location": {
            "lat": 31.683208,
            "lng": 113.47828
        },
        "ad_info": {
            "adcode": 421303,
            "province": "湖北省",
            "city": "随州市",
            "district": "曾都区"
        }
    },
    {
        "id": "15770706182922029009",
        "title": "公共厕所",
        "address": "湖北省随州市随县G234与S333交叉口正南方向1909米左右",
        "tel": "",
        "category": "基础设施:公共设施:公共厕所",
        "type": 0,
        "location": {
            "lat": 31.601408,
            "lng": 112.870936
        },
        "ad_info": {
            "adcode": 421321,
            "province": "湖北省",
            "city": "随州市",
            "district": "随县"
        }
    },
    {
        "id": "17271210434998639720",
        "title": "公共厕所",
        "address": "湖北省随州市随县S333与大洪山路交叉口西北方向199米左右",
        "tel": "",
        "category": "基础设施:公共设施:公共厕所",
        "type": 0,
        "location": {
            "lat": 31.554177,
            "lng": 112.968917
        },
        "ad_info": {
            "adcode": 421321,
            "province": "湖北省",
            "city": "随州市",
            "district": "随县"
        }
    },
    {
        "id": "15447192195437112600",
        "title": "公共厕所",
        "address": "湖北省随州市随县厉封线与许广高速交叉口东北方向309米左右",
        "tel": "",
        "category": "基础设施:公共设施:公共厕所",
        "type": 0,
        "location": {
            "lat": 31.960321,
            "lng": 113.349171
        },
        "ad_info": {
            "adcode": 421321,
            "province": "湖北省",
            "city": "随州市",
            "district": "随县"
        }
    },
    {
        "id": "11570308070924383697",
        "title": "公共厕所",
        "address": "湖北省随州市随县G312与天梯路交叉口正东方向577米左右",
        "tel": "",
        "category": "基础设施:公共设施:公共厕所",
        "type": 0,
        "location": {
            "lat": 32.312531,
            "lng": 113.753252
        },
        "ad_info": {
            "adcode": 421321,
            "province": "湖北省",
            "city": "随州市",
            "district": "随县"
        }
    },
    {
        "id": "2561333700177397258",
        "title": "公共厕所",
        "address": "湖北省随州市曾都区孔坡消防道与清河东路交叉口西北方向182米左右",
        "tel": "",
        "category": "基础设施:公共设施:公共厕所",
        "type": 0,
        "location": {
            "lat": 31.731697,
            "lng": 113.380124
        },
        "ad_info": {
            "adcode": 421303,
            "province": "湖北省",
            "city": "随州市",
            "district": "曾都区"
        }
    },
    {
        "id": "10756899722481667976",
        "title": "公共厕所",
        "address": "湖北省随州市曾都区交通大道与新春路交叉口西南方向64米左右",
        "tel": "",
        "category": "基础设施:公共设施:公共厕所",
        "type": 0,
        "location": {
            "lat": 31.803488,
            "lng": 113.34355
        },
        "ad_info": {
            "adcode": 421303,
            "province": "湖北省",
            "city": "随州市",
            "district": "曾都区"
        }
    },
    {
        "id": "16263323259552590483",
        "title": "公共厕所",
        "address": "湖北省随州市曾都区小北街与青年路交叉口正东方向129米左右",
        "tel": "",
        "category": "基础设施:公共设施:公共厕所",
        "type": 0,
        "location": {
            "lat": 31.720923,
            "lng": 113.375385
        },
        "ad_info": {
            "adcode": 421303,
            "province": "湖北省",
            "city": "随州市",
            "district": "曾都区"
        }
    },
    {
        "id": "10402255364086374595",
        "title": "公共厕所",
        "address": "湖北省随州市曾都区光原路与编钟大道交叉口正东方向219米左右",
        "tel": "",
        "category": "基础设施:公共设施:公共厕所",
        "type": 0,
        "location": {
            "lat": 31.697738,
            "lng": 113.411384
        },
        "ad_info": {
            "adcode": 421303,
            "province": "湖北省",
            "city": "随州市",
            "district": "曾都区"
        }
    },
    {
        "id": "16612133565338374917",
        "title": "公共厕所",
        "address": "湖北省随州市曾都区沿河大道与金龙巷交叉口东南方向112米左右",
        "tel": "",
        "category": "基础设施:公共设施:公共厕所",
        "type": 0,
        "location": {
            "lat": 31.723384,
            "lng": 113.366454
        },
        "ad_info": {
            "adcode": 421303,
            "province": "湖北省",
            "city": "随州市",
            "district": "曾都区"
        }
    },
    {
        "id": "10585353125237248127",
        "title": "公共厕所",
        "address": "湖北省随州市曾都区交通大道中国石化加油站",
        "tel": "",
        "category": "基础设施:公共设施:公共厕所",
        "type": 0,
        "location": {
            "lat": 31.695571,
            "lng": 113.400017
        },
        "ad_info": {
            "adcode": 421303,
            "province": "湖北省",
            "city": "随州市",
            "district": "曾都区"
        }
    },
    {
        "id": "2021576592325664798",
        "title": "公共厕所",
        "address": "湖北省随州市曾都区擂鼓墩大道与涢水南路交叉口正南方向1238米左右",
        "tel": "",
        "category": "基础设施:公共设施:公共厕所",
        "type": 0,
        "location": {
            "lat": 31.691576,
            "lng": 113.361599
        },
        "ad_info": {
            "adcode": 421303,
            "province": "湖北省",
            "city": "随州市",
            "district": "曾都区"
        }
    },
    {
        "id": "4205976052524873194",
        "title": "公共厕所",
        "address": "湖北省随州市曾都区星光大道与白云湖南路交叉口东南方向279米左右",
        "tel": "",
        "category": "基础设施:公共设施:公共厕所",
        "type": 0,
        "location": {
            "lat": 31.675313,
            "lng": 113.417206
        },
        "ad_info": {
            "adcode": 421303,
            "province": "湖北省",
            "city": "随州市",
            "district": "曾都区"
        }
    },
    {
        "id": "16568985235868632445",
        "title": "公共厕所",
        "address": "湖北省随州市曾都区解放路325号",
        "tel": "",
        "category": "基础设施:公共设施:公共厕所",
        "type": 0,
        "location": {
            "lat": 31.709595,
            "lng": 113.34703
        },
        "ad_info": {
            "adcode": 421303,
            "province": "湖北省",
            "city": "随州市",
            "district": "曾都区"
        }
    },
    {
        "id": "1582694159766648793",
        "title": "公共厕所",
        "address": "湖北省随州市曾都区002县道东50米",
        "tel": "",
        "category": "基础设施:公共设施:公共厕所",
        "type": 0,
        "location": {
            "lat": 31.581703,
            "lng": 113.491926
        },
        "ad_info": {
            "adcode": 421303,
            "province": "湖北省",
            "city": "随州市",
            "district": "曾都区"
        }
    },
    {
        "id": "3546397204172485548",
        "title": "公共厕所",
        "address": "湖北省随州市曾都区002县道南50米",
        "tel": "",
        "category": "基础设施:公共设施:公共厕所",
        "type": 0,
        "location": {
            "lat": 31.582705,
            "lng": 113.499299
        },
        "ad_info": {
            "adcode": 421303,
            "province": "湖北省",
            "city": "随州市",
            "district": "曾都区"
        }
    },
    {
        "id": "17188265162780833967",
        "title": "公共厕所",
        "address": "湖北省随州市曾都区白银巷与草店子街交叉口西北方向90米左右",
        "tel": "",
        "category": "基础设施:公共设施:公共厕所",
        "type": 0,
        "location": {
            "lat": 31.699519,
            "lng": 113.375535
        },
        "ad_info": {
            "adcode": 421303,
            "province": "湖北省",
            "city": "随州市",
            "district": "曾都区"
        }
    },
    {
        "id": "11525460937458468112",
        "title": "卫生间",
        "address": "湖北省随州市曾都区解放路65号银泰百货F3",
        "tel": "",
        "category": "基础设施:公共设施:公共厕所",
        "type": 0,
        "location": {
            "lat": 31.713497,
            "lng": 113.375512
        },
        "ad_info": {
            "adcode": 421303,
            "province": "湖北省",
            "city": "随州市",
            "district": "曾都区"
        }
    },
    {
        "id": "15003279243348759708",
        "title": "小北街公共厕所",
        "address": "湖北省随州市曾都区烈山大道金融大厦",
        "tel": "",
        "category": "基础设施:公共设施:公共厕所",
        "type": 0,
        "location": {
            "lat": 31.721453,
            "lng": 113.373821
        },
        "ad_info": {
            "adcode": 421303,
            "province": "湖北省",
            "city": "随州市",
            "district": "曾都区"
        }
    },
    {
        "id": "1424359099501757049",
        "title": "公共厕所",
        "address": "湖北省随州市曾都区S327与梓溪桥交叉口西北方向1222米左右",
        "tel": "",
        "category": "基础设施:公共设施:公共厕所",
        "type": 0,
        "location": {
            "lat": 31.460255,
            "lng": 113.378114
        },
        "ad_info": {
            "adcode": 421303,
            "province": "湖北省",
            "city": "随州市",
            "district": "曾都区"
        }
    },
    {
        "id": "9346559741885026254",
        "title": "岁丰学校公共厕所",
        "address": "湖北省随州市曾都区沿河大道108号",
        "tel": "",
        "category": "基础设施:公共设施:公共厕所",
        "type": 0,
        "location": {
            "lat": 31.714569,
            "lng": 113.365179
        },
        "ad_info": {
            "adcode": 421303,
            "province": "湖北省",
            "city": "随州市",
            "district": "曾都区"
        }
    },
    {
        "id": "1805844849542213158",
        "title": "无障碍公共厕所",
        "address": "湖北省随州市广水市灵杰学校西北侧170米",
        "tel": "",
        "category": "基础设施:公共设施:公共厕所",
        "type": 0,
        "location": {
            "lat": 31.610584,
            "lng": 113.886023
        },
        "ad_info": {
            "adcode": 421381,
            "province": "湖北省",
            "city": "随州市",
            "district": "广水市"
        }
    },
    {
        "id": "7262354525249760749",
        "title": "广水服务区公共厕所",
        "address": "湖北省随州市广水市麻安高速广水服务区",
        "tel": "",
        "category": "基础设施:公共设施:公共厕所",
        "type": 0,
        "location": {
            "lat": 31.635778,
            "lng": 113.74227
        },
        "ad_info": {
            "adcode": 421381,
            "province": "湖北省",
            "city": "随州市",
            "district": "广水市"
        }
    },
    {
        "id": "10024145705236825943",
        "title": "女洗手间(西亚丽宝广场)",
        "address": "湖北省随州市广水市广安路与育才路交叉口正南方向22米左右",
        "tel": "",
        "category": "基础设施:公共设施:公共厕所",
        "type": 0,
        "location": {
            "lat": 31.618458,
            "lng": 113.828153
        },
        "ad_info": {
            "adcode": 421381,
            "province": "湖北省",
            "city": "随州市",
            "district": "广水市"
        }
    },
    {
        "id": "5184150262364586023",
        "title": "广水服务区第二公共厕所",
        "address": "湖北省随州市广水市S28麻竹高速附近",
        "tel": "",
        "category": "基础设施:公共设施:公共厕所",
        "type": 0,
        "location": {
            "lat": 31.635293,
            "lng": 113.743511
        },
        "ad_info": {
            "adcode": 421381,
            "province": "湖北省",
            "city": "随州市",
            "district": "广水市"
        }
    },
    {
        "id": "15447298508688895518",
        "title": "随州服务区第二公共厕所",
        "address": "湖北省随州市随县G70福银高速与随州服务区交叉口西北280米",
        "tel": "",
        "category": "基础设施:公共设施:公共厕所",
        "type": 0,
        "location": {
            "lat": 31.799397,
            "lng": 113.119792
        },
        "ad_info": {
            "adcode": 421321,
            "province": "湖北省",
            "city": "随州市",
            "district": "随县"
        }
    },
    {
        "id": "17497363313142117912",
        "title": "公共厕所",
        "address": "湖北省随州市曾都区东胜路与季梁大道交叉口正西方向359米左右",
        "tel": "",
        "category": "基础设施:公共设施:公共厕所",
        "type": 0,
        "location": {
            "lat": 31.720083,
            "lng": 113.396865
        },
        "ad_info": {
            "adcode": 421303,
            "province": "湖北省",
            "city": "随州市",
            "district": "曾都区"
        }
    },
    {
        "id": "16670219412193901660",
        "title": "公共厕所",
        "address": "湖北省随州市广水市中山大道与桐柏大道交叉口东南方向170米左右",
        "tel": "",
        "category": "基础设施:公共设施:公共厕所",
        "type": 0,
        "location": {
            "lat": 31.622431,
            "lng": 114.00729
        },
        "ad_info": {
            "adcode": 421381,
            "province": "湖北省",
            "city": "随州市",
            "district": "广水市"
        }
    },
    {
        "id": "2288901596289215953",
        "title": "公共厕所",
        "address": "湖北省随州市曾都区天后宫客房(舜井大道西)",
        "tel": "",
        "category": "基础设施:公共设施:公共厕所",
        "type": 0,
        "location": {
            "lat": 31.708681,
            "lng": 113.38012
        },
        "ad_info": {
            "adcode": 421303,
            "province": "湖北省",
            "city": "随州市",
            "district": "曾都区"
        }
    },
    {
        "id": "12864734222735935686",
        "title": "广水服务区公共厕所",
        "address": "湖北省随州市广水市麻安高速广水服务区",
        "tel": "",
        "category": "基础设施:公共设施:公共厕所",
        "type": 0,
        "location": {
            "lat": 31.636969,
            "lng": 113.744234
        },
        "ad_info": {
            "adcode": 421381,
            "province": "湖北省",
            "city": "随州市",
            "district": "广水市"
        }
    },
    {
        "id": "15378723418315491826",
        "title": "均川服务区公共厕所",
        "address": "湖北省随州市随县许广高速与麻安高速交叉口正南方向1927米左右",
        "tel": "",
        "category": "基础设施:公共设施:公共厕所",
        "type": 0,
        "location": {
            "lat": 31.603285,
            "lng": 113.211248
        },
        "ad_info": {
            "adcode": 421321,
            "province": "湖北省",
            "city": "随州市",
            "district": "随县"
        }
    },
    {
        "id": "1820721762279695645",
        "title": "公共厕所",
        "address": "湖北省随州市曾都区金龙巷居佳花园小区",
        "tel": "",
        "category": "基础设施:公共设施:公共厕所",
        "type": 0,
        "location": {
            "lat": 31.723568,
            "lng": 113.363372
        },
        "ad_info": {
            "adcode": 421303,
            "province": "湖北省",
            "city": "随州市",
            "district": "曾都区"
        }
    },
    {
        "id": "14568611459041367172",
        "title": "公共厕所",
        "address": "湖北省随州市曾都区交通大道118号",
        "tel": "",
        "category": "基础设施:公共设施:公共厕所",
        "type": 0,
        "location": {
            "lat": 31.697311,
            "lng": 113.39658
        },
        "ad_info": {
            "adcode": 421303,
            "province": "湖北省",
            "city": "随州市",
            "district": "曾都区"
        }
    },
    {
        "id": "14208178952555557617",
        "title": "广水服务区第二公共厕所",
        "address": "湖北省随州市广水市S28麻竹高速附近",
        "tel": "",
        "category": "基础设施:公共设施:公共厕所",
        "type": 0,
        "location": {
            "lat": 31.637464,
            "lng": 113.743205
        },
        "ad_info": {
            "adcode": 421381,
            "province": "湖北省",
            "city": "随州市",
            "district": "广水市"
        }
    },
    {
        "id": "4998879431926702998",
        "title": "公共厕所",
        "address": "湖北省随州市曾都区三岔口巷与淅河大道交叉口西北方向114米左右",
        "tel": "",
        "category": "基础设施:公共设施:公共厕所",
        "type": 0,
        "location": {
            "lat": 31.687988,
            "lng": 113.469352
        },
        "ad_info": {
            "adcode": 421303,
            "province": "湖北省",
            "city": "随州市",
            "district": "曾都区"
        }
    },
    {
        "id": "8359588286296688326",
        "title": "公共厕所",
        "address": "湖北省随州市曾都区清河路57号(黄垅三组巷内)",
        "tel": "",
        "category": "基础设施:公共设施:公共厕所",
        "type": 0,
        "location": {
            "lat": 31.729834,
            "lng": 113.367264
        },
        "ad_info": {
            "adcode": 421303,
            "province": "湖北省",
            "city": "随州市",
            "district": "曾都区"
        }
    },
    {
        "id": "17391427052868081511",
        "title": "公共厕所",
        "address": "湖北省随州市曾都区季梁大道与李家巷交叉口东北方向324米左右",
        "tel": "",
        "category": "基础设施:公共设施:公共厕所",
        "type": 0,
        "location": {
            "lat": 31.730828,
            "lng": 113.39631
        },
        "ad_info": {
            "adcode": 421303,
            "province": "湖北省",
            "city": "随州市",
            "district": "曾都区"
        }
    },
    {
        "id": "9401965341991503916",
        "title": "公共厕所",
        "address": "湖北省随州市曾都区汉东路9号",
        "tel": "",
        "category": "基础设施:公共设施:公共厕所",
        "type": 0,
        "location": {
            "lat": 31.70501,
            "lng": 113.374593
        },
        "ad_info": {
            "adcode": 421303,
            "province": "湖北省",
            "city": "随州市",
            "district": "曾都区"
        }
    },
    {
        "id": "15506437965001615420",
        "title": "公共厕所",
        "address": "湖北省随州市曾都区万隆街与大桥路交叉口东南方向155米左右",
        "tel": "",
        "category": "基础设施:公共设施:公共厕所",
        "type": 0,
        "location": {
            "lat": 31.512991,
            "lng": 113.575691
        },
        "ad_info": {
            "adcode": 421303,
            "province": "湖北省",
            "city": "随州市",
            "district": "曾都区"
        }
    },
    {
        "id": "2686027904433147486",
        "title": "八里岔农场公共厕所",
        "address": "湖北省随州市曾都区汉孟路41号北郊八里岔社区办公室旁",
        "tel": "",
        "category": "基础设施:公共设施:公共厕所",
        "type": 0,
        "location": {
            "lat": 31.745606,
            "lng": 113.372385
        },
        "ad_info": {
            "adcode": 421303,
            "province": "湖北省",
            "city": "随州市",
            "district": "曾都区"
        }
    },
    {
        "id": "18253720832700362342",
        "title": "均川服务区第二公共厕所",
        "address": "湖北省随州市随县许广高速与麻安高速交叉口正南方向1968米左右",
        "tel": "",
        "category": "基础设施:公共设施:公共厕所",
        "type": 0,
        "location": {
            "lat": 31.602466,
            "lng": 113.209315
        },
        "ad_info": {
            "adcode": 421321,
            "province": "湖北省",
            "city": "随州市",
            "district": "随县"
        }
    },
    {
        "id": "1401362758088693111",
        "title": "均川服务区第二公共厕所",
        "address": "湖北省随州市随县许广高速与麻安高速交叉口正南方向1823米左右",
        "tel": "",
        "category": "基础设施:公共设施:公共厕所",
        "type": 0,
        "location": {
            "lat": 31.604147,
            "lng": 113.210779
        },
        "ad_info": {
            "adcode": 421321,
            "province": "湖北省",
            "city": "随州市",
            "district": "随县"
        }
    },
    {
        "id": "18181098370503897128",
        "title": "均川服务区公共厕所",
        "address": "湖北省随州市随县G0421与麻竹高速交叉口正南方向1996米左右",
        "tel": "",
        "category": "基础设施:公共设施:公共厕所",
        "type": 0,
        "location": {
            "lat": 31.60408,
            "lng": 113.208988
        },
        "ad_info": {
            "adcode": 421321,
            "province": "湖北省",
            "city": "随州市",
            "district": "随县"
        }
    },
    {
        "id": "8129686982503977620",
        "title": "随州服务区第一公共厕所",
        "address": "湖北省随州市随县G70福银高速与随州服务区交叉口北240米",
        "tel": "",
        "category": "基础设施:公共设施:公共厕所",
        "type": 0,
        "location": {
            "lat": 31.799688,
            "lng": 113.121796
        },
        "ad_info": {
            "adcode": 421321,
            "province": "湖北省",
            "city": "随州市",
            "district": "随县"
        }
    },
    {
        "id": "15467351474437356741",
        "title": "封江服务区第二公共厕所",
        "address": "湖北省随州市随县S49随岳高速附近",
        "tel": "",
        "category": "基础设施:公共设施:公共厕所",
        "type": 0,
        "location": {
            "lat": 32.019447,
            "lng": 113.360551
        },
        "ad_info": {
            "adcode": 421321,
            "province": "湖北省",
            "city": "随州市",
            "district": "随县"
        }
    },
    {
        "id": "16854446308755675682",
        "title": "封江服务区公共厕所",
        "address": "湖北省随州市随县随岳高速封江服务区",
        "tel": "",
        "category": "基础设施:公共设施:公共厕所",
        "type": 0,
        "location": {
            "lat": 32.019343,
            "lng": 113.361182
        },
        "ad_info": {
            "adcode": 421321,
            "province": "湖北省",
            "city": "随州市",
            "district": "随县"
        }
    },
    {
        "id": "2598010854766457683",
        "title": "随州服务区第二公共厕所",
        "address": "湖北省随州市随县福银高速随州服务区",
        "tel": "",
        "category": "基础设施:公共设施:公共厕所",
        "type": 0,
        "location": {
            "lat": 31.799921,
            "lng": 113.120506
        },
        "ad_info": {
            "adcode": 421321,
            "province": "湖北省",
            "city": "随州市",
            "district": "随县"
        }
    },
    {
        "id": "9301891826158116405",
        "title": "无障碍公共厕所",
        "address": "湖北省随州市曾都区周家巷与解放路交叉口西南方向54米左右",
        "tel": "",
        "category": "基础设施:公共设施:公共厕所",
        "type": 0,
        "location": {
            "lat": 31.711327,
            "lng": 113.365507
        },
        "ad_info": {
            "adcode": 421303,
            "province": "湖北省",
            "city": "随州市",
            "district": "曾都区"
        }
    },
    {
        "id": "14015254704296034169",
        "title": "孔家坡六组南公共厕所",
        "address": "湖北省随州市曾都区交通大道367号",
        "tel": "",
        "category": "基础设施:公共设施:公共厕所",
        "type": 0,
        "location": {
            "lat": 31.724354,
            "lng": 113.381593
        },
        "ad_info": {
            "adcode": 421303,
            "province": "湖北省",
            "city": "随州市",
            "district": "曾都区"
        }
    },
    {
        "id": "11585410156582755769",
        "title": "公共厕所",
        "address": "湖北省随州市广水市烈士岭路与牛程大道交叉口东南方向341米左右",
        "tel": "",
        "category": "基础设施:公共设施:公共厕所",
        "type": 0,
        "location": {
            "lat": 31.922801,
            "lng": 113.655161
        },
        "ad_info": {
            "adcode": 421381,
            "province": "湖北省",
            "city": "随州市",
            "district": "广水市"
        }
    },
    {
        "id": "6615307063029972985",
        "title": "公共厕所",
        "address": "湖北省随州市曾都区新华巷与百步横街交叉口正北方向40米左右",
        "tel": "",
        "category": "基础设施:公共设施:公共厕所",
        "type": 0,
        "location": {
            "lat": 31.685413,
            "lng": 113.476295
        },
        "ad_info": {
            "adcode": 421303,
            "province": "湖北省",
            "city": "随州市",
            "district": "曾都区"
        }
    },
    {
        "id": "8777732613246248751",
        "title": "公共厕所",
        "address": "湖北省随州市随县G240与S212交叉口正西方向580米左右",
        "tel": "",
        "category": "基础设施:公共设施:公共厕所",
        "type": 0,
        "location": {
            "lat": 31.660622,
            "lng": 113.264036
        },
        "ad_info": {
            "adcode": 421321,
            "province": "湖北省",
            "city": "随州市",
            "district": "随县"
        }
    },
    {
        "id": "14174173592644873634",
        "title": "公共厕所",
        "address": "湖北省随州市广水市",
        "tel": "",
        "category": "基础设施:公共设施:公共厕所",
        "type": 0,
        "location": {
            "lat": 31.474486,
            "lng": 113.640871
        },
        "ad_info": {
            "adcode": 421381,
            "province": "湖北省",
            "city": "随州市",
            "district": "广水市"
        }
    },
    {
        "id": "18351082178898490972",
        "title": "公共厕所",
        "address": "湖北省随州市曾都区小南门街95号",
        "tel": "",
        "category": "基础设施:公共设施:公共厕所",
        "type": 0,
        "location": {
            "lat": 31.711635,
            "lng": 113.370907
        },
        "ad_info": {
            "adcode": 421303,
            "province": "湖北省",
            "city": "随州市",
            "district": "曾都区"
        }
    },
    {
        "id": "9061745208806384625",
        "title": "公共厕所",
        "address": "湖北省随州市曾都区李家巷136号",
        "tel": "",
        "category": "基础设施:公共设施:公共厕所",
        "type": 0,
        "location": {
            "lat": 31.72414,
            "lng": 113.390494
        },
        "ad_info": {
            "adcode": 421303,
            "province": "湖北省",
            "city": "随州市",
            "district": "曾都区"
        }
    },
    {
        "id": "5500228131185785353",
        "title": "公共厕所",
        "address": "湖北省随州市随县328省道与S49随岳高速入口交叉口南150米",
        "tel": "",
        "category": "基础设施:公共设施:公共厕所",
        "type": 0,
        "location": {
            "lat": 32.179548,
            "lng": 113.397093
        },
        "ad_info": {
            "adcode": 421321,
            "province": "湖北省",
            "city": "随州市",
            "district": "随县"
        }
    },
    {
        "id": "12029800993825264823",
        "title": "公共厕所",
        "address": "湖北省随州市广水市G107与孝子店桥交叉口正北方向1549米左右",
        "tel": "",
        "category": "基础设施:公共设施:公共厕所",
        "type": 0,
        "location": {
            "lat": 31.742456,
            "lng": 114.037744
        },
        "ad_info": {
            "adcode": 421381,
            "province": "湖北省",
            "city": "随州市",
            "district": "广水市"
        }
    },
    {
        "id": "1653447358874708753",
        "title": "公共厕所",
        "address": "湖北省随州市曾都区明珠路与汉孟路交叉口正南方向236米左右",
        "tel": "",
        "category": "基础设施:公共设施:公共厕所",
        "type": 0,
        "location": {
            "lat": 31.733234,
            "lng": 113.374545
        },
        "ad_info": {
            "adcode": 421303,
            "province": "湖北省",
            "city": "随州市",
            "district": "曾都区"
        }
    },
    {
        "id": "15713201600237750282",
        "title": "公共厕所",
        "address": "湖北省随州市广水市兴业路与跑马场路交叉口东南方向288米左右",
        "tel": "",
        "category": "基础设施:公共设施:公共厕所",
        "type": 0,
        "location": {
            "lat": 31.672316,
            "lng": 113.760272
        },
        "ad_info": {
            "adcode": 421381,
            "province": "湖北省",
            "city": "随州市",
            "district": "广水市"
        }
    },
    {
        "id": "1314857383623383974",
        "title": "公共厕所",
        "address": "湖北省随州市广水市应山大道与生态园路交叉口正北方向258米左右",
        "tel": "",
        "category": "基础设施:公共设施:公共厕所",
        "type": 0,
        "location": {
            "lat": 31.602879,
            "lng": 113.841823
        },
        "ad_info": {
            "adcode": 421381,
            "province": "湖北省",
            "city": "随州市",
            "district": "广水市"
        }
    },
    {
        "id": "10995228620338505765",
        "title": "公共厕所",
        "address": "湖北省随州市曾都区050乡道东50米",
        "tel": "",
        "category": "基础设施:公共设施:公共厕所",
        "type": 0,
        "location": {
            "lat": 31.483264,
            "lng": 113.550069
        },
        "ad_info": {
            "adcode": 421303,
            "province": "湖北省",
            "city": "随州市",
            "district": "曾都区"
        }
    },
    {
        "id": "5873381718398329478",
        "title": "公共厕所",
        "address": "湖北省随州市曾都区中兴大道与文政路交叉口正南方向955米左右",
        "tel": "",
        "category": "基础设施:公共设施:公共厕所",
        "type": 0,
        "location": {
            "lat": 31.583292,
            "lng": 113.335222
        },
        "ad_info": {
            "adcode": 421303,
            "province": "湖北省",
            "city": "随州市",
            "district": "曾都区"
        }
    },
    {
        "id": "9500132399671296783",
        "title": "公共厕所",
        "address": "湖北省随州市曾都区工业园路与迎宾大道交叉口正北方向317米左右",
        "tel": "",
        "category": "基础设施:公共设施:公共厕所",
        "type": 0,
        "location": {
            "lat": 31.609348,
            "lng": 113.345107
        },
        "ad_info": {
            "adcode": 421303,
            "province": "湖北省",
            "city": "随州市",
            "district": "曾都区"
        }
    },
    {
        "id": "14888266884372767302",
        "title": "公共厕所",
        "address": "湖北省随州市广水市十马线与幸福大道交叉口东北方向71米左右",
        "tel": "",
        "category": "基础设施:公共设施:公共厕所",
        "type": 0,
        "location": {
            "lat": 31.705761,
            "lng": 113.70562
        },
        "ad_info": {
            "adcode": 421381,
            "province": "湖北省",
            "city": "随州市",
            "district": "广水市"
        }
    },
    {
        "id": "13274524284249824687",
        "title": "公共厕所",
        "address": "湖北省随州市曾都区烈山大道529-17号黄垅批发市场旁",
        "tel": "",
        "category": "基础设施:公共设施:公共厕所",
        "type": 0,
        "location": {
            "lat": 31.728671,
            "lng": 113.37338
        },
        "ad_info": {
            "adcode": 421303,
            "province": "湖北省",
            "city": "随州市",
            "district": "曾都区"
        }
    },
    {
        "id": "11701309155337147912",
        "title": "公共厕所",
        "address": "湖北省随州市广水市G107与武兴大道交叉口东南方向93米左右",
        "tel": "",
        "category": "基础设施:公共设施:公共厕所",
        "type": 0,
        "location": {
            "lat": 31.626809,
            "lng": 114.035961
        },
        "ad_info": {
            "adcode": 421381,
            "province": "湖北省",
            "city": "随州市",
            "district": "广水市"
        }
    },
    {
        "id": "7227082065222056700",
        "title": "公共厕所",
        "address": "湖北省随州市广水市G107与孝子店桥交叉口正北方向1409米左右",
        "tel": "",
        "category": "基础设施:公共设施:公共厕所",
        "type": 0,
        "location": {
            "lat": 31.741111,
            "lng": 114.037733
        },
        "ad_info": {
            "adcode": 421381,
            "province": "湖北省",
            "city": "随州市",
            "district": "广水市"
        }
    },
    {
        "id": "6046239191729048217",
        "title": "公共厕所",
        "address": "湖北省随州市曾都区白云大道20号",
        "tel": "",
        "category": "基础设施:公共设施:公共厕所",
        "type": 0,
        "location": {
            "lat": 31.68508,
            "lng": 113.395172
        },
        "ad_info": {
            "adcode": 421303,
            "province": "湖北省",
            "city": "随州市",
            "district": "曾都区"
        }
    },
    {
        "id": "11154875522945661210",
        "title": "公共厕所",
        "address": "湖北省随州市曾都区解放路29号随州中心客运站1楼正西方向190米",
        "tel": "",
        "category": "基础设施:公共设施:公共厕所",
        "type": 0,
        "location": {
            "lat": 31.714367,
            "lng": 113.379131
        },
        "ad_info": {
            "adcode": 421303,
            "province": "湖北省",
            "city": "随州市",
            "district": "曾都区"
        }
    },
    {
        "id": "16908551668473166149",
        "title": "公共厕所",
        "address": "湖北省随州市曾都区新四军第五师九口堰纪念馆东南侧110米",
        "tel": "",
        "category": "基础设施:公共设施:公共厕所",
        "type": 0,
        "location": {
            "lat": 31.456461,
            "lng": 113.387518
        },
        "ad_info": {
            "adcode": 421303,
            "province": "湖北省",
            "city": "随州市",
            "district": "曾都区"
        }
    },
    {
        "id": "12597451115111952756",
        "title": "公共厕所",
        "address": "湖北省随州市曾都区安桃线与G70福银高速入口交叉口西南40米",
        "tel": "",
        "category": "基础设施:公共设施:公共厕所",
        "type": 0,
        "location": {
            "lat": 31.454648,
            "lng": 113.439128
        },
        "ad_info": {
            "adcode": 421303,
            "province": "湖北省",
            "city": "随州市",
            "district": "曾都区"
        }
    },
    {
        "id": "4836334113364375640",
        "title": "公共厕所",
        "address": "湖北省随州市曾都区下冷家湾西巷与沿河大道交叉口东北方向346米左右",
        "tel": "",
        "category": "基础设施:公共设施:公共厕所",
        "type": 0,
        "location": {
            "lat": 31.72259,
            "lng": 113.3689
        },
        "ad_info": {
            "adcode": 421303,
            "province": "湖北省",
            "city": "随州市",
            "district": "曾都区"
        }
    },
    {
        "id": "1210247069934486017",
        "title": "公共厕所",
        "address": "湖北省随州市广水市文儒路与航空北路交叉口正东方向57米左右",
        "tel": "",
        "category": "基础设施:公共设施:公共厕所",
        "type": 0,
        "location": {
            "lat": 31.628558,
            "lng": 113.825676
        },
        "ad_info": {
            "adcode": 421381,
            "province": "湖北省",
            "city": "随州市",
            "district": "广水市"
        }
    },
    {
        "id": "9714320302788270538",
        "title": "公共厕所",
        "address": "湖北省随州市随县新集中心小学西侧140米",
        "tel": "",
        "category": "基础设施:公共设施:公共厕所",
        "type": 0,
        "location": {
            "lat": 31.613289,
            "lng": 113.081444
        },
        "ad_info": {
            "adcode": 421321,
            "province": "湖北省",
            "city": "随州市",
            "district": "随县"
        }
    },
    {
        "id": "9136761441443834459",
        "title": "公共厕所",
        "address": "湖北省随州市随县G346与环潭大桥交叉口东南方向608米左右",
        "tel": "",
        "category": "基础设施:公共设施:公共厕所",
        "type": 0,
        "location": {
            "lat": 31.798228,
            "lng": 113.080878
        },
        "ad_info": {
            "adcode": 421321,
            "province": "湖北省",
            "city": "随州市",
            "district": "随县"
        }
    },
    {
        "id": "4762044407994161997",
        "title": "公共厕所",
        "address": "湖北省随州市曾都区交通大道261号",
        "tel": "",
        "category": "基础设施:公共设施:公共厕所",
        "type": 0,
        "location": {
            "lat": 31.727417,
            "lng": 113.380558
        },
        "ad_info": {
            "adcode": 421303,
            "province": "湖北省",
            "city": "随州市",
            "district": "曾都区"
        }
    },
    {
        "id": "6393206756978691094",
        "title": "公共厕所",
        "address": "湖北省随州市广水市小康路与滨河西路交叉口东北方向127米左右",
        "tel": "",
        "category": "基础设施:公共设施:公共厕所",
        "type": 0,
        "location": {
            "lat": 31.608886,
            "lng": 113.846477
        },
        "ad_info": {
            "adcode": 421381,
            "province": "湖北省",
            "city": "随州市",
            "district": "广水市"
        }
    },
    {
        "id": "13131774323727189825",
        "title": "公共厕所",
        "address": "湖北省随州市曾都区白云湖北路长盛苑西(长盛大厦附近)",
        "tel": "",
        "category": "基础设施:公共设施:公共厕所",
        "type": 0,
        "location": {
            "lat": 31.697409,
            "lng": 113.378819
        },
        "ad_info": {
            "adcode": 421303,
            "province": "湖北省",
            "city": "随州市",
            "district": "曾都区"
        }
    },
    {
        "id": "10815107134620177806",
        "title": "公共厕所",
        "address": "湖北省随州市曾都区烈山大道与黄龙巷交叉口正东方向108米左右",
        "tel": "",
        "category": "基础设施:公共设施:公共厕所",
        "type": 0,
        "location": {
            "lat": 31.731043,
            "lng": 113.372592
        },
        "ad_info": {
            "adcode": 421303,
            "province": "湖北省",
            "city": "随州市",
            "district": "曾都区"
        }
    },
    {
        "id": "13913202318146480722",
        "title": "公共厕所",
        "address": "湖北省随州市广水市",
        "tel": "",
        "category": "基础设施:公共设施:公共厕所",
        "type": 0,
        "location": {
            "lat": 31.742708,
            "lng": 114.059194
        },
        "ad_info": {
            "adcode": 421381,
            "province": "湖北省",
            "city": "随州市",
            "district": "广水市"
        }
    },
    {
        "id": "12955054908409447160",
        "title": "公共厕所",
        "address": "湖北省随州市曾都区交通大道280号",
        "tel": "",
        "category": "基础设施:公共设施:公共厕所",
        "type": 0,
        "location": {
            "lat": 31.72601,
            "lng": 113.380836
        },
        "ad_info": {
            "adcode": 421303,
            "province": "湖北省",
            "city": "随州市",
            "district": "曾都区"
        }
    },
    {
        "id": "7457122647262528295",
        "title": "公共厕所",
        "address": "湖北省随州市广水市S328与军民路交叉口西北方向385米左右",
        "tel": "",
        "category": "基础设施:公共设施:公共厕所",
        "type": 0,
        "location": {
            "lat": 31.78554,
            "lng": 113.758148
        },
        "ad_info": {
            "adcode": 421381,
            "province": "湖北省",
            "city": "随州市",
            "district": "广水市"
        }
    },
    {
        "id": "6280588423900939989",
        "title": "公共厕所",
        "address": "湖北省随州市曾都区迎宾大道与炎帝大道(西)交叉口西80米",
        "tel": "",
        "category": "基础设施:公共设施:公共厕所",
        "type": 0,
        "location": {
            "lat": 31.6722,
            "lng": 113.359211
        },
        "ad_info": {
            "adcode": 421303,
            "province": "湖北省",
            "city": "随州市",
            "district": "曾都区"
        }
    },
    {
        "id": "3088530190788890714",
        "title": "公共厕所",
        "address": "湖北省随州市曾都区田家湾路与裕民大道交叉口西南方向470米左右",
        "tel": "",
        "category": "基础设施:公共设施:公共厕所",
        "type": 0,
        "location": {
            "lat": 31.728452,
            "lng": 113.415295
        },
        "ad_info": {
            "adcode": 421303,
            "province": "湖北省",
            "city": "随州市",
            "district": "曾都区"
        }
    },
    {
        "id": "6743425890456004982",
        "title": "公共厕所",
        "address": "湖北省随州市曾都区白果树山珍馆(山庄店)西侧260米",
        "tel": "",
        "category": "基础设施:公共设施:公共厕所",
        "type": 0,
        "location": {
            "lat": 31.685849,
            "lng": 113.371076
        },
        "ad_info": {
            "adcode": 421303,
            "province": "湖北省",
            "city": "随州市",
            "district": "曾都区"
        }
    },
    {
        "id": "115472751533855934",
        "title": "公共厕所",
        "address": "湖北省随州市广水市G107与驼子岗街交叉口正北方向480米左右",
        "tel": "",
        "category": "基础设施:公共设施:公共厕所",
        "type": 0,
        "location": {
            "lat": 31.566889,
            "lng": 114.050294
        },
        "ad_info": {
            "adcode": 421381,
            "province": "湖北省",
            "city": "随州市",
            "district": "广水市"
        }
    },
    {
        "id": "16598423733872891679",
        "title": "公共厕所",
        "address": "湖北省随州市曾都区北门街与沿河路交叉口西南方向91米左右",
        "tel": "",
        "category": "基础设施:公共设施:公共厕所",
        "type": 0,
        "location": {
            "lat": 31.468983,
            "lng": 113.433338
        },
        "ad_info": {
            "adcode": 421303,
            "province": "湖北省",
            "city": "随州市",
            "district": "曾都区"
        }
    },
    {
        "id": "16350464064040919041",
        "title": "大洪山服务区公共厕所",
        "address": "湖北省随州市随县麻安高速大洪山服务区",
        "tel": "",
        "category": "基础设施:公共设施:公共厕所",
        "type": 0,
        "location": {
            "lat": 31.617981,
            "lng": 113.119749
        },
        "ad_info": {
            "adcode": 421321,
            "province": "湖北省",
            "city": "随州市",
            "district": "随县"
        }
    },
    {
        "id": "13331008063350828783",
        "title": "公共厕所",
        "address": "湖北省随州市曾都区文帝大道与汉东路交叉口正西方向188米左右",
        "tel": "",
        "category": "基础设施:公共设施:公共厕所",
        "type": 0,
        "location": {
            "lat": 31.710279,
            "lng": 113.393052
        },
        "ad_info": {
            "adcode": 421303,
            "province": "湖北省",
            "city": "随州市",
            "district": "曾都区"
        }
    },
    {
        "id": "1575756218216164907",
        "title": "公共厕所",
        "address": "湖北省随州市随县G240与Y007交叉口东北方向1534米左右",
        "tel": "",
        "category": "基础设施:公共设施:公共厕所",
        "type": 0,
        "location": {
            "lat": 32.078547,
            "lng": 113.526874
        },
        "ad_info": {
            "adcode": 421321,
            "province": "湖北省",
            "city": "随州市",
            "district": "随县"
        }
    },
    {
        "id": "471759453259072148",
        "title": "公共厕所",
        "address": "湖北省随州市曾都区炎帝大道与迎宾大道交叉口正北方向472米左右",
        "tel": "",
        "category": "基础设施:公共设施:公共厕所",
        "type": 0,
        "location": {
            "lat": 31.676709,
            "lng": 113.360335
        },
        "ad_info": {
            "adcode": 421303,
            "province": "湖北省",
            "city": "随州市",
            "district": "曾都区"
        }
    },
    {
        "id": "3012135432892946818",
        "title": "公共厕所",
        "address": "湖北省随州市曾都区S327与洛阳上桥交叉口正东方向333米左右",
        "tel": "",
        "category": "基础设施:公共设施:公共厕所",
        "type": 0,
        "location": {
            "lat": 31.451291,
            "lng": 113.443242
        },
        "ad_info": {
            "adcode": 421303,
            "province": "湖北省",
            "city": "随州市",
            "district": "曾都区"
        }
    },
    {
        "id": "846710039752530492",
        "title": "公共厕所",
        "address": "湖北省随州市随县094乡道西50米",
        "tel": "",
        "category": "基础设施:公共设施:公共厕所",
        "type": 0,
        "location": {
            "lat": 31.524011,
            "lng": 113.093672
        },
        "ad_info": {
            "adcode": 421321,
            "province": "湖北省",
            "city": "随州市",
            "district": "随县"
        }
    },
    {
        "id": "12424526263850839501",
        "title": "公共厕所",
        "address": "湖北省随州市曾都区G316与白竹港桥交叉口西南方向1988米左右",
        "tel": "",
        "category": "基础设施:公共设施:公共厕所",
        "type": 0,
        "location": {
            "lat": 31.478439,
            "lng": 113.568861
        },
        "ad_info": {
            "adcode": 421303,
            "province": "湖北省",
            "city": "随州市",
            "district": "曾都区"
        }
    },
    {
        "id": "10850909307861531770",
        "title": "公共厕所",
        "address": "湖北省随州市曾都区交通大道289号",
        "tel": "",
        "category": "基础设施:公共设施:公共厕所",
        "type": 0,
        "location": {
            "lat": 31.717315,
            "lng": 113.38328
        },
        "ad_info": {
            "adcode": 421303,
            "province": "湖北省",
            "city": "随州市",
            "district": "曾都区"
        }
    },
    {
        "id": "11779543831944695126",
        "title": "公共厕所",
        "address": "湖北省随州市曾都区交通大道与青年路交叉口正北方向109米左右",
        "tel": "",
        "category": "基础设施:公共设施:公共厕所",
        "type": 0,
        "location": {
            "lat": 31.722882,
            "lng": 113.381297
        },
        "ad_info": {
            "adcode": 421303,
            "province": "湖北省",
            "city": "随州市",
            "district": "曾都区"
        }
    },
    {
        "id": "1886780067248792889",
        "title": "公共厕所",
        "address": "湖北省随州市曾都区擂鼓墩大道与涢水南路交叉口正南方向1268米左右",
        "tel": "",
        "category": "基础设施:公共设施:公共厕所",
        "type": 0,
        "location": {
            "lat": 31.690594,
            "lng": 113.35569
        },
        "ad_info": {
            "adcode": 421303,
            "province": "湖北省",
            "city": "随州市",
            "district": "曾都区"
        }
    },
    {
        "id": "5621650017631491199",
        "title": "旅游厕所(神农部落景区太阳神殿)",
        "address": "湖北省随州市随县附近",
        "tel": "0732-4680888",
        "category": "基础设施:公共设施:公共厕所",
        "type": 0,
        "location": {
            "lat": 32.272198,
            "lng": 113.528251
        },
        "ad_info": {
            "adcode": 421321,
            "province": "湖北省",
            "city": "随州市",
            "district": "随县"
        }
    },
    {
        "id": "8673755444366724688",
        "title": "公共厕所",
        "address": "湖北省随州市广水市中兴路与文化路交叉口东南方向361米左右",
        "tel": "",
        "category": "基础设施:公共设施:公共厕所",
        "type": 0,
        "location": {
            "lat": 31.787949,
            "lng": 113.756232
        },
        "ad_info": {
            "adcode": 421381,
            "province": "湖北省",
            "city": "随州市",
            "district": "广水市"
        }
    },
    {
        "id": "2974353974960703705",
        "title": "李店停车区公共厕所",
        "address": "湖北省随州市广水市李店停车区东50米",
        "tel": "",
        "category": "基础设施:公共设施:公共厕所",
        "type": 0,
        "location": {
            "lat": 31.493755,
            "lng": 113.965775
        },
        "ad_info": {
            "adcode": 421381,
            "province": "湖北省",
            "city": "随州市",
            "district": "广水市"
        }
    },
    {
        "id": "3230024435495802263",
        "title": "公共厕所",
        "address": "湖北省随州市随县王军汽车维修服务中心东南侧50米",
        "tel": "",
        "category": "基础设施:公共设施:公共厕所",
        "type": 0,
        "location": {
            "lat": 32.34592,
            "lng": 113.591033
        },
        "ad_info": {
            "adcode": 421321,
            "province": "湖北省",
            "city": "随州市",
            "district": "随县"
        }
    },
    {
        "id": "17014031336918919247",
        "title": "公共厕所",
        "address": "湖北省随州市随县幸福大道与福兰线交叉口正西方向57米左右",
        "tel": "",
        "category": "基础设施:公共设施:公共厕所",
        "type": 0,
        "location": {
            "lat": 31.863446,
            "lng": 113.310434
        },
        "ad_info": {
            "adcode": 421321,
            "province": "湖北省",
            "city": "随州市",
            "district": "随县"
        }
    },
    {
        "id": "6992839397368691369",
        "title": "公共厕所",
        "address": "湖北省随州市随县交通大道与神农大道交叉口西北方向208米左右",
        "tel": "",
        "category": "基础设施:公共设施:公共厕所",
        "type": 0,
        "location": {
            "lat": 31.855465,
            "lng": 113.314445
        },
        "ad_info": {
            "adcode": 421321,
            "province": "湖北省",
            "city": "随州市",
            "district": "随县"
        }
    },
    {
        "id": "2576147637186890483",
        "title": "公共厕所",
        "address": "湖北省随州市随县S440与Y027交叉口正西方向168米左右",
        "tel": "",
        "category": "基础设施:公共设施:公共厕所",
        "type": 0,
        "location": {
            "lat": 32.078952,
            "lng": 113.123764
        },
        "ad_info": {
            "adcode": 421321,
            "province": "湖北省",
            "city": "随州市",
            "district": "随县"
        }
    },
    {
        "id": "10430895310149779200",
        "title": "公共厕所",
        "address": "湖北省随州市曾都区神农大道与解放路交叉口西南方向37米左右",
        "tel": "",
        "category": "基础设施:公共设施:公共厕所",
        "type": 0,
        "location": {
            "lat": 31.711284,
            "lng": 113.363706
        },
        "ad_info": {
            "adcode": 421303,
            "province": "湖北省",
            "city": "随州市",
            "district": "曾都区"
        }
    },
    {
        "id": "1463282378879922821",
        "title": "公共厕所(HUB-SZ-0302)",
        "address": "湖北省随州市曾都区擂鼓墩巷曾侯乙墓",
        "tel": "",
        "category": "基础设施:公共设施:公共厕所",
        "type": 0,
        "location": {
            "lat": 31.729557,
            "lng": 113.350518
        },
        "ad_info": {
            "adcode": 421303,
            "province": "湖北省",
            "city": "随州市",
            "district": "曾都区"
        }
    },
    {
        "id": "8897302355260657635",
        "title": "公共厕所",
        "address": "湖北省随州市广水市",
        "tel": "",
        "category": "基础设施:公共设施:公共厕所",
        "type": 0,
        "location": {
            "lat": 31.540208,
            "lng": 114.039674
        },
        "ad_info": {
            "adcode": 421381,
            "province": "湖北省",
            "city": "随州市",
            "district": "广水市"
        }
    },
    {
        "id": "10245040161373529614",
        "title": "旅游公共厕所",
        "address": "湖北省随州市曾都区淌河鸿运谷东南侧100米",
        "tel": "",
        "category": "基础设施:公共设施:公共厕所",
        "type": 0,
        "location": {
            "lat": 31.523111,
            "lng": 113.31768
        },
        "ad_info": {
            "adcode": 421303,
            "province": "湖北省",
            "city": "随州市",
            "district": "曾都区"
        }
    },
    {
        "id": "12655885865195166225",
        "title": "齐星苑公共厕所",
        "address": "湖北省随州市曾都区马家巷2号",
        "tel": "",
        "category": "基础设施:公共设施:公共厕所",
        "type": 0,
        "location": {
            "lat": 31.706951,
            "lng": 113.367238
        },
        "ad_info": {
            "adcode": 421303,
            "province": "湖北省",
            "city": "随州市",
            "district": "曾都区"
        }
    },
    {
        "id": "14123679510465424603",
        "title": "李店停车区公共厕所",
        "address": "湖北省随州市广水市李店停车区南50米",
        "tel": "",
        "category": "基础设施:公共设施:公共厕所",
        "type": 0,
        "location": {
            "lat": 31.494665,
            "lng": 113.966571
        },
        "ad_info": {
            "adcode": 421381,
            "province": "湖北省",
            "city": "随州市",
            "district": "广水市"
        }
    },
    {
        "id": "7742701336437424816",
        "title": "公共厕所",
        "address": "湖北省随州市随县S333与Y067交叉口西南方向83米左右",
        "tel": "",
        "category": "基础设施:公共设施:公共厕所",
        "type": 0,
        "location": {
            "lat": 31.51115,
            "lng": 113.04223
        },
        "ad_info": {
            "adcode": 421321,
            "province": "湖北省",
            "city": "随州市",
            "district": "随县"
        }
    },
    {
        "id": "16849441384696386341",
        "title": "公共厕所",
        "address": "湖北省随州市曾都区季梁大道与李家巷交叉口正东方向176米左右",
        "tel": "",
        "category": "基础设施:公共设施:公共厕所",
        "type": 0,
        "location": {
            "lat": 31.729071,
            "lng": 113.395699
        },
        "ad_info": {
            "adcode": 421303,
            "province": "湖北省",
            "city": "随州市",
            "district": "曾都区"
        }
    },
    {
        "id": "10756465973595577462",
        "title": "公共厕所",
        "address": "湖北省随州市广水市义阳二路与安广线交叉口正北方向616米左右",
        "tel": "",
        "category": "基础设施:公共设施:公共厕所",
        "type": 0,
        "location": {
            "lat": 31.591911,
            "lng": 114.002833
        },
        "ad_info": {
            "adcode": 421381,
            "province": "湖北省",
            "city": "随州市",
            "district": "广水市"
        }
    },
    {
        "id": "3045077185206308779",
        "title": "公共厕所",
        "address": "湖北省随州市随县S239与西河桥交叉口正北方向1569米左右",
        "tel": "",
        "category": "基础设施:公共设施:公共厕所",
        "type": 0,
        "location": {
            "lat": 32.363055,
            "lng": 113.199111
        },
        "ad_info": {
            "adcode": 421321,
            "province": "湖北省",
            "city": "随州市",
            "district": "随县"
        }
    },
    {
        "id": "13977088328318255723",
        "title": "公共厕所",
        "address": "湖北省随州市广水市中山大道与义阳一路交叉口正西方向50米左右",
        "tel": "",
        "category": "基础设施:公共设施:公共厕所",
        "type": 0,
        "location": {
            "lat": 31.615454,
            "lng": 114.004163
        },
        "ad_info": {
            "adcode": 421381,
            "province": "湖北省",
            "city": "随州市",
            "district": "广水市"
        }
    },
    {
        "id": "5951313682966236103",
        "title": "公共厕所",
        "address": "湖北省随州市曾都区002县道西50米",
        "tel": "",
        "category": "基础设施:公共设施:公共厕所",
        "type": 0,
        "location": {
            "lat": 31.583719,
            "lng": 113.490413
        },
        "ad_info": {
            "adcode": 421303,
            "province": "湖北省",
            "city": "随州市",
            "district": "曾都区"
        }
    },
    {
        "id": "11848917683420938794",
        "title": "公共厕所",
        "address": "湖北省随州市广水市前河路与滨河东路交叉口正北方向547米左右",
        "tel": "",
        "category": "基础设施:公共设施:公共厕所",
        "type": 0,
        "location": {
            "lat": 31.624735,
            "lng": 113.839051
        },
        "ad_info": {
            "adcode": 421381,
            "province": "湖北省",
            "city": "随州市",
            "district": "广水市"
        }
    },
    {
        "id": "15773459833785648855",
        "title": "公共厕所",
        "address": "湖北省随州市曾都区",
        "tel": "",
        "category": "基础设施:公共设施:公共厕所",
        "type": 0,
        "location": {
            "lat": 31.499323,
            "lng": 113.528415
        },
        "ad_info": {
            "adcode": 421303,
            "province": "湖北省",
            "city": "随州市",
            "district": "曾都区"
        }
    },
    {
        "id": "14474905341517677876",
        "title": "公共厕所",
        "address": "湖北省随州市广水市Y026与十长路交叉口东北方向169米左右",
        "tel": "",
        "category": "基础设施:公共设施:公共厕所",
        "type": 0,
        "location": {
            "lat": 31.597527,
            "lng": 113.859175
        },
        "ad_info": {
            "adcode": 421381,
            "province": "湖北省",
            "city": "随州市",
            "district": "广水市"
        }
    },
    {
        "id": "5151639153914837387",
        "title": "公共厕所",
        "address": "湖北省随州市广水市东晨大道13号",
        "tel": "",
        "category": "基础设施:公共设施:公共厕所",
        "type": 0,
        "location": {
            "lat": 31.718765,
            "lng": 113.836865
        },
        "ad_info": {
            "adcode": 421381,
            "province": "湖北省",
            "city": "随州市",
            "district": "广水市"
        }
    },
    {
        "id": "3274402287479348211",
        "title": "公共厕所",
        "address": "湖北省随州市广水市G107与孝子店桥交叉口正北方向1480米左右",
        "tel": "",
        "category": "基础设施:公共设施:公共厕所",
        "type": 0,
        "location": {
            "lat": 31.741739,
            "lng": 114.03755
        },
        "ad_info": {
            "adcode": 421381,
            "province": "湖北省",
            "city": "随州市",
            "district": "广水市"
        }
    },
    {
        "id": "14815374903558649296",
        "title": "随州服务区第一公共厕所",
        "address": "湖北省随州市随县福银高速随州服务区",
        "tel": "",
        "category": "基础设施:公共设施:公共厕所",
        "type": 0,
        "location": {
            "lat": 31.799225,
            "lng": 113.11911
        },
        "ad_info": {
            "adcode": 421321,
            "province": "湖北省",
            "city": "随州市",
            "district": "随县"
        }
    },
    {
        "id": "8519736820663142815",
        "title": "公共厕所",
        "address": "湖北省随州市随县Y005",
        "tel": "",
        "category": "基础设施:公共设施:公共厕所",
        "type": 0,
        "location": {
            "lat": 32.297195,
            "lng": 113.686476
        },
        "ad_info": {
            "adcode": 421321,
            "province": "湖北省",
            "city": "随州市",
            "district": "随县"
        }
    },
    {
        "id": "17988992105470477526",
        "title": "公共厕所",
        "address": "湖北省随州市曾都区交通大道466号",
        "tel": "",
        "category": "基础设施:公共设施:公共厕所",
        "type": 0,
        "location": {
            "lat": 31.738924,
            "lng": 113.377067
        },
        "ad_info": {
            "adcode": 421303,
            "province": "湖北省",
            "city": "随州市",
            "district": "曾都区"
        }
    },
    {
        "id": "1078703628325503054",
        "title": "公共厕所",
        "address": "湖北省随州市广水市印台一路与环城东路交叉口东南方向30米左右",
        "tel": "",
        "category": "基础设施:公共设施:公共厕所",
        "type": 0,
        "location": {
            "lat": 31.614704,
            "lng": 113.827973
        },
        "ad_info": {
            "adcode": 421381,
            "province": "湖北省",
            "city": "随州市",
            "district": "广水市"
        }
    },
    {
        "id": "17026442228588470963",
        "title": "公共厕所",
        "address": "湖北省随州市曾都区沿河大道与马家巷交叉口西南方向63米左右",
        "tel": "",
        "category": "基础设施:公共设施:公共厕所",
        "type": 0,
        "location": {
            "lat": 31.707721,
            "lng": 113.368032
        },
        "ad_info": {
            "adcode": 421303,
            "province": "湖北省",
            "city": "随州市",
            "district": "曾都区"
        }
    },
    {
        "id": "8708847209445139698",
        "title": "公共厕所",
        "address": "湖北省随州市广水市牛程大道与顺昌路交叉口东北方向332米左右",
        "tel": "",
        "category": "基础设施:公共设施:公共厕所",
        "type": 0,
        "location": {
            "lat": 31.928812,
            "lng": 113.654823
        },
        "ad_info": {
            "adcode": 421381,
            "province": "湖北省",
            "city": "随州市",
            "district": "广水市"
        }
    },
    {
        "id": "16994199153579576178",
        "title": "公共厕所",
        "address": "湖北省随州市广水市十长路与应十大道交叉口东北方向119米左右",
        "tel": "",
        "category": "基础设施:公共设施:公共厕所",
        "type": 0,
        "location": {
            "lat": 31.610295,
            "lng": 113.886066
        },
        "ad_info": {
            "adcode": 421381,
            "province": "湖北省",
            "city": "随州市",
            "district": "广水市"
        }
    },
    {
        "id": "10367164031325421005",
        "title": "公共厕所",
        "address": "湖北省随州市曾都区擂鼓墩大道12号副1",
        "tel": "",
        "category": "基础设施:公共设施:公共厕所",
        "type": 0,
        "location": {
            "lat": 31.71161,
            "lng": 113.357482
        },
        "ad_info": {
            "adcode": 421303,
            "province": "湖北省",
            "city": "随州市",
            "district": "曾都区"
        }
    },
    {
        "id": "14123679510465424603",
        "title": "李店停车区公共厕所",
        "address": "湖北省随州市广水市李店停车区南50米",
        "tel": "",
        "category": "基础设施:公共设施:公共厕所",
        "type": 0,
        "location": {
            "lat": 31.494665,
            "lng": 113.966571
        },
        "ad_info": {
            "adcode": 421381,
            "province": "湖北省",
            "city": "随州市",
            "district": "广水市"
        }
    },
    {
        "id": "7742701336437424816",
        "title": "公共厕所",
        "address": "湖北省随州市随县S333与Y067交叉口西南方向83米左右",
        "tel": "",
        "category": "基础设施:公共设施:公共厕所",
        "type": 0,
        "location": {
            "lat": 31.51115,
            "lng": 113.04223
        },
        "ad_info": {
            "adcode": 421321,
            "province": "湖北省",
            "city": "随州市",
            "district": "随县"
        }
    },
    {
        "id": "16849441384696386341",
        "title": "公共厕所",
        "address": "湖北省随州市曾都区季梁大道与李家巷交叉口正东方向176米左右",
        "tel": "",
        "category": "基础设施:公共设施:公共厕所",
        "type": 0,
        "location": {
            "lat": 31.729071,
            "lng": 113.395699
        },
        "ad_info": {
            "adcode": 421303,
            "province": "湖北省",
            "city": "随州市",
            "district": "曾都区"
        }
    },
    {
        "id": "10756465973595577462",
        "title": "公共厕所",
        "address": "湖北省随州市广水市义阳二路与安广线交叉口正北方向616米左右",
        "tel": "",
        "category": "基础设施:公共设施:公共厕所",
        "type": 0,
        "location": {
            "lat": 31.591911,
            "lng": 114.002833
        },
        "ad_info": {
            "adcode": 421381,
            "province": "湖北省",
            "city": "随州市",
            "district": "广水市"
        }
    },
    {
        "id": "3045077185206308779",
        "title": "公共厕所",
        "address": "湖北省随州市随县S239与西河桥交叉口正北方向1569米左右",
        "tel": "",
        "category": "基础设施:公共设施:公共厕所",
        "type": 0,
        "location": {
            "lat": 32.363055,
            "lng": 113.199111
        },
        "ad_info": {
            "adcode": 421321,
            "province": "湖北省",
            "city": "随州市",
            "district": "随县"
        }
    },
    {
        "id": "13977088328318255723",
        "title": "公共厕所",
        "address": "湖北省随州市广水市中山大道与义阳一路交叉口正西方向50米左右",
        "tel": "",
        "category": "基础设施:公共设施:公共厕所",
        "type": 0,
        "location": {
            "lat": 31.615454,
            "lng": 114.004163
        },
        "ad_info": {
            "adcode": 421381,
            "province": "湖北省",
            "city": "随州市",
            "district": "广水市"
        }
    },
    {
        "id": "5951313682966236103",
        "title": "公共厕所",
        "address": "湖北省随州市曾都区002县道西50米",
        "tel": "",
        "category": "基础设施:公共设施:公共厕所",
        "type": 0,
        "location": {
            "lat": 31.583719,
            "lng": 113.490413
        },
        "ad_info": {
            "adcode": 421303,
            "province": "湖北省",
            "city": "随州市",
            "district": "曾都区"
        }
    },
    {
        "id": "11848917683420938794",
        "title": "公共厕所",
        "address": "湖北省随州市广水市前河路与滨河东路交叉口正北方向547米左右",
        "tel": "",
        "category": "基础设施:公共设施:公共厕所",
        "type": 0,
        "location": {
            "lat": 31.624735,
            "lng": 113.839051
        },
        "ad_info": {
            "adcode": 421381,
            "province": "湖北省",
            "city": "随州市",
            "district": "广水市"
        }
    },
    {
        "id": "15773459833785648855",
        "title": "公共厕所",
        "address": "湖北省随州市曾都区",
        "tel": "",
        "category": "基础设施:公共设施:公共厕所",
        "type": 0,
        "location": {
            "lat": 31.499323,
            "lng": 113.528415
        },
        "ad_info": {
            "adcode": 421303,
            "province": "湖北省",
            "city": "随州市",
            "district": "曾都区"
        }
    },
    {
        "id": "14474905341517677876",
        "title": "公共厕所",
        "address": "湖北省随州市广水市Y026与十长路交叉口东北方向169米左右",
        "tel": "",
        "category": "基础设施:公共设施:公共厕所",
        "type": 0,
        "location": {
            "lat": 31.597527,
            "lng": 113.859175
        },
        "ad_info": {
            "adcode": 421381,
            "province": "湖北省",
            "city": "随州市",
            "district": "广水市"
        }
    },
    {
        "id": "5151639153914837387",
        "title": "公共厕所",
        "address": "湖北省随州市广水市东晨大道13号",
        "tel": "",
        "category": "基础设施:公共设施:公共厕所",
        "type": 0,
        "location": {
            "lat": 31.718765,
            "lng": 113.836865
        },
        "ad_info": {
            "adcode": 421381,
            "province": "湖北省",
            "city": "随州市",
            "district": "广水市"
        }
    },
    {
        "id": "3274402287479348211",
        "title": "公共厕所",
        "address": "湖北省随州市广水市G107与孝子店桥交叉口正北方向1480米左右",
        "tel": "",
        "category": "基础设施:公共设施:公共厕所",
        "type": 0,
        "location": {
            "lat": 31.741739,
            "lng": 114.03755
        },
        "ad_info": {
            "adcode": 421381,
            "province": "湖北省",
            "city": "随州市",
            "district": "广水市"
        }
    },
    {
        "id": "14815374903558649296",
        "title": "随州服务区第一公共厕所",
        "address": "湖北省随州市随县福银高速随州服务区",
        "tel": "",
        "category": "基础设施:公共设施:公共厕所",
        "type": 0,
        "location": {
            "lat": 31.799225,
            "lng": 113.11911
        },
        "ad_info": {
            "adcode": 421321,
            "province": "湖北省",
            "city": "随州市",
            "district": "随县"
        }
    },
    {
        "id": "8519736820663142815",
        "title": "公共厕所",
        "address": "湖北省随州市随县Y005",
        "tel": "",
        "category": "基础设施:公共设施:公共厕所",
        "type": 0,
        "location": {
            "lat": 32.297195,
            "lng": 113.686476
        },
        "ad_info": {
            "adcode": 421321,
            "province": "湖北省",
            "city": "随州市",
            "district": "随县"
        }
    },
    {
        "id": "17988992105470477526",
        "title": "公共厕所",
        "address": "湖北省随州市曾都区交通大道466号",
        "tel": "",
        "category": "基础设施:公共设施:公共厕所",
        "type": 0,
        "location": {
            "lat": 31.738924,
            "lng": 113.377067
        },
        "ad_info": {
            "adcode": 421303,
            "province": "湖北省",
            "city": "随州市",
            "district": "曾都区"
        }
    },
    {
        "id": "1078703628325503054",
        "title": "公共厕所",
        "address": "湖北省随州市广水市印台一路与环城东路交叉口东南方向30米左右",
        "tel": "",
        "category": "基础设施:公共设施:公共厕所",
        "type": 0,
        "location": {
            "lat": 31.614704,
            "lng": 113.827973
        },
        "ad_info": {
            "adcode": 421381,
            "province": "湖北省",
            "city": "随州市",
            "district": "广水市"
        }
    },
    {
        "id": "17026442228588470963",
        "title": "公共厕所",
        "address": "湖北省随州市曾都区沿河大道与马家巷交叉口西南方向63米左右",
        "tel": "",
        "category": "基础设施:公共设施:公共厕所",
        "type": 0,
        "location": {
            "lat": 31.707721,
            "lng": 113.368032
        },
        "ad_info": {
            "adcode": 421303,
            "province": "湖北省",
            "city": "随州市",
            "district": "曾都区"
        }
    },
    {
        "id": "8708847209445139698",
        "title": "公共厕所",
        "address": "湖北省随州市广水市牛程大道与顺昌路交叉口东北方向332米左右",
        "tel": "",
        "category": "基础设施:公共设施:公共厕所",
        "type": 0,
        "location": {
            "lat": 31.928812,
            "lng": 113.654823
        },
        "ad_info": {
            "adcode": 421381,
            "province": "湖北省",
            "city": "随州市",
            "district": "广水市"
        }
    },
    {
        "id": "16994199153579576178",
        "title": "公共厕所",
        "address": "湖北省随州市广水市十长路与应十大道交叉口东北方向119米左右",
        "tel": "",
        "category": "基础设施:公共设施:公共厕所",
        "type": 0,
        "location": {
            "lat": 31.610295,
            "lng": 113.886066
        },
        "ad_info": {
            "adcode": 421381,
            "province": "湖北省",
            "city": "随州市",
            "district": "广水市"
        }
    },
    {
        "id": "10367164031325421005",
        "title": "公共厕所",
        "address": "湖北省随州市曾都区擂鼓墩大道12号副1",
        "tel": "",
        "category": "基础设施:公共设施:公共厕所",
        "type": 0,
        "location": {
            "lat": 31.71161,
            "lng": 113.357482
        },
        "ad_info": {
            "adcode": 421303,
            "province": "湖北省",
            "city": "随州市",
            "district": "曾都区"
        }
    },
    {
        "id": "14123679510465424603",
        "title": "李店停车区公共厕所",
        "address": "湖北省随州市广水市李店停车区南50米",
        "tel": "",
        "category": "基础设施:公共设施:公共厕所",
        "type": 0,
        "location": {
            "lat": 31.494665,
            "lng": 113.966571
        },
        "ad_info": {
            "adcode": 421381,
            "province": "湖北省",
            "city": "随州市",
            "district": "广水市"
        }
    },
    {
        "id": "7742701336437424816",
        "title": "公共厕所",
        "address": "湖北省随州市随县S333与Y067交叉口西南方向83米左右",
        "tel": "",
        "category": "基础设施:公共设施:公共厕所",
        "type": 0,
        "location": {
            "lat": 31.51115,
            "lng": 113.04223
        },
        "ad_info": {
            "adcode": 421321,
            "province": "湖北省",
            "city": "随州市",
            "district": "随县"
        }
    },
    {
        "id": "16849441384696386341",
        "title": "公共厕所",
        "address": "湖北省随州市曾都区季梁大道与李家巷交叉口正东方向176米左右",
        "tel": "",
        "category": "基础设施:公共设施:公共厕所",
        "type": 0,
        "location": {
            "lat": 31.729071,
            "lng": 113.395699
        },
        "ad_info": {
            "adcode": 421303,
            "province": "湖北省",
            "city": "随州市",
            "district": "曾都区"
        }
    },
    {
        "id": "10756465973595577462",
        "title": "公共厕所",
        "address": "湖北省随州市广水市义阳二路与安广线交叉口正北方向616米左右",
        "tel": "",
        "category": "基础设施:公共设施:公共厕所",
        "type": 0,
        "location": {
            "lat": 31.591911,
            "lng": 114.002833
        },
        "ad_info": {
            "adcode": 421381,
            "province": "湖北省",
            "city": "随州市",
            "district": "广水市"
        }
    },
    {
        "id": "3045077185206308779",
        "title": "公共厕所",
        "address": "湖北省随州市随县S239与西河桥交叉口正北方向1569米左右",
        "tel": "",
        "category": "基础设施:公共设施:公共厕所",
        "type": 0,
        "location": {
            "lat": 32.363055,
            "lng": 113.199111
        },
        "ad_info": {
            "adcode": 421321,
            "province": "湖北省",
            "city": "随州市",
            "district": "随县"
        }
    },
    {
        "id": "13977088328318255723",
        "title": "公共厕所",
        "address": "湖北省随州市广水市中山大道与义阳一路交叉口正西方向50米左右",
        "tel": "",
        "category": "基础设施:公共设施:公共厕所",
        "type": 0,
        "location": {
            "lat": 31.615454,
            "lng": 114.004163
        },
        "ad_info": {
            "adcode": 421381,
            "province": "湖北省",
            "city": "随州市",
            "district": "广水市"
        }
    },
    {
        "id": "5951313682966236103",
        "title": "公共厕所",
        "address": "湖北省随州市曾都区002县道西50米",
        "tel": "",
        "category": "基础设施:公共设施:公共厕所",
        "type": 0,
        "location": {
            "lat": 31.583719,
            "lng": 113.490413
        },
        "ad_info": {
            "adcode": 421303,
            "province": "湖北省",
            "city": "随州市",
            "district": "曾都区"
        }
    },
    {
        "id": "11848917683420938794",
        "title": "公共厕所",
        "address": "湖北省随州市广水市前河路与滨河东路交叉口正北方向547米左右",
        "tel": "",
        "category": "基础设施:公共设施:公共厕所",
        "type": 0,
        "location": {
            "lat": 31.624735,
            "lng": 113.839051
        },
        "ad_info": {
            "adcode": 421381,
            "province": "湖北省",
            "city": "随州市",
            "district": "广水市"
        }
    },
    {
        "id": "15773459833785648855",
        "title": "公共厕所",
        "address": "湖北省随州市曾都区",
        "tel": "",
        "category": "基础设施:公共设施:公共厕所",
        "type": 0,
        "location": {
            "lat": 31.499323,
            "lng": 113.528415
        },
        "ad_info": {
            "adcode": 421303,
            "province": "湖北省",
            "city": "随州市",
            "district": "曾都区"
        }
    },
    {
        "id": "14474905341517677876",
        "title": "公共厕所",
        "address": "湖北省随州市广水市Y026与十长路交叉口东北方向169米左右",
        "tel": "",
        "category": "基础设施:公共设施:公共厕所",
        "type": 0,
        "location": {
            "lat": 31.597527,
            "lng": 113.859175
        },
        "ad_info": {
            "adcode": 421381,
            "province": "湖北省",
            "city": "随州市",
            "district": "广水市"
        }
    },
    {
        "id": "5151639153914837387",
        "title": "公共厕所",
        "address": "湖北省随州市广水市东晨大道13号",
        "tel": "",
        "category": "基础设施:公共设施:公共厕所",
        "type": 0,
        "location": {
            "lat": 31.718765,
            "lng": 113.836865
        },
        "ad_info": {
            "adcode": 421381,
            "province": "湖北省",
            "city": "随州市",
            "district": "广水市"
        }
    },
    {
        "id": "3274402287479348211",
        "title": "公共厕所",
        "address": "湖北省随州市广水市G107与孝子店桥交叉口正北方向1480米左右",
        "tel": "",
        "category": "基础设施:公共设施:公共厕所",
        "type": 0,
        "location": {
            "lat": 31.741739,
            "lng": 114.03755
        },
        "ad_info": {
            "adcode": 421381,
            "province": "湖北省",
            "city": "随州市",
            "district": "广水市"
        }
    },
    {
        "id": "14815374903558649296",
        "title": "随州服务区第一公共厕所",
        "address": "湖北省随州市随县福银高速随州服务区",
        "tel": "",
        "category": "基础设施:公共设施:公共厕所",
        "type": 0,
        "location": {
            "lat": 31.799225,
            "lng": 113.11911
        },
        "ad_info": {
            "adcode": 421321,
            "province": "湖北省",
            "city": "随州市",
            "district": "随县"
        }
    },
    {
        "id": "8519736820663142815",
        "title": "公共厕所",
        "address": "湖北省随州市随县Y005",
        "tel": "",
        "category": "基础设施:公共设施:公共厕所",
        "type": 0,
        "location": {
            "lat": 32.297195,
            "lng": 113.686476
        },
        "ad_info": {
            "adcode": 421321,
            "province": "湖北省",
            "city": "随州市",
            "district": "随县"
        }
    },
    {
        "id": "17988992105470477526",
        "title": "公共厕所",
        "address": "湖北省随州市曾都区交通大道466号",
        "tel": "",
        "category": "基础设施:公共设施:公共厕所",
        "type": 0,
        "location": {
            "lat": 31.738924,
            "lng": 113.377067
        },
        "ad_info": {
            "adcode": 421303,
            "province": "湖北省",
            "city": "随州市",
            "district": "曾都区"
        }
    },
    {
        "id": "1078703628325503054",
        "title": "公共厕所",
        "address": "湖北省随州市广水市印台一路与环城东路交叉口东南方向30米左右",
        "tel": "",
        "category": "基础设施:公共设施:公共厕所",
        "type": 0,
        "location": {
            "lat": 31.614704,
            "lng": 113.827973
        },
        "ad_info": {
            "adcode": 421381,
            "province": "湖北省",
            "city": "随州市",
            "district": "广水市"
        }
    },
    {
        "id": "17026442228588470963",
        "title": "公共厕所",
        "address": "湖北省随州市曾都区沿河大道与马家巷交叉口西南方向63米左右",
        "tel": "",
        "category": "基础设施:公共设施:公共厕所",
        "type": 0,
        "location": {
            "lat": 31.707721,
            "lng": 113.368032
        },
        "ad_info": {
            "adcode": 421303,
            "province": "湖北省",
            "city": "随州市",
            "district": "曾都区"
        }
    },
    {
        "id": "8708847209445139698",
        "title": "公共厕所",
        "address": "湖北省随州市广水市牛程大道与顺昌路交叉口东北方向332米左右",
        "tel": "",
        "category": "基础设施:公共设施:公共厕所",
        "type": 0,
        "location": {
            "lat": 31.928812,
            "lng": 113.654823
        },
        "ad_info": {
            "adcode": 421381,
            "province": "湖北省",
            "city": "随州市",
            "district": "广水市"
        }
    },
    {
        "id": "16994199153579576178",
        "title": "公共厕所",
        "address": "湖北省随州市广水市十长路与应十大道交叉口东北方向119米左右",
        "tel": "",
        "category": "基础设施:公共设施:公共厕所",
        "type": 0,
        "location": {
            "lat": 31.610295,
            "lng": 113.886066
        },
        "ad_info": {
            "adcode": 421381,
            "province": "湖北省",
            "city": "随州市",
            "district": "广水市"
        }
    },
    {
        "id": "10367164031325421005",
        "title": "公共厕所",
        "address": "湖北省随州市曾都区擂鼓墩大道12号副1",
        "tel": "",
        "category": "基础设施:公共设施:公共厕所",
        "type": 0,
        "location": {
            "lat": 31.71161,
            "lng": 113.357482
        },
        "ad_info": {
            "adcode": 421303,
            "province": "湖北省",
            "city": "随州市",
            "district": "曾都区"
        }
    },
    {
        "id": "14123679510465424603",
        "title": "李店停车区公共厕所",
        "address": "湖北省随州市广水市李店停车区南50米",
        "tel": "",
        "category": "基础设施:公共设施:公共厕所",
        "type": 0,
        "location": {
            "lat": 31.494665,
            "lng": 113.966571
        },
        "ad_info": {
            "adcode": 421381,
            "province": "湖北省",
            "city": "随州市",
            "district": "广水市"
        }
    },
    {
        "id": "7742701336437424816",
        "title": "公共厕所",
        "address": "湖北省随州市随县S333与Y067交叉口西南方向83米左右",
        "tel": "",
        "category": "基础设施:公共设施:公共厕所",
        "type": 0,
        "location": {
            "lat": 31.51115,
            "lng": 113.04223
        },
        "ad_info": {
            "adcode": 421321,
            "province": "湖北省",
            "city": "随州市",
            "district": "随县"
        }
    },
    {
        "id": "16849441384696386341",
        "title": "公共厕所",
        "address": "湖北省随州市曾都区季梁大道与李家巷交叉口正东方向176米左右",
        "tel": "",
        "category": "基础设施:公共设施:公共厕所",
        "type": 0,
        "location": {
            "lat": 31.729071,
            "lng": 113.395699
        },
        "ad_info": {
            "adcode": 421303,
            "province": "湖北省",
            "city": "随州市",
            "district": "曾都区"
        }
    },
    {
        "id": "10756465973595577462",
        "title": "公共厕所",
        "address": "湖北省随州市广水市义阳二路与安广线交叉口正北方向616米左右",
        "tel": "",
        "category": "基础设施:公共设施:公共厕所",
        "type": 0,
        "location": {
            "lat": 31.591911,
            "lng": 114.002833
        },
        "ad_info": {
            "adcode": 421381,
            "province": "湖北省",
            "city": "随州市",
            "district": "广水市"
        }
    },
    {
        "id": "3045077185206308779",
        "title": "公共厕所",
        "address": "湖北省随州市随县S239与西河桥交叉口正北方向1569米左右",
        "tel": "",
        "category": "基础设施:公共设施:公共厕所",
        "type": 0,
        "location": {
            "lat": 32.363055,
            "lng": 113.199111
        },
        "ad_info": {
            "adcode": 421321,
            "province": "湖北省",
            "city": "随州市",
            "district": "随县"
        }
    },
    {
        "id": "13977088328318255723",
        "title": "公共厕所",
        "address": "湖北省随州市广水市中山大道与义阳一路交叉口正西方向50米左右",
        "tel": "",
        "category": "基础设施:公共设施:公共厕所",
        "type": 0,
        "location": {
            "lat": 31.615454,
            "lng": 114.004163
        },
        "ad_info": {
            "adcode": 421381,
            "province": "湖北省",
            "city": "随州市",
            "district": "广水市"
        }
    },
    {
        "id": "5951313682966236103",
        "title": "公共厕所",
        "address": "湖北省随州市曾都区002县道西50米",
        "tel": "",
        "category": "基础设施:公共设施:公共厕所",
        "type": 0,
        "location": {
            "lat": 31.583719,
            "lng": 113.490413
        },
        "ad_info": {
            "adcode": 421303,
            "province": "湖北省",
            "city": "随州市",
            "district": "曾都区"
        }
    },
    {
        "id": "11848917683420938794",
        "title": "公共厕所",
        "address": "湖北省随州市广水市前河路与滨河东路交叉口正北方向547米左右",
        "tel": "",
        "category": "基础设施:公共设施:公共厕所",
        "type": 0,
        "location": {
            "lat": 31.624735,
            "lng": 113.839051
        },
        "ad_info": {
            "adcode": 421381,
            "province": "湖北省",
            "city": "随州市",
            "district": "广水市"
        }
    },
    {
        "id": "15773459833785648855",
        "title": "公共厕所",
        "address": "湖北省随州市曾都区",
        "tel": "",
        "category": "基础设施:公共设施:公共厕所",
        "type": 0,
        "location": {
            "lat": 31.499323,
            "lng": 113.528415
        },
        "ad_info": {
            "adcode": 421303,
            "province": "湖北省",
            "city": "随州市",
            "district": "曾都区"
        }
    },
    {
        "id": "14474905341517677876",
        "title": "公共厕所",
        "address": "湖北省随州市广水市Y026与十长路交叉口东北方向169米左右",
        "tel": "",
        "category": "基础设施:公共设施:公共厕所",
        "type": 0,
        "location": {
            "lat": 31.597527,
            "lng": 113.859175
        },
        "ad_info": {
            "adcode": 421381,
            "province": "湖北省",
            "city": "随州市",
            "district": "广水市"
        }
    },
    {
        "id": "5151639153914837387",
        "title": "公共厕所",
        "address": "湖北省随州市广水市东晨大道13号",
        "tel": "",
        "category": "基础设施:公共设施:公共厕所",
        "type": 0,
        "location": {
            "lat": 31.718765,
            "lng": 113.836865
        },
        "ad_info": {
            "adcode": 421381,
            "province": "湖北省",
            "city": "随州市",
            "district": "广水市"
        }
    },
    {
        "id": "3274402287479348211",
        "title": "公共厕所",
        "address": "湖北省随州市广水市G107与孝子店桥交叉口正北方向1480米左右",
        "tel": "",
        "category": "基础设施:公共设施:公共厕所",
        "type": 0,
        "location": {
            "lat": 31.741739,
            "lng": 114.03755
        },
        "ad_info": {
            "adcode": 421381,
            "province": "湖北省",
            "city": "随州市",
            "district": "广水市"
        }
    },
    {
        "id": "14815374903558649296",
        "title": "随州服务区第一公共厕所",
        "address": "湖北省随州市随县福银高速随州服务区",
        "tel": "",
        "category": "基础设施:公共设施:公共厕所",
        "type": 0,
        "location": {
            "lat": 31.799225,
            "lng": 113.11911
        },
        "ad_info": {
            "adcode": 421321,
            "province": "湖北省",
            "city": "随州市",
            "district": "随县"
        }
    },
    {
        "id": "8519736820663142815",
        "title": "公共厕所",
        "address": "湖北省随州市随县Y005",
        "tel": "",
        "category": "基础设施:公共设施:公共厕所",
        "type": 0,
        "location": {
            "lat": 32.297195,
            "lng": 113.686476
        },
        "ad_info": {
            "adcode": 421321,
            "province": "湖北省",
            "city": "随州市",
            "district": "随县"
        }
    },
    {
        "id": "17988992105470477526",
        "title": "公共厕所",
        "address": "湖北省随州市曾都区交通大道466号",
        "tel": "",
        "category": "基础设施:公共设施:公共厕所",
        "type": 0,
        "location": {
            "lat": 31.738924,
            "lng": 113.377067
        },
        "ad_info": {
            "adcode": 421303,
            "province": "湖北省",
            "city": "随州市",
            "district": "曾都区"
        }
    },
    {
        "id": "1078703628325503054",
        "title": "公共厕所",
        "address": "湖北省随州市广水市印台一路与环城东路交叉口东南方向30米左右",
        "tel": "",
        "category": "基础设施:公共设施:公共厕所",
        "type": 0,
        "location": {
            "lat": 31.614704,
            "lng": 113.827973
        },
        "ad_info": {
            "adcode": 421381,
            "province": "湖北省",
            "city": "随州市",
            "district": "广水市"
        }
    },
    {
        "id": "17026442228588470963",
        "title": "公共厕所",
        "address": "湖北省随州市曾都区沿河大道与马家巷交叉口西南方向63米左右",
        "tel": "",
        "category": "基础设施:公共设施:公共厕所",
        "type": 0,
        "location": {
            "lat": 31.707721,
            "lng": 113.368032
        },
        "ad_info": {
            "adcode": 421303,
            "province": "湖北省",
            "city": "随州市",
            "district": "曾都区"
        }
    },
    {
        "id": "8708847209445139698",
        "title": "公共厕所",
        "address": "湖北省随州市广水市牛程大道与顺昌路交叉口东北方向332米左右",
        "tel": "",
        "category": "基础设施:公共设施:公共厕所",
        "type": 0,
        "location": {
            "lat": 31.928812,
            "lng": 113.654823
        },
        "ad_info": {
            "adcode": 421381,
            "province": "湖北省",
            "city": "随州市",
            "district": "广水市"
        }
    },
    {
        "id": "16994199153579576178",
        "title": "公共厕所",
        "address": "湖北省随州市广水市十长路与应十大道交叉口东北方向119米左右",
        "tel": "",
        "category": "基础设施:公共设施:公共厕所",
        "type": 0,
        "location": {
            "lat": 31.610295,
            "lng": 113.886066
        },
        "ad_info": {
            "adcode": 421381,
            "province": "湖北省",
            "city": "随州市",
            "district": "广水市"
        }
    },
    {
        "id": "10367164031325421005",
        "title": "公共厕所",
        "address": "湖北省随州市曾都区擂鼓墩大道12号副1",
        "tel": "",
        "category": "基础设施:公共设施:公共厕所",
        "type": 0,
        "location": {
            "lat": 31.71161,
            "lng": 113.357482
        },
        "ad_info": {
            "adcode": 421303,
            "province": "湖北省",
            "city": "随州市",
            "district": "曾都区"
        }
    },
    {
        "id": "14123679510465424603",
        "title": "李店停车区公共厕所",
        "address": "湖北省随州市广水市李店停车区南50米",
        "tel": "",
        "category": "基础设施:公共设施:公共厕所",
        "type": 0,
        "location": {
            "lat": 31.494665,
            "lng": 113.966571
        },
        "ad_info": {
            "adcode": 421381,
            "province": "湖北省",
            "city": "随州市",
            "district": "广水市"
        }
    },
    {
        "id": "7742701336437424816",
        "title": "公共厕所",
        "address": "湖北省随州市随县S333与Y067交叉口西南方向83米左右",
        "tel": "",
        "category": "基础设施:公共设施:公共厕所",
        "type": 0,
        "location": {
            "lat": 31.51115,
            "lng": 113.04223
        },
        "ad_info": {
            "adcode": 421321,
            "province": "湖北省",
            "city": "随州市",
            "district": "随县"
        }
    },
    {
        "id": "16849441384696386341",
        "title": "公共厕所",
        "address": "湖北省随州市曾都区季梁大道与李家巷交叉口正东方向176米左右",
        "tel": "",
        "category": "基础设施:公共设施:公共厕所",
        "type": 0,
        "location": {
            "lat": 31.729071,
            "lng": 113.395699
        },
        "ad_info": {
            "adcode": 421303,
            "province": "湖北省",
            "city": "随州市",
            "district": "曾都区"
        }
    },
    {
        "id": "10756465973595577462",
        "title": "公共厕所",
        "address": "湖北省随州市广水市义阳二路与安广线交叉口正北方向616米左右",
        "tel": "",
        "category": "基础设施:公共设施:公共厕所",
        "type": 0,
        "location": {
            "lat": 31.591911,
            "lng": 114.002833
        },
        "ad_info": {
            "adcode": 421381,
            "province": "湖北省",
            "city": "随州市",
            "district": "广水市"
        }
    },
    {
        "id": "3045077185206308779",
        "title": "公共厕所",
        "address": "湖北省随州市随县S239与西河桥交叉口正北方向1569米左右",
        "tel": "",
        "category": "基础设施:公共设施:公共厕所",
        "type": 0,
        "location": {
            "lat": 32.363055,
            "lng": 113.199111
        },
        "ad_info": {
            "adcode": 421321,
            "province": "湖北省",
            "city": "随州市",
            "district": "随县"
        }
    },
    {
        "id": "13977088328318255723",
        "title": "公共厕所",
        "address": "湖北省随州市广水市中山大道与义阳一路交叉口正西方向50米左右",
        "tel": "",
        "category": "基础设施:公共设施:公共厕所",
        "type": 0,
        "location": {
            "lat": 31.615454,
            "lng": 114.004163
        },
        "ad_info": {
            "adcode": 421381,
            "province": "湖北省",
            "city": "随州市",
            "district": "广水市"
        }
    },
    {
        "id": "5951313682966236103",
        "title": "公共厕所",
        "address": "湖北省随州市曾都区002县道西50米",
        "tel": "",
        "category": "基础设施:公共设施:公共厕所",
        "type": 0,
        "location": {
            "lat": 31.583719,
            "lng": 113.490413
        },
        "ad_info": {
            "adcode": 421303,
            "province": "湖北省",
            "city": "随州市",
            "district": "曾都区"
        }
    },
    {
        "id": "11848917683420938794",
        "title": "公共厕所",
        "address": "湖北省随州市广水市前河路与滨河东路交叉口正北方向547米左右",
        "tel": "",
        "category": "基础设施:公共设施:公共厕所",
        "type": 0,
        "location": {
            "lat": 31.624735,
            "lng": 113.839051
        },
        "ad_info": {
            "adcode": 421381,
            "province": "湖北省",
            "city": "随州市",
            "district": "广水市"
        }
    },
    {
        "id": "15773459833785648855",
        "title": "公共厕所",
        "address": "湖北省随州市曾都区",
        "tel": "",
        "category": "基础设施:公共设施:公共厕所",
        "type": 0,
        "location": {
            "lat": 31.499323,
            "lng": 113.528415
        },
        "ad_info": {
            "adcode": 421303,
            "province": "湖北省",
            "city": "随州市",
            "district": "曾都区"
        }
    },
    {
        "id": "14474905341517677876",
        "title": "公共厕所",
        "address": "湖北省随州市广水市Y026与十长路交叉口东北方向169米左右",
        "tel": "",
        "category": "基础设施:公共设施:公共厕所",
        "type": 0,
        "location": {
            "lat": 31.597527,
            "lng": 113.859175
        },
        "ad_info": {
            "adcode": 421381,
            "province": "湖北省",
            "city": "随州市",
            "district": "广水市"
        }
    },
    {
        "id": "5151639153914837387",
        "title": "公共厕所",
        "address": "湖北省随州市广水市东晨大道13号",
        "tel": "",
        "category": "基础设施:公共设施:公共厕所",
        "type": 0,
        "location": {
            "lat": 31.718765,
            "lng": 113.836865
        },
        "ad_info": {
            "adcode": 421381,
            "province": "湖北省",
            "city": "随州市",
            "district": "广水市"
        }
    },
    {
        "id": "3274402287479348211",
        "title": "公共厕所",
        "address": "湖北省随州市广水市G107与孝子店桥交叉口正北方向1480米左右",
        "tel": "",
        "category": "基础设施:公共设施:公共厕所",
        "type": 0,
        "location": {
            "lat": 31.741739,
            "lng": 114.03755
        },
        "ad_info": {
            "adcode": 421381,
            "province": "湖北省",
            "city": "随州市",
            "district": "广水市"
        }
    },
    {
        "id": "14815374903558649296",
        "title": "随州服务区第一公共厕所",
        "address": "湖北省随州市随县福银高速随州服务区",
        "tel": "",
        "category": "基础设施:公共设施:公共厕所",
        "type": 0,
        "location": {
            "lat": 31.799225,
            "lng": 113.11911
        },
        "ad_info": {
            "adcode": 421321,
            "province": "湖北省",
            "city": "随州市",
            "district": "随县"
        }
    },
    {
        "id": "8519736820663142815",
        "title": "公共厕所",
        "address": "湖北省随州市随县Y005",
        "tel": "",
        "category": "基础设施:公共设施:公共厕所",
        "type": 0,
        "location": {
            "lat": 32.297195,
            "lng": 113.686476
        },
        "ad_info": {
            "adcode": 421321,
            "province": "湖北省",
            "city": "随州市",
            "district": "随县"
        }
    },
    {
        "id": "17988992105470477526",
        "title": "公共厕所",
        "address": "湖北省随州市曾都区交通大道466号",
        "tel": "",
        "category": "基础设施:公共设施:公共厕所",
        "type": 0,
        "location": {
            "lat": 31.738924,
            "lng": 113.377067
        },
        "ad_info": {
            "adcode": 421303,
            "province": "湖北省",
            "city": "随州市",
            "district": "曾都区"
        }
    },
    {
        "id": "1078703628325503054",
        "title": "公共厕所",
        "address": "湖北省随州市广水市印台一路与环城东路交叉口东南方向30米左右",
        "tel": "",
        "category": "基础设施:公共设施:公共厕所",
        "type": 0,
        "location": {
            "lat": 31.614704,
            "lng": 113.827973
        },
        "ad_info": {
            "adcode": 421381,
            "province": "湖北省",
            "city": "随州市",
            "district": "广水市"
        }
    },
    {
        "id": "17026442228588470963",
        "title": "公共厕所",
        "address": "湖北省随州市曾都区沿河大道与马家巷交叉口西南方向63米左右",
        "tel": "",
        "category": "基础设施:公共设施:公共厕所",
        "type": 0,
        "location": {
            "lat": 31.707721,
            "lng": 113.368032
        },
        "ad_info": {
            "adcode": 421303,
            "province": "湖北省",
            "city": "随州市",
            "district": "曾都区"
        }
    },
    {
        "id": "8708847209445139698",
        "title": "公共厕所",
        "address": "湖北省随州市广水市牛程大道与顺昌路交叉口东北方向332米左右",
        "tel": "",
        "category": "基础设施:公共设施:公共厕所",
        "type": 0,
        "location": {
            "lat": 31.928812,
            "lng": 113.654823
        },
        "ad_info": {
            "adcode": 421381,
            "province": "湖北省",
            "city": "随州市",
            "district": "广水市"
        }
    },
    {
        "id": "16994199153579576178",
        "title": "公共厕所",
        "address": "湖北省随州市广水市十长路与应十大道交叉口东北方向119米左右",
        "tel": "",
        "category": "基础设施:公共设施:公共厕所",
        "type": 0,
        "location": {
            "lat": 31.610295,
            "lng": 113.886066
        },
        "ad_info": {
            "adcode": 421381,
            "province": "湖北省",
            "city": "随州市",
            "district": "广水市"
        }
    },
    {
        "id": "10367164031325421005",
        "title": "公共厕所",
        "address": "湖北省随州市曾都区擂鼓墩大道12号副1",
        "tel": "",
        "category": "基础设施:公共设施:公共厕所",
        "type": 0,
        "location": {
            "lat": 31.71161,
            "lng": 113.357482
        },
        "ad_info": {
            "adcode": 421303,
            "province": "湖北省",
            "city": "随州市",
            "district": "曾都区"
        }
    },
    {
        "id": "14123679510465424603",
        "title": "李店停车区公共厕所",
        "address": "湖北省随州市广水市李店停车区南50米",
        "tel": "",
        "category": "基础设施:公共设施:公共厕所",
        "type": 0,
        "location": {
            "lat": 31.494665,
            "lng": 113.966571
        },
        "ad_info": {
            "adcode": 421381,
            "province": "湖北省",
            "city": "随州市",
            "district": "广水市"
        }
    },
    {
        "id": "7742701336437424816",
        "title": "公共厕所",
        "address": "湖北省随州市随县S333与Y067交叉口西南方向83米左右",
        "tel": "",
        "category": "基础设施:公共设施:公共厕所",
        "type": 0,
        "location": {
            "lat": 31.51115,
            "lng": 113.04223
        },
        "ad_info": {
            "adcode": 421321,
            "province": "湖北省",
            "city": "随州市",
            "district": "随县"
        }
    },
    {
        "id": "16849441384696386341",
        "title": "公共厕所",
        "address": "湖北省随州市曾都区季梁大道与李家巷交叉口正东方向176米左右",
        "tel": "",
        "category": "基础设施:公共设施:公共厕所",
        "type": 0,
        "location": {
            "lat": 31.729071,
            "lng": 113.395699
        },
        "ad_info": {
            "adcode": 421303,
            "province": "湖北省",
            "city": "随州市",
            "district": "曾都区"
        }
    },
    {
        "id": "10756465973595577462",
        "title": "公共厕所",
        "address": "湖北省随州市广水市义阳二路与安广线交叉口正北方向616米左右",
        "tel": "",
        "category": "基础设施:公共设施:公共厕所",
        "type": 0,
        "location": {
            "lat": 31.591911,
            "lng": 114.002833
        },
        "ad_info": {
            "adcode": 421381,
            "province": "湖北省",
            "city": "随州市",
            "district": "广水市"
        }
    },
    {
        "id": "3045077185206308779",
        "title": "公共厕所",
        "address": "湖北省随州市随县S239与西河桥交叉口正北方向1569米左右",
        "tel": "",
        "category": "基础设施:公共设施:公共厕所",
        "type": 0,
        "location": {
            "lat": 32.363055,
            "lng": 113.199111
        },
        "ad_info": {
            "adcode": 421321,
            "province": "湖北省",
            "city": "随州市",
            "district": "随县"
        }
    },
    {
        "id": "13977088328318255723",
        "title": "公共厕所",
        "address": "湖北省随州市广水市中山大道与义阳一路交叉口正西方向50米左右",
        "tel": "",
        "category": "基础设施:公共设施:公共厕所",
        "type": 0,
        "location": {
            "lat": 31.615454,
            "lng": 114.004163
        },
        "ad_info": {
            "adcode": 421381,
            "province": "湖北省",
            "city": "随州市",
            "district": "广水市"
        }
    },
    {
        "id": "5951313682966236103",
        "title": "公共厕所",
        "address": "湖北省随州市曾都区002县道西50米",
        "tel": "",
        "category": "基础设施:公共设施:公共厕所",
        "type": 0,
        "location": {
            "lat": 31.583719,
            "lng": 113.490413
        },
        "ad_info": {
            "adcode": 421303,
            "province": "湖北省",
            "city": "随州市",
            "district": "曾都区"
        }
    },
    {
        "id": "11848917683420938794",
        "title": "公共厕所",
        "address": "湖北省随州市广水市前河路与滨河东路交叉口正北方向547米左右",
        "tel": "",
        "category": "基础设施:公共设施:公共厕所",
        "type": 0,
        "location": {
            "lat": 31.624735,
            "lng": 113.839051
        },
        "ad_info": {
            "adcode": 421381,
            "province": "湖北省",
            "city": "随州市",
            "district": "广水市"
        }
    },
    {
        "id": "15773459833785648855",
        "title": "公共厕所",
        "address": "湖北省随州市曾都区",
        "tel": "",
        "category": "基础设施:公共设施:公共厕所",
        "type": 0,
        "location": {
            "lat": 31.499323,
            "lng": 113.528415
        },
        "ad_info": {
            "adcode": 421303,
            "province": "湖北省",
            "city": "随州市",
            "district": "曾都区"
        }
    },
    {
        "id": "14474905341517677876",
        "title": "公共厕所",
        "address": "湖北省随州市广水市Y026与十长路交叉口东北方向169米左右",
        "tel": "",
        "category": "基础设施:公共设施:公共厕所",
        "type": 0,
        "location": {
            "lat": 31.597527,
            "lng": 113.859175
        },
        "ad_info": {
            "adcode": 421381,
            "province": "湖北省",
            "city": "随州市",
            "district": "广水市"
        }
    },
    {
        "id": "5151639153914837387",
        "title": "公共厕所",
        "address": "湖北省随州市广水市东晨大道13号",
        "tel": "",
        "category": "基础设施:公共设施:公共厕所",
        "type": 0,
        "location": {
            "lat": 31.718765,
            "lng": 113.836865
        },
        "ad_info": {
            "adcode": 421381,
            "province": "湖北省",
            "city": "随州市",
            "district": "广水市"
        }
    },
    {
        "id": "3274402287479348211",
        "title": "公共厕所",
        "address": "湖北省随州市广水市G107与孝子店桥交叉口正北方向1480米左右",
        "tel": "",
        "category": "基础设施:公共设施:公共厕所",
        "type": 0,
        "location": {
            "lat": 31.741739,
            "lng": 114.03755
        },
        "ad_info": {
            "adcode": 421381,
            "province": "湖北省",
            "city": "随州市",
            "district": "广水市"
        }
    },
    {
        "id": "14815374903558649296",
        "title": "随州服务区第一公共厕所",
        "address": "湖北省随州市随县福银高速随州服务区",
        "tel": "",
        "category": "基础设施:公共设施:公共厕所",
        "type": 0,
        "location": {
            "lat": 31.799225,
            "lng": 113.11911
        },
        "ad_info": {
            "adcode": 421321,
            "province": "湖北省",
            "city": "随州市",
            "district": "随县"
        }
    },
    {
        "id": "8519736820663142815",
        "title": "公共厕所",
        "address": "湖北省随州市随县Y005",
        "tel": "",
        "category": "基础设施:公共设施:公共厕所",
        "type": 0,
        "location": {
            "lat": 32.297195,
            "lng": 113.686476
        },
        "ad_info": {
            "adcode": 421321,
            "province": "湖北省",
            "city": "随州市",
            "district": "随县"
        }
    },
    {
        "id": "17988992105470477526",
        "title": "公共厕所",
        "address": "湖北省随州市曾都区交通大道466号",
        "tel": "",
        "category": "基础设施:公共设施:公共厕所",
        "type": 0,
        "location": {
            "lat": 31.738924,
            "lng": 113.377067
        },
        "ad_info": {
            "adcode": 421303,
            "province": "湖北省",
            "city": "随州市",
            "district": "曾都区"
        }
    },
    {
        "id": "1078703628325503054",
        "title": "公共厕所",
        "address": "湖北省随州市广水市印台一路与环城东路交叉口东南方向30米左右",
        "tel": "",
        "category": "基础设施:公共设施:公共厕所",
        "type": 0,
        "location": {
            "lat": 31.614704,
            "lng": 113.827973
        },
        "ad_info": {
            "adcode": 421381,
            "province": "湖北省",
            "city": "随州市",
            "district": "广水市"
        }
    },
    {
        "id": "17026442228588470963",
        "title": "公共厕所",
        "address": "湖北省随州市曾都区沿河大道与马家巷交叉口西南方向63米左右",
        "tel": "",
        "category": "基础设施:公共设施:公共厕所",
        "type": 0,
        "location": {
            "lat": 31.707721,
            "lng": 113.368032
        },
        "ad_info": {
            "adcode": 421303,
            "province": "湖北省",
            "city": "随州市",
            "district": "曾都区"
        }
    },
    {
        "id": "8708847209445139698",
        "title": "公共厕所",
        "address": "湖北省随州市广水市牛程大道与顺昌路交叉口东北方向332米左右",
        "tel": "",
        "category": "基础设施:公共设施:公共厕所",
        "type": 0,
        "location": {
            "lat": 31.928812,
            "lng": 113.654823
        },
        "ad_info": {
            "adcode": 421381,
            "province": "湖北省",
            "city": "随州市",
            "district": "广水市"
        }
    },
    {
        "id": "16994199153579576178",
        "title": "公共厕所",
        "address": "湖北省随州市广水市十长路与应十大道交叉口东北方向119米左右",
        "tel": "",
        "category": "基础设施:公共设施:公共厕所",
        "type": 0,
        "location": {
            "lat": 31.610295,
            "lng": 113.886066
        },
        "ad_info": {
            "adcode": 421381,
            "province": "湖北省",
            "city": "随州市",
            "district": "广水市"
        }
    },
    {
        "id": "10367164031325421005",
        "title": "公共厕所",
        "address": "湖北省随州市曾都区擂鼓墩大道12号副1",
        "tel": "",
        "category": "基础设施:公共设施:公共厕所",
        "type": 0,
        "location": {
            "lat": 31.71161,
            "lng": 113.357482
        },
        "ad_info": {
            "adcode": 421303,
            "province": "湖北省",
            "city": "随州市",
            "district": "曾都区"
        }
    },
    {
        "id": "14123679510465424603",
        "title": "李店停车区公共厕所",
        "address": "湖北省随州市广水市李店停车区南50米",
        "tel": "",
        "category": "基础设施:公共设施:公共厕所",
        "type": 0,
        "location": {
            "lat": 31.494665,
            "lng": 113.966571
        },
        "ad_info": {
            "adcode": 421381,
            "province": "湖北省",
            "city": "随州市",
            "district": "广水市"
        }
    },
    {
        "id": "7742701336437424816",
        "title": "公共厕所",
        "address": "湖北省随州市随县S333与Y067交叉口西南方向83米左右",
        "tel": "",
        "category": "基础设施:公共设施:公共厕所",
        "type": 0,
        "location": {
            "lat": 31.51115,
            "lng": 113.04223
        },
        "ad_info": {
            "adcode": 421321,
            "province": "湖北省",
            "city": "随州市",
            "district": "随县"
        }
    },
    {
        "id": "16849441384696386341",
        "title": "公共厕所",
        "address": "湖北省随州市曾都区季梁大道与李家巷交叉口正东方向176米左右",
        "tel": "",
        "category": "基础设施:公共设施:公共厕所",
        "type": 0,
        "location": {
            "lat": 31.729071,
            "lng": 113.395699
        },
        "ad_info": {
            "adcode": 421303,
            "province": "湖北省",
            "city": "随州市",
            "district": "曾都区"
        }
    },
    {
        "id": "10756465973595577462",
        "title": "公共厕所",
        "address": "湖北省随州市广水市义阳二路与安广线交叉口正北方向616米左右",
        "tel": "",
        "category": "基础设施:公共设施:公共厕所",
        "type": 0,
        "location": {
            "lat": 31.591911,
            "lng": 114.002833
        },
        "ad_info": {
            "adcode": 421381,
            "province": "湖北省",
            "city": "随州市",
            "district": "广水市"
        }
    },
    {
        "id": "3045077185206308779",
        "title": "公共厕所",
        "address": "湖北省随州市随县S239与西河桥交叉口正北方向1569米左右",
        "tel": "",
        "category": "基础设施:公共设施:公共厕所",
        "type": 0,
        "location": {
            "lat": 32.363055,
            "lng": 113.199111
        },
        "ad_info": {
            "adcode": 421321,
            "province": "湖北省",
            "city": "随州市",
            "district": "随县"
        }
    },
    {
        "id": "13977088328318255723",
        "title": "公共厕所",
        "address": "湖北省随州市广水市中山大道与义阳一路交叉口正西方向50米左右",
        "tel": "",
        "category": "基础设施:公共设施:公共厕所",
        "type": 0,
        "location": {
            "lat": 31.615454,
            "lng": 114.004163
        },
        "ad_info": {
            "adcode": 421381,
            "province": "湖北省",
            "city": "随州市",
            "district": "广水市"
        }
    },
    {
        "id": "5951313682966236103",
        "title": "公共厕所",
        "address": "湖北省随州市曾都区002县道西50米",
        "tel": "",
        "category": "基础设施:公共设施:公共厕所",
        "type": 0,
        "location": {
            "lat": 31.583719,
            "lng": 113.490413
        },
        "ad_info": {
            "adcode": 421303,
            "province": "湖北省",
            "city": "随州市",
            "district": "曾都区"
        }
    },
    {
        "id": "11848917683420938794",
        "title": "公共厕所",
        "address": "湖北省随州市广水市前河路与滨河东路交叉口正北方向547米左右",
        "tel": "",
        "category": "基础设施:公共设施:公共厕所",
        "type": 0,
        "location": {
            "lat": 31.624735,
            "lng": 113.839051
        },
        "ad_info": {
            "adcode": 421381,
            "province": "湖北省",
            "city": "随州市",
            "district": "广水市"
        }
    },
    {
        "id": "15773459833785648855",
        "title": "公共厕所",
        "address": "湖北省随州市曾都区",
        "tel": "",
        "category": "基础设施:公共设施:公共厕所",
        "type": 0,
        "location": {
            "lat": 31.499323,
            "lng": 113.528415
        },
        "ad_info": {
            "adcode": 421303,
            "province": "湖北省",
            "city": "随州市",
            "district": "曾都区"
        }
    },
    {
        "id": "14474905341517677876",
        "title": "公共厕所",
        "address": "湖北省随州市广水市Y026与十长路交叉口东北方向169米左右",
        "tel": "",
        "category": "基础设施:公共设施:公共厕所",
        "type": 0,
        "location": {
            "lat": 31.597527,
            "lng": 113.859175
        },
        "ad_info": {
            "adcode": 421381,
            "province": "湖北省",
            "city": "随州市",
            "district": "广水市"
        }
    },
    {
        "id": "5151639153914837387",
        "title": "公共厕所",
        "address": "湖北省随州市广水市东晨大道13号",
        "tel": "",
        "category": "基础设施:公共设施:公共厕所",
        "type": 0,
        "location": {
            "lat": 31.718765,
            "lng": 113.836865
        },
        "ad_info": {
            "adcode": 421381,
            "province": "湖北省",
            "city": "随州市",
            "district": "广水市"
        }
    },
    {
        "id": "3274402287479348211",
        "title": "公共厕所",
        "address": "湖北省随州市广水市G107与孝子店桥交叉口正北方向1480米左右",
        "tel": "",
        "category": "基础设施:公共设施:公共厕所",
        "type": 0,
        "location": {
            "lat": 31.741739,
            "lng": 114.03755
        },
        "ad_info": {
            "adcode": 421381,
            "province": "湖北省",
            "city": "随州市",
            "district": "广水市"
        }
    },
    {
        "id": "14815374903558649296",
        "title": "随州服务区第一公共厕所",
        "address": "湖北省随州市随县福银高速随州服务区",
        "tel": "",
        "category": "基础设施:公共设施:公共厕所",
        "type": 0,
        "location": {
            "lat": 31.799225,
            "lng": 113.11911
        },
        "ad_info": {
            "adcode": 421321,
            "province": "湖北省",
            "city": "随州市",
            "district": "随县"
        }
    },
    {
        "id": "8519736820663142815",
        "title": "公共厕所",
        "address": "湖北省随州市随县Y005",
        "tel": "",
        "category": "基础设施:公共设施:公共厕所",
        "type": 0,
        "location": {
            "lat": 32.297195,
            "lng": 113.686476
        },
        "ad_info": {
            "adcode": 421321,
            "province": "湖北省",
            "city": "随州市",
            "district": "随县"
        }
    },
    {
        "id": "17988992105470477526",
        "title": "公共厕所",
        "address": "湖北省随州市曾都区交通大道466号",
        "tel": "",
        "category": "基础设施:公共设施:公共厕所",
        "type": 0,
        "location": {
            "lat": 31.738924,
            "lng": 113.377067
        },
        "ad_info": {
            "adcode": 421303,
            "province": "湖北省",
            "city": "随州市",
            "district": "曾都区"
        }
    },
    {
        "id": "1078703628325503054",
        "title": "公共厕所",
        "address": "湖北省随州市广水市印台一路与环城东路交叉口东南方向30米左右",
        "tel": "",
        "category": "基础设施:公共设施:公共厕所",
        "type": 0,
        "location": {
            "lat": 31.614704,
            "lng": 113.827973
        },
        "ad_info": {
            "adcode": 421381,
            "province": "湖北省",
            "city": "随州市",
            "district": "广水市"
        }
    },
    {
        "id": "17026442228588470963",
        "title": "公共厕所",
        "address": "湖北省随州市曾都区沿河大道与马家巷交叉口西南方向63米左右",
        "tel": "",
        "category": "基础设施:公共设施:公共厕所",
        "type": 0,
        "location": {
            "lat": 31.707721,
            "lng": 113.368032
        },
        "ad_info": {
            "adcode": 421303,
            "province": "湖北省",
            "city": "随州市",
            "district": "曾都区"
        }
    },
    {
        "id": "8708847209445139698",
        "title": "公共厕所",
        "address": "湖北省随州市广水市牛程大道与顺昌路交叉口东北方向332米左右",
        "tel": "",
        "category": "基础设施:公共设施:公共厕所",
        "type": 0,
        "location": {
            "lat": 31.928812,
            "lng": 113.654823
        },
        "ad_info": {
            "adcode": 421381,
            "province": "湖北省",
            "city": "随州市",
            "district": "广水市"
        }
    },
    {
        "id": "16994199153579576178",
        "title": "公共厕所",
        "address": "湖北省随州市广水市十长路与应十大道交叉口东北方向119米左右",
        "tel": "",
        "category": "基础设施:公共设施:公共厕所",
        "type": 0,
        "location": {
            "lat": 31.610295,
            "lng": 113.886066
        },
        "ad_info": {
            "adcode": 421381,
            "province": "湖北省",
            "city": "随州市",
            "district": "广水市"
        }
    },
    {
        "id": "10367164031325421005",
        "title": "公共厕所",
        "address": "湖北省随州市曾都区擂鼓墩大道12号副1",
        "tel": "",
        "category": "基础设施:公共设施:公共厕所",
        "type": 0,
        "location": {
            "lat": 31.71161,
            "lng": 113.357482
        },
        "ad_info": {
            "adcode": 421303,
            "province": "湖北省",
            "city": "随州市",
            "district": "曾都区"
        }
    }
]