[
    {
        "id": "16477737375058874935",
        "title": "公共厕所",
        "address": "四川省雅安市雨城区汉阙路与熊猫大道交叉口正北方向116米左右",
        "tel": "",
        "category": "基础设施:公共设施:公共厕所",
        "type": 0,
        "location": {
            "lat": 30.01686,
            "lng": 103.056971
        },
        "ad_info": {
            "adcode": 511802,
            "province": "四川省",
            "city": "雅安市",
            "district": "雨城区"
        }
    },
    {
        "id": "12921317067399109312",
        "title": "公共厕所",
        "address": "四川省雅安市雨城区姜氏牙科西北侧210米",
        "tel": "",
        "category": "基础设施:公共设施:公共厕所",
        "type": 0,
        "location": {
            "lat": 29.957466,
            "lng": 103.109387
        },
        "ad_info": {
            "adcode": 511802,
            "province": "四川省",
            "city": "雅安市",
            "district": "雨城区"
        }
    },
    {
        "id": "8906485038330895697",
        "title": "公共厕所(雅安市名山区东龙山公园)",
        "address": "四川省雅安市名山区皇茶大道256号东龙山公园",
        "tel": "",
        "category": "基础设施:公共设施:公共厕所",
        "type": 0,
        "location": {
            "lat": 30.100587,
            "lng": 103.111722
        },
        "ad_info": {
            "adcode": 511803,
            "province": "四川省",
            "city": "雅安市",
            "district": "名山区"
        }
    },
    {
        "id": "1039311862359078626",
        "title": "公共厕所",
        "address": "四川省雅安市雨城区明珠路15号",
        "tel": "",
        "category": "基础设施:公共设施:公共厕所",
        "type": 0,
        "location": {
            "lat": 29.993914,
            "lng": 103.022434
        },
        "ad_info": {
            "adcode": 511802,
            "province": "四川省",
            "city": "雅安市",
            "district": "雨城区"
        }
    },
    {
        "id": "5427895588734382789",
        "title": "公共厕所",
        "address": "四川省雅安市雨城区河北正街与青衣江路东段交叉口西北方向67米左右",
        "tel": "",
        "category": "基础设施:公共设施:公共厕所",
        "type": 0,
        "location": {
            "lat": 29.986308,
            "lng": 103.008081
        },
        "ad_info": {
            "adcode": 511802,
            "province": "四川省",
            "city": "雅安市",
            "district": "雨城区"
        }
    },
    {
        "id": "3560855816322033367",
        "title": "公共厕所",
        "address": "四川省雅安市雨城区西门北路19号",
        "tel": "",
        "category": "基础设施:公共设施:公共厕所",
        "type": 0,
        "location": {
            "lat": 29.996128,
            "lng": 102.992098
        },
        "ad_info": {
            "adcode": 511802,
            "province": "四川省",
            "city": "雅安市",
            "district": "雨城区"
        }
    },
    {
        "id": "15437085404237668887",
        "title": "公共厕所",
        "address": "四川省雅安市雨城区伏龙巷与羌江南路交叉口正南方向44米左右",
        "tel": "",
        "category": "基础设施:公共设施:公共厕所",
        "type": 0,
        "location": {
            "lat": 29.981526,
            "lng": 103.009137
        },
        "ad_info": {
            "adcode": 511802,
            "province": "四川省",
            "city": "雅安市",
            "district": "雨城区"
        }
    },
    {
        "id": "334693694970613736",
        "title": "公共厕所",
        "address": "四川省雅安市汉源县九宜路与交通西路交叉口正南方向174米左右",
        "tel": "",
        "category": "基础设施:公共设施:公共厕所",
        "type": 0,
        "location": {
            "lat": 29.494467,
            "lng": 102.62592
        },
        "ad_info": {
            "adcode": 511823,
            "province": "四川省",
            "city": "雅安市",
            "district": "汉源县"
        }
    },
    {
        "id": "5707161932089789340",
        "title": "公共厕所",
        "address": "四川省雅安市雨城区雅州大道与青年街交叉口西南方向133米左右",
        "tel": "",
        "category": "基础设施:公共设施:公共厕所",
        "type": 0,
        "location": {
            "lat": 30.018194,
            "lng": 103.047275
        },
        "ad_info": {
            "adcode": 511802,
            "province": "四川省",
            "city": "雅安市",
            "district": "雨城区"
        }
    },
    {
        "id": "4259625281549108395",
        "title": "公共厕所",
        "address": "四川省雅安市雨城区雅州大道与雨名路交叉口正东方向69米左右",
        "tel": "",
        "category": "基础设施:公共设施:公共厕所",
        "type": 0,
        "location": {
            "lat": 30.026387,
            "lng": 103.06172
        },
        "ad_info": {
            "adcode": 511802,
            "province": "四川省",
            "city": "雅安市",
            "district": "雨城区"
        }
    },
    {
        "id": "17268068052739476002",
        "title": "公共厕所",
        "address": "四川省雅安市雨城区大北街104号",
        "tel": "",
        "category": "基础设施:公共设施:公共厕所",
        "type": 0,
        "location": {
            "lat": 29.98781,
            "lng": 103.00101
        },
        "ad_info": {
            "adcode": 511802,
            "province": "四川省",
            "city": "雅安市",
            "district": "雨城区"
        }
    },
    {
        "id": "2006754366943491513",
        "title": "公共厕所",
        "address": "四川省雅安市雨城区新康路与英模路交叉口正西方向60米左右",
        "tel": "",
        "category": "基础设施:公共设施:公共厕所",
        "type": 0,
        "location": {
            "lat": 29.981634,
            "lng": 103.001483
        },
        "ad_info": {
            "adcode": 511802,
            "province": "四川省",
            "city": "雅安市",
            "district": "雨城区"
        }
    },
    {
        "id": "4314266692569119681",
        "title": "公共厕所",
        "address": "四川省雅安市雨城区大众路与小北街交叉口正南方向29米左右",
        "tel": "",
        "category": "基础设施:公共设施:公共厕所",
        "type": 0,
        "location": {
            "lat": 29.988461,
            "lng": 102.998474
        },
        "ad_info": {
            "adcode": 511802,
            "province": "四川省",
            "city": "雅安市",
            "district": "雨城区"
        }
    },
    {
        "id": "6484675170266025841",
        "title": "公共厕所",
        "address": "四川省雅安市雨城区北环西路与西门北路交叉口东北方向220米左右",
        "tel": "",
        "category": "基础设施:公共设施:公共厕所",
        "type": 0,
        "location": {
            "lat": 30.001546,
            "lng": 102.99393
        },
        "ad_info": {
            "adcode": 511802,
            "province": "四川省",
            "city": "雅安市",
            "district": "雨城区"
        }
    },
    {
        "id": "2870018312292897714",
        "title": "公共厕所",
        "address": "四川省雅安市雨城区碧峰峡路20号(蒙山瓜子)",
        "tel": "",
        "category": "基础设施:公共设施:公共厕所",
        "type": 0,
        "location": {
            "lat": 29.990232,
            "lng": 103.00608
        },
        "ad_info": {
            "adcode": 511802,
            "province": "四川省",
            "city": "雅安市",
            "district": "雨城区"
        }
    },
    {
        "id": "12569100186475722699",
        "title": "公共厕所",
        "address": "四川省雅安市名山区桐子岗街与蒙茶街交叉口东北方向43米左右",
        "tel": "",
        "category": "基础设施:公共设施:公共厕所",
        "type": 0,
        "location": {
            "lat": 30.074053,
            "lng": 103.107032
        },
        "ad_info": {
            "adcode": 511803,
            "province": "四川省",
            "city": "雅安市",
            "district": "名山区"
        }
    },
    {
        "id": "4255040825669843486",
        "title": "公共厕所",
        "address": "四川省雅安市天全县文兴路与滨河路交叉口正西方向298米左右",
        "tel": "",
        "category": "基础设施:公共设施:公共厕所",
        "type": 0,
        "location": {
            "lat": 30.050189,
            "lng": 102.764805
        },
        "ad_info": {
            "adcode": 511825,
            "province": "四川省",
            "city": "雅安市",
            "district": "天全县"
        }
    },
    {
        "id": "3709611880042607100",
        "title": "公共厕所",
        "address": "四川省雅安市雨城区学府花园(城后路南)",
        "tel": "",
        "category": "基础设施:公共设施:公共厕所",
        "type": 0,
        "location": {
            "lat": 29.981472,
            "lng": 102.995315
        },
        "ad_info": {
            "adcode": 511802,
            "province": "四川省",
            "city": "雅安市",
            "district": "雨城区"
        }
    },
    {
        "id": "13693732961184689714",
        "title": "公共厕所",
        "address": "四川省雅安市宝兴县天佑粉体西侧290米",
        "tel": "",
        "category": "基础设施:公共设施:公共厕所",
        "type": 0,
        "location": {
            "lat": 30.217723,
            "lng": 102.84193
        },
        "ad_info": {
            "adcode": 511827,
            "province": "四川省",
            "city": "雅安市",
            "district": "宝兴县"
        }
    },
    {
        "id": "10318106134562623385",
        "title": "公共厕所",
        "address": "四川省雅安市汉源县黄冈路20号",
        "tel": "",
        "category": "基础设施:公共设施:公共厕所",
        "type": 0,
        "location": {
            "lat": 29.349808,
            "lng": 102.638885
        },
        "ad_info": {
            "adcode": 511823,
            "province": "四川省",
            "city": "雅安市",
            "district": "汉源县"
        }
    },
    {
        "id": "10096484226289488369",
        "title": "公共厕所",
        "address": "四川省雅安市汉源县富林大道一段与武汉大道二段交叉口正北方向49米左右",
        "tel": "",
        "category": "基础设施:公共设施:公共厕所",
        "type": 0,
        "location": {
            "lat": 29.350587,
            "lng": 102.642447
        },
        "ad_info": {
            "adcode": 511823,
            "province": "四川省",
            "city": "雅安市",
            "district": "汉源县"
        }
    },
    {
        "id": "4442971792551199325",
        "title": "公共厕所",
        "address": "四川省雅安市雨城区北环东路与爱国路北段交叉口西北方向207米左右",
        "tel": "",
        "category": "基础设施:公共设施:公共厕所",
        "type": 0,
        "location": {
            "lat": 30.028582,
            "lng": 103.057879
        },
        "ad_info": {
            "adcode": 511802,
            "province": "四川省",
            "city": "雅安市",
            "district": "雨城区"
        }
    },
    {
        "id": "5323815242607677268",
        "title": "公共厕所",
        "address": "四川省雅安市雨城区南四路与红园路交叉口西北方向90米左右",
        "tel": "",
        "category": "基础设施:公共设施:公共厕所",
        "type": 0,
        "location": {
            "lat": 29.996246,
            "lng": 102.994138
        },
        "ad_info": {
            "adcode": 511802,
            "province": "四川省",
            "city": "雅安市",
            "district": "雨城区"
        }
    },
    {
        "id": "5383198485579470077",
        "title": "公共厕所",
        "address": "四川省雅安市宝兴县四川长征干部学院雅安夹金山分院河西校区东侧60米",
        "tel": "",
        "category": "基础设施:公共设施:公共厕所",
        "type": 0,
        "location": {
            "lat": 30.363195,
            "lng": 102.812167
        },
        "ad_info": {
            "adcode": 511827,
            "province": "四川省",
            "city": "雅安市",
            "district": "宝兴县"
        }
    },
    {
        "id": "2406899927752075007",
        "title": "公共厕所",
        "address": "四川省雅安市雨城区兴贸街与熊猫大道交叉口正东方向50米左右",
        "tel": "",
        "category": "基础设施:公共设施:公共厕所",
        "type": 0,
        "location": {
            "lat": 30.00085,
            "lng": 103.03169
        },
        "ad_info": {
            "adcode": 511802,
            "province": "四川省",
            "city": "雅安市",
            "district": "雨城区"
        }
    },
    {
        "id": "13800564381412086906",
        "title": "公共厕所",
        "address": "四川省雅安市雨城区东大街与假日广场步行街交叉口东北方向68米左右",
        "tel": "",
        "category": "基础设施:公共设施:公共厕所",
        "type": 0,
        "location": {
            "lat": 29.984524,
            "lng": 103.001572
        },
        "ad_info": {
            "adcode": 511802,
            "province": "四川省",
            "city": "雅安市",
            "district": "雨城区"
        }
    },
    {
        "id": "9012751006276756714",
        "title": "公共厕所",
        "address": "四川省雅安市雨城区东大街与新康路交叉口东南方向40米左右",
        "tel": "",
        "category": "基础设施:公共设施:公共厕所",
        "type": 0,
        "location": {
            "lat": 29.982543,
            "lng": 103.00314
        },
        "ad_info": {
            "adcode": 511802,
            "province": "四川省",
            "city": "雅安市",
            "district": "雨城区"
        }
    },
    {
        "id": "6714125891094584482",
        "title": "公共厕所",
        "address": "四川省雅安市雨城区北三路与南三路交叉口正南方向44米左右",
        "tel": "",
        "category": "基础设施:公共设施:公共厕所",
        "type": 0,
        "location": {
            "lat": 29.991498,
            "lng": 103.003253
        },
        "ad_info": {
            "adcode": 511802,
            "province": "四川省",
            "city": "雅安市",
            "district": "雨城区"
        }
    },
    {
        "id": "5117612664418327107",
        "title": "公共厕所",
        "address": "四川省雅安市雨城区假日广场步行街与西康路中段交叉口正东方向33米左右",
        "tel": "",
        "category": "基础设施:公共设施:公共厕所",
        "type": 0,
        "location": {
            "lat": 29.985898,
            "lng": 103.00325
        },
        "ad_info": {
            "adcode": 511802,
            "province": "四川省",
            "city": "雅安市",
            "district": "雨城区"
        }
    },
    {
        "id": "10131737827955189083",
        "title": "公共厕所",
        "address": "四川省雅安市宝兴县蜂大路邓池沟",
        "tel": "",
        "category": "基础设施:公共设施:公共厕所",
        "type": 0,
        "location": {
            "lat": 30.543782,
            "lng": 102.941892
        },
        "ad_info": {
            "adcode": 511827,
            "province": "四川省",
            "city": "雅安市",
            "district": "宝兴县"
        }
    },
    {
        "id": "4540104221138045194",
        "title": "公共厕所",
        "address": "四川省雅安市荥经县五宪镇卫生院-预防接种门诊东侧",
        "tel": "",
        "category": "基础设施:公共设施:公共厕所",
        "type": 0,
        "location": {
            "lat": 29.766997,
            "lng": 102.840147
        },
        "ad_info": {
            "adcode": 511822,
            "province": "四川省",
            "city": "雅安市",
            "district": "荥经县"
        }
    },
    {
        "id": "10784392916612687073",
        "title": "公共厕所",
        "address": "四川省雅安市荥经县牛背山国际露营地北侧50米",
        "tel": "",
        "category": "基础设施:公共设施:公共厕所",
        "type": 0,
        "location": {
            "lat": 29.8035,
            "lng": 102.477417
        },
        "ad_info": {
            "adcode": 511822,
            "province": "四川省",
            "city": "雅安市",
            "district": "荥经县"
        }
    },
    {
        "id": "10822765014056219090",
        "title": "公共厕所",
        "address": "四川省雅安市汉源县G108与潜江路交叉口西北方向1983米左右",
        "tel": "",
        "category": "基础设施:公共设施:公共厕所",
        "type": 0,
        "location": {
            "lat": 29.596065,
            "lng": 102.607172
        },
        "ad_info": {
            "adcode": 511823,
            "province": "四川省",
            "city": "雅安市",
            "district": "汉源县"
        }
    },
    {
        "id": "11249663313741352310",
        "title": "公共厕所",
        "address": "四川省雅安市雨城区八一路与西大街交叉口正北方向70米左右",
        "tel": "",
        "category": "基础设施:公共设施:公共厕所",
        "type": 0,
        "location": {
            "lat": 29.988677,
            "lng": 102.995193
        },
        "ad_info": {
            "adcode": 511802,
            "province": "四川省",
            "city": "雅安市",
            "district": "雨城区"
        }
    },
    {
        "id": "12735021599932219533",
        "title": "公共厕所",
        "address": "四川省雅安市雨城区南四路与青衣江路中段交叉口东南方向26米左右",
        "tel": "",
        "category": "基础设施:公共设施:公共厕所",
        "type": 0,
        "location": {
            "lat": 29.993839,
            "lng": 102.9944
        },
        "ad_info": {
            "adcode": 511802,
            "province": "四川省",
            "city": "雅安市",
            "district": "雨城区"
        }
    },
    {
        "id": "16821705074919736466",
        "title": "公共厕所",
        "address": "四川省雅安市汉源县富林大道与富林大道二段交叉口正西方向55米左右",
        "tel": "",
        "category": "基础设施:公共设施:公共厕所",
        "type": 0,
        "location": {
            "lat": 29.345839,
            "lng": 102.641881
        },
        "ad_info": {
            "adcode": 511823,
            "province": "四川省",
            "city": "雅安市",
            "district": "汉源县"
        }
    },
    {
        "id": "6503203280691407451",
        "title": "公共厕所",
        "address": "四川省雅安市雨城区下溪沟巷与华兴街交叉口正西方向76米左右",
        "tel": "",
        "category": "基础设施:公共设施:公共厕所",
        "type": 0,
        "location": {
            "lat": 29.982935,
            "lng": 103.006332
        },
        "ad_info": {
            "adcode": 511802,
            "province": "四川省",
            "city": "雅安市",
            "district": "雨城区"
        }
    },
    {
        "id": "1370208051659485630",
        "title": "公共厕所",
        "address": "四川省雅安市芦山县先锋路与李家坎巷交叉口西北方向118米左右",
        "tel": "",
        "category": "基础设施:公共设施:公共厕所",
        "type": 0,
        "location": {
            "lat": 30.149992,
            "lng": 102.927858
        },
        "ad_info": {
            "adcode": 511826,
            "province": "四川省",
            "city": "雅安市",
            "district": "芦山县"
        }
    },
    {
        "id": "12947801818975821943",
        "title": "公共厕所",
        "address": "四川省雅安市雨城区河北正街与青衣江路东段交叉口正北方向40米左右",
        "tel": "",
        "category": "基础设施:公共设施:公共厕所",
        "type": 0,
        "location": {
            "lat": 29.986236,
            "lng": 103.008468
        },
        "ad_info": {
            "adcode": 511802,
            "province": "四川省",
            "city": "雅安市",
            "district": "雨城区"
        }
    },
    {
        "id": "7585974097153251111",
        "title": "公共厕所",
        "address": "四川省雅安市雨城区健康路与苍坪路交叉口正西方向7米左右",
        "tel": "",
        "category": "基础设施:公共设施:公共厕所",
        "type": 0,
        "location": {
            "lat": 29.98438,
            "lng": 102.999523
        },
        "ad_info": {
            "adcode": 511802,
            "province": "四川省",
            "city": "雅安市",
            "district": "雨城区"
        }
    },
    {
        "id": "12619624929619980389",
        "title": "公共厕所",
        "address": "四川省雅安市雨城区华兴街与少年宫路交叉口东南方向46米左右",
        "tel": "",
        "category": "基础设施:公共设施:公共厕所",
        "type": 0,
        "location": {
            "lat": 29.982393,
            "lng": 103.008031
        },
        "ad_info": {
            "adcode": 511802,
            "province": "四川省",
            "city": "雅安市",
            "district": "雨城区"
        }
    },
    {
        "id": "320356069760680850",
        "title": "公共厕所",
        "address": "四川省雅安市雨城区羌江南路115号",
        "tel": "",
        "category": "基础设施:公共设施:公共厕所",
        "type": 0,
        "location": {
            "lat": 29.982079,
            "lng": 103.010022
        },
        "ad_info": {
            "adcode": 511802,
            "province": "四川省",
            "city": "雅安市",
            "district": "雨城区"
        }
    },
    {
        "id": "15171361640270867756",
        "title": "公共厕所",
        "address": "四川省雅安市雨城区城后路一与濆江路交叉口东南方向232米左右",
        "tel": "",
        "category": "基础设施:公共设施:公共厕所",
        "type": 0,
        "location": {
            "lat": 29.979857,
            "lng": 102.988066
        },
        "ad_info": {
            "adcode": 511802,
            "province": "四川省",
            "city": "雅安市",
            "district": "雨城区"
        }
    },
    {
        "id": "16442124752493808749",
        "title": "公共厕所(双溪曹大坪)",
        "address": "四川省雅安市汉源县",
        "tel": "",
        "category": "基础设施:公共设施:公共厕所",
        "type": 0,
        "location": {
            "lat": 29.54984,
            "lng": 102.656588
        },
        "ad_info": {
            "adcode": 511823,
            "province": "四川省",
            "city": "雅安市",
            "district": "汉源县"
        }
    },
    {
        "id": "1133780887275751174",
        "title": "公共厕所",
        "address": "四川省雅安市天全县G318与建设路交叉口东南方向109米左右",
        "tel": "",
        "category": "基础设施:公共设施:公共厕所",
        "type": 0,
        "location": {
            "lat": 30.025175,
            "lng": 102.815641
        },
        "ad_info": {
            "adcode": 511825,
            "province": "四川省",
            "city": "雅安市",
            "district": "天全县"
        }
    },
    {
        "id": "8419808105514905040",
        "title": "公共厕所",
        "address": "四川省雅安市汉源县文昌路与黎州大道二段交叉口西北方向81米左右",
        "tel": "",
        "category": "基础设施:公共设施:公共厕所",
        "type": 0,
        "location": {
            "lat": 29.340382,
            "lng": 102.64013
        },
        "ad_info": {
            "adcode": 511823,
            "province": "四川省",
            "city": "雅安市",
            "district": "汉源县"
        }
    },
    {
        "id": "11588903801192002779",
        "title": "公共厕所",
        "address": "四川省雅安市石棉县G108与沿河路交叉口正西方向383米左右",
        "tel": "",
        "category": "基础设施:公共设施:公共厕所",
        "type": 0,
        "location": {
            "lat": 29.248848,
            "lng": 102.384401
        },
        "ad_info": {
            "adcode": 511824,
            "province": "四川省",
            "city": "雅安市",
            "district": "石棉县"
        }
    },
    {
        "id": "3630534905171646322",
        "title": "公共厕所",
        "address": "四川省雅安市雨城区胜利路与西门北路交叉口东南方向51米左右",
        "tel": "",
        "category": "基础设施:公共设施:公共厕所",
        "type": 0,
        "location": {
            "lat": 29.99022,
            "lng": 102.99163
        },
        "ad_info": {
            "adcode": 511802,
            "province": "四川省",
            "city": "雅安市",
            "district": "雨城区"
        }
    },
    {
        "id": "18338026829943855316",
        "title": "公共厕所",
        "address": "四川省雅安市雨城区G5京昆高速与对岩枢纽交叉口西380米",
        "tel": "",
        "category": "基础设施:公共设施:公共厕所",
        "type": 0,
        "location": {
            "lat": 29.97198,
            "lng": 102.952117
        },
        "ad_info": {
            "adcode": 511802,
            "province": "四川省",
            "city": "雅安市",
            "district": "雨城区"
        }
    },
    {
        "id": "6248123803842300916",
        "title": "公共厕所",
        "address": "四川省雅安市雨城区临江路青衣江公园(西侧)",
        "tel": "",
        "category": "基础设施:公共设施:公共厕所",
        "type": 0,
        "location": {
            "lat": 29.983366,
            "lng": 103.014953
        },
        "ad_info": {
            "adcode": 511802,
            "province": "四川省",
            "city": "雅安市",
            "district": "雨城区"
        }
    },
    {
        "id": "205761854647822069",
        "title": "公共厕所",
        "address": "四川省雅安市雨城区大众路与小北街交叉口正北方向47米左右",
        "tel": "",
        "category": "基础设施:公共设施:公共厕所",
        "type": 0,
        "location": {
            "lat": 29.989134,
            "lng": 102.998503
        },
        "ad_info": {
            "adcode": 511802,
            "province": "四川省",
            "city": "雅安市",
            "district": "雨城区"
        }
    },
    {
        "id": "16389719599271964097",
        "title": "公共厕所",
        "address": "四川省雅安市雨城区二一路与新生路交叉口正北方向29米左右",
        "tel": "",
        "category": "基础设施:公共设施:公共厕所",
        "type": 0,
        "location": {
            "lat": 29.981318,
            "lng": 102.999683
        },
        "ad_info": {
            "adcode": 511802,
            "province": "四川省",
            "city": "雅安市",
            "district": "雨城区"
        }
    },
    {
        "id": "16897696493928929616",
        "title": "公共厕所",
        "address": "四川省雅安市雨城区八一路与大众路交叉口西北方向80米左右",
        "tel": "",
        "category": "基础设施:公共设施:公共厕所",
        "type": 0,
        "location": {
            "lat": 29.990085,
            "lng": 102.996522
        },
        "ad_info": {
            "adcode": 511802,
            "province": "四川省",
            "city": "雅安市",
            "district": "雨城区"
        }
    },
    {
        "id": "15159964296795628676",
        "title": "公共厕所",
        "address": "四川省雅安市天全县G318与火烟岩桥交叉口西北方向29米左右",
        "tel": "",
        "category": "基础设施:公共设施:公共厕所",
        "type": 0,
        "location": {
            "lat": 29.908201,
            "lng": 102.37871
        },
        "ad_info": {
            "adcode": 511825,
            "province": "四川省",
            "city": "雅安市",
            "district": "天全县"
        }
    },
    {
        "id": "13865727180120592155",
        "title": "公共厕所",
        "address": "四川省雅安市雨城区和平南路与熊猫大道交叉口正东方向70米左右",
        "tel": "",
        "category": "基础设施:公共设施:公共厕所",
        "type": 0,
        "location": {
            "lat": 30.014671,
            "lng": 103.054934
        },
        "ad_info": {
            "adcode": 511802,
            "province": "四川省",
            "city": "雅安市",
            "district": "雨城区"
        }
    },
    {
        "id": "12468547713590290451",
        "title": "公共厕所",
        "address": "四川省雅安市雨城区河横街145号",
        "tel": "",
        "category": "基础设施:公共设施:公共厕所",
        "type": 0,
        "location": {
            "lat": 29.989197,
            "lng": 103.002298
        },
        "ad_info": {
            "adcode": 511802,
            "province": "四川省",
            "city": "雅安市",
            "district": "雨城区"
        }
    },
    {
        "id": "12033515659714075713",
        "title": "公共厕所",
        "address": "四川省雅安市名山区南大街与民益路交叉口东南方向43米左右",
        "tel": "",
        "category": "基础设施:公共设施:公共厕所",
        "type": 0,
        "location": {
            "lat": 30.085527,
            "lng": 103.111902
        },
        "ad_info": {
            "adcode": 511803,
            "province": "四川省",
            "city": "雅安市",
            "district": "名山区"
        }
    },
    {
        "id": "7296133453523368722",
        "title": "公共厕所",
        "address": "四川省雅安市天全县龙弯湖公厕",
        "tel": "",
        "category": "基础设施:公共设施:公共厕所",
        "type": 0,
        "location": {
            "lat": 30.054094,
            "lng": 102.76219
        },
        "ad_info": {
            "adcode": 511825,
            "province": "四川省",
            "city": "雅安市",
            "district": "天全县"
        }
    },
    {
        "id": "13487650808493430616",
        "title": "公共厕所",
        "address": "四川省雅安市雨城区育才路与雅赵路交叉口西南方向197米左右",
        "tel": "",
        "category": "基础设施:公共设施:公共厕所",
        "type": 0,
        "location": {
            "lat": 29.97316,
            "lng": 103.008088
        },
        "ad_info": {
            "adcode": 511802,
            "province": "四川省",
            "city": "雅安市",
            "district": "雨城区"
        }
    },
    {
        "id": "17209367149256028037",
        "title": "公共厕所",
        "address": "四川省雅安市雨城区G318与茶马大道交叉口西南方向117米左右",
        "tel": "",
        "category": "基础设施:公共设施:公共厕所",
        "type": 0,
        "location": {
            "lat": 29.994097,
            "lng": 102.959684
        },
        "ad_info": {
            "adcode": 511802,
            "province": "四川省",
            "city": "雅安市",
            "district": "雨城区"
        }
    },
    {
        "id": "1796622405101481374",
        "title": "公共厕所",
        "address": "四川省雅安市天全县G318与水獭坪桥交叉口东南方向80米左右",
        "tel": "",
        "category": "基础设施:公共设施:公共厕所",
        "type": 0,
        "location": {
            "lat": 29.980648,
            "lng": 102.448547
        },
        "ad_info": {
            "adcode": 511825,
            "province": "四川省",
            "city": "雅安市",
            "district": "天全县"
        }
    },
    {
        "id": "8443471262519071496",
        "title": "公共厕所",
        "address": "四川省雅安市雨城区桂馨路四川农业大学",
        "tel": "",
        "category": "基础设施:公共设施:公共厕所",
        "type": 0,
        "location": {
            "lat": 29.977367,
            "lng": 103.000022
        },
        "ad_info": {
            "adcode": 511802,
            "province": "四川省",
            "city": "雅安市",
            "district": "雨城区"
        }
    },
    {
        "id": "5025216317943917040",
        "title": "公共厕所(清溪文庙)",
        "address": "四川省雅安市汉源县G108与潜江路交叉口正东方向646米左右",
        "tel": "",
        "category": "基础设施:公共设施:公共厕所",
        "type": 0,
        "location": {
            "lat": 29.578588,
            "lng": 102.623954
        },
        "ad_info": {
            "adcode": 511823,
            "province": "四川省",
            "city": "雅安市",
            "district": "汉源县"
        }
    },
    {
        "id": "11577341166277236812",
        "title": "公共厕所",
        "address": "四川省雅安市雨城区八步乡八步小学北侧",
        "tel": "",
        "category": "基础设施:公共设施:公共厕所",
        "type": 0,
        "location": {
            "lat": 29.916054,
            "lng": 102.917575
        },
        "ad_info": {
            "adcode": 511802,
            "province": "四川省",
            "city": "雅安市",
            "district": "雨城区"
        }
    },
    {
        "id": "1730324574550764448",
        "title": "公共厕所",
        "address": "四川省雅安市荥经县荥兴路东二段(工商银行对面)",
        "tel": "",
        "category": "基础设施:公共设施:公共厕所",
        "type": 0,
        "location": {
            "lat": 29.796515,
            "lng": 102.848291
        },
        "ad_info": {
            "adcode": 511822,
            "province": "四川省",
            "city": "雅安市",
            "district": "荥经县"
        }
    },
    {
        "id": "16000684915199274481",
        "title": "公共厕所",
        "address": "四川省雅安市宝兴县G351与S210交叉口西北方向272米左右",
        "tel": "",
        "category": "基础设施:公共设施:公共厕所",
        "type": 0,
        "location": {
            "lat": 30.539322,
            "lng": 102.909044
        },
        "ad_info": {
            "adcode": 511827,
            "province": "四川省",
            "city": "雅安市",
            "district": "宝兴县"
        }
    },
    {
        "id": "10905653591589756687",
        "title": "公共厕所",
        "address": "四川省雅安市雨城区伏龙巷与羌江南路交叉口西南方向67米左右",
        "tel": "",
        "category": "基础设施:公共设施:公共厕所",
        "type": 0,
        "location": {
            "lat": 29.981572,
            "lng": 103.008679
        },
        "ad_info": {
            "adcode": 511802,
            "province": "四川省",
            "city": "雅安市",
            "district": "雨城区"
        }
    },
    {
        "id": "6493116931030146397",
        "title": "公共厕所",
        "address": "四川省雅安市宝兴县神木垒西侧260米",
        "tel": "",
        "category": "基础设施:公共设施:公共厕所",
        "type": 0,
        "location": {
            "lat": 30.684685,
            "lng": 102.707579
        },
        "ad_info": {
            "adcode": 511827,
            "province": "四川省",
            "city": "雅安市",
            "district": "宝兴县"
        }
    },
    {
        "id": "2158326460332094334",
        "title": "公共厕所",
        "address": "四川省雅安市汉源县交通南路与花都大道交叉口西北方向157米左右",
        "tel": "",
        "category": "基础设施:公共设施:公共厕所",
        "type": 0,
        "location": {
            "lat": 29.490659,
            "lng": 102.627071
        },
        "ad_info": {
            "adcode": 511823,
            "province": "四川省",
            "city": "雅安市",
            "district": "汉源县"
        }
    },
    {
        "id": "13240058316332413215",
        "title": "公共厕所",
        "address": "四川省雅安市石棉县东风路二段与文化路一段交叉口正北方向41米左右",
        "tel": "",
        "category": "基础设施:公共设施:公共厕所",
        "type": 0,
        "location": {
            "lat": 29.236882,
            "lng": 102.361237
        },
        "ad_info": {
            "adcode": 511824,
            "province": "四川省",
            "city": "雅安市",
            "district": "石棉县"
        }
    },
    {
        "id": "5652793297225966956",
        "title": "公共厕所",
        "address": "四川省雅安市宝兴县G351与柳落沟桥交叉口正西方向560米左右",
        "tel": "",
        "category": "基础设施:公共设施:公共厕所",
        "type": 0,
        "location": {
            "lat": 30.703196,
            "lng": 102.757864
        },
        "ad_info": {
            "adcode": 511827,
            "province": "四川省",
            "city": "雅安市",
            "district": "宝兴县"
        }
    },
    {
        "id": "8868193451182021706",
        "title": "公共厕所",
        "address": "四川省雅安市汉源县人民路与武汉大道一段交叉口正南方向105米左右",
        "tel": "",
        "category": "基础设施:公共设施:公共厕所",
        "type": 0,
        "location": {
            "lat": 29.35358,
            "lng": 102.636637
        },
        "ad_info": {
            "adcode": 511823,
            "province": "四川省",
            "city": "雅安市",
            "district": "汉源县"
        }
    },
    {
        "id": "9129150472872565855",
        "title": "公共厕所",
        "address": "四川省雅安市汉源县交通北路与兴襄路交叉口正北方向80米左右",
        "tel": "",
        "category": "基础设施:公共设施:公共厕所",
        "type": 0,
        "location": {
            "lat": 29.499519,
            "lng": 102.626412
        },
        "ad_info": {
            "adcode": 511823,
            "province": "四川省",
            "city": "雅安市",
            "district": "汉源县"
        }
    },
    {
        "id": "11077930812163007206",
        "title": "公共厕所",
        "address": "四川省雅安市名山区东大街与连东巷交叉口正西方向61米左右",
        "tel": "",
        "category": "基础设施:公共设施:公共厕所",
        "type": 0,
        "location": {
            "lat": 30.087284,
            "lng": 103.113698
        },
        "ad_info": {
            "adcode": 511803,
            "province": "四川省",
            "city": "雅安市",
            "district": "名山区"
        }
    },
    {
        "id": "6538146066511422864",
        "title": "公共厕所(汉源县富林镇碧源路)",
        "address": "四川省雅安市汉源县碧源路150号",
        "tel": "",
        "category": "基础设施:公共设施:公共厕所",
        "type": 0,
        "location": {
            "lat": 29.36039,
            "lng": 102.628181
        },
        "ad_info": {
            "adcode": 511823,
            "province": "四川省",
            "city": "雅安市",
            "district": "汉源县"
        }
    },
    {
        "id": "5015265709274398619",
        "title": "公共厕所",
        "address": "四川省雅安市名山区彩虹路与蒙茶街交叉口东北方向95米左右",
        "tel": "",
        "category": "基础设施:公共设施:公共厕所",
        "type": 0,
        "location": {
            "lat": 30.07496,
            "lng": 103.108111
        },
        "ad_info": {
            "adcode": 511803,
            "province": "四川省",
            "city": "雅安市",
            "district": "名山区"
        }
    },
    {
        "id": "17569855992469874661",
        "title": "公共厕所",
        "address": "四川省雅安市天全县G318与水獭坪桥交叉口东北方向28米左右",
        "tel": "",
        "category": "基础设施:公共设施:公共厕所",
        "type": 0,
        "location": {
            "lat": 29.981492,
            "lng": 102.448338
        },
        "ad_info": {
            "adcode": 511825,
            "province": "四川省",
            "city": "雅安市",
            "district": "天全县"
        }
    },
    {
        "id": "9417983502644974021",
        "title": "公共厕所",
        "address": "四川省雅安市荥经县梓橦宫下街与石材路一段交叉口东南方向29米左右",
        "tel": "",
        "category": "基础设施:公共设施:公共厕所",
        "type": 0,
        "location": {
            "lat": 29.799964,
            "lng": 102.850377
        },
        "ad_info": {
            "adcode": 511822,
            "province": "四川省",
            "city": "雅安市",
            "district": "荥经县"
        }
    },
    {
        "id": "15116068872687360360",
        "title": "公共厕所",
        "address": "四川省雅安市名山区广场巷与河坪巷交叉口东南方向32米左右",
        "tel": "",
        "category": "基础设施:公共设施:公共厕所",
        "type": 0,
        "location": {
            "lat": 30.084491,
            "lng": 103.109936
        },
        "ad_info": {
            "adcode": 511803,
            "province": "四川省",
            "city": "雅安市",
            "district": "名山区"
        }
    },
    {
        "id": "6221922816819438101",
        "title": "公共厕所",
        "address": "四川省雅安市宝兴县蜂桶寨西南侧60米",
        "tel": "",
        "category": "基础设施:公共设施:公共厕所",
        "type": 0,
        "location": {
            "lat": 30.569134,
            "lng": 102.884017
        },
        "ad_info": {
            "adcode": 511827,
            "province": "四川省",
            "city": "雅安市",
            "district": "宝兴县"
        }
    },
    {
        "id": "12386311584133481405",
        "title": "公共厕所",
        "address": "四川省雅安市天全县G318与Y002交叉口西北方向879米左右",
        "tel": "",
        "category": "基础设施:公共设施:公共厕所",
        "type": 0,
        "location": {
            "lat": 30.080369,
            "lng": 102.73038
        },
        "ad_info": {
            "adcode": 511825,
            "province": "四川省",
            "city": "雅安市",
            "district": "天全县"
        }
    },
    {
        "id": "15848724161640595158",
        "title": "公共厕所",
        "address": "四川省雅安市汉源县G108与交通北路交叉口正北方向113米左右",
        "tel": "",
        "category": "基础设施:公共设施:公共厕所",
        "type": 0,
        "location": {
            "lat": 29.510154,
            "lng": 102.629692
        },
        "ad_info": {
            "adcode": 511823,
            "province": "四川省",
            "city": "雅安市",
            "district": "汉源县"
        }
    },
    {
        "id": "814506326078733672",
        "title": "公共厕所",
        "address": "四川省雅安市名山区平桥街与康乐巷交叉口正东方向75米左右",
        "tel": "",
        "category": "基础设施:公共设施:公共厕所",
        "type": 0,
        "location": {
            "lat": 30.090298,
            "lng": 103.114401
        },
        "ad_info": {
            "adcode": 511803,
            "province": "四川省",
            "city": "雅安市",
            "district": "名山区"
        }
    },
    {
        "id": "17420982077183179303",
        "title": "公共厕所",
        "address": "四川省雅安市荥经县G108与新南大道交叉口东南方向1659米左右",
        "tel": "",
        "category": "基础设施:公共设施:公共厕所",
        "type": 0,
        "location": {
            "lat": 29.772494,
            "lng": 102.867684
        },
        "ad_info": {
            "adcode": 511822,
            "province": "四川省",
            "city": "雅安市",
            "district": "荥经县"
        }
    },
    {
        "id": "2680907266517657280",
        "title": "公共厕所(三关楼)",
        "address": "四川省雅安市汉源县G108",
        "tel": "",
        "category": "基础设施:公共设施:公共厕所",
        "type": 0,
        "location": {
            "lat": 29.574992,
            "lng": 102.620091
        },
        "ad_info": {
            "adcode": 511823,
            "province": "四川省",
            "city": "雅安市",
            "district": "汉源县"
        }
    },
    {
        "id": "3001783331827834302",
        "title": "公共厕所",
        "address": "四川省雅安市石棉县",
        "tel": "",
        "category": "基础设施:公共设施:公共厕所",
        "type": 0,
        "location": {
            "lat": 29.235172,
            "lng": 102.359121
        },
        "ad_info": {
            "adcode": 511824,
            "province": "四川省",
            "city": "雅安市",
            "district": "石棉县"
        }
    },
    {
        "id": "15398884200295012433",
        "title": "公共厕所",
        "address": "四川省雅安市雨城区上坝路与友谊路交叉口正西方向70米左右",
        "tel": "",
        "category": "基础设施:公共设施:公共厕所",
        "type": 0,
        "location": {
            "lat": 29.976597,
            "lng": 103.012694
        },
        "ad_info": {
            "adcode": 511802,
            "province": "四川省",
            "city": "雅安市",
            "district": "雨城区"
        }
    },
    {
        "id": "10488937855561811166",
        "title": "公共厕所",
        "address": "四川省雅安市天全县G318与大井坪桥交叉口东北方向52米左右",
        "tel": "",
        "category": "基础设施:公共设施:公共厕所",
        "type": 0,
        "location": {
            "lat": 29.879622,
            "lng": 102.347396
        },
        "ad_info": {
            "adcode": 511825,
            "province": "四川省",
            "city": "雅安市",
            "district": "天全县"
        }
    },
    {
        "id": "18429160083632459484",
        "title": "公共厕所",
        "address": "四川省雅安市汉源县G108",
        "tel": "",
        "category": "基础设施:公共设施:公共厕所",
        "type": 0,
        "location": {
            "lat": 29.540848,
            "lng": 102.6331
        },
        "ad_info": {
            "adcode": 511823,
            "province": "四川省",
            "city": "雅安市",
            "district": "汉源县"
        }
    },
    {
        "id": "8705183310477600149",
        "title": "公共厕所",
        "address": "四川省雅安市天全县G318与建设路交叉口正东方向453米左右",
        "tel": "",
        "category": "基础设施:公共设施:公共厕所",
        "type": 0,
        "location": {
            "lat": 30.024724,
            "lng": 102.819193
        },
        "ad_info": {
            "adcode": 511825,
            "province": "四川省",
            "city": "雅安市",
            "district": "天全县"
        }
    },
    {
        "id": "5671984343739133159",
        "title": "公共厕所(九襄镇三强村梨园)",
        "address": "四川省雅安市汉源县九襄镇三强村梨园停车场旁边",
        "tel": "",
        "category": "基础设施:公共设施:公共厕所",
        "type": 0,
        "location": {
            "lat": 29.487347,
            "lng": 102.643844
        },
        "ad_info": {
            "adcode": 511823,
            "province": "四川省",
            "city": "雅安市",
            "district": "汉源县"
        }
    },
    {
        "id": "2568964187208487303",
        "title": "公共厕所",
        "address": "四川省雅安市荥经县G108与新南大道交叉口东南方向1235米左右",
        "tel": "",
        "category": "基础设施:公共设施:公共厕所",
        "type": 0,
        "location": {
            "lat": 29.774574,
            "lng": 102.863244
        },
        "ad_info": {
            "adcode": 511822,
            "province": "四川省",
            "city": "雅安市",
            "district": "荥经县"
        }
    },
    {
        "id": "16301398253970951988",
        "title": "公共厕所",
        "address": "四川省雅安市荥经县荧兴路西三段与青华街交叉口正南方向369米左右",
        "tel": "",
        "category": "基础设施:公共设施:公共厕所",
        "type": 0,
        "location": {
            "lat": 29.793486,
            "lng": 102.827729
        },
        "ad_info": {
            "adcode": 511822,
            "province": "四川省",
            "city": "雅安市",
            "district": "荥经县"
        }
    },
    {
        "id": "17411425764482852233",
        "title": "公共厕所",
        "address": "四川省雅安市荥经县",
        "tel": "",
        "category": "基础设施:公共设施:公共厕所",
        "type": 0,
        "location": {
            "lat": 29.842422,
            "lng": 102.843593
        },
        "ad_info": {
            "adcode": 511822,
            "province": "四川省",
            "city": "雅安市",
            "district": "荥经县"
        }
    },
    {
        "id": "2646037518613182842",
        "title": "公共厕所",
        "address": "四川省雅安市石棉县滨河路一段中国石油向阳加油站",
        "tel": "",
        "category": "基础设施:公共设施:公共厕所",
        "type": 0,
        "location": {
            "lat": 29.241653,
            "lng": 102.374255
        },
        "ad_info": {
            "adcode": 511824,
            "province": "四川省",
            "city": "雅安市",
            "district": "石棉县"
        }
    },
    {
        "id": "764626802059534806",
        "title": "公共厕所",
        "address": "四川省雅安市石棉县G549与先新路交叉口西北方向112米左右",
        "tel": "",
        "category": "基础设施:公共设施:公共厕所",
        "type": 0,
        "location": {
            "lat": 29.273597,
            "lng": 102.272957
        },
        "ad_info": {
            "adcode": 511824,
            "province": "四川省",
            "city": "雅安市",
            "district": "石棉县"
        }
    },
    {
        "id": "4536498047724952160",
        "title": "公共厕所",
        "address": "四川省雅安市名山区Y014与名王路交叉口正南方向320米左右",
        "tel": "",
        "category": "基础设施:公共设施:公共厕所",
        "type": 0,
        "location": {
            "lat": 30.155609,
            "lng": 103.138563
        },
        "ad_info": {
            "adcode": 511803,
            "province": "四川省",
            "city": "雅安市",
            "district": "名山区"
        }
    },
    {
        "id": "2063284173364666647",
        "title": "公共厕所",
        "address": "四川省雅安市名山区文庙街与栅子街交叉口正东方向359米左右",
        "tel": "",
        "category": "基础设施:公共设施:公共厕所",
        "type": 0,
        "location": {
            "lat": 30.07964,
            "lng": 103.239731
        },
        "ad_info": {
            "adcode": 511803,
            "province": "四川省",
            "city": "雅安市",
            "district": "名山区"
        }
    },
    {
        "id": "5288895477718585743",
        "title": "公共厕所",
        "address": "四川省雅安市石棉县中兴街与先新路交叉口正东方向890米左右",
        "tel": "",
        "category": "基础设施:公共设施:公共厕所",
        "type": 0,
        "location": {
            "lat": 29.376068,
            "lng": 102.240435
        },
        "ad_info": {
            "adcode": 511824,
            "province": "四川省",
            "city": "雅安市",
            "district": "石棉县"
        }
    },
    {
        "id": "3765614065031543997",
        "title": "公共卫生间",
        "address": "四川省雅安市石棉县利民巷与滨河路三段交叉口东北40米",
        "tel": "",
        "category": "基础设施:公共设施:公共厕所",
        "type": 0,
        "location": {
            "lat": 29.232832,
            "lng": 102.359065
        },
        "ad_info": {
            "adcode": 511824,
            "province": "四川省",
            "city": "雅安市",
            "district": "石棉县"
        }
    },
    {
        "id": "17490285078026154719",
        "title": "公共厕所",
        "address": "四川省雅安市石棉县曙光路与步行街交叉口西北方向86米左右",
        "tel": "",
        "category": "基础设施:公共设施:公共厕所",
        "type": 0,
        "location": {
            "lat": 29.23802,
            "lng": 102.360366
        },
        "ad_info": {
            "adcode": 511824,
            "province": "四川省",
            "city": "雅安市",
            "district": "石棉县"
        }
    },
    {
        "id": "15570475228022573972",
        "title": "茶叶市场公共厕所",
        "address": "四川省雅安市名山区茶叶市场9号楼一楼",
        "tel": "",
        "category": "基础设施:公共设施:公共厕所",
        "type": 0,
        "location": {
            "lat": 30.074328,
            "lng": 103.097507
        },
        "ad_info": {
            "adcode": 511803,
            "province": "四川省",
            "city": "雅安市",
            "district": "名山区"
        }
    },
    {
        "id": "13032638789171512715",
        "title": "公共厕所",
        "address": "四川省雅安市石棉县电力路一段与长征路一段交叉口西北40米",
        "tel": "",
        "category": "基础设施:公共设施:公共厕所",
        "type": 0,
        "location": {
            "lat": 29.231813,
            "lng": 102.357676
        },
        "ad_info": {
            "adcode": 511824,
            "province": "四川省",
            "city": "雅安市",
            "district": "石棉县"
        }
    },
    {
        "id": "11083202160189979900",
        "title": "金河广场公共厕所",
        "address": "四川省雅安市荥经县康宁路东一段与新民上街交叉口东南方向175米左右",
        "tel": "",
        "category": "基础设施:公共设施:公共厕所",
        "type": 0,
        "location": {
            "lat": 29.79373,
            "lng": 102.845763
        },
        "ad_info": {
            "adcode": 511822,
            "province": "四川省",
            "city": "雅安市",
            "district": "荥经县"
        }
    },
    {
        "id": "17279752177557372456",
        "title": "公路厕所",
        "address": "四川省雅安市雨城区中大街与兴贤街交叉口正东方向49米左右",
        "tel": "",
        "category": "基础设施:公共设施:公共厕所",
        "type": 0,
        "location": {
            "lat": 29.98696,
            "lng": 102.99719
        },
        "ad_info": {
            "adcode": 511802,
            "province": "四川省",
            "city": "雅安市",
            "district": "雨城区"
        }
    },
    {
        "id": "5748101558867810653",
        "title": "公共厕所",
        "address": "四川省雅安市石棉县石甘公路东50米",
        "tel": "",
        "category": "基础设施:公共设施:公共厕所",
        "type": 0,
        "location": {
            "lat": 29.096928,
            "lng": 102.457287
        },
        "ad_info": {
            "adcode": 511824,
            "province": "四川省",
            "city": "雅安市",
            "district": "石棉县"
        }
    },
    {
        "id": "12101744000877363624",
        "title": "公共厕所(汉源县城步行街)",
        "address": "四川省雅安市汉源县江汉大道二段49号",
        "tel": "",
        "category": "基础设施:公共设施:公共厕所",
        "type": 0,
        "location": {
            "lat": 29.349344,
            "lng": 102.636744
        },
        "ad_info": {
            "adcode": 511823,
            "province": "四川省",
            "city": "雅安市",
            "district": "汉源县"
        }
    },
    {
        "id": "2586260218012625091",
        "title": "公共厕所",
        "address": "四川省雅安市宝兴县沿江路",
        "tel": "",
        "category": "基础设施:公共设施:公共厕所",
        "type": 0,
        "location": {
            "lat": 30.370471,
            "lng": 102.812735
        },
        "ad_info": {
            "adcode": 511827,
            "province": "四川省",
            "city": "雅安市",
            "district": "宝兴县"
        }
    },
    {
        "id": "25835998103144498",
        "title": "天全服务区第一公共厕所",
        "address": "四川省雅安市天全县G4218雅叶高速与天全服务区交叉口东北360米",
        "tel": "",
        "category": "基础设施:公共设施:公共厕所",
        "type": 0,
        "location": {
            "lat": 30.031932,
            "lng": 102.737726
        },
        "ad_info": {
            "adcode": 511825,
            "province": "四川省",
            "city": "雅安市",
            "district": "天全县"
        }
    },
    {
        "id": "6116810908399035928",
        "title": "天全服务区公共厕所",
        "address": "四川省雅安市天全县左加油站西南侧80米",
        "tel": "",
        "category": "基础设施:公共设施:公共厕所",
        "type": 0,
        "location": {
            "lat": 30.029358,
            "lng": 102.738212
        },
        "ad_info": {
            "adcode": 511825,
            "province": "四川省",
            "city": "雅安市",
            "district": "天全县"
        }
    },
    {
        "id": "17320703853960546466",
        "title": "芦山县太平镇钟灵村棕树坪聚居点公共卫生厕所",
        "address": "四川省雅安市芦山县芦邛路",
        "tel": "",
        "category": "基础设施:公共设施:公共厕所",
        "type": 0,
        "location": {
            "lat": 30.370416,
            "lng": 103.005818
        },
        "ad_info": {
            "adcode": 511826,
            "province": "四川省",
            "city": "雅安市",
            "district": "芦山县"
        }
    },
    {
        "id": "7709137648866940859",
        "title": "荥经服务区公共厕所",
        "address": "四川省雅安市荥经县乐途自助餐厅(京昆高速公路东)",
        "tel": "",
        "category": "基础设施:公共设施:公共厕所",
        "type": 0,
        "location": {
            "lat": 29.763158,
            "lng": 102.859651
        },
        "ad_info": {
            "adcode": 511822,
            "province": "四川省",
            "city": "雅安市",
            "district": "荥经县"
        }
    },
    {
        "id": "16569941830214556939",
        "title": "名山服务区公共厕所",
        "address": "四川省雅安市名山区G108与万新巷交叉口正西方向520米左右",
        "tel": "",
        "category": "基础设施:公共设施:公共厕所",
        "type": 0,
        "location": {
            "lat": 30.140426,
            "lng": 103.183868
        },
        "ad_info": {
            "adcode": 511803,
            "province": "四川省",
            "city": "雅安市",
            "district": "名山区"
        }
    },
    {
        "id": "12867282733120818260",
        "title": "党校公共厕所",
        "address": "四川省雅安市石棉县翼王路",
        "tel": "",
        "category": "基础设施:公共设施:公共厕所",
        "type": 0,
        "location": {
            "lat": 29.225182,
            "lng": 102.351536
        },
        "ad_info": {
            "adcode": 511824,
            "province": "四川省",
            "city": "雅安市",
            "district": "石棉县"
        }
    },
    {
        "id": "11591393713695187362",
        "title": "赖宁广场公厕",
        "address": "四川省雅安市石棉县星光路1号",
        "tel": "",
        "category": "基础设施:公共设施:公共厕所",
        "type": 0,
        "location": {
            "lat": 29.228916,
            "lng": 102.353572
        },
        "ad_info": {
            "adcode": 511824,
            "province": "四川省",
            "city": "雅安市",
            "district": "石棉县"
        }
    },
    {
        "id": "5881904240996700380",
        "title": "石棉服务区公共厕所",
        "address": "四川省雅安市石棉县G5京昆高速与石棉服务区交叉口西200米",
        "tel": "",
        "category": "基础设施:公共设施:公共厕所",
        "type": 0,
        "location": {
            "lat": 29.247895,
            "lng": 102.436957
        },
        "ad_info": {
            "adcode": 511824,
            "province": "四川省",
            "city": "雅安市",
            "district": "石棉县"
        }
    },
    {
        "id": "14217914195257448844",
        "title": "名山服务区公共厕所",
        "address": "四川省雅安市名山区G108与万新巷交叉口正西方向665米左右",
        "tel": "",
        "category": "基础设施:公共设施:公共厕所",
        "type": 0,
        "location": {
            "lat": 30.138345,
            "lng": 103.182079
        },
        "ad_info": {
            "adcode": 511803,
            "province": "四川省",
            "city": "雅安市",
            "district": "名山区"
        }
    },
    {
        "id": "3706642509602863113",
        "title": "名山服务区第二公共厕所",
        "address": "四川省雅安市名山区G108与万新巷交叉口正西方向644米左右",
        "tel": "",
        "category": "基础设施:公共设施:公共厕所",
        "type": 0,
        "location": {
            "lat": 30.137722,
            "lng": 103.182399
        },
        "ad_info": {
            "adcode": 511803,
            "province": "四川省",
            "city": "雅安市",
            "district": "名山区"
        }
    },
    {
        "id": "5973528873584349618",
        "title": "荥经服务区公共厕所",
        "address": "四川省雅安市荥经县S308与经河西路交叉口东南方向1367米左右",
        "tel": "",
        "category": "基础设施:公共设施:公共厕所",
        "type": 0,
        "location": {
            "lat": 29.763398,
            "lng": 102.857697
        },
        "ad_info": {
            "adcode": 511822,
            "province": "四川省",
            "city": "雅安市",
            "district": "荥经县"
        }
    },
    {
        "id": "16528316713320827933",
        "title": "公共厕所",
        "address": "四川省雅安市雨城区大众路与大北街交叉口正北方向33米左右",
        "tel": "",
        "category": "基础设施:公共设施:公共厕所",
        "type": 0,
        "location": {
            "lat": 29.987552,
            "lng": 103.000094
        },
        "ad_info": {
            "adcode": 511802,
            "province": "四川省",
            "city": "雅安市",
            "district": "雨城区"
        }
    },
    {
        "id": "15617864687458547783",
        "title": "公共厕所",
        "address": "四川省雅安市宝兴县熊猫园西南侧",
        "tel": "",
        "category": "基础设施:公共设施:公共厕所",
        "type": 0,
        "location": {
            "lat": 30.534339,
            "lng": 102.947868
        },
        "ad_info": {
            "adcode": 511827,
            "province": "四川省",
            "city": "雅安市",
            "district": "宝兴县"
        }
    },
    {
        "id": "610670367312873938",
        "title": "公共厕所(进城口公园)",
        "address": "四川省雅安市汉源县G108与萝卜岗隧道交叉口正南方向58米左右",
        "tel": "",
        "category": "基础设施:公共设施:公共厕所",
        "type": 0,
        "location": {
            "lat": 29.357541,
            "lng": 102.638017
        },
        "ad_info": {
            "adcode": 511823,
            "province": "四川省",
            "city": "雅安市",
            "district": "汉源县"
        }
    },
    {
        "id": "13118247077351309911",
        "title": "公共厕所",
        "address": "四川省雅安市石棉县孟获城游客中心",
        "tel": "",
        "category": "基础设施:公共设施:公共厕所",
        "type": 0,
        "location": {
            "lat": 28.912108,
            "lng": 102.308864
        },
        "ad_info": {
            "adcode": 511824,
            "province": "四川省",
            "city": "雅安市",
            "district": "石棉县"
        }
    },
    {
        "id": "4042676348009141686",
        "title": "公共厕所(汉源县体育公园)",
        "address": "四川省雅安市汉源县友谊路汉源县体育馆",
        "tel": "",
        "category": "基础设施:公共设施:公共厕所",
        "type": 0,
        "location": {
            "lat": 29.346037,
            "lng": 102.648585
        },
        "ad_info": {
            "adcode": 511823,
            "province": "四川省",
            "city": "雅安市",
            "district": "汉源县"
        }
    },
    {
        "id": "18342733171953044710",
        "title": "公共厕所(九襄镇原申沟村委会)",
        "address": "四川省雅安市汉源县香约桃花缘农家乐西南侧280米",
        "tel": "",
        "category": "基础设施:公共设施:公共厕所",
        "type": 0,
        "location": {
            "lat": 29.533002,
            "lng": 102.640228
        },
        "ad_info": {
            "adcode": 511823,
            "province": "四川省",
            "city": "雅安市",
            "district": "汉源县"
        }
    },
    {
        "id": "13535301765187067602",
        "title": "安靖社区公共厕所",
        "address": "四川省雅安市石棉县S211",
        "tel": "",
        "category": "基础设施:公共设施:公共厕所",
        "type": 0,
        "location": {
            "lat": 29.262138,
            "lng": 102.301888
        },
        "ad_info": {
            "adcode": 511824,
            "province": "四川省",
            "city": "雅安市",
            "district": "石棉县"
        }
    },
    {
        "id": "17267337024051755073",
        "title": "公共厕所",
        "address": "四川省雅安市荥经县工业大道与荧兴路西三段交叉口正西方向789米左右",
        "tel": "",
        "category": "基础设施:公共设施:公共厕所",
        "type": 0,
        "location": {
            "lat": 29.799177,
            "lng": 102.814187
        },
        "ad_info": {
            "adcode": 511822,
            "province": "四川省",
            "city": "雅安市",
            "district": "荥经县"
        }
    },
    {
        "id": "8287919236113675398",
        "title": "公共厕所(铁汉码头游客中心)",
        "address": "四川省雅安市汉源县东升路与晴波路交叉口东北方向213米左右",
        "tel": "",
        "category": "基础设施:公共设施:公共厕所",
        "type": 0,
        "location": {
            "lat": 29.346288,
            "lng": 102.658608
        },
        "ad_info": {
            "adcode": 511823,
            "province": "四川省",
            "city": "雅安市",
            "district": "汉源县"
        }
    },
    {
        "id": "13217517004909233612",
        "title": "公共厕所(2635驿站)",
        "address": "四川省雅安市名山区108国道",
        "tel": "",
        "category": "基础设施:公共设施:公共厕所",
        "type": 0,
        "location": {
            "lat": 30.173345,
            "lng": 103.221767
        },
        "ad_info": {
            "adcode": 511803,
            "province": "四川省",
            "city": "雅安市",
            "district": "名山区"
        }
    },
    {
        "id": "6908147942534739516",
        "title": "公共厕所",
        "address": "四川省雅安市宝兴县G351与蚂蝗沟大桥交叉口东南方向1627米左右",
        "tel": "",
        "category": "基础设施:公共设施:公共厕所",
        "type": 0,
        "location": {
            "lat": 30.724458,
            "lng": 102.759114
        },
        "ad_info": {
            "adcode": 511827,
            "province": "四川省",
            "city": "雅安市",
            "district": "宝兴县"
        }
    },
    {
        "id": "4240490809783734785",
        "title": "公共厕所",
        "address": "四川省雅安市汉源县兰大路与芦富路交叉口东南方向41米左右",
        "tel": "",
        "category": "基础设施:公共设施:公共厕所",
        "type": 0,
        "location": {
            "lat": 29.376649,
            "lng": 102.645427
        },
        "ad_info": {
            "adcode": 511823,
            "province": "四川省",
            "city": "雅安市",
            "district": "汉源县"
        }
    },
    {
        "id": "16089016913909693461",
        "title": "公共厕所(雅安市名山区百丈湖国际旅游度假区)",
        "address": "四川省雅安市名山区成名高速与百丈湖互通交叉口东北方向927米左右",
        "tel": "",
        "category": "基础设施:公共设施:公共厕所",
        "type": 0,
        "location": {
            "lat": 30.172231,
            "lng": 103.198061
        },
        "ad_info": {
            "adcode": 511803,
            "province": "四川省",
            "city": "雅安市",
            "district": "名山区"
        }
    },
    {
        "id": "16858480830153096631",
        "title": "公共厕所",
        "address": "四川省雅安市芦山县东风路与罗纯山中路交叉口正东方向33米左右",
        "tel": "",
        "category": "基础设施:公共设施:公共厕所",
        "type": 0,
        "location": {
            "lat": 30.147565,
            "lng": 102.937891
        },
        "ad_info": {
            "adcode": 511826,
            "province": "四川省",
            "city": "雅安市",
            "district": "芦山县"
        }
    },
    {
        "id": "6926830880520555290",
        "title": "公共厕所(雅安市名山区旅游集散中心)",
        "address": "四川省雅安市名山区月亮路与黄湾路交叉口西北方向1597米左右",
        "tel": "",
        "category": "基础设施:公共设施:公共厕所",
        "type": 0,
        "location": {
            "lat": 30.057198,
            "lng": 103.18755
        },
        "ad_info": {
            "adcode": 511803,
            "province": "四川省",
            "city": "雅安市",
            "district": "名山区"
        }
    },
    {
        "id": "10998842904085641245",
        "title": "三叉河停车区公共厕所",
        "address": "四川省雅安市雨城区三叉河停车区与G93成渝环线高速交叉口南180米",
        "tel": "",
        "category": "基础设施:公共设施:公共厕所",
        "type": 0,
        "location": {
            "lat": 30.007897,
            "lng": 103.098912
        },
        "ad_info": {
            "adcode": 511802,
            "province": "四川省",
            "city": "雅安市",
            "district": "雨城区"
        }
    },
    {
        "id": "15509568427903980827",
        "title": "天全服务区第二公共厕所",
        "address": "四川省雅安市天全县壳牌天全服务区加油站北侧140米",
        "tel": "",
        "category": "基础设施:公共设施:公共厕所",
        "type": 0,
        "location": {
            "lat": 30.031905,
            "lng": 102.737561
        },
        "ad_info": {
            "adcode": 511825,
            "province": "四川省",
            "city": "雅安市",
            "district": "天全县"
        }
    },
    {
        "id": "5423222647367688870",
        "title": "公共厕所",
        "address": "四川省雅安市荥经县青杠湖畔桃园农家乐东侧110米",
        "tel": "",
        "category": "基础设施:公共设施:公共厕所",
        "type": 0,
        "location": {
            "lat": 29.794258,
            "lng": 102.767614
        },
        "ad_info": {
            "adcode": 511822,
            "province": "四川省",
            "city": "雅安市",
            "district": "荥经县"
        }
    },
    {
        "id": "12239131801079611243",
        "title": "公共厕所",
        "address": "四川省雅安市天全县G318与大柏牛2号桥交叉口正西方向1225米左右",
        "tel": "",
        "category": "基础设施:公共设施:公共厕所",
        "type": 0,
        "location": {
            "lat": 29.956246,
            "lng": 102.410248
        },
        "ad_info": {
            "adcode": 511825,
            "province": "四川省",
            "city": "雅安市",
            "district": "天全县"
        }
    },
    {
        "id": "12061904076617044331",
        "title": "智慧生态公共厕所106(雅安大倪沟郑沟水库)",
        "address": "四川省雅安市名山区",
        "tel": "",
        "category": "基础设施:公共设施:公共厕所",
        "type": 0,
        "location": {
            "lat": 30.113969,
            "lng": 103.275301
        },
        "ad_info": {
            "adcode": 511803,
            "province": "四川省",
            "city": "雅安市",
            "district": "名山区"
        }
    },
    {
        "id": "16815514880003791661",
        "title": "广元堡川矿记忆景区公共厕所",
        "address": "四川省雅安市石棉县广元堡中路",
        "tel": "",
        "category": "基础设施:公共设施:公共厕所",
        "type": 0,
        "location": {
            "lat": 29.208582,
            "lng": 102.379243
        },
        "ad_info": {
            "adcode": 511824,
            "province": "四川省",
            "city": "雅安市",
            "district": "石棉县"
        }
    },
    {
        "id": "14876304365194167183",
        "title": "洗手间",
        "address": "四川省雅安市宝兴县沿江路与穆坪南街交叉口西北方向153米左右",
        "tel": "",
        "category": "基础设施:公共设施:公共厕所",
        "type": 0,
        "location": {
            "lat": 30.362693,
            "lng": 102.811341
        },
        "ad_info": {
            "adcode": 511827,
            "province": "四川省",
            "city": "雅安市",
            "district": "宝兴县"
        }
    },
    {
        "id": "16217133552599653173",
        "title": "公共厕所(鑫馨超市停车场)",
        "address": "四川省雅安市汉源县黄冈路11号",
        "tel": "",
        "category": "基础设施:公共设施:公共厕所",
        "type": 0,
        "location": {
            "lat": 29.350743,
            "lng": 102.637065
        },
        "ad_info": {
            "adcode": 511823,
            "province": "四川省",
            "city": "雅安市",
            "district": "汉源县"
        }
    },
    {
        "id": "9084773630439847944",
        "title": "汉源停车区公共厕所",
        "address": "四川省雅安市汉源县G108与管家沟大桥交叉口正西方向357米左右",
        "tel": "",
        "category": "基础设施:公共设施:公共厕所",
        "type": 0,
        "location": {
            "lat": 29.346077,
            "lng": 102.606603
        },
        "ad_info": {
            "adcode": 511823,
            "province": "四川省",
            "city": "雅安市",
            "district": "汉源县"
        }
    },
    {
        "id": "333695574812384747",
        "title": "公共厕所",
        "address": "四川省雅安市芦山县国道351侨爱新村对面",
        "tel": "",
        "category": "基础设施:公共设施:公共厕所",
        "type": 0,
        "location": {
            "lat": 30.129123,
            "lng": 102.903014
        },
        "ad_info": {
            "adcode": 511826,
            "province": "四川省",
            "city": "雅安市",
            "district": "芦山县"
        }
    },
    {
        "id": "6155750028836037988",
        "title": "公共厕所",
        "address": "四川省雅安市荥经县108国道东北30米",
        "tel": "",
        "category": "基础设施:公共设施:公共厕所",
        "type": 0,
        "location": {
            "lat": 29.821239,
            "lng": 102.746646
        },
        "ad_info": {
            "adcode": 511822,
            "province": "四川省",
            "city": "雅安市",
            "district": "荥经县"
        }
    },
    {
        "id": "5455409478413140021",
        "title": "土山岗停车区公共厕所",
        "address": "四川省雅安市荥经县土山岗停车区与G5京昆高速交叉口北60米",
        "tel": "",
        "category": "基础设施:公共设施:公共厕所",
        "type": 0,
        "location": {
            "lat": 29.649275,
            "lng": 102.760106
        },
        "ad_info": {
            "adcode": 511822,
            "province": "四川省",
            "city": "雅安市",
            "district": "荥经县"
        }
    },
    {
        "id": "17297671393925170114",
        "title": "百丈湖积功滩公共厕所",
        "address": "四川省雅安市名山区湖尾农家东南侧160米",
        "tel": "",
        "category": "基础设施:公共设施:公共厕所",
        "type": 0,
        "location": {
            "lat": 30.176523,
            "lng": 103.20712
        },
        "ad_info": {
            "adcode": 511803,
            "province": "四川省",
            "city": "雅安市",
            "district": "名山区"
        }
    },
    {
        "id": "17521740832642588695",
        "title": "土山岗停车区公共厕所",
        "address": "四川省雅安市荥经县京昆高速",
        "tel": "",
        "category": "基础设施:公共设施:公共厕所",
        "type": 0,
        "location": {
            "lat": 29.649624,
            "lng": 102.760991
        },
        "ad_info": {
            "adcode": 511822,
            "province": "四川省",
            "city": "雅安市",
            "district": "荥经县"
        }
    },
    {
        "id": "6496538949548101091",
        "title": "公共厕所(名山区西大街)",
        "address": "四川省雅安市名山区西大街54号",
        "tel": "",
        "category": "基础设施:公共设施:公共厕所",
        "type": 0,
        "location": {
            "lat": 30.083699,
            "lng": 103.110878
        },
        "ad_info": {
            "adcode": 511803,
            "province": "四川省",
            "city": "雅安市",
            "district": "名山区"
        }
    },
    {
        "id": "11915462607325373958",
        "title": "公共厕所",
        "address": "四川省雅安市雨城区碧峰峡路中国石油碧峰加油站",
        "tel": "",
        "category": "基础设施:公共设施:公共厕所",
        "type": 0,
        "location": {
            "lat": 30.012843,
            "lng": 103.011597
        },
        "ad_info": {
            "adcode": 511802,
            "province": "四川省",
            "city": "雅安市",
            "district": "雨城区"
        }
    },
    {
        "id": "9943834809320510056",
        "title": "公共厕所",
        "address": "四川省雅安市石棉县红军强渡大渡河纪念馆旁",
        "tel": "",
        "category": "基础设施:公共设施:公共厕所",
        "type": 0,
        "location": {
            "lat": 29.275539,
            "lng": 102.283304
        },
        "ad_info": {
            "adcode": 511824,
            "province": "四川省",
            "city": "雅安市",
            "district": "石棉县"
        }
    },
    {
        "id": "11583541470278269971",
        "title": "公共厕所(蒙顶山金花桥游客中心)",
        "address": "四川省雅安市名山区蒙山路蒙顶山",
        "tel": "",
        "category": "基础设施:公共设施:公共厕所",
        "type": 0,
        "location": {
            "lat": 30.083361,
            "lng": 103.072435
        },
        "ad_info": {
            "adcode": 511803,
            "province": "四川省",
            "city": "雅安市",
            "district": "名山区"
        }
    },
    {
        "id": "15959325287307715682",
        "title": "公共厕所",
        "address": "四川省雅安市汉源县九襄镇第三小学西南侧240米",
        "tel": "",
        "category": "基础设施:公共设施:公共厕所",
        "type": 0,
        "location": {
            "lat": 29.510008,
            "lng": 102.622787
        },
        "ad_info": {
            "adcode": 511823,
            "province": "四川省",
            "city": "雅安市",
            "district": "汉源县"
        }
    },
    {
        "id": "15392984413975852108",
        "title": "公共厕所",
        "address": "四川省雅安市荥经县G108与小溪新街交叉口西北方向78米左右",
        "tel": "",
        "category": "基础设施:公共设施:公共厕所",
        "type": 0,
        "location": {
            "lat": 29.783419,
            "lng": 102.849754
        },
        "ad_info": {
            "adcode": 511822,
            "province": "四川省",
            "city": "雅安市",
            "district": "荥经县"
        }
    },
    {
        "id": "6404395315483315208",
        "title": "汉源服务区公共厕所",
        "address": "四川省雅安市汉源县G5京昆高速与汉源服务区交叉口西100米",
        "tel": "",
        "category": "基础设施:公共设施:公共厕所",
        "type": 0,
        "location": {
            "lat": 29.4367,
            "lng": 102.634381
        },
        "ad_info": {
            "adcode": 511823,
            "province": "四川省",
            "city": "雅安市",
            "district": "汉源县"
        }
    },
    {
        "id": "15061094174617836234",
        "title": "洗手间",
        "address": "四川省雅安市宝兴县兴盛街与夹金山路交叉口西南方向374米左右",
        "tel": "",
        "category": "基础设施:公共设施:公共厕所",
        "type": 0,
        "location": {
            "lat": 30.378608,
            "lng": 102.811428
        },
        "ad_info": {
            "adcode": 511827,
            "province": "四川省",
            "city": "雅安市",
            "district": "宝兴县"
        }
    },
    {
        "id": "7605966473912027010",
        "title": "公共厕所",
        "address": "四川省雅安市天全县建设路与洪川北路交叉口东北方向116米左右",
        "tel": "",
        "category": "基础设施:公共设施:公共厕所",
        "type": 0,
        "location": {
            "lat": 30.0572,
            "lng": 102.772515
        },
        "ad_info": {
            "adcode": 511825,
            "province": "四川省",
            "city": "雅安市",
            "district": "天全县"
        }
    },
    {
        "id": "5228893663782298582",
        "title": "锅底凼停车区公共厕所",
        "address": "四川省雅安市石棉县栗冶公路与栗子路一段交叉口正南方向942米左右",
        "tel": "",
        "category": "基础设施:公共设施:公共厕所",
        "type": 0,
        "location": {
            "lat": 28.987792,
            "lng": 102.301454
        },
        "ad_info": {
            "adcode": 511824,
            "province": "四川省",
            "city": "雅安市",
            "district": "石棉县"
        }
    },
    {
        "id": "5077285299327890400",
        "title": "公共厕所",
        "address": "四川省雅安市宝兴县神木垒",
        "tel": "",
        "category": "基础设施:公共设施:公共厕所",
        "type": 0,
        "location": {
            "lat": 30.686327,
            "lng": 102.709465
        },
        "ad_info": {
            "adcode": 511827,
            "province": "四川省",
            "city": "雅安市",
            "district": "宝兴县"
        }
    },
    {
        "id": "6639368750856622841",
        "title": "公共厕所",
        "address": "四川省雅安市荥经县东城大桥与人民路东三段交叉口正南方向151米左右",
        "tel": "",
        "category": "基础设施:公共设施:公共厕所",
        "type": 0,
        "location": {
            "lat": 29.79277,
            "lng": 102.854399
        },
        "ad_info": {
            "adcode": 511822,
            "province": "四川省",
            "city": "雅安市",
            "district": "荥经县"
        }
    },
    {
        "id": "6161497080971318430",
        "title": "公共厕所",
        "address": "四川省雅安市宝兴县蜂大路邓池沟",
        "tel": "",
        "category": "基础设施:公共设施:公共厕所",
        "type": 0,
        "location": {
            "lat": 30.532385,
            "lng": 102.942846
        },
        "ad_info": {
            "adcode": 511827,
            "province": "四川省",
            "city": "雅安市",
            "district": "宝兴县"
        }
    },
    {
        "id": "6193431524106718845",
        "title": "公共厕所(名山区蒙阳街道尚东逸庭)",
        "address": "四川省雅安市名山区蒙阳街道吴理真路22号",
        "tel": "",
        "category": "基础设施:公共设施:公共厕所",
        "type": 0,
        "location": {
            "lat": 30.094517,
            "lng": 103.113405
        },
        "ad_info": {
            "adcode": 511803,
            "province": "四川省",
            "city": "雅安市",
            "district": "名山区"
        }
    },
    {
        "id": "15010475153433425509",
        "title": "公共厕所",
        "address": "四川省雅安市宝兴县210省道附近",
        "tel": "",
        "category": "基础设施:公共设施:公共厕所",
        "type": 0,
        "location": {
            "lat": 30.804664,
            "lng": 102.730055
        },
        "ad_info": {
            "adcode": 511827,
            "province": "四川省",
            "city": "雅安市",
            "district": "宝兴县"
        }
    },
    {
        "id": "2542545044574962554",
        "title": "锅底凼停车区公共厕所",
        "address": "四川省雅安市石棉县锅底凼停车区锅底凼加水站西南侧",
        "tel": "",
        "category": "基础设施:公共设施:公共厕所",
        "type": 0,
        "location": {
            "lat": 28.989069,
            "lng": 102.300389
        },
        "ad_info": {
            "adcode": 511824,
            "province": "四川省",
            "city": "雅安市",
            "district": "石棉县"
        }
    },
    {
        "id": "11208172803942628808",
        "title": "公共厕所",
        "address": "四川省雅安市汉源县Y007与梨城西路交叉口西北方向242米左右",
        "tel": "",
        "category": "基础设施:公共设施:公共厕所",
        "type": 0,
        "location": {
            "lat": 29.500405,
            "lng": 102.617191
        },
        "ad_info": {
            "adcode": 511823,
            "province": "四川省",
            "city": "雅安市",
            "district": "汉源县"
        }
    },
    {
        "id": "986922805143808958",
        "title": "公共厕所",
        "address": "四川省雅安市天全县大黄铜街65号",
        "tel": "",
        "category": "基础设施:公共设施:公共厕所",
        "type": 0,
        "location": {
            "lat": 30.069645,
            "lng": 102.757666
        },
        "ad_info": {
            "adcode": 511825,
            "province": "四川省",
            "city": "雅安市",
            "district": "天全县"
        }
    },
    {
        "id": "16328491834327619463",
        "title": "公共厕所",
        "address": "四川省雅安市雨城区唐英肛肠科专业门诊西侧90米",
        "tel": "",
        "category": "基础设施:公共设施:公共厕所",
        "type": 0,
        "location": {
            "lat": 29.991143,
            "lng": 103.000095
        },
        "ad_info": {
            "adcode": 511802,
            "province": "四川省",
            "city": "雅安市",
            "district": "雨城区"
        }
    },
    {
        "id": "18115372521989780379",
        "title": "公共厕所",
        "address": "四川省雅安市雨城区全成报废汽车拆解场东北侧210米",
        "tel": "",
        "category": "基础设施:公共设施:公共厕所",
        "type": 0,
        "location": {
            "lat": 30.032582,
            "lng": 103.070997
        },
        "ad_info": {
            "adcode": 511802,
            "province": "四川省",
            "city": "雅安市",
            "district": "雨城区"
        }
    },
    {
        "id": "11225896271147245923",
        "title": "公共厕所",
        "address": "四川省雅安市名山区平桥街与康乐巷交叉口正东方向44米左右",
        "tel": "",
        "category": "基础设施:公共设施:公共厕所",
        "type": 0,
        "location": {
            "lat": 30.090436,
            "lng": 103.114111
        },
        "ad_info": {
            "adcode": 511803,
            "province": "四川省",
            "city": "雅安市",
            "district": "名山区"
        }
    },
    {
        "id": "9454037879572976591",
        "title": "公共厕所",
        "address": "四川省雅安市石棉县G108与栗子路一段交叉口西南方向603米左右",
        "tel": "",
        "category": "基础设施:公共设施:公共厕所",
        "type": 0,
        "location": {
            "lat": 29.008503,
            "lng": 102.302263
        },
        "ad_info": {
            "adcode": 511824,
            "province": "四川省",
            "city": "雅安市",
            "district": "石棉县"
        }
    },
    {
        "id": "17422158177552158111",
        "title": "公共厕所",
        "address": "四川省雅安市雨城区熊猫大道与阳光路交叉口正北方向108米左右",
        "tel": "",
        "category": "基础设施:公共设施:公共厕所",
        "type": 0,
        "location": {
            "lat": 30.011486,
            "lng": 103.046587
        },
        "ad_info": {
            "adcode": 511802,
            "province": "四川省",
            "city": "雅安市",
            "district": "雨城区"
        }
    },
    {
        "id": "9905938391732909813",
        "title": "汉源服务区公共厕所",
        "address": "四川省雅安市汉源县汉源服务区西北侧",
        "tel": "",
        "category": "基础设施:公共设施:公共厕所",
        "type": 0,
        "location": {
            "lat": 29.433682,
            "lng": 102.634003
        },
        "ad_info": {
            "adcode": 511823,
            "province": "四川省",
            "city": "雅安市",
            "district": "汉源县"
        }
    },
    {
        "id": "5454467119637066380",
        "title": "公共厕所",
        "address": "四川省雅安市荥经县五宪镇卫生院-预防接种门诊南侧60米",
        "tel": "",
        "category": "基础设施:公共设施:公共厕所",
        "type": 0,
        "location": {
            "lat": 29.766605,
            "lng": 102.839523
        },
        "ad_info": {
            "adcode": 511822,
            "province": "四川省",
            "city": "雅安市",
            "district": "荥经县"
        }
    },
    {
        "id": "8214184512574079551",
        "title": "公共厕所",
        "address": "四川省雅安市荥经县民主路与菜市巷交叉口西南方向74米左右",
        "tel": "",
        "category": "基础设施:公共设施:公共厕所",
        "type": 0,
        "location": {
            "lat": 29.790941,
            "lng": 102.845081
        },
        "ad_info": {
            "adcode": 511822,
            "province": "四川省",
            "city": "雅安市",
            "district": "荥经县"
        }
    },
    {
        "id": "6435260592014507195",
        "title": "公共厕所(九襄镇桃源景区停车场)",
        "address": "四川省雅安市汉源县九襄镇桃源景区停车场",
        "tel": "",
        "category": "基础设施:公共设施:公共厕所",
        "type": 0,
        "location": {
            "lat": 29.53749,
            "lng": 102.64375
        },
        "ad_info": {
            "adcode": 511823,
            "province": "四川省",
            "city": "雅安市",
            "district": "汉源县"
        }
    },
    {
        "id": "8375205194448455031",
        "title": "公共厕所",
        "address": "四川省雅安市荥经县",
        "tel": "",
        "category": "基础设施:公共设施:公共厕所",
        "type": 0,
        "location": {
            "lat": 29.593223,
            "lng": 102.897567
        },
        "ad_info": {
            "adcode": 511822,
            "province": "四川省",
            "city": "雅安市",
            "district": "荥经县"
        }
    },
    {
        "id": "6438996479243754075",
        "title": "雅安草坝服务区公共厕所",
        "address": "四川省雅安市雨城区G4218雅叶高速与雅安草坝服务区交叉口西340米",
        "tel": "",
        "category": "基础设施:公共设施:公共厕所",
        "type": 0,
        "location": {
            "lat": 29.97188,
            "lng": 103.101305
        },
        "ad_info": {
            "adcode": 511802,
            "province": "四川省",
            "city": "雅安市",
            "district": "雨城区"
        }
    },
    {
        "id": "13904715045412741419",
        "title": "公共厕所",
        "address": "四川省雅安市宝兴县四川长征干部学院雅安夹金山分院北侧110米",
        "tel": "",
        "category": "基础设施:公共设施:公共厕所",
        "type": 0,
        "location": {
            "lat": 30.355153,
            "lng": 102.809601
        },
        "ad_info": {
            "adcode": 511827,
            "province": "四川省",
            "city": "雅安市",
            "district": "宝兴县"
        }
    },
    {
        "id": "12143382255563022587",
        "title": "公共厕所",
        "address": "四川省雅安市芦山县G351与干坝子大桥交叉口西南方向1464米左右",
        "tel": "",
        "category": "基础设施:公共设施:公共厕所",
        "type": 0,
        "location": {
            "lat": 30.080759,
            "lng": 102.896545
        },
        "ad_info": {
            "adcode": 511826,
            "province": "四川省",
            "city": "雅安市",
            "district": "芦山县"
        }
    },
    {
        "id": "7782882064803768058",
        "title": "公共厕所(汉源县富林镇记忆公园)",
        "address": "四川省雅安市汉源县滨湖大道二段101号富林记忆公园内",
        "tel": "",
        "category": "基础设施:公共设施:公共厕所",
        "type": 0,
        "location": {
            "lat": 29.353876,
            "lng": 102.644195
        },
        "ad_info": {
            "adcode": 511823,
            "province": "四川省",
            "city": "雅安市",
            "district": "汉源县"
        }
    },
    {
        "id": "9080129387416006156",
        "title": "公共厕所",
        "address": "四川省雅安市宝兴县兴盛街与夹金山路交叉口正南方向490米左右",
        "tel": "",
        "category": "基础设施:公共设施:公共厕所",
        "type": 0,
        "location": {
            "lat": 30.377352,
            "lng": 102.811917
        },
        "ad_info": {
            "adcode": 511827,
            "province": "四川省",
            "city": "雅安市",
            "district": "宝兴县"
        }
    },
    {
        "id": "12709585873144422922",
        "title": "公共厕所(SC-YA-0318)",
        "address": "四川省雅安市雨城区孝廉街与熊猫大道交叉口西南方向140米左右",
        "tel": "",
        "category": "基础设施:公共设施:公共厕所",
        "type": 0,
        "location": {
            "lat": 30.016642,
            "lng": 103.058708
        },
        "ad_info": {
            "adcode": 511802,
            "province": "四川省",
            "city": "雅安市",
            "district": "雨城区"
        }
    },
    {
        "id": "10450440366285557482",
        "title": "公共厕所",
        "address": "四川省雅安市雨城区公园路与张家山路交叉口正东方向59米左右",
        "tel": "",
        "category": "基础设施:公共设施:公共厕所",
        "type": 0,
        "location": {
            "lat": 29.977945,
            "lng": 103.005323
        },
        "ad_info": {
            "adcode": 511802,
            "province": "四川省",
            "city": "雅安市",
            "district": "雨城区"
        }
    },
    {
        "id": "17004389991651269053",
        "title": "公共厕所",
        "address": "四川省雅安市雨城区沿江东路青衣江·百瑞酒店",
        "tel": "",
        "category": "基础设施:公共设施:公共厕所",
        "type": 0,
        "location": {
            "lat": 29.984008,
            "lng": 103.004108
        },
        "ad_info": {
            "adcode": 511802,
            "province": "四川省",
            "city": "雅安市",
            "district": "雨城区"
        }
    },
    {
        "id": "16933923188733747900",
        "title": "公共厕所",
        "address": "四川省雅安市雨城区康藏路中国石油加油站",
        "tel": "",
        "category": "基础设施:公共设施:公共厕所",
        "type": 0,
        "location": {
            "lat": 29.998749,
            "lng": 102.981806
        },
        "ad_info": {
            "adcode": 511802,
            "province": "四川省",
            "city": "雅安市",
            "district": "雨城区"
        }
    },
    {
        "id": "9556434753292374041",
        "title": "公共厕所",
        "address": "四川省雅安市石棉县滨河路一段88西南方向70米",
        "tel": "",
        "category": "基础设施:公共设施:公共厕所",
        "type": 0,
        "location": {
            "lat": 29.240374,
            "lng": 102.370278
        },
        "ad_info": {
            "adcode": 511824,
            "province": "四川省",
            "city": "雅安市",
            "district": "石棉县"
        }
    },
    {
        "id": "15420002182035649558",
        "title": "公共厕所",
        "address": "四川省雅安市雨城区大南街与金贸巷交叉口西北方向58米左右",
        "tel": "",
        "category": "基础设施:公共设施:公共厕所",
        "type": 0,
        "location": {
            "lat": 29.985535,
            "lng": 102.99774
        },
        "ad_info": {
            "adcode": 511802,
            "province": "四川省",
            "city": "雅安市",
            "district": "雨城区"
        }
    },
    {
        "id": "444594379417446494",
        "title": "公共厕所",
        "address": "四川省雅安市雨城区水厂巷与西门南路交叉口正北方向40米左右",
        "tel": "",
        "category": "基础设施:公共设施:公共厕所",
        "type": 0,
        "location": {
            "lat": 29.989583,
            "lng": 102.986628
        },
        "ad_info": {
            "adcode": 511802,
            "province": "四川省",
            "city": "雅安市",
            "district": "雨城区"
        }
    },
    {
        "id": "14776748586758042619",
        "title": "公共厕所(茶马古道)",
        "address": "四川省雅安市汉源县清溪镇",
        "tel": "",
        "category": "基础设施:公共设施:公共厕所",
        "type": 0,
        "location": {
            "lat": 29.59808,
            "lng": 102.631275
        },
        "ad_info": {
            "adcode": 511823,
            "province": "四川省",
            "city": "雅安市",
            "district": "汉源县"
        }
    },
    {
        "id": "13793357449088029468",
        "title": "杨柳河公共厕所",
        "address": "四川省雅安市荥经县荥河路杨柳河广场",
        "tel": "",
        "category": "基础设施:公共设施:公共厕所",
        "type": 0,
        "location": {
            "lat": 29.798184,
            "lng": 102.83057
        },
        "ad_info": {
            "adcode": 511822,
            "province": "四川省",
            "city": "雅安市",
            "district": "荥经县"
        }
    },
    {
        "id": "14209286198078587899",
        "title": "公共厕所",
        "address": "四川省雅安市名山区上紫霞街与西大街交叉口西北方向82米左右",
        "tel": "",
        "category": "基础设施:公共设施:公共厕所",
        "type": 0,
        "location": {
            "lat": 30.082254,
            "lng": 103.109179
        },
        "ad_info": {
            "adcode": 511803,
            "province": "四川省",
            "city": "雅安市",
            "district": "名山区"
        }
    },
    {
        "id": "10560497104668705447",
        "title": "公共厕所",
        "address": "四川省雅安市雨城区绿岛路与西康路东段交叉口西北方向45米",
        "tel": "",
        "category": "基础设施:公共设施:公共厕所",
        "type": 0,
        "location": {
            "lat": 29.983589,
            "lng": 103.018127
        },
        "ad_info": {
            "adcode": 511802,
            "province": "四川省",
            "city": "雅安市",
            "district": "雨城区"
        }
    },
    {
        "id": "11151444398472963685",
        "title": "公共厕所",
        "address": "四川省雅安市荥经县人民路东四段与石材路二段交叉口东南方向144米左右",
        "tel": "",
        "category": "基础设施:公共设施:公共厕所",
        "type": 0,
        "location": {
            "lat": 29.799021,
            "lng": 102.859333
        },
        "ad_info": {
            "adcode": 511822,
            "province": "四川省",
            "city": "雅安市",
            "district": "荥经县"
        }
    },
    {
        "id": "6593445493790009814",
        "title": "石棉服务区公共厕所",
        "address": "四川省雅安市石棉县G108与八牌路交叉口正南方向859米左右",
        "tel": "",
        "category": "基础设施:公共设施:公共厕所",
        "type": 0,
        "location": {
            "lat": 29.24853,
            "lng": 102.437458
        },
        "ad_info": {
            "adcode": 511824,
            "province": "四川省",
            "city": "雅安市",
            "district": "石棉县"
        }
    },
    {
        "id": "8576661043893391588",
        "title": "公共厕所",
        "address": "四川省雅安市天全县向阳大道与青江路交叉口西南方向92米左右",
        "tel": "",
        "category": "基础设施:公共设施:公共厕所",
        "type": 0,
        "location": {
            "lat": 30.05923,
            "lng": 102.762171
        },
        "ad_info": {
            "adcode": 511825,
            "province": "四川省",
            "city": "雅安市",
            "district": "天全县"
        }
    },
    {
        "id": "5640470346663146469",
        "title": "公共厕所",
        "address": "四川省雅安市石棉县先源路与滨河路三段交叉口正西方向141米左右",
        "tel": "",
        "category": "基础设施:公共设施:公共厕所",
        "type": 0,
        "location": {
            "lat": 29.225336,
            "lng": 102.36445
        },
        "ad_info": {
            "adcode": 511824,
            "province": "四川省",
            "city": "雅安市",
            "district": "石棉县"
        }
    },
    {
        "id": "1940326611740113553",
        "title": "公共厕所",
        "address": "四川省雅安市名山区民生路与民益路交叉口正南方向107米左右",
        "tel": "",
        "category": "基础设施:公共设施:公共厕所",
        "type": 0,
        "location": {
            "lat": 30.08354,
            "lng": 103.110664
        },
        "ad_info": {
            "adcode": 511803,
            "province": "四川省",
            "city": "雅安市",
            "district": "名山区"
        }
    },
    {
        "id": "16766264503151073744",
        "title": "公共厕所",
        "address": "四川省雅安市雨城区东大街与华兴街交叉口正南方向182米左右",
        "tel": "",
        "category": "基础设施:公共设施:公共厕所",
        "type": 0,
        "location": {
            "lat": 29.980662,
            "lng": 103.004893
        },
        "ad_info": {
            "adcode": 511802,
            "province": "四川省",
            "city": "雅安市",
            "district": "雨城区"
        }
    },
    {
        "id": "8224488842427390522",
        "title": "公共厕所",
        "address": "四川省雅安市雨城区北环路与康藏路交叉口正东方向133米左右",
        "tel": "",
        "category": "基础设施:公共设施:公共厕所",
        "type": 0,
        "location": {
            "lat": 29.998748,
            "lng": 102.982268
        },
        "ad_info": {
            "adcode": 511802,
            "province": "四川省",
            "city": "雅安市",
            "district": "雨城区"
        }
    },
    {
        "id": "15095484555616329569",
        "title": "名山服务区第二公共厕所",
        "address": "四川省雅安市名山区G108与万新巷交叉口西北方向595米左右",
        "tel": "",
        "category": "基础设施:公共设施:公共厕所",
        "type": 0,
        "location": {
            "lat": 30.141177,
            "lng": 103.18338
        },
        "ad_info": {
            "adcode": 511803,
            "province": "四川省",
            "city": "雅安市",
            "district": "名山区"
        }
    },
    {
        "id": "9080129387416006156",
        "title": "公共厕所",
        "address": "四川省雅安市宝兴县兴盛街与夹金山路交叉口正南方向490米左右",
        "tel": "",
        "category": "基础设施:公共设施:公共厕所",
        "type": 0,
        "location": {
            "lat": 30.377352,
            "lng": 102.811917
        },
        "ad_info": {
            "adcode": 511827,
            "province": "四川省",
            "city": "雅安市",
            "district": "宝兴县"
        }
    },
    {
        "id": "12709585873144422922",
        "title": "公共厕所(SC-YA-0318)",
        "address": "四川省雅安市雨城区孝廉街与熊猫大道交叉口西南方向140米左右",
        "tel": "",
        "category": "基础设施:公共设施:公共厕所",
        "type": 0,
        "location": {
            "lat": 30.016642,
            "lng": 103.058708
        },
        "ad_info": {
            "adcode": 511802,
            "province": "四川省",
            "city": "雅安市",
            "district": "雨城区"
        }
    },
    {
        "id": "10450440366285557482",
        "title": "公共厕所",
        "address": "四川省雅安市雨城区公园路与张家山路交叉口正东方向59米左右",
        "tel": "",
        "category": "基础设施:公共设施:公共厕所",
        "type": 0,
        "location": {
            "lat": 29.977945,
            "lng": 103.005323
        },
        "ad_info": {
            "adcode": 511802,
            "province": "四川省",
            "city": "雅安市",
            "district": "雨城区"
        }
    },
    {
        "id": "17004389991651269053",
        "title": "公共厕所",
        "address": "四川省雅安市雨城区沿江东路青衣江·百瑞酒店",
        "tel": "",
        "category": "基础设施:公共设施:公共厕所",
        "type": 0,
        "location": {
            "lat": 29.984008,
            "lng": 103.004108
        },
        "ad_info": {
            "adcode": 511802,
            "province": "四川省",
            "city": "雅安市",
            "district": "雨城区"
        }
    },
    {
        "id": "16933923188733747900",
        "title": "公共厕所",
        "address": "四川省雅安市雨城区康藏路中国石油加油站",
        "tel": "",
        "category": "基础设施:公共设施:公共厕所",
        "type": 0,
        "location": {
            "lat": 29.998749,
            "lng": 102.981806
        },
        "ad_info": {
            "adcode": 511802,
            "province": "四川省",
            "city": "雅安市",
            "district": "雨城区"
        }
    },
    {
        "id": "9556434753292374041",
        "title": "公共厕所",
        "address": "四川省雅安市石棉县滨河路一段88西南方向70米",
        "tel": "",
        "category": "基础设施:公共设施:公共厕所",
        "type": 0,
        "location": {
            "lat": 29.240374,
            "lng": 102.370278
        },
        "ad_info": {
            "adcode": 511824,
            "province": "四川省",
            "city": "雅安市",
            "district": "石棉县"
        }
    },
    {
        "id": "15420002182035649558",
        "title": "公共厕所",
        "address": "四川省雅安市雨城区大南街与金贸巷交叉口西北方向58米左右",
        "tel": "",
        "category": "基础设施:公共设施:公共厕所",
        "type": 0,
        "location": {
            "lat": 29.985535,
            "lng": 102.99774
        },
        "ad_info": {
            "adcode": 511802,
            "province": "四川省",
            "city": "雅安市",
            "district": "雨城区"
        }
    },
    {
        "id": "444594379417446494",
        "title": "公共厕所",
        "address": "四川省雅安市雨城区水厂巷与西门南路交叉口正北方向40米左右",
        "tel": "",
        "category": "基础设施:公共设施:公共厕所",
        "type": 0,
        "location": {
            "lat": 29.989583,
            "lng": 102.986628
        },
        "ad_info": {
            "adcode": 511802,
            "province": "四川省",
            "city": "雅安市",
            "district": "雨城区"
        }
    },
    {
        "id": "14776748586758042619",
        "title": "公共厕所(茶马古道)",
        "address": "四川省雅安市汉源县清溪镇",
        "tel": "",
        "category": "基础设施:公共设施:公共厕所",
        "type": 0,
        "location": {
            "lat": 29.59808,
            "lng": 102.631275
        },
        "ad_info": {
            "adcode": 511823,
            "province": "四川省",
            "city": "雅安市",
            "district": "汉源县"
        }
    },
    {
        "id": "13793357449088029468",
        "title": "杨柳河公共厕所",
        "address": "四川省雅安市荥经县荥河路杨柳河广场",
        "tel": "",
        "category": "基础设施:公共设施:公共厕所",
        "type": 0,
        "location": {
            "lat": 29.798184,
            "lng": 102.83057
        },
        "ad_info": {
            "adcode": 511822,
            "province": "四川省",
            "city": "雅安市",
            "district": "荥经县"
        }
    },
    {
        "id": "14209286198078587899",
        "title": "公共厕所",
        "address": "四川省雅安市名山区上紫霞街与西大街交叉口西北方向82米左右",
        "tel": "",
        "category": "基础设施:公共设施:公共厕所",
        "type": 0,
        "location": {
            "lat": 30.082254,
            "lng": 103.109179
        },
        "ad_info": {
            "adcode": 511803,
            "province": "四川省",
            "city": "雅安市",
            "district": "名山区"
        }
    },
    {
        "id": "10560497104668705447",
        "title": "公共厕所",
        "address": "四川省雅安市雨城区绿岛路与西康路东段交叉口西北方向45米",
        "tel": "",
        "category": "基础设施:公共设施:公共厕所",
        "type": 0,
        "location": {
            "lat": 29.983589,
            "lng": 103.018127
        },
        "ad_info": {
            "adcode": 511802,
            "province": "四川省",
            "city": "雅安市",
            "district": "雨城区"
        }
    },
    {
        "id": "11151444398472963685",
        "title": "公共厕所",
        "address": "四川省雅安市荥经县人民路东四段与石材路二段交叉口东南方向144米左右",
        "tel": "",
        "category": "基础设施:公共设施:公共厕所",
        "type": 0,
        "location": {
            "lat": 29.799021,
            "lng": 102.859333
        },
        "ad_info": {
            "adcode": 511822,
            "province": "四川省",
            "city": "雅安市",
            "district": "荥经县"
        }
    },
    {
        "id": "6593445493790009814",
        "title": "石棉服务区公共厕所",
        "address": "四川省雅安市石棉县G108与八牌路交叉口正南方向859米左右",
        "tel": "",
        "category": "基础设施:公共设施:公共厕所",
        "type": 0,
        "location": {
            "lat": 29.24853,
            "lng": 102.437458
        },
        "ad_info": {
            "adcode": 511824,
            "province": "四川省",
            "city": "雅安市",
            "district": "石棉县"
        }
    },
    {
        "id": "8576661043893391588",
        "title": "公共厕所",
        "address": "四川省雅安市天全县向阳大道与青江路交叉口西南方向92米左右",
        "tel": "",
        "category": "基础设施:公共设施:公共厕所",
        "type": 0,
        "location": {
            "lat": 30.05923,
            "lng": 102.762171
        },
        "ad_info": {
            "adcode": 511825,
            "province": "四川省",
            "city": "雅安市",
            "district": "天全县"
        }
    },
    {
        "id": "5640470346663146469",
        "title": "公共厕所",
        "address": "四川省雅安市石棉县先源路与滨河路三段交叉口正西方向141米左右",
        "tel": "",
        "category": "基础设施:公共设施:公共厕所",
        "type": 0,
        "location": {
            "lat": 29.225336,
            "lng": 102.36445
        },
        "ad_info": {
            "adcode": 511824,
            "province": "四川省",
            "city": "雅安市",
            "district": "石棉县"
        }
    },
    {
        "id": "1940326611740113553",
        "title": "公共厕所",
        "address": "四川省雅安市名山区民生路与民益路交叉口正南方向107米左右",
        "tel": "",
        "category": "基础设施:公共设施:公共厕所",
        "type": 0,
        "location": {
            "lat": 30.08354,
            "lng": 103.110664
        },
        "ad_info": {
            "adcode": 511803,
            "province": "四川省",
            "city": "雅安市",
            "district": "名山区"
        }
    },
    {
        "id": "16766264503151073744",
        "title": "公共厕所",
        "address": "四川省雅安市雨城区东大街与华兴街交叉口正南方向182米左右",
        "tel": "",
        "category": "基础设施:公共设施:公共厕所",
        "type": 0,
        "location": {
            "lat": 29.980662,
            "lng": 103.004893
        },
        "ad_info": {
            "adcode": 511802,
            "province": "四川省",
            "city": "雅安市",
            "district": "雨城区"
        }
    },
    {
        "id": "8224488842427390522",
        "title": "公共厕所",
        "address": "四川省雅安市雨城区北环路与康藏路交叉口正东方向133米左右",
        "tel": "",
        "category": "基础设施:公共设施:公共厕所",
        "type": 0,
        "location": {
            "lat": 29.998748,
            "lng": 102.982268
        },
        "ad_info": {
            "adcode": 511802,
            "province": "四川省",
            "city": "雅安市",
            "district": "雨城区"
        }
    },
    {
        "id": "15095484555616329569",
        "title": "名山服务区第二公共厕所",
        "address": "四川省雅安市名山区G108与万新巷交叉口西北方向595米左右",
        "tel": "",
        "category": "基础设施:公共设施:公共厕所",
        "type": 0,
        "location": {
            "lat": 30.141177,
            "lng": 103.18338
        },
        "ad_info": {
            "adcode": 511803,
            "province": "四川省",
            "city": "雅安市",
            "district": "名山区"
        }
    },
    {
        "id": "9080129387416006156",
        "title": "公共厕所",
        "address": "四川省雅安市宝兴县兴盛街与夹金山路交叉口正南方向490米左右",
        "tel": "",
        "category": "基础设施:公共设施:公共厕所",
        "type": 0,
        "location": {
            "lat": 30.377352,
            "lng": 102.811917
        },
        "ad_info": {
            "adcode": 511827,
            "province": "四川省",
            "city": "雅安市",
            "district": "宝兴县"
        }
    },
    {
        "id": "12709585873144422922",
        "title": "公共厕所(SC-YA-0318)",
        "address": "四川省雅安市雨城区孝廉街与熊猫大道交叉口西南方向140米左右",
        "tel": "",
        "category": "基础设施:公共设施:公共厕所",
        "type": 0,
        "location": {
            "lat": 30.016642,
            "lng": 103.058708
        },
        "ad_info": {
            "adcode": 511802,
            "province": "四川省",
            "city": "雅安市",
            "district": "雨城区"
        }
    },
    {
        "id": "10450440366285557482",
        "title": "公共厕所",
        "address": "四川省雅安市雨城区公园路与张家山路交叉口正东方向59米左右",
        "tel": "",
        "category": "基础设施:公共设施:公共厕所",
        "type": 0,
        "location": {
            "lat": 29.977945,
            "lng": 103.005323
        },
        "ad_info": {
            "adcode": 511802,
            "province": "四川省",
            "city": "雅安市",
            "district": "雨城区"
        }
    },
    {
        "id": "17004389991651269053",
        "title": "公共厕所",
        "address": "四川省雅安市雨城区沿江东路青衣江·百瑞酒店",
        "tel": "",
        "category": "基础设施:公共设施:公共厕所",
        "type": 0,
        "location": {
            "lat": 29.984008,
            "lng": 103.004108
        },
        "ad_info": {
            "adcode": 511802,
            "province": "四川省",
            "city": "雅安市",
            "district": "雨城区"
        }
    },
    {
        "id": "16933923188733747900",
        "title": "公共厕所",
        "address": "四川省雅安市雨城区康藏路中国石油加油站",
        "tel": "",
        "category": "基础设施:公共设施:公共厕所",
        "type": 0,
        "location": {
            "lat": 29.998749,
            "lng": 102.981806
        },
        "ad_info": {
            "adcode": 511802,
            "province": "四川省",
            "city": "雅安市",
            "district": "雨城区"
        }
    },
    {
        "id": "9556434753292374041",
        "title": "公共厕所",
        "address": "四川省雅安市石棉县滨河路一段88西南方向70米",
        "tel": "",
        "category": "基础设施:公共设施:公共厕所",
        "type": 0,
        "location": {
            "lat": 29.240374,
            "lng": 102.370278
        },
        "ad_info": {
            "adcode": 511824,
            "province": "四川省",
            "city": "雅安市",
            "district": "石棉县"
        }
    },
    {
        "id": "15420002182035649558",
        "title": "公共厕所",
        "address": "四川省雅安市雨城区大南街与金贸巷交叉口西北方向58米左右",
        "tel": "",
        "category": "基础设施:公共设施:公共厕所",
        "type": 0,
        "location": {
            "lat": 29.985535,
            "lng": 102.99774
        },
        "ad_info": {
            "adcode": 511802,
            "province": "四川省",
            "city": "雅安市",
            "district": "雨城区"
        }
    },
    {
        "id": "444594379417446494",
        "title": "公共厕所",
        "address": "四川省雅安市雨城区水厂巷与西门南路交叉口正北方向40米左右",
        "tel": "",
        "category": "基础设施:公共设施:公共厕所",
        "type": 0,
        "location": {
            "lat": 29.989583,
            "lng": 102.986628
        },
        "ad_info": {
            "adcode": 511802,
            "province": "四川省",
            "city": "雅安市",
            "district": "雨城区"
        }
    },
    {
        "id": "14776748586758042619",
        "title": "公共厕所(茶马古道)",
        "address": "四川省雅安市汉源县清溪镇",
        "tel": "",
        "category": "基础设施:公共设施:公共厕所",
        "type": 0,
        "location": {
            "lat": 29.59808,
            "lng": 102.631275
        },
        "ad_info": {
            "adcode": 511823,
            "province": "四川省",
            "city": "雅安市",
            "district": "汉源县"
        }
    },
    {
        "id": "13793357449088029468",
        "title": "杨柳河公共厕所",
        "address": "四川省雅安市荥经县荥河路杨柳河广场",
        "tel": "",
        "category": "基础设施:公共设施:公共厕所",
        "type": 0,
        "location": {
            "lat": 29.798184,
            "lng": 102.83057
        },
        "ad_info": {
            "adcode": 511822,
            "province": "四川省",
            "city": "雅安市",
            "district": "荥经县"
        }
    },
    {
        "id": "14209286198078587899",
        "title": "公共厕所",
        "address": "四川省雅安市名山区上紫霞街与西大街交叉口西北方向82米左右",
        "tel": "",
        "category": "基础设施:公共设施:公共厕所",
        "type": 0,
        "location": {
            "lat": 30.082254,
            "lng": 103.109179
        },
        "ad_info": {
            "adcode": 511803,
            "province": "四川省",
            "city": "雅安市",
            "district": "名山区"
        }
    },
    {
        "id": "10560497104668705447",
        "title": "公共厕所",
        "address": "四川省雅安市雨城区绿岛路与西康路东段交叉口西北方向45米",
        "tel": "",
        "category": "基础设施:公共设施:公共厕所",
        "type": 0,
        "location": {
            "lat": 29.983589,
            "lng": 103.018127
        },
        "ad_info": {
            "adcode": 511802,
            "province": "四川省",
            "city": "雅安市",
            "district": "雨城区"
        }
    },
    {
        "id": "11151444398472963685",
        "title": "公共厕所",
        "address": "四川省雅安市荥经县人民路东四段与石材路二段交叉口东南方向144米左右",
        "tel": "",
        "category": "基础设施:公共设施:公共厕所",
        "type": 0,
        "location": {
            "lat": 29.799021,
            "lng": 102.859333
        },
        "ad_info": {
            "adcode": 511822,
            "province": "四川省",
            "city": "雅安市",
            "district": "荥经县"
        }
    },
    {
        "id": "6593445493790009814",
        "title": "石棉服务区公共厕所",
        "address": "四川省雅安市石棉县G108与八牌路交叉口正南方向859米左右",
        "tel": "",
        "category": "基础设施:公共设施:公共厕所",
        "type": 0,
        "location": {
            "lat": 29.24853,
            "lng": 102.437458
        },
        "ad_info": {
            "adcode": 511824,
            "province": "四川省",
            "city": "雅安市",
            "district": "石棉县"
        }
    },
    {
        "id": "8576661043893391588",
        "title": "公共厕所",
        "address": "四川省雅安市天全县向阳大道与青江路交叉口西南方向92米左右",
        "tel": "",
        "category": "基础设施:公共设施:公共厕所",
        "type": 0,
        "location": {
            "lat": 30.05923,
            "lng": 102.762171
        },
        "ad_info": {
            "adcode": 511825,
            "province": "四川省",
            "city": "雅安市",
            "district": "天全县"
        }
    },
    {
        "id": "5640470346663146469",
        "title": "公共厕所",
        "address": "四川省雅安市石棉县先源路与滨河路三段交叉口正西方向141米左右",
        "tel": "",
        "category": "基础设施:公共设施:公共厕所",
        "type": 0,
        "location": {
            "lat": 29.225336,
            "lng": 102.36445
        },
        "ad_info": {
            "adcode": 511824,
            "province": "四川省",
            "city": "雅安市",
            "district": "石棉县"
        }
    },
    {
        "id": "1940326611740113553",
        "title": "公共厕所",
        "address": "四川省雅安市名山区民生路与民益路交叉口正南方向107米左右",
        "tel": "",
        "category": "基础设施:公共设施:公共厕所",
        "type": 0,
        "location": {
            "lat": 30.08354,
            "lng": 103.110664
        },
        "ad_info": {
            "adcode": 511803,
            "province": "四川省",
            "city": "雅安市",
            "district": "名山区"
        }
    },
    {
        "id": "16766264503151073744",
        "title": "公共厕所",
        "address": "四川省雅安市雨城区东大街与华兴街交叉口正南方向182米左右",
        "tel": "",
        "category": "基础设施:公共设施:公共厕所",
        "type": 0,
        "location": {
            "lat": 29.980662,
            "lng": 103.004893
        },
        "ad_info": {
            "adcode": 511802,
            "province": "四川省",
            "city": "雅安市",
            "district": "雨城区"
        }
    },
    {
        "id": "8224488842427390522",
        "title": "公共厕所",
        "address": "四川省雅安市雨城区北环路与康藏路交叉口正东方向133米左右",
        "tel": "",
        "category": "基础设施:公共设施:公共厕所",
        "type": 0,
        "location": {
            "lat": 29.998748,
            "lng": 102.982268
        },
        "ad_info": {
            "adcode": 511802,
            "province": "四川省",
            "city": "雅安市",
            "district": "雨城区"
        }
    },
    {
        "id": "15095484555616329569",
        "title": "名山服务区第二公共厕所",
        "address": "四川省雅安市名山区G108与万新巷交叉口西北方向595米左右",
        "tel": "",
        "category": "基础设施:公共设施:公共厕所",
        "type": 0,
        "location": {
            "lat": 30.141177,
            "lng": 103.18338
        },
        "ad_info": {
            "adcode": 511803,
            "province": "四川省",
            "city": "雅安市",
            "district": "名山区"
        }
    }
]