[
    {
        "id": "2877614209725104787",
        "title": "公共厕所",
        "address": "辽宁省鞍山市铁西区八家子街与厂南街交叉口东南方向92米左右",
        "tel": "",
        "category": "基础设施:公共设施:公共厕所",
        "type": 0,
        "location": {
            "lat": 41.125396,
            "lng": 122.9686
        },
        "ad_info": {
            "adcode": 210303,
            "province": "辽宁省",
            "city": "鞍山市",
            "district": "铁西区"
        }
    },
    {
        "id": "17372566979255505269",
        "title": "公共厕所",
        "address": "辽宁省鞍山市铁西区民生西路188号",
        "tel": "",
        "category": "基础设施:公共设施:公共厕所",
        "type": 0,
        "location": {
            "lat": 41.117327,
            "lng": 122.958427
        },
        "ad_info": {
            "adcode": 210303,
            "province": "辽宁省",
            "city": "鞍山市",
            "district": "铁西区"
        }
    },
    {
        "id": "3103708282324989786",
        "title": "公共厕所",
        "address": "辽宁省鞍山市岫岩满族自治县城西路与大宁街交叉口正南方向32米左右",
        "tel": "",
        "category": "基础设施:公共设施:公共厕所",
        "type": 0,
        "location": {
            "lat": 40.277252,
            "lng": 123.28525
        },
        "ad_info": {
            "adcode": 210323,
            "province": "辽宁省",
            "city": "鞍山市",
            "district": "岫岩满族自治县"
        }
    },
    {
        "id": "15863461140159948210",
        "title": "公共厕所",
        "address": "辽宁省鞍山市铁西区木材街与铁西三道街交叉口西南方向78米左右",
        "tel": "",
        "category": "基础设施:公共设施:公共厕所",
        "type": 0,
        "location": {
            "lat": 41.097862,
            "lng": 122.970723
        },
        "ad_info": {
            "adcode": 210303,
            "province": "辽宁省",
            "city": "鞍山市",
            "district": "铁西区"
        }
    },
    {
        "id": "9280611164534091861",
        "title": "公共厕所",
        "address": "辽宁省鞍山市铁西区大西街36号",
        "tel": "",
        "category": "基础设施:公共设施:公共厕所",
        "type": 0,
        "location": {
            "lat": 41.132589,
            "lng": 122.955368
        },
        "ad_info": {
            "adcode": 210303,
            "province": "辽宁省",
            "city": "鞍山市",
            "district": "铁西区"
        }
    },
    {
        "id": "16164471402274349200",
        "title": "公共厕所",
        "address": "辽宁省鞍山市海城市卫士东路与环城东路交叉口正西方向358米左右",
        "tel": "",
        "category": "基础设施:公共设施:公共厕所",
        "type": 0,
        "location": {
            "lat": 40.861644,
            "lng": 122.757947
        },
        "ad_info": {
            "adcode": 210381,
            "province": "辽宁省",
            "city": "鞍山市",
            "district": "海城市"
        }
    },
    {
        "id": "14209397529201570357",
        "title": "公共厕所",
        "address": "辽宁省鞍山市海城市红星街与胜利街交叉口西南方向41米左右",
        "tel": "",
        "category": "基础设施:公共设施:公共厕所",
        "type": 0,
        "location": {
            "lat": 40.850448,
            "lng": 122.749215
        },
        "ad_info": {
            "adcode": 210381,
            "province": "辽宁省",
            "city": "鞍山市",
            "district": "海城市"
        }
    },
    {
        "id": "14318816248023182187",
        "title": "公共厕所",
        "address": "辽宁省鞍山市海城市市场六号路与铁映路交叉口正西方向562米左右",
        "tel": "",
        "category": "基础设施:公共设施:公共厕所",
        "type": 0,
        "location": {
            "lat": 40.860757,
            "lng": 122.624998
        },
        "ad_info": {
            "adcode": 210381,
            "province": "辽宁省",
            "city": "鞍山市",
            "district": "海城市"
        }
    },
    {
        "id": "3301216838809383955",
        "title": "公共厕所",
        "address": "辽宁省鞍山市海城市兴工街与钢铁路交叉口西北方向341米左右",
        "tel": "",
        "category": "基础设施:公共设施:公共厕所",
        "type": 0,
        "location": {
            "lat": 40.866093,
            "lng": 122.732259
        },
        "ad_info": {
            "adcode": 210381,
            "province": "辽宁省",
            "city": "鞍山市",
            "district": "海城市"
        }
    },
    {
        "id": "1889286656151240131",
        "title": "公共厕所",
        "address": "辽宁省鞍山市铁东区通山街与长虹街交叉口东南方向80米左右",
        "tel": "",
        "category": "基础设施:公共设施:公共厕所",
        "type": 0,
        "location": {
            "lat": 41.128727,
            "lng": 123.00929
        },
        "ad_info": {
            "adcode": 210302,
            "province": "辽宁省",
            "city": "鞍山市",
            "district": "铁东区"
        }
    },
    {
        "id": "3803503520700552467",
        "title": "公共厕所",
        "address": "辽宁省鞍山市铁西区建设大道中国石油",
        "tel": "",
        "category": "基础设施:公共设施:公共厕所",
        "type": 0,
        "location": {
            "lat": 41.123471,
            "lng": 122.935485
        },
        "ad_info": {
            "adcode": 210303,
            "province": "辽宁省",
            "city": "鞍山市",
            "district": "铁西区"
        }
    },
    {
        "id": "9571458271211469636",
        "title": "公共厕所",
        "address": "辽宁省鞍山市海城市站前街与站北街交叉口西北方向18米左右",
        "tel": "",
        "category": "基础设施:公共设施:公共厕所",
        "type": 0,
        "location": {
            "lat": 40.863519,
            "lng": 122.743798
        },
        "ad_info": {
            "adcode": 210381,
            "province": "辽宁省",
            "city": "鞍山市",
            "district": "海城市"
        }
    },
    {
        "id": "8268658791884465908",
        "title": "公共厕所",
        "address": "辽宁省鞍山市海城市政府西路与淮河路交叉口正南方向126米左右",
        "tel": "",
        "category": "基础设施:公共设施:公共厕所",
        "type": 0,
        "location": {
            "lat": 40.880619,
            "lng": 122.682621
        },
        "ad_info": {
            "adcode": 210381,
            "province": "辽宁省",
            "city": "鞍山市",
            "district": "海城市"
        }
    },
    {
        "id": "10592176719356431666",
        "title": "公共厕所",
        "address": "辽宁省鞍山市千山区下上线与鞍山路交叉口正北方向683米左右",
        "tel": "",
        "category": "基础设施:公共设施:公共厕所",
        "type": 0,
        "location": {
            "lat": 41.036229,
            "lng": 123.050769
        },
        "ad_info": {
            "adcode": 210311,
            "province": "辽宁省",
            "city": "鞍山市",
            "district": "千山区"
        }
    },
    {
        "id": "17661236750451950021",
        "title": "公共厕所",
        "address": "辽宁省鞍山市铁东区荣誉街与解放东路交叉口东北方向95米左右",
        "tel": "",
        "category": "基础设施:公共设施:公共厕所",
        "type": 0,
        "location": {
            "lat": 41.092538,
            "lng": 122.987236
        },
        "ad_info": {
            "adcode": 210302,
            "province": "辽宁省",
            "city": "鞍山市",
            "district": "铁东区"
        }
    },
    {
        "id": "17614320911682184336",
        "title": "公共厕所",
        "address": "辽宁省鞍山市海城市大盘线中国石油(赵炒铁村)",
        "tel": "",
        "category": "基础设施:公共设施:公共厕所",
        "type": 0,
        "location": {
            "lat": 40.758888,
            "lng": 122.800442
        },
        "ad_info": {
            "adcode": 210381,
            "province": "辽宁省",
            "city": "鞍山市",
            "district": "海城市"
        }
    },
    {
        "id": "1816505466069750829",
        "title": "公共厕所",
        "address": "辽宁省鞍山市海城市天山南街与省吾路交叉口东北方向399米左右",
        "tel": "",
        "category": "基础设施:公共设施:公共厕所",
        "type": 0,
        "location": {
            "lat": 40.868691,
            "lng": 122.660982
        },
        "ad_info": {
            "adcode": 210381,
            "province": "辽宁省",
            "city": "鞍山市",
            "district": "海城市"
        }
    },
    {
        "id": "11962827138988325442",
        "title": "公共厕所",
        "address": "辽宁省鞍山市铁西区永乐街与革新街交叉口正东方向41米左右",
        "tel": "",
        "category": "基础设施:公共设施:公共厕所",
        "type": 0,
        "location": {
            "lat": 41.119534,
            "lng": 122.957124
        },
        "ad_info": {
            "adcode": 210303,
            "province": "辽宁省",
            "city": "鞍山市",
            "district": "铁西区"
        }
    },
    {
        "id": "3397147988487185207",
        "title": "公共厕所",
        "address": "辽宁省鞍山市岫岩满族自治县万润大街与城东路交叉口东南方向83米左右",
        "tel": "",
        "category": "基础设施:公共设施:公共厕所",
        "type": 0,
        "location": {
            "lat": 40.296421,
            "lng": 123.288424
        },
        "ad_info": {
            "adcode": 210323,
            "province": "辽宁省",
            "city": "鞍山市",
            "district": "岫岩满族自治县"
        }
    },
    {
        "id": "15050847167926887319",
        "title": "公共厕所",
        "address": "辽宁省鞍山市海城市S311与S312交叉口正东方向560米左右",
        "tel": "",
        "category": "基础设施:公共设施:公共厕所",
        "type": 0,
        "location": {
            "lat": 40.833845,
            "lng": 122.78027
        },
        "ad_info": {
            "adcode": 210381,
            "province": "辽宁省",
            "city": "鞍山市",
            "district": "海城市"
        }
    },
    {
        "id": "14307634692639161325",
        "title": "公共厕所",
        "address": "辽宁省鞍山市千山区明锁农家院西南侧",
        "tel": "",
        "category": "基础设施:公共设施:公共厕所",
        "type": 0,
        "location": {
            "lat": 41.016229,
            "lng": 123.048991
        },
        "ad_info": {
            "adcode": 210311,
            "province": "辽宁省",
            "city": "鞍山市",
            "district": "千山区"
        }
    },
    {
        "id": "1103662135274477212",
        "title": "公共厕所",
        "address": "辽宁省鞍山市海城市S312与常青路交叉口东北方向418米左右",
        "tel": "",
        "category": "基础设施:公共设施:公共厕所",
        "type": 0,
        "location": {
            "lat": 40.841639,
            "lng": 122.780678
        },
        "ad_info": {
            "adcode": 210381,
            "province": "辽宁省",
            "city": "鞍山市",
            "district": "海城市"
        }
    },
    {
        "id": "16910417978570764686",
        "title": "公共厕所",
        "address": "辽宁省鞍山市千山区下上线与后山街交叉口正北方向325米左右",
        "tel": "",
        "category": "基础设施:公共设施:公共厕所",
        "type": 0,
        "location": {
            "lat": 41.020666,
            "lng": 123.050975
        },
        "ad_info": {
            "adcode": 210311,
            "province": "辽宁省",
            "city": "鞍山市",
            "district": "千山区"
        }
    },
    {
        "id": "18087127454054792649",
        "title": "公共厕所",
        "address": "辽宁省鞍山市海城市丝绸街与曙光北街交叉口东南方向360米左右",
        "tel": "",
        "category": "基础设施:公共设施:公共厕所",
        "type": 0,
        "location": {
            "lat": 40.8471,
            "lng": 122.765429
        },
        "ad_info": {
            "adcode": 210381,
            "province": "辽宁省",
            "city": "鞍山市",
            "district": "海城市"
        }
    },
    {
        "id": "13428592003321297321",
        "title": "公共厕所",
        "address": "辽宁省鞍山市岫岩满族自治县城东路与张庄公路交叉口正北方向227米左右",
        "tel": "",
        "category": "基础设施:公共设施:公共厕所",
        "type": 0,
        "location": {
            "lat": 40.274182,
            "lng": 123.296771
        },
        "ad_info": {
            "adcode": 210323,
            "province": "辽宁省",
            "city": "鞍山市",
            "district": "岫岩满族自治县"
        }
    },
    {
        "id": "17288397632751018162",
        "title": "公共厕所",
        "address": "辽宁省鞍山市海城市兴业街与兴海大街交叉口正西方向474米左右",
        "tel": "",
        "category": "基础设施:公共设施:公共厕所",
        "type": 0,
        "location": {
            "lat": 40.867458,
            "lng": 122.720484
        },
        "ad_info": {
            "adcode": 210381,
            "province": "辽宁省",
            "city": "鞍山市",
            "district": "海城市"
        }
    },
    {
        "id": "2375062127524894716",
        "title": "公共厕所",
        "address": "辽宁省鞍山市铁东区工人街与福利街交叉口西南方向52米左右",
        "tel": "",
        "category": "基础设施:公共设施:公共厕所",
        "type": 0,
        "location": {
            "lat": 41.094202,
            "lng": 122.984459
        },
        "ad_info": {
            "adcode": 210302,
            "province": "辽宁省",
            "city": "鞍山市",
            "district": "铁东区"
        }
    },
    {
        "id": "5460924227939740204",
        "title": "公共厕所",
        "address": "辽宁省鞍山市海城市新晖路与城东路交叉口东北200米",
        "tel": "",
        "category": "基础设施:公共设施:公共厕所",
        "type": 0,
        "location": {
            "lat": 40.852952,
            "lng": 122.768369
        },
        "ad_info": {
            "adcode": 210381,
            "province": "辽宁省",
            "city": "鞍山市",
            "district": "海城市"
        }
    },
    {
        "id": "10870692136494420294",
        "title": "公共厕所",
        "address": "辽宁省鞍山市岫岩满族自治县中心街与城东路交叉口西北方向155米左右",
        "tel": "",
        "category": "基础设施:公共设施:公共厕所",
        "type": 0,
        "location": {
            "lat": 40.282171,
            "lng": 123.29183
        },
        "ad_info": {
            "adcode": 210323,
            "province": "辽宁省",
            "city": "鞍山市",
            "district": "岫岩满族自治县"
        }
    },
    {
        "id": "7430668260738531803",
        "title": "公共厕所",
        "address": "辽宁省鞍山市海城市九阳煤业东侧210米",
        "tel": "",
        "category": "基础设施:公共设施:公共厕所",
        "type": 0,
        "location": {
            "lat": 40.934607,
            "lng": 122.519722
        },
        "ad_info": {
            "adcode": 210381,
            "province": "辽宁省",
            "city": "鞍山市",
            "district": "海城市"
        }
    },
    {
        "id": "5164506345438559296",
        "title": "公共厕所",
        "address": "辽宁省鞍山市铁东区中华南路与站前街交叉口正西方向121米左右",
        "tel": "",
        "category": "基础设施:公共设施:公共厕所",
        "type": 0,
        "location": {
            "lat": 41.106989,
            "lng": 122.997429
        },
        "ad_info": {
            "adcode": 210302,
            "province": "辽宁省",
            "city": "鞍山市",
            "district": "铁东区"
        }
    },
    {
        "id": "11709577750006591260",
        "title": "公共厕所",
        "address": "辽宁省鞍山市海城市建材东街与滨河西路交叉口西北方向308米左右",
        "tel": "",
        "category": "基础设施:公共设施:公共厕所",
        "type": 0,
        "location": {
            "lat": 40.846082,
            "lng": 122.729243
        },
        "ad_info": {
            "adcode": 210381,
            "province": "辽宁省",
            "city": "鞍山市",
            "district": "海城市"
        }
    },
    {
        "id": "16076140015175364419",
        "title": "公共厕所",
        "address": "辽宁省鞍山市岫岩满族自治县大宁街与山城路交叉口正南方向141米左右",
        "tel": "",
        "category": "基础设施:公共设施:公共厕所",
        "type": 0,
        "location": {
            "lat": 40.277761,
            "lng": 123.291026
        },
        "ad_info": {
            "adcode": 210323,
            "province": "辽宁省",
            "city": "鞍山市",
            "district": "岫岩满族自治县"
        }
    },
    {
        "id": "9205356371516125972",
        "title": "公共厕所",
        "address": "辽宁省鞍山市海城市市场二号路与海新路交叉口正北方向384米左右",
        "tel": "",
        "category": "基础设施:公共设施:公共厕所",
        "type": 0,
        "location": {
            "lat": 40.864681,
            "lng": 122.635835
        },
        "ad_info": {
            "adcode": 210381,
            "province": "辽宁省",
            "city": "鞍山市",
            "district": "海城市"
        }
    },
    {
        "id": "1458614075761894449",
        "title": "公共厕所",
        "address": "辽宁省鞍山市岫岩满族自治县中心街与锦丝路交叉口正北方向58米左右",
        "tel": "",
        "category": "基础设施:公共设施:公共厕所",
        "type": 0,
        "location": {
            "lat": 40.279329,
            "lng": 123.282116
        },
        "ad_info": {
            "adcode": 210323,
            "province": "辽宁省",
            "city": "鞍山市",
            "district": "岫岩满族自治县"
        }
    },
    {
        "id": "11750338787439474152",
        "title": "公共厕所",
        "address": "辽宁省鞍山市铁东区光荣街6号",
        "tel": "",
        "category": "基础设施:公共设施:公共厕所",
        "type": 0,
        "location": {
            "lat": 41.102104,
            "lng": 122.988552
        },
        "ad_info": {
            "adcode": 210302,
            "province": "辽宁省",
            "city": "鞍山市",
            "district": "铁东区"
        }
    },
    {
        "id": "10519583134926634124",
        "title": "公共厕所",
        "address": "辽宁省鞍山市铁东区中华南路与安乐街交叉口西北方向47米左右",
        "tel": "",
        "category": "基础设施:公共设施:公共厕所",
        "type": 0,
        "location": {
            "lat": 41.096451,
            "lng": 122.992287
        },
        "ad_info": {
            "adcode": 210302,
            "province": "辽宁省",
            "city": "鞍山市",
            "district": "铁东区"
        }
    },
    {
        "id": "10433437091595234285",
        "title": "公共厕所",
        "address": "辽宁省鞍山市岫岩满族自治县G229与桓盖线交叉口东南方向257米左右",
        "tel": "",
        "category": "基础设施:公共设施:公共厕所",
        "type": 0,
        "location": {
            "lat": 40.286126,
            "lng": 123.30797
        },
        "ad_info": {
            "adcode": 210323,
            "province": "辽宁省",
            "city": "鞍山市",
            "district": "岫岩满族自治县"
        }
    },
    {
        "id": "16369455253165071964",
        "title": "公共厕所",
        "address": "辽宁省鞍山市岫岩满族自治县张庄公路与龙王线交叉口西南方向454米左右",
        "tel": "",
        "category": "基础设施:公共设施:公共厕所",
        "type": 0,
        "location": {
            "lat": 40.4696,
            "lng": 123.452711
        },
        "ad_info": {
            "adcode": 210323,
            "province": "辽宁省",
            "city": "鞍山市",
            "district": "岫岩满族自治县"
        }
    },
    {
        "id": "5405166150810226155",
        "title": "公共厕所",
        "address": "辽宁省鞍山市岫岩满族自治县赫义深口腔(岫岩分店)西侧290米",
        "tel": "",
        "category": "基础设施:公共设施:公共厕所",
        "type": 0,
        "location": {
            "lat": 40.282155,
            "lng": 123.274293
        },
        "ad_info": {
            "adcode": 210323,
            "province": "辽宁省",
            "city": "鞍山市",
            "district": "岫岩满族自治县"
        }
    },
    {
        "id": "1452595976493755167",
        "title": "公共厕所",
        "address": "辽宁省鞍山市铁东区建国大道1号鞍山站停车场",
        "tel": "",
        "category": "基础设施:公共设施:公共厕所",
        "type": 0,
        "location": {
            "lat": 41.111597,
            "lng": 122.985564
        },
        "ad_info": {
            "adcode": 210302,
            "province": "辽宁省",
            "city": "鞍山市",
            "district": "铁东区"
        }
    },
    {
        "id": "13442041288283121702",
        "title": "公共厕所",
        "address": "辽宁省鞍山市铁东区二一九公园内",
        "tel": "",
        "category": "基础设施:公共设施:公共厕所",
        "type": 0,
        "location": {
            "lat": 41.104342,
            "lng": 123.009609
        },
        "ad_info": {
            "adcode": 210302,
            "province": "辽宁省",
            "city": "鞍山市",
            "district": "铁东区"
        }
    },
    {
        "id": "12724234345824991789",
        "title": "公共厕所",
        "address": "辽宁省鞍山市岫岩满族自治县迎宾路与锦丝路交叉口正西方向1536米左右",
        "tel": "",
        "category": "基础设施:公共设施:公共厕所",
        "type": 0,
        "location": {
            "lat": 40.285435,
            "lng": 123.261316
        },
        "ad_info": {
            "adcode": 210323,
            "province": "辽宁省",
            "city": "鞍山市",
            "district": "岫岩满族自治县"
        }
    },
    {
        "id": "13891746045712595399",
        "title": "公共厕所",
        "address": "辽宁省鞍山市岫岩满族自治县张庄公路中国石油(馨博园酒店西南)",
        "tel": "",
        "category": "基础设施:公共设施:公共厕所",
        "type": 0,
        "location": {
            "lat": 40.560264,
            "lng": 123.480354
        },
        "ad_info": {
            "adcode": 210323,
            "province": "辽宁省",
            "city": "鞍山市",
            "district": "岫岩满族自治县"
        }
    },
    {
        "id": "5833979722954736041",
        "title": "公共厕所",
        "address": "辽宁省鞍山市铁东区中华南路与四方台路交叉口西南方向317米左右",
        "tel": "",
        "category": "基础设施:公共设施:公共厕所",
        "type": 0,
        "location": {
            "lat": 41.074642,
            "lng": 122.978832
        },
        "ad_info": {
            "adcode": 210302,
            "province": "辽宁省",
            "city": "鞍山市",
            "district": "铁东区"
        }
    },
    {
        "id": "7828843984017034963",
        "title": "公共厕所",
        "address": "辽宁省鞍山市铁东区工人东街与石东街交叉口正北方向56米左右",
        "tel": "",
        "category": "基础设施:公共设施:公共厕所",
        "type": 0,
        "location": {
            "lat": 41.093537,
            "lng": 123.013544
        },
        "ad_info": {
            "adcode": 210302,
            "province": "辽宁省",
            "city": "鞍山市",
            "district": "铁东区"
        }
    },
    {
        "id": "16157569688724277200",
        "title": "公共厕所",
        "address": "辽宁省鞍山市岫岩满族自治县张庄公路与张庄线交叉口正西方向721米左右",
        "tel": "",
        "category": "基础设施:公共设施:公共厕所",
        "type": 0,
        "location": {
            "lat": 40.709624,
            "lng": 123.545893
        },
        "ad_info": {
            "adcode": 210323,
            "province": "辽宁省",
            "city": "鞍山市",
            "district": "岫岩满族自治县"
        }
    },
    {
        "id": "15006260512972557008",
        "title": "公共厕所",
        "address": "辽宁省鞍山市岫岩满族自治县山城路与张庄公路交叉口正西方向491米左右",
        "tel": "",
        "category": "基础设施:公共设施:公共厕所",
        "type": 0,
        "location": {
            "lat": 40.270222,
            "lng": 123.287179
        },
        "ad_info": {
            "adcode": 210323,
            "province": "辽宁省",
            "city": "鞍山市",
            "district": "岫岩满族自治县"
        }
    },
    {
        "id": "12872087361440807004",
        "title": "公共厕所",
        "address": "辽宁省鞍山市岫岩满族自治县山城路与张庄公路交叉口正西方向691米左右",
        "tel": "",
        "category": "基础设施:公共设施:公共厕所",
        "type": 0,
        "location": {
            "lat": 40.267654,
            "lng": 123.285162
        },
        "ad_info": {
            "adcode": 210323,
            "province": "辽宁省",
            "city": "鞍山市",
            "district": "岫岩满族自治县"
        }
    },
    {
        "id": "8377413664896617636",
        "title": "公共厕所",
        "address": "辽宁省鞍山市海城市永安路与站东街交叉口西北方向113米左右",
        "tel": "",
        "category": "基础设施:公共设施:公共厕所",
        "type": 0,
        "location": {
            "lat": 40.860925,
            "lng": 122.74435
        },
        "ad_info": {
            "adcode": 210381,
            "province": "辽宁省",
            "city": "鞍山市",
            "district": "海城市"
        }
    },
    {
        "id": "13573907619793150556",
        "title": "公共厕所",
        "address": "辽宁省鞍山市岫岩满族自治县大宁街与岫梨线交叉口西南方向180米左右",
        "tel": "",
        "category": "基础设施:公共设施:公共厕所",
        "type": 0,
        "location": {
            "lat": 40.275048,
            "lng": 123.276617
        },
        "ad_info": {
            "adcode": 210323,
            "province": "辽宁省",
            "city": "鞍山市",
            "district": "岫岩满族自治县"
        }
    },
    {
        "id": "5424974612242684969",
        "title": "公共厕所",
        "address": "辽宁省鞍山市铁东区安上线与营大线交叉口正北方向811米左右",
        "tel": "",
        "category": "基础设施:公共设施:公共厕所",
        "type": 0,
        "location": {
            "lat": 41.053056,
            "lng": 123.050786
        },
        "ad_info": {
            "adcode": 210302,
            "province": "辽宁省",
            "city": "鞍山市",
            "district": "铁东区"
        }
    },
    {
        "id": "16965868313688443384",
        "title": "公共厕所",
        "address": "辽宁省鞍山市岫岩满族自治县城西路与大宁街交叉口正南方向269米左右",
        "tel": "",
        "category": "基础设施:公共设施:公共厕所",
        "type": 0,
        "location": {
            "lat": 40.275101,
            "lng": 123.285186
        },
        "ad_info": {
            "adcode": 210323,
            "province": "辽宁省",
            "city": "鞍山市",
            "district": "岫岩满族自治县"
        }
    },
    {
        "id": "10476564779854777009",
        "title": "公共厕所",
        "address": "辽宁省鞍山市立山区曙光路70号",
        "tel": "",
        "category": "基础设施:公共设施:公共厕所",
        "type": 0,
        "location": {
            "lat": 41.148661,
            "lng": 123.052707
        },
        "ad_info": {
            "adcode": 210304,
            "province": "辽宁省",
            "city": "鞍山市",
            "district": "立山区"
        }
    },
    {
        "id": "7574866709051197308",
        "title": "公共厕所",
        "address": "辽宁省鞍山市铁西区民北街与铁西五道街交叉口东南方向77米左右",
        "tel": "",
        "category": "基础设施:公共设施:公共厕所",
        "type": 0,
        "location": {
            "lat": 41.110284,
            "lng": 122.976544
        },
        "ad_info": {
            "adcode": 210303,
            "province": "辽宁省",
            "city": "鞍山市",
            "district": "铁西区"
        }
    },
    {
        "id": "10235743175658897218",
        "title": "公共厕所",
        "address": "辽宁省鞍山市立山区友爱北街时代农贸批发中心",
        "tel": "",
        "category": "基础设施:公共设施:公共厕所",
        "type": 0,
        "location": {
            "lat": 41.146634,
            "lng": 123.022415
        },
        "ad_info": {
            "adcode": 210304,
            "province": "辽宁省",
            "city": "鞍山市",
            "district": "立山区"
        }
    },
    {
        "id": "6869023219241929590",
        "title": "公共厕所",
        "address": "辽宁省鞍山市台安县沈盘线中国石化加油站(胜利东路站)",
        "tel": "",
        "category": "基础设施:公共设施:公共厕所",
        "type": 0,
        "location": {
            "lat": 41.389983,
            "lng": 122.442163
        },
        "ad_info": {
            "adcode": 210321,
            "province": "辽宁省",
            "city": "鞍山市",
            "district": "台安县"
        }
    },
    {
        "id": "16908991561235135587",
        "title": "公共厕所",
        "address": "辽宁省鞍山市海城市白杨南街与白杨西街交叉口正北方向89米左右",
        "tel": "",
        "category": "基础设施:公共设施:公共厕所",
        "type": 0,
        "location": {
            "lat": 40.855318,
            "lng": 122.753965
        },
        "ad_info": {
            "adcode": 210381,
            "province": "辽宁省",
            "city": "鞍山市",
            "district": "海城市"
        }
    },
    {
        "id": "13270460489811045228",
        "title": "公共厕所",
        "address": "辽宁省鞍山市铁西区大西街福至·幸福城",
        "tel": "",
        "category": "基础设施:公共设施:公共厕所",
        "type": 0,
        "location": {
            "lat": 41.123968,
            "lng": 122.949705
        },
        "ad_info": {
            "adcode": 210303,
            "province": "辽宁省",
            "city": "鞍山市",
            "district": "铁西区"
        }
    },
    {
        "id": "8318392250024322690",
        "title": "公共厕所",
        "address": "辽宁省鞍山市立山区悦来园宾馆(百姓新生活购物中心东)",
        "tel": "",
        "category": "基础设施:公共设施:公共厕所",
        "type": 0,
        "location": {
            "lat": 41.144192,
            "lng": 123.056691
        },
        "ad_info": {
            "adcode": 210304,
            "province": "辽宁省",
            "city": "鞍山市",
            "district": "立山区"
        }
    },
    {
        "id": "2683342211838201292",
        "title": "公共厕所",
        "address": "辽宁省鞍山市海城市S312与城东路交叉口正西方向687米左右",
        "tel": "",
        "category": "基础设施:公共设施:公共厕所",
        "type": 0,
        "location": {
            "lat": 40.856106,
            "lng": 122.780392
        },
        "ad_info": {
            "adcode": 210381,
            "province": "辽宁省",
            "city": "鞍山市",
            "district": "海城市"
        }
    },
    {
        "id": "2220811510922837363",
        "title": "公共厕所",
        "address": "辽宁省鞍山市海城市兴强街与兴海大街交叉口东南方向179米左右",
        "tel": "",
        "category": "基础设施:公共设施:公共厕所",
        "type": 0,
        "location": {
            "lat": 40.872973,
            "lng": 122.716898
        },
        "ad_info": {
            "adcode": 210381,
            "province": "辽宁省",
            "city": "鞍山市",
            "district": "海城市"
        }
    },
    {
        "id": "9743165233551732416",
        "title": "公共厕所",
        "address": "辽宁省鞍山市立山区中兴街与钢红街交叉口西南方向73米左右",
        "tel": "",
        "category": "基础设施:公共设施:公共厕所",
        "type": 0,
        "location": {
            "lat": 41.185037,
            "lng": 123.046644
        },
        "ad_info": {
            "adcode": 210304,
            "province": "辽宁省",
            "city": "鞍山市",
            "district": "立山区"
        }
    },
    {
        "id": "13914429596474402442",
        "title": "公共厕所",
        "address": "辽宁省鞍山市铁西区新开街与铁西六道街交叉口正西方向150米左右",
        "tel": "",
        "category": "基础设施:公共设施:公共厕所",
        "type": 0,
        "location": {
            "lat": 41.101793,
            "lng": 122.967199
        },
        "ad_info": {
            "adcode": 210303,
            "province": "辽宁省",
            "city": "鞍山市",
            "district": "铁西区"
        }
    },
    {
        "id": "9445918036562255660",
        "title": "公共厕所",
        "address": "辽宁省鞍山市立山区自由东街与鞍千路交叉口西北方向637米左右",
        "tel": "",
        "category": "基础设施:公共设施:公共厕所",
        "type": 0,
        "location": {
            "lat": 41.136367,
            "lng": 123.069282
        },
        "ad_info": {
            "adcode": 210304,
            "province": "辽宁省",
            "city": "鞍山市",
            "district": "立山区"
        }
    },
    {
        "id": "17016867130794300152",
        "title": "公共厕所",
        "address": "辽宁省鞍山市立山区第一中学(新校区)东侧180米",
        "tel": "",
        "category": "基础设施:公共设施:公共厕所",
        "type": 0,
        "location": {
            "lat": 41.112076,
            "lng": 123.08638
        },
        "ad_info": {
            "adcode": 210304,
            "province": "辽宁省",
            "city": "鞍山市",
            "district": "立山区"
        }
    },
    {
        "id": "3391656690561438041",
        "title": "公共厕所",
        "address": "辽宁省鞍山市海城市中街北路与卫士南路交叉口东北方向64米左右",
        "tel": "",
        "category": "基础设施:公共设施:公共厕所",
        "type": 0,
        "location": {
            "lat": 40.858857,
            "lng": 122.754906
        },
        "ad_info": {
            "adcode": 210381,
            "province": "辽宁省",
            "city": "鞍山市",
            "district": "海城市"
        }
    },
    {
        "id": "11897859287457177347",
        "title": "公共厕所",
        "address": "辽宁省鞍山市立山区团结街与友好巷交叉口东北100米",
        "tel": "",
        "category": "基础设施:公共设施:公共厕所",
        "type": 0,
        "location": {
            "lat": 41.139223,
            "lng": 123.011278
        },
        "ad_info": {
            "adcode": 210304,
            "province": "辽宁省",
            "city": "鞍山市",
            "district": "立山区"
        }
    },
    {
        "id": "7918579206471017809",
        "title": "公共厕所",
        "address": "辽宁省鞍山市海城市日新路与胜利街交叉口西北方向132米左右",
        "tel": "",
        "category": "基础设施:公共设施:公共厕所",
        "type": 0,
        "location": {
            "lat": 40.849651,
            "lng": 122.747627
        },
        "ad_info": {
            "adcode": 210381,
            "province": "辽宁省",
            "city": "鞍山市",
            "district": "海城市"
        }
    },
    {
        "id": "7474479387642532923",
        "title": "公共厕所",
        "address": "辽宁省鞍山市铁西区兴盛路152号正西方向100米",
        "tel": "",
        "category": "基础设施:公共设施:公共厕所",
        "type": 0,
        "location": {
            "lat": 41.101773,
            "lng": 122.958093
        },
        "ad_info": {
            "adcode": 210303,
            "province": "辽宁省",
            "city": "鞍山市",
            "district": "铁西区"
        }
    },
    {
        "id": "11907876606010674390",
        "title": "公共厕所",
        "address": "辽宁省鞍山市岫岩满族自治县山城路与张庄公路交叉口东北方向164米左右",
        "tel": "",
        "category": "基础设施:公共设施:公共厕所",
        "type": 0,
        "location": {
            "lat": 40.270501,
            "lng": 123.294417
        },
        "ad_info": {
            "adcode": 210323,
            "province": "辽宁省",
            "city": "鞍山市",
            "district": "岫岩满族自治县"
        }
    },
    {
        "id": "16733092761204973727",
        "title": "公共厕所",
        "address": "辽宁省鞍山市铁西区铁西三道街华景·名筑",
        "tel": "",
        "category": "基础设施:公共设施:公共厕所",
        "type": 0,
        "location": {
            "lat": 41.100301,
            "lng": 122.972878
        },
        "ad_info": {
            "adcode": 210303,
            "province": "辽宁省",
            "city": "鞍山市",
            "district": "铁西区"
        }
    },
    {
        "id": "5830320099613801005",
        "title": "公共厕所",
        "address": "辽宁省鞍山市台安县大庆西路与胜利西路交叉口东南方向163米左右",
        "tel": "",
        "category": "基础设施:公共设施:公共厕所",
        "type": 0,
        "location": {
            "lat": 41.391398,
            "lng": 122.418223
        },
        "ad_info": {
            "adcode": 210321,
            "province": "辽宁省",
            "city": "鞍山市",
            "district": "台安县"
        }
    },
    {
        "id": "1157397769448669581",
        "title": "公共厕所",
        "address": "辽宁省鞍山市铁西区卫光街与铁西六道街交叉口正东方向122米左右",
        "tel": "",
        "category": "基础设施:公共设施:公共厕所",
        "type": 0,
        "location": {
            "lat": 41.100033,
            "lng": 122.969612
        },
        "ad_info": {
            "adcode": 210303,
            "province": "辽宁省",
            "city": "鞍山市",
            "district": "铁西区"
        }
    },
    {
        "id": "14242832503859514367",
        "title": "公共厕所",
        "address": "辽宁省鞍山市铁东区五一路21号",
        "tel": "",
        "category": "基础设施:公共设施:公共厕所",
        "type": 0,
        "location": {
            "lat": 41.113628,
            "lng": 122.993864
        },
        "ad_info": {
            "adcode": 210302,
            "province": "辽宁省",
            "city": "鞍山市",
            "district": "铁东区"
        }
    },
    {
        "id": "12842036716382433883",
        "title": "公共厕所",
        "address": "辽宁省鞍山市铁东区兴商巷与胜利南路交叉口正西方向105米左右",
        "tel": "",
        "category": "基础设施:公共设施:公共厕所",
        "type": 0,
        "location": {
            "lat": 41.119761,
            "lng": 123.000314
        },
        "ad_info": {
            "adcode": 210302,
            "province": "辽宁省",
            "city": "鞍山市",
            "district": "铁东区"
        }
    },
    {
        "id": "2778035014668371905",
        "title": "公共厕所",
        "address": "辽宁省鞍山市立山区中华北路与双山路交叉口正西方向50米左右",
        "tel": "",
        "category": "基础设施:公共设施:公共厕所",
        "type": 0,
        "location": {
            "lat": 41.135504,
            "lng": 123.01843
        },
        "ad_info": {
            "adcode": 210304,
            "province": "辽宁省",
            "city": "鞍山市",
            "district": "立山区"
        }
    },
    {
        "id": "9272451916969219950",
        "title": "公共卫生间",
        "address": "辽宁省鞍山市铁东区南二街58号天河大厦",
        "tel": "",
        "category": "基础设施:公共设施:公共厕所",
        "type": 0,
        "location": {
            "lat": 41.110177,
            "lng": 122.987868
        },
        "ad_info": {
            "adcode": 210302,
            "province": "辽宁省",
            "city": "鞍山市",
            "district": "铁东区"
        }
    },
    {
        "id": "10225414850370408123",
        "title": "公共厕所",
        "address": "辽宁省鞍山市岫岩满族自治县玉都东门北胡同口东北方向256米左右",
        "tel": "",
        "category": "基础设施:公共设施:公共厕所",
        "type": 0,
        "location": {
            "lat": 40.284841,
            "lng": 123.290496
        },
        "ad_info": {
            "adcode": 210323,
            "province": "辽宁省",
            "city": "鞍山市",
            "district": "岫岩满族自治县"
        }
    },
    {
        "id": "6860718627770810534",
        "title": "公共厕所",
        "address": "辽宁省鞍山市铁东区解放东路260-s2号",
        "tel": "",
        "category": "基础设施:公共设施:公共厕所",
        "type": 0,
        "location": {
            "lat": 41.077162,
            "lng": 123.015987
        },
        "ad_info": {
            "adcode": 210302,
            "province": "辽宁省",
            "city": "鞍山市",
            "district": "铁东区"
        }
    },
    {
        "id": "14009506495634844589",
        "title": "公共厕所",
        "address": "辽宁省鞍山市立山区孟深街与工业街交叉口正北方向147米左右",
        "tel": "",
        "category": "基础设施:公共设施:公共厕所",
        "type": 0,
        "location": {
            "lat": 41.146644,
            "lng": 123.046311
        },
        "ad_info": {
            "adcode": 210304,
            "province": "辽宁省",
            "city": "鞍山市",
            "district": "立山区"
        }
    },
    {
        "id": "14809400822850836705",
        "title": "甘泉服务区第二公共厕所",
        "address": "辽宁省鞍山市千山区甘泉服务区与G15沈海高速交叉口北240米",
        "tel": "",
        "category": "基础设施:公共设施:公共厕所",
        "type": 0,
        "location": {
            "lat": 41.004473,
            "lng": 122.775202
        },
        "ad_info": {
            "adcode": 210311,
            "province": "辽宁省",
            "city": "鞍山市",
            "district": "千山区"
        }
    },
    {
        "id": "906202849079565344",
        "title": "公共厕所",
        "address": "辽宁省鞍山市台安县利民街与恩良西路交叉口西南方向40米左右",
        "tel": "",
        "category": "基础设施:公共设施:公共厕所",
        "type": 0,
        "location": {
            "lat": 41.384551,
            "lng": 122.420293
        },
        "ad_info": {
            "adcode": 210321,
            "province": "辽宁省",
            "city": "鞍山市",
            "district": "台安县"
        }
    },
    {
        "id": "1636352726438985475",
        "title": "公共厕所",
        "address": "辽宁省鞍山市台安县八角台商业街与小西街交叉口正南方向210米左右",
        "tel": "",
        "category": "基础设施:公共设施:公共厕所",
        "type": 0,
        "location": {
            "lat": 41.389184,
            "lng": 122.424833
        },
        "ad_info": {
            "adcode": 210321,
            "province": "辽宁省",
            "city": "鞍山市",
            "district": "台安县"
        }
    },
    {
        "id": "5793119583814874101",
        "title": "公共厕所",
        "address": "辽宁省鞍山市铁东区文化街8号",
        "tel": "",
        "category": "基础设施:公共设施:公共厕所",
        "type": 0,
        "location": {
            "lat": 41.112424,
            "lng": 122.989253
        },
        "ad_info": {
            "adcode": 210302,
            "province": "辽宁省",
            "city": "鞍山市",
            "district": "铁东区"
        }
    },
    {
        "id": "1959744606937131900",
        "title": "公共厕所",
        "address": "辽宁省鞍山市铁东区钢锋街富瑞小区",
        "tel": "",
        "category": "基础设施:公共设施:公共厕所",
        "type": 0,
        "location": {
            "lat": 41.097463,
            "lng": 122.981129
        },
        "ad_info": {
            "adcode": 210302,
            "province": "辽宁省",
            "city": "鞍山市",
            "district": "铁东区"
        }
    },
    {
        "id": "10613538460135886483",
        "title": "公共厕所",
        "address": "辽宁省鞍山市铁西区启明街与火炬街交叉口正南方向59米左右",
        "tel": "",
        "category": "基础设施:公共设施:公共厕所",
        "type": 0,
        "location": {
            "lat": 41.115401,
            "lng": 122.985849
        },
        "ad_info": {
            "adcode": 210303,
            "province": "辽宁省",
            "city": "鞍山市",
            "district": "铁西区"
        }
    },
    {
        "id": "16115582094705939504",
        "title": "公共厕所",
        "address": "辽宁省鞍山市立山区奖工街美景家园",
        "tel": "",
        "category": "基础设施:公共设施:公共厕所",
        "type": 0,
        "location": {
            "lat": 41.147286,
            "lng": 123.042277
        },
        "ad_info": {
            "adcode": 210304,
            "province": "辽宁省",
            "city": "鞍山市",
            "district": "立山区"
        }
    },
    {
        "id": "13576912719777536692",
        "title": "公共厕所",
        "address": "辽宁省鞍山市立山区安全街与建国大道交叉口西北方向25米左右",
        "tel": "",
        "category": "基础设施:公共设施:公共厕所",
        "type": 0,
        "location": {
            "lat": 41.14796,
            "lng": 123.01626
        },
        "ad_info": {
            "adcode": 210304,
            "province": "辽宁省",
            "city": "鞍山市",
            "district": "立山区"
        }
    },
    {
        "id": "5514463647108785225",
        "title": "公共厕所",
        "address": "辽宁省鞍山市台安县桑林镇艾岗村小学西北侧190米",
        "tel": "",
        "category": "基础设施:公共设施:公共厕所",
        "type": 0,
        "location": {
            "lat": 41.424443,
            "lng": 122.345791
        },
        "ad_info": {
            "adcode": 210321,
            "province": "辽宁省",
            "city": "鞍山市",
            "district": "台安县"
        }
    },
    {
        "id": "10462131858120529787",
        "title": "公共厕所",
        "address": "辽宁省鞍山市铁东区铁东七道街鞍钢花园",
        "tel": "",
        "category": "基础设施:公共设施:公共厕所",
        "type": 0,
        "location": {
            "lat": 41.110235,
            "lng": 122.997709
        },
        "ad_info": {
            "adcode": 210302,
            "province": "辽宁省",
            "city": "鞍山市",
            "district": "铁东区"
        }
    },
    {
        "id": "15539886080430127052",
        "title": "公共厕所",
        "address": "辽宁省鞍山市立山区建国北路111号",
        "tel": "",
        "category": "基础设施:公共设施:公共厕所",
        "type": 0,
        "location": {
            "lat": 41.1367,
            "lng": 123.006473
        },
        "ad_info": {
            "adcode": 210304,
            "province": "辽宁省",
            "city": "鞍山市",
            "district": "立山区"
        }
    },
    {
        "id": "6078641226279610493",
        "title": "公共厕所",
        "address": "辽宁省鞍山市台安县振兴路与紫衫巷交叉口正南方向227米左右",
        "tel": "",
        "category": "基础设施:公共设施:公共厕所",
        "type": 0,
        "location": {
            "lat": 41.372924,
            "lng": 122.449593
        },
        "ad_info": {
            "adcode": 210321,
            "province": "辽宁省",
            "city": "鞍山市",
            "district": "台安县"
        }
    },
    {
        "id": "86610205656693654",
        "title": "公共厕所",
        "address": "辽宁省鞍山市铁东区中华南路与健康街交叉口正东方向39米左右",
        "tel": "",
        "category": "基础设施:公共设施:公共厕所",
        "type": 0,
        "location": {
            "lat": 41.12267,
            "lng": 123.00817
        },
        "ad_info": {
            "adcode": 210302,
            "province": "辽宁省",
            "city": "鞍山市",
            "district": "铁东区"
        }
    },
    {
        "id": "7933627146963408400",
        "title": "公共厕所",
        "address": "辽宁省鞍山市台安县S102与台盘路交叉口西南方向154米左右",
        "tel": "",
        "category": "基础设施:公共设施:公共厕所",
        "type": 0,
        "location": {
            "lat": 41.380654,
            "lng": 122.405041
        },
        "ad_info": {
            "adcode": 210321,
            "province": "辽宁省",
            "city": "鞍山市",
            "district": "台安县"
        }
    },
    {
        "id": "6782811143323006231",
        "title": "公共厕所",
        "address": "辽宁省鞍山市铁东区和平路与团结街交叉口东北方向40米左右",
        "tel": "",
        "category": "基础设施:公共设施:公共厕所",
        "type": 0,
        "location": {
            "lat": 41.127701,
            "lng": 123.002022
        },
        "ad_info": {
            "adcode": 210302,
            "province": "辽宁省",
            "city": "鞍山市",
            "district": "铁东区"
        }
    },
    {
        "id": "10473902961773749615",
        "title": "公共厕所",
        "address": "辽宁省鞍山市铁东区东山街与铁东八道街交叉口正北方向56米左右",
        "tel": "",
        "category": "基础设施:公共设施:公共厕所",
        "type": 0,
        "location": {
            "lat": 41.113671,
            "lng": 123.000564
        },
        "ad_info": {
            "adcode": 210302,
            "province": "辽宁省",
            "city": "鞍山市",
            "district": "铁东区"
        }
    },
    {
        "id": "17607961368321447555",
        "title": "公共厕所",
        "address": "辽宁省鞍山市岫岩满族自治县大宁街与阜昌路交叉口正南方向406米左右",
        "tel": "",
        "category": "基础设施:公共设施:公共厕所",
        "type": 0,
        "location": {
            "lat": 40.274824,
            "lng": 123.290005
        },
        "ad_info": {
            "adcode": 210323,
            "province": "辽宁省",
            "city": "鞍山市",
            "district": "岫岩满族自治县"
        }
    },
    {
        "id": "11338471653343793943",
        "title": "公共厕所",
        "address": "辽宁省鞍山市立山区鞍千路301号",
        "tel": "",
        "category": "基础设施:公共设施:公共厕所",
        "type": 0,
        "location": {
            "lat": 41.109845,
            "lng": 123.083266
        },
        "ad_info": {
            "adcode": 210304,
            "province": "辽宁省",
            "city": "鞍山市",
            "district": "立山区"
        }
    },
    {
        "id": "3413284951353103636",
        "title": "公共厕所",
        "address": "辽宁省鞍山市台安县Y382与十大线交叉口东南方向1020米左右",
        "tel": "",
        "category": "基础设施:公共设施:公共厕所",
        "type": 0,
        "location": {
            "lat": 41.26202,
            "lng": 122.562532
        },
        "ad_info": {
            "adcode": 210321,
            "province": "辽宁省",
            "city": "鞍山市",
            "district": "台安县"
        }
    },
    {
        "id": "16852858007685914301",
        "title": "公共厕所",
        "address": "辽宁省鞍山市台安县回族小学西侧240米",
        "tel": "",
        "category": "基础设施:公共设施:公共厕所",
        "type": 0,
        "location": {
            "lat": 41.394002,
            "lng": 122.410924
        },
        "ad_info": {
            "adcode": 210321,
            "province": "辽宁省",
            "city": "鞍山市",
            "district": "台安县"
        }
    },
    {
        "id": "17458570258921340683",
        "title": "公共厕所",
        "address": "辽宁省鞍山市立山区园林大道与轴承街交叉口正东方向571米左右",
        "tel": "",
        "category": "基础设施:公共设施:公共厕所",
        "type": 0,
        "location": {
            "lat": 41.171554,
            "lng": 123.064595
        },
        "ad_info": {
            "adcode": 210304,
            "province": "辽宁省",
            "city": "鞍山市",
            "district": "立山区"
        }
    },
    {
        "id": "14358477956583091732",
        "title": "公共厕所",
        "address": "辽宁省鞍山市立山区建设大道与铁塔街交叉口正西方向195米左右",
        "tel": "",
        "category": "基础设施:公共设施:公共厕所",
        "type": 0,
        "location": {
            "lat": 41.196609,
            "lng": 123.026621
        },
        "ad_info": {
            "adcode": 210304,
            "province": "辽宁省",
            "city": "鞍山市",
            "district": "立山区"
        }
    },
    {
        "id": "17079310547984363026",
        "title": "析木服务区公共厕所",
        "address": "辽宁省鞍山市海城市析木大桥与析青线交叉口东南方向1778米左右",
        "tel": "",
        "category": "基础设施:公共设施:公共厕所",
        "type": 0,
        "location": {
            "lat": 40.693216,
            "lng": 122.935362
        },
        "ad_info": {
            "adcode": 210381,
            "province": "辽宁省",
            "city": "鞍山市",
            "district": "海城市"
        }
    },
    {
        "id": "3562495002179317697",
        "title": "析木服务区公共厕所",
        "address": "辽宁省鞍山市海城市析木镇丹锡高速公路析木服务区",
        "tel": "",
        "category": "基础设施:公共设施:公共厕所",
        "type": 0,
        "location": {
            "lat": 40.694148,
            "lng": 122.937953
        },
        "ad_info": {
            "adcode": 210381,
            "province": "辽宁省",
            "city": "鞍山市",
            "district": "海城市"
        }
    },
    {
        "id": "2459667594480412254",
        "title": "乐雪假日温泉酒店-洗手间",
        "address": "辽宁省鞍山市铁东区千山东路与庙尔台交叉口正北方向548米左右",
        "tel": "",
        "category": "基础设施:公共设施:公共厕所",
        "type": 0,
        "location": {
            "lat": 41.049738,
            "lng": 123.137906
        },
        "ad_info": {
            "adcode": 210302,
            "province": "辽宁省",
            "city": "鞍山市",
            "district": "铁东区"
        }
    },
    {
        "id": "13347704826829955122",
        "title": "公共厕所",
        "address": "辽宁省鞍山市铁东区中华南路与民生东路交叉口西北方向136米左右",
        "tel": "",
        "category": "基础设施:公共设施:公共厕所",
        "type": 0,
        "location": {
            "lat": 41.102043,
            "lng": 122.993962
        },
        "ad_info": {
            "adcode": 210302,
            "province": "辽宁省",
            "city": "鞍山市",
            "district": "铁东区"
        }
    },
    {
        "id": "3741835095274506179",
        "title": "甘泉服务区公共厕所",
        "address": "辽宁省鞍山市千山区甘东线与甘东路交叉口东北方向881米左右",
        "tel": "",
        "category": "基础设施:公共设施:公共厕所",
        "type": 0,
        "location": {
            "lat": 41.004674,
            "lng": 122.778745
        },
        "ad_info": {
            "adcode": 210311,
            "province": "辽宁省",
            "city": "鞍山市",
            "district": "千山区"
        }
    },
    {
        "id": "6382254756317517026",
        "title": "公共厕所",
        "address": "辽宁省鞍山市立山区万胜街与生产街交叉口东南方向74米左右",
        "tel": "",
        "category": "基础设施:公共设施:公共厕所",
        "type": 0,
        "location": {
            "lat": 41.157861,
            "lng": 123.033303
        },
        "ad_info": {
            "adcode": 210304,
            "province": "辽宁省",
            "city": "鞍山市",
            "district": "立山区"
        }
    },
    {
        "id": "14318801571909287321",
        "title": "公共厕所",
        "address": "辽宁省鞍山市台安县振兴路与汉卿广场交叉口正西方向110米左右",
        "tel": "",
        "category": "基础设施:公共设施:公共厕所",
        "type": 0,
        "location": {
            "lat": 41.386867,
            "lng": 122.429522
        },
        "ad_info": {
            "adcode": 210321,
            "province": "辽宁省",
            "city": "鞍山市",
            "district": "台安县"
        }
    },
    {
        "id": "7994963335729007495",
        "title": "公共厕所",
        "address": "辽宁省鞍山市立山区新兴街与自由街交叉口正南方向37米左右",
        "tel": "",
        "category": "基础设施:公共设施:公共厕所",
        "type": 0,
        "location": {
            "lat": 41.140908,
            "lng": 123.018088
        },
        "ad_info": {
            "adcode": 210304,
            "province": "辽宁省",
            "city": "鞍山市",
            "district": "立山区"
        }
    },
    {
        "id": "4774707074534185184",
        "title": "公共厕所",
        "address": "辽宁省鞍山市立山区胜利北路35号",
        "tel": "",
        "category": "基础设施:公共设施:公共厕所",
        "type": 0,
        "location": {
            "lat": 41.134716,
            "lng": 123.013409
        },
        "ad_info": {
            "adcode": 210304,
            "province": "辽宁省",
            "city": "鞍山市",
            "district": "立山区"
        }
    },
    {
        "id": "8858246894425963653",
        "title": "公共厕所",
        "address": "辽宁省鞍山市立山区庆工街与胜利北路交叉口正东方向112米左右",
        "tel": "",
        "category": "基础设施:公共设施:公共厕所",
        "type": 0,
        "location": {
            "lat": 41.147969,
            "lng": 123.028727
        },
        "ad_info": {
            "adcode": 210304,
            "province": "辽宁省",
            "city": "鞍山市",
            "district": "立山区"
        }
    },
    {
        "id": "730210624270540785",
        "title": "公共厕所",
        "address": "辽宁省鞍山市立山区园林大道与李家巷交叉口正北方向33米左右",
        "tel": "",
        "category": "基础设施:公共设施:公共厕所",
        "type": 0,
        "location": {
            "lat": 41.138584,
            "lng": 123.050296
        },
        "ad_info": {
            "adcode": 210304,
            "province": "辽宁省",
            "city": "鞍山市",
            "district": "立山区"
        }
    },
    {
        "id": "17049905859431804808",
        "title": "公共厕所",
        "address": "辽宁省鞍山市立山区向上三街与正阳二街交叉口西北方向27米左右",
        "tel": "",
        "category": "基础设施:公共设施:公共厕所",
        "type": 0,
        "location": {
            "lat": 41.130935,
            "lng": 123.031772
        },
        "ad_info": {
            "adcode": 210304,
            "province": "辽宁省",
            "city": "鞍山市",
            "district": "立山区"
        }
    },
    {
        "id": "5894938909683396621",
        "title": "公共厕所",
        "address": "辽宁省鞍山市台安县人民路与繁荣北街交叉口正东方向55米左右",
        "tel": "",
        "category": "基础设施:公共设施:公共厕所",
        "type": 0,
        "location": {
            "lat": 41.409644,
            "lng": 122.433332
        },
        "ad_info": {
            "adcode": 210321,
            "province": "辽宁省",
            "city": "鞍山市",
            "district": "台安县"
        }
    },
    {
        "id": "16063736412403784020",
        "title": "公共厕所",
        "address": "辽宁省鞍山市立山区深峪路与莘英路交叉口东南方向90米左右",
        "tel": "",
        "category": "基础设施:公共设施:公共厕所",
        "type": 0,
        "location": {
            "lat": 41.110725,
            "lng": 123.049279
        },
        "ad_info": {
            "adcode": 210304,
            "province": "辽宁省",
            "city": "鞍山市",
            "district": "立山区"
        }
    },
    {
        "id": "441524846164104309",
        "title": "公共厕所",
        "address": "辽宁省鞍山市立山区新兴街嘉联·铭座",
        "tel": "",
        "category": "基础设施:公共设施:公共厕所",
        "type": 0,
        "location": {
            "lat": 41.131225,
            "lng": 123.007638
        },
        "ad_info": {
            "adcode": 210304,
            "province": "辽宁省",
            "city": "鞍山市",
            "district": "立山区"
        }
    },
    {
        "id": "10851213581577665985",
        "title": "公共厕所",
        "address": "辽宁省鞍山市立山区奖工街与生产街交叉口正南方向131米左右",
        "tel": "",
        "category": "基础设施:公共设施:公共厕所",
        "type": 0,
        "location": {
            "lat": 41.147569,
            "lng": 123.042161
        },
        "ad_info": {
            "adcode": 210304,
            "province": "辽宁省",
            "city": "鞍山市",
            "district": "立山区"
        }
    },
    {
        "id": "15444555288134710035",
        "title": "公共厕所",
        "address": "辽宁省鞍山市立山区光明街与建国大道交叉口东南方向88米左右",
        "tel": "",
        "category": "基础设施:公共设施:公共厕所",
        "type": 0,
        "location": {
            "lat": 41.135541,
            "lng": 123.006021
        },
        "ad_info": {
            "adcode": 210304,
            "province": "辽宁省",
            "city": "鞍山市",
            "district": "立山区"
        }
    },
    {
        "id": "15581757192016012327",
        "title": "公共厕所",
        "address": "辽宁省鞍山市岫岩满族自治县城东路与张庄公路交叉口西南方向201米左右",
        "tel": "",
        "category": "基础设施:公共设施:公共厕所",
        "type": 0,
        "location": {
            "lat": 40.271164,
            "lng": 123.295498
        },
        "ad_info": {
            "adcode": 210323,
            "province": "辽宁省",
            "city": "鞍山市",
            "district": "岫岩满族自治县"
        }
    },
    {
        "id": "15393989894534917602",
        "title": "岫岩服务区公共厕所",
        "address": "辽宁省鞍山市岫岩满族自治县巴花线与张庄公路交叉口正西方向982米左右",
        "tel": "",
        "category": "基础设施:公共设施:公共厕所",
        "type": 0,
        "location": {
            "lat": 40.248578,
            "lng": 123.27662
        },
        "ad_info": {
            "adcode": 210323,
            "province": "辽宁省",
            "city": "鞍山市",
            "district": "岫岩满族自治县"
        }
    },
    {
        "id": "7716899575506926776",
        "title": "公共厕所",
        "address": "辽宁省鞍山市台安县红旗路百利华府",
        "tel": "",
        "category": "基础设施:公共设施:公共厕所",
        "type": 0,
        "location": {
            "lat": 41.377871,
            "lng": 122.428187
        },
        "ad_info": {
            "adcode": 210321,
            "province": "辽宁省",
            "city": "鞍山市",
            "district": "台安县"
        }
    },
    {
        "id": "381266762450570313",
        "title": "公共厕所",
        "address": "辽宁省鞍山市台安县X051与鞍羊线交叉口东南方向35米左右",
        "tel": "",
        "category": "基础设施:公共设施:公共厕所",
        "type": 0,
        "location": {
            "lat": 41.202656,
            "lng": 122.532039
        },
        "ad_info": {
            "adcode": 210321,
            "province": "辽宁省",
            "city": "鞍山市",
            "district": "台安县"
        }
    },
    {
        "id": "8148376275582303198",
        "title": "公共厕所",
        "address": "辽宁省鞍山市台安县台盘路与富民街交叉口西北方向79米左右",
        "tel": "",
        "category": "基础设施:公共设施:公共厕所",
        "type": 0,
        "location": {
            "lat": 41.387477,
            "lng": 122.421521
        },
        "ad_info": {
            "adcode": 210321,
            "province": "辽宁省",
            "city": "鞍山市",
            "district": "台安县"
        }
    },
    {
        "id": "17325739161041120529",
        "title": "公共厕所",
        "address": "辽宁省鞍山市岫岩满族自治县桓盖线与阜昌路交叉口东北方向280米左右",
        "tel": "",
        "category": "基础设施:公共设施:公共厕所",
        "type": 0,
        "location": {
            "lat": 40.289631,
            "lng": 123.287345
        },
        "ad_info": {
            "adcode": 210323,
            "province": "辽宁省",
            "city": "鞍山市",
            "district": "岫岩满族自治县"
        }
    },
    {
        "id": "714305392456590682",
        "title": "公共厕所",
        "address": "辽宁省鞍山市海城市福安路与通海大道交叉口西北方向1223米左右",
        "tel": "",
        "category": "基础设施:公共设施:公共厕所",
        "type": 0,
        "location": {
            "lat": 41.064325,
            "lng": 122.866728
        },
        "ad_info": {
            "adcode": 210381,
            "province": "辽宁省",
            "city": "鞍山市",
            "district": "海城市"
        }
    },
    {
        "id": "1376230299988512324",
        "title": "公共厕所",
        "address": "辽宁省鞍山市立山区孟家沟街与孟深街交叉口西南方向22米左右",
        "tel": "",
        "category": "基础设施:公共设施:公共厕所",
        "type": 0,
        "location": {
            "lat": 41.143548,
            "lng": 123.041649
        },
        "ad_info": {
            "adcode": 210304,
            "province": "辽宁省",
            "city": "鞍山市",
            "district": "立山区"
        }
    },
    {
        "id": "4742866978370980166",
        "title": "公共厕所",
        "address": "辽宁省鞍山市铁东区和平路与山西巷交叉口正南方向86米左右",
        "tel": "",
        "category": "基础设施:公共设施:公共厕所",
        "type": 0,
        "location": {
            "lat": 41.122979,
            "lng": 123.012904
        },
        "ad_info": {
            "adcode": 210302,
            "province": "辽宁省",
            "city": "鞍山市",
            "district": "铁东区"
        }
    },
    {
        "id": "16747280947835339667",
        "title": "公共厕所",
        "address": "辽宁省鞍山市铁西区兴盛路23号-3号",
        "tel": "",
        "category": "基础设施:公共设施:公共厕所",
        "type": 0,
        "location": {
            "lat": 41.116663,
            "lng": 122.96619
        },
        "ad_info": {
            "adcode": 210303,
            "province": "辽宁省",
            "city": "鞍山市",
            "district": "铁西区"
        }
    },
    {
        "id": "6354385546318140259",
        "title": "公共厕所",
        "address": "辽宁省鞍山市立山区灵山路中国石油加油站(辽鞍路)",
        "tel": "",
        "category": "基础设施:公共设施:公共厕所",
        "type": 0,
        "location": {
            "lat": 41.185728,
            "lng": 123.058021
        },
        "ad_info": {
            "adcode": 210304,
            "province": "辽宁省",
            "city": "鞍山市",
            "district": "立山区"
        }
    },
    {
        "id": "10141826384459249851",
        "title": "公共厕所",
        "address": "辽宁省鞍山市立山区朝阳二街与朝阳四街交叉口西南方向69米左右",
        "tel": "",
        "category": "基础设施:公共设施:公共厕所",
        "type": 0,
        "location": {
            "lat": 41.126878,
            "lng": 123.023496
        },
        "ad_info": {
            "adcode": 210304,
            "province": "辽宁省",
            "city": "鞍山市",
            "district": "立山区"
        }
    },
    {
        "id": "11444164906393465719",
        "title": "公共厕所",
        "address": "辽宁省鞍山市立山区安全街与立国街交叉口正北方向49米左右",
        "tel": "",
        "category": "基础设施:公共设施:公共厕所",
        "type": 0,
        "location": {
            "lat": 41.151505,
            "lng": 123.020172
        },
        "ad_info": {
            "adcode": 210304,
            "province": "辽宁省",
            "city": "鞍山市",
            "district": "立山区"
        }
    },
    {
        "id": "7971749064539834815",
        "title": "公共厕所",
        "address": "辽宁省鞍山市立山区友爱北街与新立街交叉口东北方向43米左右",
        "tel": "",
        "category": "基础设施:公共设施:公共厕所",
        "type": 0,
        "location": {
            "lat": 41.146806,
            "lng": 123.020899
        },
        "ad_info": {
            "adcode": 210304,
            "province": "辽宁省",
            "city": "鞍山市",
            "district": "立山区"
        }
    },
    {
        "id": "10635719818418485576",
        "title": "洗手间",
        "address": "辽宁省鞍山市铁西区星火街共成玫瑰园",
        "tel": "",
        "category": "基础设施:公共设施:公共厕所",
        "type": 0,
        "location": {
            "lat": 41.126958,
            "lng": 122.957349
        },
        "ad_info": {
            "adcode": 210303,
            "province": "辽宁省",
            "city": "鞍山市",
            "district": "铁西区"
        }
    },
    {
        "id": "9392143363828557042",
        "title": "公共卫生间",
        "address": "辽宁省鞍山市铁西区人民路与永丰街交叉口正北方向51米左右",
        "tel": "",
        "category": "基础设施:公共设施:公共厕所",
        "type": 0,
        "location": {
            "lat": 41.125101,
            "lng": 122.952922
        },
        "ad_info": {
            "adcode": 210303,
            "province": "辽宁省",
            "city": "鞍山市",
            "district": "铁西区"
        }
    },
    {
        "id": "14587094893235869231",
        "title": "公共厕所",
        "address": "辽宁省鞍山市铁西区民安街与西宁街交叉口正东方向29米左右",
        "tel": "",
        "category": "基础设施:公共设施:公共厕所",
        "type": 0,
        "location": {
            "lat": 41.074205,
            "lng": 122.94895
        },
        "ad_info": {
            "adcode": 210303,
            "province": "辽宁省",
            "city": "鞍山市",
            "district": "铁西区"
        }
    },
    {
        "id": "12565391523042596003",
        "title": "公共厕所",
        "address": "辽宁省鞍山市海城市",
        "tel": "",
        "category": "基础设施:公共设施:公共厕所",
        "type": 0,
        "location": {
            "lat": 40.923978,
            "lng": 122.811407
        },
        "ad_info": {
            "adcode": 210381,
            "province": "辽宁省",
            "city": "鞍山市",
            "district": "海城市"
        }
    },
    {
        "id": "6732268448100873174",
        "title": "公共厕所",
        "address": "辽宁省鞍山市铁西区交通路宝居·朗庭国际",
        "tel": "",
        "category": "基础设施:公共设施:公共厕所",
        "type": 0,
        "location": {
            "lat": 41.110969,
            "lng": 122.944627
        },
        "ad_info": {
            "adcode": 210303,
            "province": "辽宁省",
            "city": "鞍山市",
            "district": "铁西区"
        }
    },
    {
        "id": "9141260057234393991",
        "title": "公共厕所WC",
        "address": "辽宁省鞍山市立山区",
        "tel": "",
        "category": "基础设施:公共设施:公共厕所",
        "type": 0,
        "location": {
            "lat": 41.147111,
            "lng": 123.042265
        },
        "ad_info": {
            "adcode": 210304,
            "province": "辽宁省",
            "city": "鞍山市",
            "district": "立山区"
        }
    },
    {
        "id": "15442186094632858339",
        "title": "公共厕所",
        "address": "辽宁省鞍山市铁东区",
        "tel": "",
        "category": "基础设施:公共设施:公共厕所",
        "type": 0,
        "location": {
            "lat": 41.082808,
            "lng": 122.985982
        },
        "ad_info": {
            "adcode": 210302,
            "province": "辽宁省",
            "city": "鞍山市",
            "district": "铁东区"
        }
    },
    {
        "id": "7417295993718396365",
        "title": "公共厕所",
        "address": "辽宁省鞍山市铁西区陶南街大德·阳光·800",
        "tel": "",
        "category": "基础设施:公共设施:公共厕所",
        "type": 0,
        "location": {
            "lat": 41.09599,
            "lng": 122.963246
        },
        "ad_info": {
            "adcode": 210303,
            "province": "辽宁省",
            "city": "鞍山市",
            "district": "铁西区"
        }
    },
    {
        "id": "5012180941241275306",
        "title": "公共厕所",
        "address": "辽宁省鞍山市台安县",
        "tel": "",
        "category": "基础设施:公共设施:公共厕所",
        "type": 0,
        "location": {
            "lat": 41.436522,
            "lng": 122.546883
        },
        "ad_info": {
            "adcode": 210321,
            "province": "辽宁省",
            "city": "鞍山市",
            "district": "台安县"
        }
    },
    {
        "id": "15965978963440919055",
        "title": "公共卫生间",
        "address": "辽宁省鞍山市台安县富强街",
        "tel": "",
        "category": "基础设施:公共设施:公共厕所",
        "type": 0,
        "location": {
            "lat": 41.385663,
            "lng": 122.432948
        },
        "ad_info": {
            "adcode": 210321,
            "province": "辽宁省",
            "city": "鞍山市",
            "district": "台安县"
        }
    },
    {
        "id": "7523291553870536541",
        "title": "公共厕所",
        "address": "辽宁省鞍山市海城市",
        "tel": "",
        "category": "基础设施:公共设施:公共厕所",
        "type": 0,
        "location": {
            "lat": 40.83615,
            "lng": 122.767303
        },
        "ad_info": {
            "adcode": 210381,
            "province": "辽宁省",
            "city": "鞍山市",
            "district": "海城市"
        }
    },
    {
        "id": "15618216919677333135",
        "title": "公共厕所",
        "address": "辽宁省鞍山市铁西区利民街与通达路交叉口正北方向37米左右",
        "tel": "",
        "category": "基础设施:公共设施:公共厕所",
        "type": 0,
        "location": {
            "lat": 41.134685,
            "lng": 122.936746
        },
        "ad_info": {
            "adcode": 210303,
            "province": "辽宁省",
            "city": "鞍山市",
            "district": "铁西区"
        }
    },
    {
        "id": "4315742403580786242",
        "title": "寰球大酒店-洗手间",
        "address": "辽宁省鞍山市铁东区人民路与建国大道交叉口正东方向38米左右",
        "tel": "",
        "category": "基础设施:公共设施:公共厕所",
        "type": 0,
        "location": {
            "lat": 41.113246,
            "lng": 122.988153
        },
        "ad_info": {
            "adcode": 210302,
            "province": "辽宁省",
            "city": "鞍山市",
            "district": "铁东区"
        }
    },
    {
        "id": "7865654685346020162",
        "title": "公共厕所",
        "address": "辽宁省鞍山市铁西区民北街与兴盛路交叉口东南80米",
        "tel": "",
        "category": "基础设施:公共设施:公共厕所",
        "type": 0,
        "location": {
            "lat": 41.113573,
            "lng": 122.966492
        },
        "ad_info": {
            "adcode": 210303,
            "province": "辽宁省",
            "city": "鞍山市",
            "district": "铁西区"
        }
    },
    {
        "id": "16664996144836724798",
        "title": "公共厕所",
        "address": "辽宁省鞍山市立山区广场东路万达广场B1-1",
        "tel": "",
        "category": "基础设施:公共设施:公共厕所",
        "type": 0,
        "location": {
            "lat": 41.108316,
            "lng": 123.059147
        },
        "ad_info": {
            "adcode": 210304,
            "province": "辽宁省",
            "city": "鞍山市",
            "district": "立山区"
        }
    },
    {
        "id": "4227962107489727139",
        "title": "公共厕所",
        "address": "辽宁省鞍山市立山区光明街与新兴街交叉口西南方向108米左右",
        "tel": "",
        "category": "基础设施:公共设施:公共厕所",
        "type": 0,
        "location": {
            "lat": 41.132847,
            "lng": 123.008856
        },
        "ad_info": {
            "adcode": 210304,
            "province": "辽宁省",
            "city": "鞍山市",
            "district": "立山区"
        }
    },
    {
        "id": "18076530074819677952",
        "title": "公共厕所",
        "address": "辽宁省鞍山市千山区沿河东路与沿河西路交叉口正南方向409米左右",
        "tel": "",
        "category": "基础设施:公共设施:公共厕所",
        "type": 0,
        "location": {
            "lat": 41.066102,
            "lng": 122.937633
        },
        "ad_info": {
            "adcode": 210311,
            "province": "辽宁省",
            "city": "鞍山市",
            "district": "千山区"
        }
    },
    {
        "id": "6515668574068173303",
        "title": "公共厕所",
        "address": "辽宁省鞍山市立山区中华北路孟泰公园(西北角)",
        "tel": "",
        "category": "基础设施:公共设施:公共厕所",
        "type": 0,
        "location": {
            "lat": 41.145648,
            "lng": 123.029269
        },
        "ad_info": {
            "adcode": 210304,
            "province": "辽宁省",
            "city": "鞍山市",
            "district": "立山区"
        }
    },
    {
        "id": "9818296355639920993",
        "title": "公共厕所",
        "address": "辽宁省鞍山市铁东区南胡同与鞍上线交叉口东南方向1098米左右",
        "tel": "",
        "category": "基础设施:公共设施:公共厕所",
        "type": 0,
        "location": {
            "lat": 41.009033,
            "lng": 123.09006
        },
        "ad_info": {
            "adcode": 210302,
            "province": "辽宁省",
            "city": "鞍山市",
            "district": "铁东区"
        }
    },
    {
        "id": "10858739044747654696",
        "title": "公共厕所",
        "address": "辽宁省鞍山市海城市保安街与鞍羊线交叉口正东方向286米左右",
        "tel": "",
        "category": "基础设施:公共设施:公共厕所",
        "type": 0,
        "location": {
            "lat": 41.09234,
            "lng": 122.792023
        },
        "ad_info": {
            "adcode": 210381,
            "province": "辽宁省",
            "city": "鞍山市",
            "district": "海城市"
        }
    },
    {
        "id": "17516751660346249948",
        "title": "公共厕所",
        "address": "辽宁省鞍山市立山区园林大道与鞍千路交叉口东南方向194米左右",
        "tel": "",
        "category": "基础设施:公共设施:公共厕所",
        "type": 0,
        "location": {
            "lat": 41.143776,
            "lng": 123.054505
        },
        "ad_info": {
            "adcode": 210304,
            "province": "辽宁省",
            "city": "鞍山市",
            "district": "立山区"
        }
    },
    {
        "id": "9192896744946194683",
        "title": "公共厕所",
        "address": "辽宁省鞍山市铁西区体育街20号",
        "tel": "",
        "category": "基础设施:公共设施:公共厕所",
        "type": 0,
        "location": {
            "lat": 41.110632,
            "lng": 122.958723
        },
        "ad_info": {
            "adcode": 210303,
            "province": "辽宁省",
            "city": "鞍山市",
            "district": "铁西区"
        }
    },
    {
        "id": "10429665067218929655",
        "title": "中国君子兰产业园禾道花卉景区公共厕所",
        "address": "辽宁省鞍山市千山区甘泉镇君子兰产业园禾道花卉风景区",
        "tel": "",
        "category": "基础设施:公共设施:公共厕所",
        "type": 0,
        "location": {
            "lat": 40.983961,
            "lng": 122.850286
        },
        "ad_info": {
            "adcode": 210311,
            "province": "辽宁省",
            "city": "鞍山市",
            "district": "千山区"
        }
    },
    {
        "id": "11823584842864575520",
        "title": "公共厕所",
        "address": "辽宁省鞍山市立山区立府街与胜利北路交叉口正东方向91米左右",
        "tel": "",
        "category": "基础设施:公共设施:公共厕所",
        "type": 0,
        "location": {
            "lat": 41.149603,
            "lng": 123.030078
        },
        "ad_info": {
            "adcode": 210304,
            "province": "辽宁省",
            "city": "鞍山市",
            "district": "立山区"
        }
    },
    {
        "id": "17266458940016064430",
        "title": "公共厕所",
        "address": "辽宁省鞍山市台安县G102与繁荣北街交叉口正北方向205米左右",
        "tel": "",
        "category": "基础设施:公共设施:公共厕所",
        "type": 0,
        "location": {
            "lat": 41.402031,
            "lng": 122.431151
        },
        "ad_info": {
            "adcode": 210321,
            "province": "辽宁省",
            "city": "鞍山市",
            "district": "台安县"
        }
    },
    {
        "id": "4624909636011842645",
        "title": "公共厕所",
        "address": "辽宁省鞍山市台安县中化石油加油站西侧150米",
        "tel": "",
        "category": "基础设施:公共设施:公共厕所",
        "type": 0,
        "location": {
            "lat": 41.390831,
            "lng": 122.416518
        },
        "ad_info": {
            "adcode": 210321,
            "province": "辽宁省",
            "city": "鞍山市",
            "district": "台安县"
        }
    },
    {
        "id": "18290090677392974966",
        "title": "公共厕所",
        "address": "辽宁省鞍山市台安县光明街与文化路交叉口西南方向58米左右",
        "tel": "",
        "category": "基础设施:公共设施:公共厕所",
        "type": 0,
        "location": {
            "lat": 41.384708,
            "lng": 122.42672
        },
        "ad_info": {
            "adcode": 210321,
            "province": "辽宁省",
            "city": "鞍山市",
            "district": "台安县"
        }
    },
    {
        "id": "2532951925181044067",
        "title": "公共厕所",
        "address": "辽宁省鞍山市台安县S307与迎宾路交叉口正北方向133米左右",
        "tel": "",
        "category": "基础设施:公共设施:公共厕所",
        "type": 0,
        "location": {
            "lat": 41.409893,
            "lng": 122.390692
        },
        "ad_info": {
            "adcode": 210321,
            "province": "辽宁省",
            "city": "鞍山市",
            "district": "台安县"
        }
    },
    {
        "id": "1942985556708783182",
        "title": "公共厕所",
        "address": "辽宁省鞍山市铁东区文化街与铁东二道街交叉口西南方向35米左右",
        "tel": "",
        "category": "基础设施:公共设施:公共厕所",
        "type": 0,
        "location": {
            "lat": 41.112222,
            "lng": 122.98984
        },
        "ad_info": {
            "adcode": 210302,
            "province": "辽宁省",
            "city": "鞍山市",
            "district": "铁东区"
        }
    },
    {
        "id": "9757711348502082989",
        "title": "公共厕所",
        "address": "辽宁省鞍山市铁西区四达路与奥育街交叉口正东方向153米左右",
        "tel": "",
        "category": "基础设施:公共设施:公共厕所",
        "type": 0,
        "location": {
            "lat": 41.13927,
            "lng": 122.936487
        },
        "ad_info": {
            "adcode": 210303,
            "province": "辽宁省",
            "city": "鞍山市",
            "district": "铁西区"
        }
    },
    {
        "id": "13204766412633010497",
        "title": "公共厕所",
        "address": "辽宁省鞍山市岫岩满族自治县大宁街与岫梨线交叉口正西方向1953米左右",
        "tel": "",
        "category": "基础设施:公共设施:公共厕所",
        "type": 0,
        "location": {
            "lat": 40.269616,
            "lng": 123.256956
        },
        "ad_info": {
            "adcode": 210323,
            "province": "辽宁省",
            "city": "鞍山市",
            "district": "岫岩满族自治县"
        }
    },
    {
        "id": "12075127634943089035",
        "title": "岫岩服务区公共厕所",
        "address": "辽宁省鞍山市岫岩满族自治县仙人咀街道丹锡高速公路服务区",
        "tel": "",
        "category": "基础设施:公共设施:公共厕所",
        "type": 0,
        "location": {
            "lat": 40.248566,
            "lng": 123.274012
        },
        "ad_info": {
            "adcode": 210323,
            "province": "辽宁省",
            "city": "鞍山市",
            "district": "岫岩满族自治县"
        }
    },
    {
        "id": "12203037068137675621",
        "title": "公共厕所",
        "address": "辽宁省鞍山市铁西区兴盛南路中国油联CNG加油加气站",
        "tel": "",
        "category": "基础设施:公共设施:公共厕所",
        "type": 0,
        "location": {
            "lat": 41.084851,
            "lng": 122.948129
        },
        "ad_info": {
            "adcode": 210303,
            "province": "辽宁省",
            "city": "鞍山市",
            "district": "铁西区"
        }
    },
    {
        "id": "972422393069776164",
        "title": "公共厕所",
        "address": "辽宁省鞍山市岫岩满族自治县鸿升壹号公馆东侧290米",
        "tel": "",
        "category": "基础设施:公共设施:公共厕所",
        "type": 0,
        "location": {
            "lat": 40.261196,
            "lng": 123.291219
        },
        "ad_info": {
            "adcode": 210323,
            "province": "辽宁省",
            "city": "鞍山市",
            "district": "岫岩满族自治县"
        }
    },
    {
        "id": "2713576066915419961",
        "title": "公共厕所",
        "address": "辽宁省鞍山市立山区友爱北街与新立街交叉口西南方向87米左右",
        "tel": "",
        "category": "基础设施:公共设施:公共厕所",
        "type": 0,
        "location": {
            "lat": 41.146098,
            "lng": 123.019791
        },
        "ad_info": {
            "adcode": 210304,
            "province": "辽宁省",
            "city": "鞍山市",
            "district": "立山区"
        }
    },
    {
        "id": "2558198384649352455",
        "title": "公共厕所",
        "address": "辽宁省鞍山市岫岩满族自治县岫岩抖音电商直播基地东侧110米",
        "tel": "",
        "category": "基础设施:公共设施:公共厕所",
        "type": 0,
        "location": {
            "lat": 40.241785,
            "lng": 123.289121
        },
        "ad_info": {
            "adcode": 210323,
            "province": "辽宁省",
            "city": "鞍山市",
            "district": "岫岩满族自治县"
        }
    },
    {
        "id": "2806723078543280521",
        "title": "公共洗手间",
        "address": "辽宁省鞍山市立山区临城街与科技路交叉口西北方向202米左右",
        "tel": "",
        "category": "基础设施:公共设施:公共厕所",
        "type": 0,
        "location": {
            "lat": 41.112941,
            "lng": 123.071274
        },
        "ad_info": {
            "adcode": 210304,
            "province": "辽宁省",
            "city": "鞍山市",
            "district": "立山区"
        }
    },
    {
        "id": "9595848368306742846",
        "title": "公共厕所",
        "address": "辽宁省鞍山市铁东区槐香路",
        "tel": "",
        "category": "基础设施:公共设施:公共厕所",
        "type": 0,
        "location": {
            "lat": 41.097029,
            "lng": 123.035431
        },
        "ad_info": {
            "adcode": 210302,
            "province": "辽宁省",
            "city": "鞍山市",
            "district": "铁东区"
        }
    },
    {
        "id": "13441305358958360022",
        "title": "公共厕所",
        "address": "辽宁省鞍山市海城市孙晓明牙所东北侧260米",
        "tel": "",
        "category": "基础设施:公共设施:公共厕所",
        "type": 0,
        "location": {
            "lat": 40.819586,
            "lng": 122.556553
        },
        "ad_info": {
            "adcode": 210381,
            "province": "辽宁省",
            "city": "鞍山市",
            "district": "海城市"
        }
    },
    {
        "id": "7523885301112217022",
        "title": "公共厕所",
        "address": "辽宁省鞍山市千山区唐家房镇网户屯村晋昇园",
        "tel": "",
        "category": "基础设施:公共设施:公共厕所",
        "type": 0,
        "location": {
            "lat": 41.029729,
            "lng": 122.967041
        },
        "ad_info": {
            "adcode": 210311,
            "province": "辽宁省",
            "city": "鞍山市",
            "district": "千山区"
        }
    },
    {
        "id": "3722416735449192994",
        "title": "公共厕所",
        "address": "辽宁省鞍山市台安县东方石油加油站(台安县中等职业技术学院东北)西南侧250米",
        "tel": "",
        "category": "基础设施:公共设施:公共厕所",
        "type": 0,
        "location": {
            "lat": 41.379327,
            "lng": 122.402558
        },
        "ad_info": {
            "adcode": 210321,
            "province": "辽宁省",
            "city": "鞍山市",
            "district": "台安县"
        }
    },
    {
        "id": "5070412215191080465",
        "title": "公共厕所",
        "address": "辽宁省鞍山市海城市日新路与胜利街交叉口西北方向112米左右",
        "tel": "",
        "category": "基础设施:公共设施:公共厕所",
        "type": 0,
        "location": {
            "lat": 40.849437,
            "lng": 122.747747
        },
        "ad_info": {
            "adcode": 210381,
            "province": "辽宁省",
            "city": "鞍山市",
            "district": "海城市"
        }
    },
    {
        "id": "2360501988469361263",
        "title": "甘泉服务区公共厕所",
        "address": "辽宁省鞍山市千山区甘东线与甘东路交叉口正北方向1108米左右",
        "tel": "",
        "category": "基础设施:公共设施:公共厕所",
        "type": 0,
        "location": {
            "lat": 41.007459,
            "lng": 122.77647
        },
        "ad_info": {
            "adcode": 210311,
            "province": "辽宁省",
            "city": "鞍山市",
            "district": "千山区"
        }
    },
    {
        "id": "5063940483366732716",
        "title": "公共厕所",
        "address": "辽宁省鞍山市铁东区荣誉街与解放东路交叉口正南方向69米左右",
        "tel": "",
        "category": "基础设施:公共设施:公共厕所",
        "type": 0,
        "location": {
            "lat": 41.091256,
            "lng": 122.986446
        },
        "ad_info": {
            "adcode": 210302,
            "province": "辽宁省",
            "city": "鞍山市",
            "district": "铁东区"
        }
    },
    {
        "id": "7173759191189235942",
        "title": "公共厕所",
        "address": "辽宁省鞍山市岫岩满族自治县万润大街与迎宾路交叉口西南方向746米左右",
        "tel": "",
        "category": "基础设施:公共设施:公共厕所",
        "type": 0,
        "location": {
            "lat": 40.292093,
            "lng": 123.269058
        },
        "ad_info": {
            "adcode": 210323,
            "province": "辽宁省",
            "city": "鞍山市",
            "district": "岫岩满族自治县"
        }
    },
    {
        "id": "12264903442624144836",
        "title": "公共厕所",
        "address": "辽宁省鞍山市铁西区兴盛路兴盛汽车修配城",
        "tel": "",
        "category": "基础设施:公共设施:公共厕所",
        "type": 0,
        "location": {
            "lat": 41.109479,
            "lng": 122.964951
        },
        "ad_info": {
            "adcode": 210303,
            "province": "辽宁省",
            "city": "鞍山市",
            "district": "铁西区"
        }
    },
    {
        "id": "2607207296338631808",
        "title": "公共厕所",
        "address": "辽宁省鞍山市铁东区建国大道与解放路立交桥交叉口东南方向152米左右",
        "tel": "",
        "category": "基础设施:公共设施:公共厕所",
        "type": 0,
        "location": {
            "lat": 41.090238,
            "lng": 122.976417
        },
        "ad_info": {
            "adcode": 210302,
            "province": "辽宁省",
            "city": "鞍山市",
            "district": "铁东区"
        }
    },
    {
        "id": "12059154009327603329",
        "title": "公共厕所",
        "address": "辽宁省鞍山市铁西区环钢路与银环巷交叉口东南80米",
        "tel": "",
        "category": "基础设施:公共设施:公共厕所",
        "type": 0,
        "location": {
            "lat": 41.121911,
            "lng": 122.967373
        },
        "ad_info": {
            "adcode": 210303,
            "province": "辽宁省",
            "city": "鞍山市",
            "district": "铁西区"
        }
    },
    {
        "id": "12249232999470312383",
        "title": "公共厕所",
        "address": "辽宁省鞍山市海城市307省道南50米",
        "tel": "",
        "category": "基础设施:公共设施:公共厕所",
        "type": 0,
        "location": {
            "lat": 41.107926,
            "lng": 122.737348
        },
        "ad_info": {
            "adcode": 210381,
            "province": "辽宁省",
            "city": "鞍山市",
            "district": "海城市"
        }
    },
    {
        "id": "7506292377996545350",
        "title": "公共厕所",
        "address": "辽宁省鞍山市台安县大庆西路与胜利西路交叉口西北方向416米左右",
        "tel": "",
        "category": "基础设施:公共设施:公共厕所",
        "type": 0,
        "location": {
            "lat": 41.393908,
            "lng": 122.41216
        },
        "ad_info": {
            "adcode": 210321,
            "province": "辽宁省",
            "city": "鞍山市",
            "district": "台安县"
        }
    },
    {
        "id": "1255644399627046399",
        "title": "公共厕所",
        "address": "辽宁省鞍山市海城市析青线",
        "tel": "",
        "category": "基础设施:公共设施:公共厕所",
        "type": 0,
        "location": {
            "lat": 40.711544,
            "lng": 122.95461
        },
        "ad_info": {
            "adcode": 210381,
            "province": "辽宁省",
            "city": "鞍山市",
            "district": "海城市"
        }
    },
    {
        "id": "17637438524956211440",
        "title": "公共厕所",
        "address": "辽宁省鞍山市岫岩满族自治县万润大街与城东路交叉口东北方向118米左右",
        "tel": "",
        "category": "基础设施:公共设施:公共厕所",
        "type": 0,
        "location": {
            "lat": 40.297551,
            "lng": 123.288787
        },
        "ad_info": {
            "adcode": 210323,
            "province": "辽宁省",
            "city": "鞍山市",
            "district": "岫岩满族自治县"
        }
    },
    {
        "id": "18446231952089810146",
        "title": "公共厕所",
        "address": "辽宁省鞍山市立山区东环路与羊草庄路交叉口西北方向85米左右",
        "tel": "",
        "category": "基础设施:公共设施:公共厕所",
        "type": 0,
        "location": {
            "lat": 41.161453,
            "lng": 123.07388
        },
        "ad_info": {
            "adcode": 210304,
            "province": "辽宁省",
            "city": "鞍山市",
            "district": "立山区"
        }
    },
    {
        "id": "10324170876378080194",
        "title": "公共厕所",
        "address": "辽宁省鞍山市立山区向上一街与朝阳一街交叉口东南方向31米左右",
        "tel": "",
        "category": "基础设施:公共设施:公共厕所",
        "type": 0,
        "location": {
            "lat": 41.129013,
            "lng": 123.023343
        },
        "ad_info": {
            "adcode": 210304,
            "province": "辽宁省",
            "city": "鞍山市",
            "district": "立山区"
        }
    },
    {
        "id": "8376473657231475111",
        "title": "公共厕所",
        "address": "辽宁省鞍山市铁东区平安街与建设街交叉口东南方向87米左右",
        "tel": "",
        "category": "基础设施:公共设施:公共厕所",
        "type": 0,
        "location": {
            "lat": 41.081726,
            "lng": 122.988252
        },
        "ad_info": {
            "adcode": 210302,
            "province": "辽宁省",
            "city": "鞍山市",
            "district": "铁东区"
        }
    },
    {
        "id": "13703333612601400253",
        "title": "公共厕所",
        "address": "辽宁省鞍山市铁东区莘英路与解放东路交叉口正南方向27米左右",
        "tel": "",
        "category": "基础设施:公共设施:公共厕所",
        "type": 0,
        "location": {
            "lat": 41.078386,
            "lng": 123.013021
        },
        "ad_info": {
            "adcode": 210302,
            "province": "辽宁省",
            "city": "鞍山市",
            "district": "铁东区"
        }
    },
    {
        "id": "5495900559668205478",
        "title": "公共厕所",
        "address": "辽宁省鞍山市立山区樱山路与齐选街交叉口正南方向847米左右",
        "tel": "",
        "category": "基础设施:公共设施:公共厕所",
        "type": 0,
        "location": {
            "lat": 41.151407,
            "lng": 123.095776
        },
        "ad_info": {
            "adcode": 210304,
            "province": "辽宁省",
            "city": "鞍山市",
            "district": "立山区"
        }
    },
    {
        "id": "17238525876573625812",
        "title": "公共厕所",
        "address": "辽宁省鞍山市铁西区人民路与通海大道交叉口正东方向96米左右",
        "tel": "",
        "category": "基础设施:公共设施:公共厕所",
        "type": 0,
        "location": {
            "lat": 41.142223,
            "lng": 122.902352
        },
        "ad_info": {
            "adcode": 210303,
            "province": "辽宁省",
            "city": "鞍山市",
            "district": "铁西区"
        }
    },
    {
        "id": "8119405750043823861",
        "title": "公共厕所",
        "address": "辽宁省鞍山市岫岩满族自治县桓盖线与迎宾路(北)交叉口正西方向719米",
        "tel": "",
        "category": "基础设施:公共设施:公共厕所",
        "type": 0,
        "location": {
            "lat": 40.291346,
            "lng": 123.26944
        },
        "ad_info": {
            "adcode": 210323,
            "province": "辽宁省",
            "city": "鞍山市",
            "district": "岫岩满族自治县"
        }
    },
    {
        "id": "3972029296692394898",
        "title": "公共厕所",
        "address": "辽宁省鞍山市台安县台盘路与富民街交叉口正西方向46米左右",
        "tel": "",
        "category": "基础设施:公共设施:公共厕所",
        "type": 0,
        "location": {
            "lat": 41.386801,
            "lng": 122.421354
        },
        "ad_info": {
            "adcode": 210321,
            "province": "辽宁省",
            "city": "鞍山市",
            "district": "台安县"
        }
    },
    {
        "id": "7541992599524816657",
        "title": "公共厕所",
        "address": "辽宁省鞍山市海城市海城西站",
        "tel": "",
        "category": "基础设施:公共设施:公共厕所",
        "type": 0,
        "location": {
            "lat": 40.914008,
            "lng": 122.659281
        },
        "ad_info": {
            "adcode": 210381,
            "province": "辽宁省",
            "city": "鞍山市",
            "district": "海城市"
        }
    },
    {
        "id": "8144386957025752722",
        "title": "公共厕所",
        "address": "辽宁省鞍山市海城市城东路1080号附近",
        "tel": "",
        "category": "基础设施:公共设施:公共厕所",
        "type": 0,
        "location": {
            "lat": 40.852874,
            "lng": 122.768088
        },
        "ad_info": {
            "adcode": 210381,
            "province": "辽宁省",
            "city": "鞍山市",
            "district": "海城市"
        }
    },
    {
        "id": "13186709159774924932",
        "title": "公共厕所",
        "address": "辽宁省鞍山市岫岩满族自治县大宁街与阜昌路交叉口正南方向303米左右",
        "tel": "",
        "category": "基础设施:公共设施:公共厕所",
        "type": 0,
        "location": {
            "lat": 40.275665,
            "lng": 123.288038
        },
        "ad_info": {
            "adcode": 210323,
            "province": "辽宁省",
            "city": "鞍山市",
            "district": "岫岩满族自治县"
        }
    },
    {
        "id": "10703486244213473185",
        "title": "公共厕所",
        "address": "辽宁省鞍山市铁东区工人街与中华南路交叉口正北方向79米",
        "tel": "",
        "category": "基础设施:公共设施:公共厕所",
        "type": 0,
        "location": {
            "lat": 41.093236,
            "lng": 122.990394
        },
        "ad_info": {
            "adcode": 210302,
            "province": "辽宁省",
            "city": "鞍山市",
            "district": "铁东区"
        }
    },
    {
        "id": "3925464359897313219",
        "title": "公共厕所",
        "address": "辽宁省鞍山市台安县S211与永康路交叉口正东方向58米左右",
        "tel": "",
        "category": "基础设施:公共设施:公共厕所",
        "type": 0,
        "location": {
            "lat": 41.160839,
            "lng": 122.46707
        },
        "ad_info": {
            "adcode": 210321,
            "province": "辽宁省",
            "city": "鞍山市",
            "district": "台安县"
        }
    },
    {
        "id": "2993255007436397093",
        "title": "公共厕所",
        "address": "辽宁省鞍山市铁东区园林路333号",
        "tel": "",
        "category": "基础设施:公共设施:公共厕所",
        "type": 0,
        "location": {
            "lat": 41.121974,
            "lng": 123.014786
        },
        "ad_info": {
            "adcode": 210302,
            "province": "辽宁省",
            "city": "鞍山市",
            "district": "铁东区"
        }
    },
    {
        "id": "2607207296338631808",
        "title": "公共厕所",
        "address": "辽宁省鞍山市铁东区建国大道与解放路立交桥交叉口东南方向152米左右",
        "tel": "",
        "category": "基础设施:公共设施:公共厕所",
        "type": 0,
        "location": {
            "lat": 41.090238,
            "lng": 122.976417
        },
        "ad_info": {
            "adcode": 210302,
            "province": "辽宁省",
            "city": "鞍山市",
            "district": "铁东区"
        }
    },
    {
        "id": "12059154009327603329",
        "title": "公共厕所",
        "address": "辽宁省鞍山市铁西区环钢路与银环巷交叉口东南80米",
        "tel": "",
        "category": "基础设施:公共设施:公共厕所",
        "type": 0,
        "location": {
            "lat": 41.121911,
            "lng": 122.967373
        },
        "ad_info": {
            "adcode": 210303,
            "province": "辽宁省",
            "city": "鞍山市",
            "district": "铁西区"
        }
    },
    {
        "id": "12249232999470312383",
        "title": "公共厕所",
        "address": "辽宁省鞍山市海城市307省道南50米",
        "tel": "",
        "category": "基础设施:公共设施:公共厕所",
        "type": 0,
        "location": {
            "lat": 41.107926,
            "lng": 122.737348
        },
        "ad_info": {
            "adcode": 210381,
            "province": "辽宁省",
            "city": "鞍山市",
            "district": "海城市"
        }
    },
    {
        "id": "7506292377996545350",
        "title": "公共厕所",
        "address": "辽宁省鞍山市台安县大庆西路与胜利西路交叉口西北方向416米左右",
        "tel": "",
        "category": "基础设施:公共设施:公共厕所",
        "type": 0,
        "location": {
            "lat": 41.393908,
            "lng": 122.41216
        },
        "ad_info": {
            "adcode": 210321,
            "province": "辽宁省",
            "city": "鞍山市",
            "district": "台安县"
        }
    },
    {
        "id": "1255644399627046399",
        "title": "公共厕所",
        "address": "辽宁省鞍山市海城市析青线",
        "tel": "",
        "category": "基础设施:公共设施:公共厕所",
        "type": 0,
        "location": {
            "lat": 40.711544,
            "lng": 122.95461
        },
        "ad_info": {
            "adcode": 210381,
            "province": "辽宁省",
            "city": "鞍山市",
            "district": "海城市"
        }
    },
    {
        "id": "17637438524956211440",
        "title": "公共厕所",
        "address": "辽宁省鞍山市岫岩满族自治县万润大街与城东路交叉口东北方向118米左右",
        "tel": "",
        "category": "基础设施:公共设施:公共厕所",
        "type": 0,
        "location": {
            "lat": 40.297551,
            "lng": 123.288787
        },
        "ad_info": {
            "adcode": 210323,
            "province": "辽宁省",
            "city": "鞍山市",
            "district": "岫岩满族自治县"
        }
    },
    {
        "id": "18446231952089810146",
        "title": "公共厕所",
        "address": "辽宁省鞍山市立山区东环路与羊草庄路交叉口西北方向85米左右",
        "tel": "",
        "category": "基础设施:公共设施:公共厕所",
        "type": 0,
        "location": {
            "lat": 41.161453,
            "lng": 123.07388
        },
        "ad_info": {
            "adcode": 210304,
            "province": "辽宁省",
            "city": "鞍山市",
            "district": "立山区"
        }
    },
    {
        "id": "10324170876378080194",
        "title": "公共厕所",
        "address": "辽宁省鞍山市立山区向上一街与朝阳一街交叉口东南方向31米左右",
        "tel": "",
        "category": "基础设施:公共设施:公共厕所",
        "type": 0,
        "location": {
            "lat": 41.129013,
            "lng": 123.023343
        },
        "ad_info": {
            "adcode": 210304,
            "province": "辽宁省",
            "city": "鞍山市",
            "district": "立山区"
        }
    },
    {
        "id": "8376473657231475111",
        "title": "公共厕所",
        "address": "辽宁省鞍山市铁东区平安街与建设街交叉口东南方向87米左右",
        "tel": "",
        "category": "基础设施:公共设施:公共厕所",
        "type": 0,
        "location": {
            "lat": 41.081726,
            "lng": 122.988252
        },
        "ad_info": {
            "adcode": 210302,
            "province": "辽宁省",
            "city": "鞍山市",
            "district": "铁东区"
        }
    },
    {
        "id": "13703333612601400253",
        "title": "公共厕所",
        "address": "辽宁省鞍山市铁东区莘英路与解放东路交叉口正南方向27米左右",
        "tel": "",
        "category": "基础设施:公共设施:公共厕所",
        "type": 0,
        "location": {
            "lat": 41.078386,
            "lng": 123.013021
        },
        "ad_info": {
            "adcode": 210302,
            "province": "辽宁省",
            "city": "鞍山市",
            "district": "铁东区"
        }
    },
    {
        "id": "5495900559668205478",
        "title": "公共厕所",
        "address": "辽宁省鞍山市立山区樱山路与齐选街交叉口正南方向847米左右",
        "tel": "",
        "category": "基础设施:公共设施:公共厕所",
        "type": 0,
        "location": {
            "lat": 41.151407,
            "lng": 123.095776
        },
        "ad_info": {
            "adcode": 210304,
            "province": "辽宁省",
            "city": "鞍山市",
            "district": "立山区"
        }
    },
    {
        "id": "17238525876573625812",
        "title": "公共厕所",
        "address": "辽宁省鞍山市铁西区人民路与通海大道交叉口正东方向96米左右",
        "tel": "",
        "category": "基础设施:公共设施:公共厕所",
        "type": 0,
        "location": {
            "lat": 41.142223,
            "lng": 122.902352
        },
        "ad_info": {
            "adcode": 210303,
            "province": "辽宁省",
            "city": "鞍山市",
            "district": "铁西区"
        }
    },
    {
        "id": "8119405750043823861",
        "title": "公共厕所",
        "address": "辽宁省鞍山市岫岩满族自治县桓盖线与迎宾路(北)交叉口正西方向719米",
        "tel": "",
        "category": "基础设施:公共设施:公共厕所",
        "type": 0,
        "location": {
            "lat": 40.291346,
            "lng": 123.26944
        },
        "ad_info": {
            "adcode": 210323,
            "province": "辽宁省",
            "city": "鞍山市",
            "district": "岫岩满族自治县"
        }
    },
    {
        "id": "3972029296692394898",
        "title": "公共厕所",
        "address": "辽宁省鞍山市台安县台盘路与富民街交叉口正西方向46米左右",
        "tel": "",
        "category": "基础设施:公共设施:公共厕所",
        "type": 0,
        "location": {
            "lat": 41.386801,
            "lng": 122.421354
        },
        "ad_info": {
            "adcode": 210321,
            "province": "辽宁省",
            "city": "鞍山市",
            "district": "台安县"
        }
    },
    {
        "id": "7541992599524816657",
        "title": "公共厕所",
        "address": "辽宁省鞍山市海城市海城西站",
        "tel": "",
        "category": "基础设施:公共设施:公共厕所",
        "type": 0,
        "location": {
            "lat": 40.914008,
            "lng": 122.659281
        },
        "ad_info": {
            "adcode": 210381,
            "province": "辽宁省",
            "city": "鞍山市",
            "district": "海城市"
        }
    },
    {
        "id": "8144386957025752722",
        "title": "公共厕所",
        "address": "辽宁省鞍山市海城市城东路1080号附近",
        "tel": "",
        "category": "基础设施:公共设施:公共厕所",
        "type": 0,
        "location": {
            "lat": 40.852874,
            "lng": 122.768088
        },
        "ad_info": {
            "adcode": 210381,
            "province": "辽宁省",
            "city": "鞍山市",
            "district": "海城市"
        }
    },
    {
        "id": "13186709159774924932",
        "title": "公共厕所",
        "address": "辽宁省鞍山市岫岩满族自治县大宁街与阜昌路交叉口正南方向303米左右",
        "tel": "",
        "category": "基础设施:公共设施:公共厕所",
        "type": 0,
        "location": {
            "lat": 40.275665,
            "lng": 123.288038
        },
        "ad_info": {
            "adcode": 210323,
            "province": "辽宁省",
            "city": "鞍山市",
            "district": "岫岩满族自治县"
        }
    },
    {
        "id": "10703486244213473185",
        "title": "公共厕所",
        "address": "辽宁省鞍山市铁东区工人街与中华南路交叉口正北方向79米",
        "tel": "",
        "category": "基础设施:公共设施:公共厕所",
        "type": 0,
        "location": {
            "lat": 41.093236,
            "lng": 122.990394
        },
        "ad_info": {
            "adcode": 210302,
            "province": "辽宁省",
            "city": "鞍山市",
            "district": "铁东区"
        }
    },
    {
        "id": "3925464359897313219",
        "title": "公共厕所",
        "address": "辽宁省鞍山市台安县S211与永康路交叉口正东方向58米左右",
        "tel": "",
        "category": "基础设施:公共设施:公共厕所",
        "type": 0,
        "location": {
            "lat": 41.160839,
            "lng": 122.46707
        },
        "ad_info": {
            "adcode": 210321,
            "province": "辽宁省",
            "city": "鞍山市",
            "district": "台安县"
        }
    },
    {
        "id": "2993255007436397093",
        "title": "公共厕所",
        "address": "辽宁省鞍山市铁东区园林路333号",
        "tel": "",
        "category": "基础设施:公共设施:公共厕所",
        "type": 0,
        "location": {
            "lat": 41.121974,
            "lng": 123.014786
        },
        "ad_info": {
            "adcode": 210302,
            "province": "辽宁省",
            "city": "鞍山市",
            "district": "铁东区"
        }
    },
    {
        "id": "2607207296338631808",
        "title": "公共厕所",
        "address": "辽宁省鞍山市铁东区建国大道与解放路立交桥交叉口东南方向152米左右",
        "tel": "",
        "category": "基础设施:公共设施:公共厕所",
        "type": 0,
        "location": {
            "lat": 41.090238,
            "lng": 122.976417
        },
        "ad_info": {
            "adcode": 210302,
            "province": "辽宁省",
            "city": "鞍山市",
            "district": "铁东区"
        }
    },
    {
        "id": "12059154009327603329",
        "title": "公共厕所",
        "address": "辽宁省鞍山市铁西区环钢路与银环巷交叉口东南80米",
        "tel": "",
        "category": "基础设施:公共设施:公共厕所",
        "type": 0,
        "location": {
            "lat": 41.121911,
            "lng": 122.967373
        },
        "ad_info": {
            "adcode": 210303,
            "province": "辽宁省",
            "city": "鞍山市",
            "district": "铁西区"
        }
    },
    {
        "id": "12249232999470312383",
        "title": "公共厕所",
        "address": "辽宁省鞍山市海城市307省道南50米",
        "tel": "",
        "category": "基础设施:公共设施:公共厕所",
        "type": 0,
        "location": {
            "lat": 41.107926,
            "lng": 122.737348
        },
        "ad_info": {
            "adcode": 210381,
            "province": "辽宁省",
            "city": "鞍山市",
            "district": "海城市"
        }
    },
    {
        "id": "7506292377996545350",
        "title": "公共厕所",
        "address": "辽宁省鞍山市台安县大庆西路与胜利西路交叉口西北方向416米左右",
        "tel": "",
        "category": "基础设施:公共设施:公共厕所",
        "type": 0,
        "location": {
            "lat": 41.393908,
            "lng": 122.41216
        },
        "ad_info": {
            "adcode": 210321,
            "province": "辽宁省",
            "city": "鞍山市",
            "district": "台安县"
        }
    },
    {
        "id": "1255644399627046399",
        "title": "公共厕所",
        "address": "辽宁省鞍山市海城市析青线",
        "tel": "",
        "category": "基础设施:公共设施:公共厕所",
        "type": 0,
        "location": {
            "lat": 40.711544,
            "lng": 122.95461
        },
        "ad_info": {
            "adcode": 210381,
            "province": "辽宁省",
            "city": "鞍山市",
            "district": "海城市"
        }
    },
    {
        "id": "17637438524956211440",
        "title": "公共厕所",
        "address": "辽宁省鞍山市岫岩满族自治县万润大街与城东路交叉口东北方向118米左右",
        "tel": "",
        "category": "基础设施:公共设施:公共厕所",
        "type": 0,
        "location": {
            "lat": 40.297551,
            "lng": 123.288787
        },
        "ad_info": {
            "adcode": 210323,
            "province": "辽宁省",
            "city": "鞍山市",
            "district": "岫岩满族自治县"
        }
    },
    {
        "id": "18446231952089810146",
        "title": "公共厕所",
        "address": "辽宁省鞍山市立山区东环路与羊草庄路交叉口西北方向85米左右",
        "tel": "",
        "category": "基础设施:公共设施:公共厕所",
        "type": 0,
        "location": {
            "lat": 41.161453,
            "lng": 123.07388
        },
        "ad_info": {
            "adcode": 210304,
            "province": "辽宁省",
            "city": "鞍山市",
            "district": "立山区"
        }
    },
    {
        "id": "10324170876378080194",
        "title": "公共厕所",
        "address": "辽宁省鞍山市立山区向上一街与朝阳一街交叉口东南方向31米左右",
        "tel": "",
        "category": "基础设施:公共设施:公共厕所",
        "type": 0,
        "location": {
            "lat": 41.129013,
            "lng": 123.023343
        },
        "ad_info": {
            "adcode": 210304,
            "province": "辽宁省",
            "city": "鞍山市",
            "district": "立山区"
        }
    },
    {
        "id": "8376473657231475111",
        "title": "公共厕所",
        "address": "辽宁省鞍山市铁东区平安街与建设街交叉口东南方向87米左右",
        "tel": "",
        "category": "基础设施:公共设施:公共厕所",
        "type": 0,
        "location": {
            "lat": 41.081726,
            "lng": 122.988252
        },
        "ad_info": {
            "adcode": 210302,
            "province": "辽宁省",
            "city": "鞍山市",
            "district": "铁东区"
        }
    },
    {
        "id": "13703333612601400253",
        "title": "公共厕所",
        "address": "辽宁省鞍山市铁东区莘英路与解放东路交叉口正南方向27米左右",
        "tel": "",
        "category": "基础设施:公共设施:公共厕所",
        "type": 0,
        "location": {
            "lat": 41.078386,
            "lng": 123.013021
        },
        "ad_info": {
            "adcode": 210302,
            "province": "辽宁省",
            "city": "鞍山市",
            "district": "铁东区"
        }
    },
    {
        "id": "5495900559668205478",
        "title": "公共厕所",
        "address": "辽宁省鞍山市立山区樱山路与齐选街交叉口正南方向847米左右",
        "tel": "",
        "category": "基础设施:公共设施:公共厕所",
        "type": 0,
        "location": {
            "lat": 41.151407,
            "lng": 123.095776
        },
        "ad_info": {
            "adcode": 210304,
            "province": "辽宁省",
            "city": "鞍山市",
            "district": "立山区"
        }
    },
    {
        "id": "17238525876573625812",
        "title": "公共厕所",
        "address": "辽宁省鞍山市铁西区人民路与通海大道交叉口正东方向96米左右",
        "tel": "",
        "category": "基础设施:公共设施:公共厕所",
        "type": 0,
        "location": {
            "lat": 41.142223,
            "lng": 122.902352
        },
        "ad_info": {
            "adcode": 210303,
            "province": "辽宁省",
            "city": "鞍山市",
            "district": "铁西区"
        }
    },
    {
        "id": "8119405750043823861",
        "title": "公共厕所",
        "address": "辽宁省鞍山市岫岩满族自治县桓盖线与迎宾路(北)交叉口正西方向719米",
        "tel": "",
        "category": "基础设施:公共设施:公共厕所",
        "type": 0,
        "location": {
            "lat": 40.291346,
            "lng": 123.26944
        },
        "ad_info": {
            "adcode": 210323,
            "province": "辽宁省",
            "city": "鞍山市",
            "district": "岫岩满族自治县"
        }
    },
    {
        "id": "3972029296692394898",
        "title": "公共厕所",
        "address": "辽宁省鞍山市台安县台盘路与富民街交叉口正西方向46米左右",
        "tel": "",
        "category": "基础设施:公共设施:公共厕所",
        "type": 0,
        "location": {
            "lat": 41.386801,
            "lng": 122.421354
        },
        "ad_info": {
            "adcode": 210321,
            "province": "辽宁省",
            "city": "鞍山市",
            "district": "台安县"
        }
    },
    {
        "id": "7541992599524816657",
        "title": "公共厕所",
        "address": "辽宁省鞍山市海城市海城西站",
        "tel": "",
        "category": "基础设施:公共设施:公共厕所",
        "type": 0,
        "location": {
            "lat": 40.914008,
            "lng": 122.659281
        },
        "ad_info": {
            "adcode": 210381,
            "province": "辽宁省",
            "city": "鞍山市",
            "district": "海城市"
        }
    },
    {
        "id": "8144386957025752722",
        "title": "公共厕所",
        "address": "辽宁省鞍山市海城市城东路1080号附近",
        "tel": "",
        "category": "基础设施:公共设施:公共厕所",
        "type": 0,
        "location": {
            "lat": 40.852874,
            "lng": 122.768088
        },
        "ad_info": {
            "adcode": 210381,
            "province": "辽宁省",
            "city": "鞍山市",
            "district": "海城市"
        }
    },
    {
        "id": "13186709159774924932",
        "title": "公共厕所",
        "address": "辽宁省鞍山市岫岩满族自治县大宁街与阜昌路交叉口正南方向303米左右",
        "tel": "",
        "category": "基础设施:公共设施:公共厕所",
        "type": 0,
        "location": {
            "lat": 40.275665,
            "lng": 123.288038
        },
        "ad_info": {
            "adcode": 210323,
            "province": "辽宁省",
            "city": "鞍山市",
            "district": "岫岩满族自治县"
        }
    },
    {
        "id": "10703486244213473185",
        "title": "公共厕所",
        "address": "辽宁省鞍山市铁东区工人街与中华南路交叉口正北方向79米",
        "tel": "",
        "category": "基础设施:公共设施:公共厕所",
        "type": 0,
        "location": {
            "lat": 41.093236,
            "lng": 122.990394
        },
        "ad_info": {
            "adcode": 210302,
            "province": "辽宁省",
            "city": "鞍山市",
            "district": "铁东区"
        }
    },
    {
        "id": "3925464359897313219",
        "title": "公共厕所",
        "address": "辽宁省鞍山市台安县S211与永康路交叉口正东方向58米左右",
        "tel": "",
        "category": "基础设施:公共设施:公共厕所",
        "type": 0,
        "location": {
            "lat": 41.160839,
            "lng": 122.46707
        },
        "ad_info": {
            "adcode": 210321,
            "province": "辽宁省",
            "city": "鞍山市",
            "district": "台安县"
        }
    },
    {
        "id": "2993255007436397093",
        "title": "公共厕所",
        "address": "辽宁省鞍山市铁东区园林路333号",
        "tel": "",
        "category": "基础设施:公共设施:公共厕所",
        "type": 0,
        "location": {
            "lat": 41.121974,
            "lng": 123.014786
        },
        "ad_info": {
            "adcode": 210302,
            "province": "辽宁省",
            "city": "鞍山市",
            "district": "铁东区"
        }
    }
]