[
    {
        "id": "13638808774240631212",
        "title": "洗手间",
        "address": "广东省韶关市浈江区浈江大道与生态路交叉口西南方向265米左右",
        "tel": "",
        "category": "基础设施:公共设施:公共厕所",
        "type": 0,
        "location": {
            "lat": 24.783528,
            "lng": 113.593008
        },
        "ad_info": {
            "adcode": 440204,
            "province": "广东省",
            "city": "韶关市",
            "district": "浈江区"
        }
    },
    {
        "id": "1488220375199721787",
        "title": "公共厕所",
        "address": "广东省韶关市浈江区云龙亭与兴隆街交叉口正北方向57米左右",
        "tel": "",
        "category": "基础设施:公共设施:公共厕所",
        "type": 0,
        "location": {
            "lat": 24.80055,
            "lng": 113.599502
        },
        "ad_info": {
            "adcode": 440204,
            "province": "广东省",
            "city": "韶关市",
            "district": "浈江区"
        }
    },
    {
        "id": "17714918983231335150",
        "title": "公共厕所",
        "address": "广东省韶关市浈江区大学路与莲花大道交叉口正西方向440米左右",
        "tel": "",
        "category": "基础设施:公共设施:公共厕所",
        "type": 0,
        "location": {
            "lat": 24.792819,
            "lng": 113.622052
        },
        "ad_info": {
            "adcode": 440204,
            "province": "广东省",
            "city": "韶关市",
            "district": "浈江区"
        }
    },
    {
        "id": "11289054159873231783",
        "title": "公共厕所",
        "address": "广东省韶关市浈江区粤华街11号",
        "tel": "",
        "category": "基础设施:公共设施:公共厕所",
        "type": 0,
        "location": {
            "lat": 24.78217,
            "lng": 113.596372
        },
        "ad_info": {
            "adcode": 440204,
            "province": "广东省",
            "city": "韶关市",
            "district": "浈江区"
        }
    },
    {
        "id": "188170201901505663",
        "title": "公共厕所",
        "address": "广东省韶关市浈江区园前东路与环园路交叉口正北方向71米左右",
        "tel": "",
        "category": "基础设施:公共设施:公共厕所",
        "type": 0,
        "location": {
            "lat": 24.795801,
            "lng": 113.599646
        },
        "ad_info": {
            "adcode": 440204,
            "province": "广东省",
            "city": "韶关市",
            "district": "浈江区"
        }
    },
    {
        "id": "11654393761938185186",
        "title": "公共厕所",
        "address": "广东省韶关市浈江区东堤北路44号",
        "tel": "",
        "category": "基础设施:公共设施:公共厕所",
        "type": 0,
        "location": {
            "lat": 24.813329,
            "lng": 113.597995
        },
        "ad_info": {
            "adcode": 440204,
            "province": "广东省",
            "city": "韶关市",
            "district": "浈江区"
        }
    },
    {
        "id": "16530334508603530063",
        "title": "公共厕所",
        "address": "广东省韶关市浈江区浈江中路与浈江北路交叉口正西方向91米左右",
        "tel": "",
        "category": "基础设施:公共设施:公共厕所",
        "type": 0,
        "location": {
            "lat": 24.81305,
            "lng": 113.600821
        },
        "ad_info": {
            "adcode": 440204,
            "province": "广东省",
            "city": "韶关市",
            "district": "浈江区"
        }
    },
    {
        "id": "7994774419418606718",
        "title": "公共厕所",
        "address": "广东省韶关市浈江区S248与安全路交叉口正北方向88米",
        "tel": "",
        "category": "基础设施:公共设施:公共厕所",
        "type": 0,
        "location": {
            "lat": 24.79605,
            "lng": 113.60323
        },
        "ad_info": {
            "adcode": 440204,
            "province": "广东省",
            "city": "韶关市",
            "district": "浈江区"
        }
    },
    {
        "id": "13641328439980414744",
        "title": "公共厕所",
        "address": "广东省韶关市浈江区前进路与聆韶路交叉口正西方向36米左右",
        "tel": "",
        "category": "基础设施:公共设施:公共厕所",
        "type": 0,
        "location": {
            "lat": 24.825075,
            "lng": 113.586231
        },
        "ad_info": {
            "adcode": 440204,
            "province": "广东省",
            "city": "韶关市",
            "district": "浈江区"
        }
    },
    {
        "id": "12536309348252376061",
        "title": "公共厕所",
        "address": "广东省韶关市浈江区东堤中路与东堤南路交叉口正北方向33米左右",
        "tel": "",
        "category": "基础设施:公共设施:公共厕所",
        "type": 0,
        "location": {
            "lat": 24.807675,
            "lng": 113.600037
        },
        "ad_info": {
            "adcode": 440204,
            "province": "广东省",
            "city": "韶关市",
            "district": "浈江区"
        }
    },
    {
        "id": "3182075107893351300",
        "title": "公共厕所",
        "address": "广东省韶关市浈江区韶关学院医学院十里亭校区东侧220米",
        "tel": "",
        "category": "基础设施:公共设施:公共厕所",
        "type": 0,
        "location": {
            "lat": 24.827951,
            "lng": 113.570708
        },
        "ad_info": {
            "adcode": 440204,
            "province": "广东省",
            "city": "韶关市",
            "district": "浈江区"
        }
    },
    {
        "id": "6164219041297419117",
        "title": "公共厕所",
        "address": "广东省韶关市浈江区园前西路与工业东路交叉口东南方向126米左右",
        "tel": "",
        "category": "基础设施:公共设施:公共厕所",
        "type": 0,
        "location": {
            "lat": 24.798043,
            "lng": 113.595942
        },
        "ad_info": {
            "adcode": 440204,
            "province": "广东省",
            "city": "韶关市",
            "district": "浈江区"
        }
    },
    {
        "id": "10451857667994904356",
        "title": "公共厕所",
        "address": "广东省韶关市浈江区四通街与站南路交叉口正东方向88米左右",
        "tel": "",
        "category": "基础设施:公共设施:公共厕所",
        "type": 0,
        "location": {
            "lat": 24.785937,
            "lng": 113.596841
        },
        "ad_info": {
            "adcode": 440204,
            "province": "广东省",
            "city": "韶关市",
            "district": "浈江区"
        }
    },
    {
        "id": "13885926147649222875",
        "title": "公共厕所",
        "address": "广东省韶关市浈江区韶南大道中35号",
        "tel": "",
        "category": "基础设施:公共设施:公共厕所",
        "type": 0,
        "location": {
            "lat": 24.745838,
            "lng": 113.582171
        },
        "ad_info": {
            "adcode": 440204,
            "province": "广东省",
            "city": "韶关市",
            "district": "浈江区"
        }
    },
    {
        "id": "8725298119880750838",
        "title": "公共厕所",
        "address": "广东省韶关市仁化县建设路佳兴百货",
        "tel": "",
        "category": "基础设施:公共设施:公共厕所",
        "type": 0,
        "location": {
            "lat": 25.088727,
            "lng": 113.749136
        },
        "ad_info": {
            "adcode": 440224,
            "province": "广东省",
            "city": "韶关市",
            "district": "仁化县"
        }
    },
    {
        "id": "11677100889225814748",
        "title": "公共厕所",
        "address": "广东省韶关市浈江区帽峰路与西堤北路交叉口西南方向30米左右",
        "tel": "",
        "category": "基础设施:公共设施:公共厕所",
        "type": 0,
        "location": {
            "lat": 24.820823,
            "lng": 113.590178
        },
        "ad_info": {
            "adcode": 440204,
            "province": "广东省",
            "city": "韶关市",
            "district": "浈江区"
        }
    },
    {
        "id": "5620342135695311111",
        "title": "公共厕所",
        "address": "广东省韶关市浈江区Y142与前进路交叉口西北方向102米左右",
        "tel": "",
        "category": "基础设施:公共设施:公共厕所",
        "type": 0,
        "location": {
            "lat": 24.82976,
            "lng": 113.567961
        },
        "ad_info": {
            "adcode": 440204,
            "province": "广东省",
            "city": "韶关市",
            "district": "浈江区"
        }
    },
    {
        "id": "3564388084107638070",
        "title": "公共厕所",
        "address": "广东省韶关市乳源瑶族自治县北环东路与南环东路交叉口西北方向190米左右",
        "tel": "",
        "category": "基础设施:公共设施:公共厕所",
        "type": 0,
        "location": {
            "lat": 24.756763,
            "lng": 113.323307
        },
        "ad_info": {
            "adcode": 440232,
            "province": "广东省",
            "city": "韶关市",
            "district": "乳源瑶族自治县"
        }
    },
    {
        "id": "1637242661272265777",
        "title": "公共厕所",
        "address": "广东省韶关市浈江区大德路黄金村综合市场",
        "tel": "",
        "category": "基础设施:公共设施:公共厕所",
        "type": 0,
        "location": {
            "lat": 24.821831,
            "lng": 113.623518
        },
        "ad_info": {
            "adcode": 440204,
            "province": "广东省",
            "city": "韶关市",
            "district": "浈江区"
        }
    },
    {
        "id": "618200120387228782",
        "title": "公共厕所",
        "address": "广东省韶关市浈江区园前东路与园前路交叉口东南方向163米左右",
        "tel": "",
        "category": "基础设施:公共设施:公共厕所",
        "type": 0,
        "location": {
            "lat": 24.796904,
            "lng": 113.598918
        },
        "ad_info": {
            "adcode": 440204,
            "province": "广东省",
            "city": "韶关市",
            "district": "浈江区"
        }
    },
    {
        "id": "106402629514203999",
        "title": "公共厕所",
        "address": "广东省韶关市浈江区Y284与比亚迪大道交叉口西北方向1940米左右",
        "tel": "",
        "category": "基础设施:公共设施:公共厕所",
        "type": 0,
        "location": {
            "lat": 24.927367,
            "lng": 113.55674
        },
        "ad_info": {
            "adcode": 440204,
            "province": "广东省",
            "city": "韶关市",
            "district": "浈江区"
        }
    },
    {
        "id": "8515750989060106625",
        "title": "公共厕所",
        "address": "广东省韶关市浈江区S246与S248交叉口西南方向41米左右",
        "tel": "",
        "category": "基础设施:公共设施:公共厕所",
        "type": 0,
        "location": {
            "lat": 24.893419,
            "lng": 113.531335
        },
        "ad_info": {
            "adcode": 440204,
            "province": "广东省",
            "city": "韶关市",
            "district": "浈江区"
        }
    },
    {
        "id": "10664086165352087624",
        "title": "公共厕所",
        "address": "广东省韶关市浈江区东堤南路与建国路交叉口正南方向137米左右",
        "tel": "",
        "category": "基础设施:公共设施:公共厕所",
        "type": 0,
        "location": {
            "lat": 24.801915,
            "lng": 113.602912
        },
        "ad_info": {
            "adcode": 440204,
            "province": "广东省",
            "city": "韶关市",
            "district": "浈江区"
        }
    },
    {
        "id": "2024411758572549537",
        "title": "公共厕所",
        "address": "广东省韶关市乳源瑶族自治县中国南岭瑶族风情街与解放中路交叉口东南方向70米左右",
        "tel": "",
        "category": "基础设施:公共设施:公共厕所",
        "type": 0,
        "location": {
            "lat": 24.776836,
            "lng": 113.278981
        },
        "ad_info": {
            "adcode": 440232,
            "province": "广东省",
            "city": "韶关市",
            "district": "乳源瑶族自治县"
        }
    },
    {
        "id": "5422368874923477135",
        "title": "公共厕所",
        "address": "广东省韶关市浈江区前进路与聆韶路交叉口西北方向244米左右",
        "tel": "",
        "category": "基础设施:公共设施:公共厕所",
        "type": 0,
        "location": {
            "lat": 24.826444,
            "lng": 113.584686
        },
        "ad_info": {
            "adcode": 440204,
            "province": "广东省",
            "city": "韶关市",
            "district": "浈江区"
        }
    },
    {
        "id": "6002027175870046080",
        "title": "公共厕所",
        "address": "广东省韶关市南雄市新风路与雄州大道西交叉口东南80米",
        "tel": "",
        "category": "基础设施:公共设施:公共厕所",
        "type": 0,
        "location": {
            "lat": 25.11606,
            "lng": 114.309006
        },
        "ad_info": {
            "adcode": 440282,
            "province": "广东省",
            "city": "韶关市",
            "district": "南雄市"
        }
    },
    {
        "id": "7120227968970900850",
        "title": "公共厕所",
        "address": "广东省韶关市浈江区东堤横路与北直街交叉口西北方向194米左右",
        "tel": "",
        "category": "基础设施:公共设施:公共厕所",
        "type": 0,
        "location": {
            "lat": 24.809685,
            "lng": 113.595656
        },
        "ad_info": {
            "adcode": 440204,
            "province": "广东省",
            "city": "韶关市",
            "district": "浈江区"
        }
    },
    {
        "id": "11285720768438834662",
        "title": "公共厕所",
        "address": "广东省韶关市仁化县新城路18号",
        "tel": "",
        "category": "基础设施:公共设施:公共厕所",
        "type": 0,
        "location": {
            "lat": 25.086362,
            "lng": 113.74766
        },
        "ad_info": {
            "adcode": 440224,
            "province": "广东省",
            "city": "韶关市",
            "district": "仁化县"
        }
    },
    {
        "id": "28893751380937869",
        "title": "公共厕所",
        "address": "广东省韶关市浈江区东堤中路40号",
        "tel": "",
        "category": "基础设施:公共设施:公共厕所",
        "type": 0,
        "location": {
            "lat": 24.808425,
            "lng": 113.599359
        },
        "ad_info": {
            "adcode": 440204,
            "province": "广东省",
            "city": "韶关市",
            "district": "浈江区"
        }
    },
    {
        "id": "7176445517288042602",
        "title": "公共厕所",
        "address": "广东省韶关市浈江区东堤横路与北直街交叉口正西方向175米左右",
        "tel": "",
        "category": "基础设施:公共设施:公共厕所",
        "type": 0,
        "location": {
            "lat": 24.80935,
            "lng": 113.595718
        },
        "ad_info": {
            "adcode": 440204,
            "province": "广东省",
            "city": "韶关市",
            "district": "浈江区"
        }
    },
    {
        "id": "9140386017639015431",
        "title": "公共厕所",
        "address": "广东省韶关市武江区新兴路与新华北路交叉口东南方向242米左右",
        "tel": "",
        "category": "基础设施:公共设施:公共厕所",
        "type": 0,
        "location": {
            "lat": 24.803513,
            "lng": 113.583301
        },
        "ad_info": {
            "adcode": 440203,
            "province": "广东省",
            "city": "韶关市",
            "district": "武江区"
        }
    },
    {
        "id": "4611454830306554853",
        "title": "公共厕所",
        "address": "广东省韶关市曲江区梅花中路与香林路交叉口东北方向139米左右",
        "tel": "",
        "category": "基础设施:公共设施:公共厕所",
        "type": 0,
        "location": {
            "lat": 24.694567,
            "lng": 113.602959
        },
        "ad_info": {
            "adcode": 440205,
            "province": "广东省",
            "city": "韶关市",
            "district": "曲江区"
        }
    },
    {
        "id": "2217121935405947854",
        "title": "公共厕所",
        "address": "广东省韶关市武江区G323与五里亭大桥交叉口东北方向144米左右",
        "tel": "",
        "category": "基础设施:公共设施:公共厕所",
        "type": 0,
        "location": {
            "lat": 24.820777,
            "lng": 113.587595
        },
        "ad_info": {
            "adcode": 440203,
            "province": "广东省",
            "city": "韶关市",
            "district": "武江区"
        }
    },
    {
        "id": "1844465829801366850",
        "title": "公共厕所",
        "address": "广东省韶关市武江区丹雪牙科产业园东北侧90米",
        "tel": "",
        "category": "基础设施:公共设施:公共厕所",
        "type": 0,
        "location": {
            "lat": 24.788205,
            "lng": 113.521853
        },
        "ad_info": {
            "adcode": 440203,
            "province": "广东省",
            "city": "韶关市",
            "district": "武江区"
        }
    },
    {
        "id": "4160687716248620560",
        "title": "公共厕所",
        "address": "广东省韶关市武江区西联镇西联新城农贸交易大市场",
        "tel": "",
        "category": "基础设施:公共设施:公共厕所",
        "type": 0,
        "location": {
            "lat": 24.757403,
            "lng": 113.533841
        },
        "ad_info": {
            "adcode": 440203,
            "province": "广东省",
            "city": "韶关市",
            "district": "武江区"
        }
    },
    {
        "id": "11610877668406766076",
        "title": "公共厕所",
        "address": "广东省韶关市武江区沐溪大道与韶关大道交叉口正东方向98米左右",
        "tel": "",
        "category": "基础设施:公共设施:公共厕所",
        "type": 0,
        "location": {
            "lat": 24.79318,
            "lng": 113.543658
        },
        "ad_info": {
            "adcode": 440203,
            "province": "广东省",
            "city": "韶关市",
            "district": "武江区"
        }
    },
    {
        "id": "1853763140956406919",
        "title": "公共厕所",
        "address": "广东省韶关市乐昌市东头街与公主中路交叉口东南方向97米左右",
        "tel": "",
        "category": "基础设施:公共设施:公共厕所",
        "type": 0,
        "location": {
            "lat": 25.127453,
            "lng": 113.351833
        },
        "ad_info": {
            "adcode": 440281,
            "province": "广东省",
            "city": "韶关市",
            "district": "乐昌市"
        }
    },
    {
        "id": "10096947408430280431",
        "title": "公共厕所",
        "address": "广东省韶关市武江区工业西路2号",
        "tel": "",
        "category": "基础设施:公共设施:公共厕所",
        "type": 0,
        "location": {
            "lat": 24.800198,
            "lng": 113.570695
        },
        "ad_info": {
            "adcode": 440203,
            "province": "广东省",
            "city": "韶关市",
            "district": "武江区"
        }
    },
    {
        "id": "3981234659890420881",
        "title": "公共厕所",
        "address": "广东省韶关市武江区芙蓉北二路沙湖市场西南角侧",
        "tel": "",
        "category": "基础设施:公共设施:公共厕所",
        "type": 0,
        "location": {
            "lat": 24.798772,
            "lng": 113.564992
        },
        "ad_info": {
            "adcode": 440203,
            "province": "广东省",
            "city": "韶关市",
            "district": "武江区"
        }
    },
    {
        "id": "5497719581877504499",
        "title": "公共厕所",
        "address": "广东省韶关市武江区体育东路与文艺路交叉口西北方向222米左右",
        "tel": "",
        "category": "基础设施:公共设施:公共厕所",
        "type": 0,
        "location": {
            "lat": 24.800095,
            "lng": 113.583892
        },
        "ad_info": {
            "adcode": 440203,
            "province": "广东省",
            "city": "韶关市",
            "district": "武江区"
        }
    },
    {
        "id": "9333391997533787270",
        "title": "公共厕所",
        "address": "广东省韶关市曲江区东风二路与城南大道交叉口东南方向56米左右",
        "tel": "",
        "category": "基础设施:公共设施:公共厕所",
        "type": 0,
        "location": {
            "lat": 24.673049,
            "lng": 113.603297
        },
        "ad_info": {
            "adcode": 440205,
            "province": "广东省",
            "city": "韶关市",
            "district": "曲江区"
        }
    },
    {
        "id": "1208601298261519054",
        "title": "公共厕所",
        "address": "广东省韶关市仁化县大桥镇远东加油站旁",
        "tel": "",
        "category": "基础设施:公共设施:公共厕所",
        "type": 0,
        "location": {
            "lat": 24.897854,
            "lng": 113.765073
        },
        "ad_info": {
            "adcode": 440224,
            "province": "广东省",
            "city": "韶关市",
            "district": "仁化县"
        }
    },
    {
        "id": "5994315393565586118",
        "title": "公共厕所",
        "address": "广东省韶关市仁化县丹霞大道与锦霞大道交叉口西南方向268米左右",
        "tel": "",
        "category": "基础设施:公共设施:公共厕所",
        "type": 0,
        "location": {
            "lat": 25.075007,
            "lng": 113.751582
        },
        "ad_info": {
            "adcode": 440224,
            "province": "广东省",
            "city": "韶关市",
            "district": "仁化县"
        }
    },
    {
        "id": "11216686811267300559",
        "title": "公共厕所",
        "address": "广东省韶关市仁化县G535与S246交叉口正北方向894米左右",
        "tel": "",
        "category": "基础设施:公共设施:公共厕所",
        "type": 0,
        "location": {
            "lat": 25.00587,
            "lng": 113.603971
        },
        "ad_info": {
            "adcode": 440224,
            "province": "广东省",
            "city": "韶关市",
            "district": "仁化县"
        }
    },
    {
        "id": "2666828480305133836",
        "title": "公共厕所",
        "address": "广东省韶关市武江区亨泰路5号",
        "tel": "",
        "category": "基础设施:公共设施:公共厕所",
        "type": 0,
        "location": {
            "lat": 24.794633,
            "lng": 113.58834
        },
        "ad_info": {
            "adcode": 440203,
            "province": "广东省",
            "city": "韶关市",
            "district": "武江区"
        }
    },
    {
        "id": "2486686950330946193",
        "title": "公共厕所",
        "address": "广东省韶关市乳源瑶族自治县S249与王茶桥交叉口东南方向706米左右",
        "tel": "",
        "category": "基础设施:公共设施:公共厕所",
        "type": 0,
        "location": {
            "lat": 25.010232,
            "lng": 113.285547
        },
        "ad_info": {
            "adcode": 440232,
            "province": "广东省",
            "city": "韶关市",
            "district": "乳源瑶族自治县"
        }
    },
    {
        "id": "11387622470422863706",
        "title": "公共厕所",
        "address": "广东省韶关市乐昌市中原路与府前大桥交叉口西北方向70米左右",
        "tel": "",
        "category": "基础设施:公共设施:公共厕所",
        "type": 0,
        "location": {
            "lat": 25.131603,
            "lng": 113.348461
        },
        "ad_info": {
            "adcode": 440281,
            "province": "广东省",
            "city": "韶关市",
            "district": "乐昌市"
        }
    },
    {
        "id": "7736966114782987657",
        "title": "公共厕所",
        "address": "广东省韶关市曲江区S251与Y323交叉口正西方向67米左右",
        "tel": "",
        "category": "基础设施:公共设施:公共厕所",
        "type": 0,
        "location": {
            "lat": 24.714701,
            "lng": 113.738867
        },
        "ad_info": {
            "adcode": 440205,
            "province": "广东省",
            "city": "韶关市",
            "district": "曲江区"
        }
    },
    {
        "id": "8526738558235220197",
        "title": "公共厕所",
        "address": "广东省韶关市仁化县G106与丹霞大道交叉口东南方向990米左右",
        "tel": "",
        "category": "基础设施:公共设施:公共厕所",
        "type": 0,
        "location": {
            "lat": 25.036304,
            "lng": 113.7721
        },
        "ad_info": {
            "adcode": 440224,
            "province": "广东省",
            "city": "韶关市",
            "district": "仁化县"
        }
    },
    {
        "id": "14042962089685255749",
        "title": "公共厕所",
        "address": "广东省韶关市曲江区中华二路49号",
        "tel": "",
        "category": "基础设施:公共设施:公共厕所",
        "type": 0,
        "location": {
            "lat": 24.67807,
            "lng": 113.602175
        },
        "ad_info": {
            "adcode": 440205,
            "province": "广东省",
            "city": "韶关市",
            "district": "曲江区"
        }
    },
    {
        "id": "17414773537489592375",
        "title": "公共厕所",
        "address": "广东省韶关市浈江区壮志街4号",
        "tel": "",
        "category": "基础设施:公共设施:公共厕所",
        "type": 0,
        "location": {
            "lat": 24.803331,
            "lng": 113.596959
        },
        "ad_info": {
            "adcode": 440204,
            "province": "广东省",
            "city": "韶关市",
            "district": "浈江区"
        }
    },
    {
        "id": "3913973690194000783",
        "title": "公共厕所",
        "address": "广东省韶关市乳源瑶族自治县云门山动物园西南",
        "tel": "",
        "category": "基础设施:公共设施:公共厕所",
        "type": 0,
        "location": {
            "lat": 24.815647,
            "lng": 113.321305
        },
        "ad_info": {
            "adcode": 440232,
            "province": "广东省",
            "city": "韶关市",
            "district": "乳源瑶族自治县"
        }
    },
    {
        "id": "14956368475511060629",
        "title": "公共厕所",
        "address": "广东省韶关市武江区红玫路与西岸村路交叉口正北方向44米左右",
        "tel": "",
        "category": "基础设施:公共设施:公共厕所",
        "type": 0,
        "location": {
            "lat": 24.7937,
            "lng": 113.582977
        },
        "ad_info": {
            "adcode": 440203,
            "province": "广东省",
            "city": "韶关市",
            "district": "武江区"
        }
    },
    {
        "id": "13640636572970065209",
        "title": "公共厕所",
        "address": "广东省韶关市乐昌市人民中路与解放路交叉口正南方向69米左右",
        "tel": "",
        "category": "基础设施:公共设施:公共厕所",
        "type": 0,
        "location": {
            "lat": 25.127402,
            "lng": 113.354178
        },
        "ad_info": {
            "adcode": 440281,
            "province": "广东省",
            "city": "韶关市",
            "district": "乐昌市"
        }
    },
    {
        "id": "10439185162519926500",
        "title": "公共厕所",
        "address": "广东省韶关市乐昌市S248与Y615交叉口正南方向146米左右",
        "tel": "",
        "category": "基础设施:公共设施:公共厕所",
        "type": 0,
        "location": {
            "lat": 25.180459,
            "lng": 113.352988
        },
        "ad_info": {
            "adcode": 440281,
            "province": "广东省",
            "city": "韶关市",
            "district": "乐昌市"
        }
    },
    {
        "id": "6438299176961328085",
        "title": "公共厕所",
        "address": "广东省韶关市乳源瑶族自治县S248与凰村桥交叉口正西方向324米左右",
        "tel": "",
        "category": "基础设施:公共设施:公共厕所",
        "type": 0,
        "location": {
            "lat": 24.943947,
            "lng": 113.448093
        },
        "ad_info": {
            "adcode": 440232,
            "province": "广东省",
            "city": "韶关市",
            "district": "乳源瑶族自治县"
        }
    },
    {
        "id": "11560994994585792284",
        "title": "公共厕所",
        "address": "广东省韶关市曲江区G106与Y245交叉口西北方向127米左右",
        "tel": "",
        "category": "基础设施:公共设施:公共厕所",
        "type": 0,
        "location": {
            "lat": 24.635539,
            "lng": 113.64849
        },
        "ad_info": {
            "adcode": 440205,
            "province": "广东省",
            "city": "韶关市",
            "district": "曲江区"
        }
    },
    {
        "id": "9330171040438770223",
        "title": "公共厕所",
        "address": "广东省韶关市翁源县龙仙镇南龙大道图书馆(翁山诗书画院北)",
        "tel": "",
        "category": "基础设施:公共设施:公共厕所",
        "type": 0,
        "location": {
            "lat": 24.36564,
            "lng": 114.120472
        },
        "ad_info": {
            "adcode": 440229,
            "province": "广东省",
            "city": "韶关市",
            "district": "翁源县"
        }
    },
    {
        "id": "12351088744904266732",
        "title": "公共厕所",
        "address": "广东省韶关市武江区武江北路63栋",
        "tel": "",
        "category": "基础设施:公共设施:公共厕所",
        "type": 0,
        "location": {
            "lat": 24.809168,
            "lng": 113.592794
        },
        "ad_info": {
            "adcode": 440203,
            "province": "广东省",
            "city": "韶关市",
            "district": "武江区"
        }
    },
    {
        "id": "6489076774355648444",
        "title": "公共厕所",
        "address": "广东省韶关市南雄市沿江西路与竹园西路交叉口西北方向89米左右",
        "tel": "",
        "category": "基础设施:公共设施:公共厕所",
        "type": 0,
        "location": {
            "lat": 25.11302,
            "lng": 114.303559
        },
        "ad_info": {
            "adcode": 440282,
            "province": "广东省",
            "city": "韶关市",
            "district": "南雄市"
        }
    },
    {
        "id": "2369981386140559585",
        "title": "公共厕所",
        "address": "广东省韶关市曲江区中兴路与曹溪路交叉口东北方向492米左右",
        "tel": "",
        "category": "基础设施:公共设施:公共厕所",
        "type": 0,
        "location": {
            "lat": 24.647043,
            "lng": 113.636188
        },
        "ad_info": {
            "adcode": 440205,
            "province": "广东省",
            "city": "韶关市",
            "district": "曲江区"
        }
    },
    {
        "id": "16162389377041226445",
        "title": "公共厕所",
        "address": "广东省韶关市武江区G240与沐溪大道交叉口正东方向158米左右",
        "tel": "",
        "category": "基础设施:公共设施:公共厕所",
        "type": 0,
        "location": {
            "lat": 24.745704,
            "lng": 113.459045
        },
        "ad_info": {
            "adcode": 440203,
            "province": "广东省",
            "city": "韶关市",
            "district": "武江区"
        }
    },
    {
        "id": "7443509281467325406",
        "title": "公共厕所",
        "address": "广东省韶关市新丰县人民东路与建设路交叉口正西方向39米左右",
        "tel": "",
        "category": "基础设施:公共设施:公共厕所",
        "type": 0,
        "location": {
            "lat": 24.061159,
            "lng": 114.21042
        },
        "ad_info": {
            "adcode": 440233,
            "province": "广东省",
            "city": "韶关市",
            "district": "新丰县"
        }
    },
    {
        "id": "18280959879036893706",
        "title": "公共厕所",
        "address": "广东省韶关市武江区教育路与群立街交叉口正西方向35米左右",
        "tel": "",
        "category": "基础设施:公共设施:公共厕所",
        "type": 0,
        "location": {
            "lat": 24.809068,
            "lng": 113.586716
        },
        "ad_info": {
            "adcode": 440203,
            "province": "广东省",
            "city": "韶关市",
            "district": "武江区"
        }
    },
    {
        "id": "3504925781301600398",
        "title": "公共厕所",
        "address": "广东省韶关市南雄市迎宾路与雄南路交叉口东北方向740米左右",
        "tel": "",
        "category": "基础设施:公共设施:公共厕所",
        "type": 0,
        "location": {
            "lat": 25.10364,
            "lng": 114.292487
        },
        "ad_info": {
            "adcode": 440282,
            "province": "广东省",
            "city": "韶关市",
            "district": "南雄市"
        }
    },
    {
        "id": "13967077258365567496",
        "title": "公共厕所",
        "address": "广东省韶关市武江区光孝路与惠民北路交叉口正西方向110米左右",
        "tel": "",
        "category": "基础设施:公共设施:公共厕所",
        "type": 0,
        "location": {
            "lat": 24.80352,
            "lng": 113.58947
        },
        "ad_info": {
            "adcode": 440203,
            "province": "广东省",
            "city": "韶关市",
            "district": "武江区"
        }
    },
    {
        "id": "4888718253612497394",
        "title": "公共厕所",
        "address": "广东省韶关市乐昌市Y676与环园西路交叉口东北方向112米左右",
        "tel": "",
        "category": "基础设施:公共设施:公共厕所",
        "type": 0,
        "location": {
            "lat": 25.124244,
            "lng": 113.403429
        },
        "ad_info": {
            "adcode": 440281,
            "province": "广东省",
            "city": "韶关市",
            "district": "乐昌市"
        }
    },
    {
        "id": "2470099092685516156",
        "title": "公共厕所",
        "address": "广东省韶关市翁源县翁华康复医院东北侧140米",
        "tel": "",
        "category": "基础设施:公共设施:公共厕所",
        "type": 0,
        "location": {
            "lat": 24.364954,
            "lng": 114.105354
        },
        "ad_info": {
            "adcode": 440229,
            "province": "广东省",
            "city": "韶关市",
            "district": "翁源县"
        }
    },
    {
        "id": "10374621188462214092",
        "title": "公共厕所",
        "address": "广东省韶关市乐昌市S324与Y705交叉口西南方向1146米左右",
        "tel": "",
        "category": "基础设施:公共设施:公共厕所",
        "type": 0,
        "location": {
            "lat": 25.475278,
            "lng": 113.166705
        },
        "ad_info": {
            "adcode": 440281,
            "province": "广东省",
            "city": "韶关市",
            "district": "乐昌市"
        }
    },
    {
        "id": "17205747432609201738",
        "title": "公共厕所",
        "address": "广东省韶关市曲江区中兴路与曹溪路交叉口西北方向266米左右",
        "tel": "",
        "category": "基础设施:公共设施:公共厕所",
        "type": 0,
        "location": {
            "lat": 24.644929,
            "lng": 113.632673
        },
        "ad_info": {
            "adcode": 440205,
            "province": "广东省",
            "city": "韶关市",
            "district": "曲江区"
        }
    },
    {
        "id": "9049445886465145022",
        "title": "公共厕所",
        "address": "广东省韶关市曲江区中兴路与曹溪路交叉口正北方向122米左右",
        "tel": "",
        "category": "基础设施:公共设施:公共厕所",
        "type": 0,
        "location": {
            "lat": 24.644074,
            "lng": 113.634013
        },
        "ad_info": {
            "adcode": 440205,
            "province": "广东省",
            "city": "韶关市",
            "district": "曲江区"
        }
    },
    {
        "id": "9489076784009775524",
        "title": "公共厕所",
        "address": "广东省韶关市曲江区中兴路与曹溪路交叉口正北方向509米左右",
        "tel": "",
        "category": "基础设施:公共设施:公共厕所",
        "type": 0,
        "location": {
            "lat": 24.647474,
            "lng": 113.635307
        },
        "ad_info": {
            "adcode": 440205,
            "province": "广东省",
            "city": "韶关市",
            "district": "曲江区"
        }
    },
    {
        "id": "7768204982677961302",
        "title": "公共厕所",
        "address": "广东省韶关市武江区光孝路与武江大道交叉口西南方向35米左右",
        "tel": "",
        "category": "基础设施:公共设施:公共厕所",
        "type": 0,
        "location": {
            "lat": 24.803238,
            "lng": 113.592333
        },
        "ad_info": {
            "adcode": 440203,
            "province": "广东省",
            "city": "韶关市",
            "district": "武江区"
        }
    },
    {
        "id": "7580788485221035403",
        "title": "公共厕所",
        "address": "广东省韶关市新丰县丰城大道西101号",
        "tel": "",
        "category": "基础设施:公共设施:公共厕所",
        "type": 0,
        "location": {
            "lat": 24.051616,
            "lng": 114.201602
        },
        "ad_info": {
            "adcode": 440233,
            "province": "广东省",
            "city": "韶关市",
            "district": "新丰县"
        }
    },
    {
        "id": "16346184305741893346",
        "title": "公共厕所",
        "address": "广东省韶关市乐昌市S248与人民南路交叉口东南方向822米左右",
        "tel": "",
        "category": "基础设施:公共设施:公共厕所",
        "type": 0,
        "location": {
            "lat": 25.095089,
            "lng": 113.382596
        },
        "ad_info": {
            "adcode": 440281,
            "province": "广东省",
            "city": "韶关市",
            "district": "乐昌市"
        }
    },
    {
        "id": "14869895280184225222",
        "title": "公共厕所",
        "address": "广东省韶关市南雄市国道G323线(乌岗村路口)正南方向622米左右",
        "tel": "",
        "category": "基础设施:公共设施:公共厕所",
        "type": 0,
        "location": {
            "lat": 25.13432,
            "lng": 114.332234
        },
        "ad_info": {
            "adcode": 440282,
            "province": "广东省",
            "city": "韶关市",
            "district": "南雄市"
        }
    },
    {
        "id": "4277527936753655913",
        "title": "公共厕所",
        "address": "广东省韶关市南雄市林荫西路与金叶大道南路交叉口正东方向54米左右",
        "tel": "",
        "category": "基础设施:公共设施:公共厕所",
        "type": 0,
        "location": {
            "lat": 25.111048,
            "lng": 114.308388
        },
        "ad_info": {
            "adcode": 440282,
            "province": "广东省",
            "city": "韶关市",
            "district": "南雄市"
        }
    },
    {
        "id": "18273033853539984059",
        "title": "公共厕所",
        "address": "广东省韶关市乳源瑶族自治县华景路与鹰峰东路交叉口东南方向96米左右",
        "tel": "",
        "category": "基础设施:公共设施:公共厕所",
        "type": 0,
        "location": {
            "lat": 24.773645,
            "lng": 113.286987
        },
        "ad_info": {
            "adcode": 440232,
            "province": "广东省",
            "city": "韶关市",
            "district": "乳源瑶族自治县"
        }
    },
    {
        "id": "13214918629306871666",
        "title": "公共厕所",
        "address": "广东省韶关市翁源县建设二路与新南路交叉口东北方向118米左右",
        "tel": "",
        "category": "基础设施:公共设施:公共厕所",
        "type": 0,
        "location": {
            "lat": 24.348663,
            "lng": 114.136159
        },
        "ad_info": {
            "adcode": 440229,
            "province": "广东省",
            "city": "韶关市",
            "district": "翁源县"
        }
    },
    {
        "id": "968132626166993704",
        "title": "公共厕所",
        "address": "广东省韶关市浈江区启明北路7号",
        "tel": "",
        "category": "基础设施:公共设施:公共厕所",
        "type": 0,
        "location": {
            "lat": 24.813937,
            "lng": 113.603779
        },
        "ad_info": {
            "adcode": 440204,
            "province": "广东省",
            "city": "韶关市",
            "district": "浈江区"
        }
    },
    {
        "id": "18368373721875254563",
        "title": "公共厕所",
        "address": "广东省韶关市翁源县龙仙镇东华禅寺(西南角)",
        "tel": "",
        "category": "基础设施:公共设施:公共厕所",
        "type": 0,
        "location": {
            "lat": 24.340451,
            "lng": 114.173574
        },
        "ad_info": {
            "adcode": 440229,
            "province": "广东省",
            "city": "韶关市",
            "district": "翁源县"
        }
    },
    {
        "id": "10567538588820984280",
        "title": "公共厕所",
        "address": "广东省韶关市翁源县740乡道附近",
        "tel": "",
        "category": "基础设施:公共设施:公共厕所",
        "type": 0,
        "location": {
            "lat": 24.355588,
            "lng": 114.226914
        },
        "ad_info": {
            "adcode": 440229,
            "province": "广东省",
            "city": "韶关市",
            "district": "翁源县"
        }
    },
    {
        "id": "9437488056879231563",
        "title": "公共厕所",
        "address": "广东省韶关市翁源县康乐路1号",
        "tel": "",
        "category": "基础设施:公共设施:公共厕所",
        "type": 0,
        "location": {
            "lat": 24.247161,
            "lng": 114.028513
        },
        "ad_info": {
            "adcode": 440229,
            "province": "广东省",
            "city": "韶关市",
            "district": "翁源县"
        }
    },
    {
        "id": "12561633212531343232",
        "title": "公共厕所",
        "address": "广东省韶关市乐昌市乐棉中路与佗城下路交叉口正东方向274米左右",
        "tel": "",
        "category": "基础设施:公共设施:公共厕所",
        "type": 0,
        "location": {
            "lat": 25.115855,
            "lng": 113.358145
        },
        "ad_info": {
            "adcode": 440281,
            "province": "广东省",
            "city": "韶关市",
            "district": "乐昌市"
        }
    },
    {
        "id": "14944835116932667301",
        "title": "公共厕所",
        "address": "广东省韶关市浈江区东新路与浈江中路交叉口正东方向45米左右",
        "tel": "",
        "category": "基础设施:公共设施:公共厕所",
        "type": 0,
        "location": {
            "lat": 24.810888,
            "lng": 113.602634
        },
        "ad_info": {
            "adcode": 440204,
            "province": "广东省",
            "city": "韶关市",
            "district": "浈江区"
        }
    },
    {
        "id": "656365296799456841",
        "title": "新东街公共厕所",
        "address": "广东省韶关市仁化县新东大街与莲塘尾路交叉口东南方向50米左右",
        "tel": "",
        "category": "基础设施:公共设施:公共厕所",
        "type": 0,
        "location": {
            "lat": 25.093025,
            "lng": 113.746792
        },
        "ad_info": {
            "adcode": 440224,
            "province": "广东省",
            "city": "韶关市",
            "district": "仁化县"
        }
    },
    {
        "id": "13468339424776212293",
        "title": "公共厕所",
        "address": "广东省韶关市曲江区东风路与矮石路交叉口正南方向22米左右",
        "tel": "",
        "category": "基础设施:公共设施:公共厕所",
        "type": 0,
        "location": {
            "lat": 24.674334,
            "lng": 113.598414
        },
        "ad_info": {
            "adcode": 440205,
            "province": "广东省",
            "city": "韶关市",
            "district": "曲江区"
        }
    },
    {
        "id": "18265329843153976288",
        "title": "江畔公共厕所",
        "address": "广东省韶关市曲江区沿堤三路与韶南大道交叉口东南方向33米左右",
        "tel": "",
        "category": "基础设施:公共设施:公共厕所",
        "type": 0,
        "location": {
            "lat": 24.676666,
            "lng": 113.593771
        },
        "ad_info": {
            "adcode": 440205,
            "province": "广东省",
            "city": "韶关市",
            "district": "曲江区"
        }
    },
    {
        "id": "10958459069178578935",
        "title": "公共厕所",
        "address": "广东省韶关市曲江区桃园西路145号",
        "tel": "",
        "category": "基础设施:公共设施:公共厕所",
        "type": 0,
        "location": {
            "lat": 24.680356,
            "lng": 113.598291
        },
        "ad_info": {
            "adcode": 440205,
            "province": "广东省",
            "city": "韶关市",
            "district": "曲江区"
        }
    },
    {
        "id": "8924790147353577348",
        "title": "南华禅寺公共厕所",
        "address": "广东省韶关市曲江区中兴路与曹溪路交叉口东北方向143米左右",
        "tel": "",
        "category": "基础设施:公共设施:公共厕所",
        "type": 0,
        "location": {
            "lat": 24.644065,
            "lng": 113.634994
        },
        "ad_info": {
            "adcode": 440205,
            "province": "广东省",
            "city": "韶关市",
            "district": "曲江区"
        }
    },
    {
        "id": "12529512775983702349",
        "title": "旅游厕所",
        "address": "广东省韶关市仁化县幸福路与建设路交叉口正北方向176米左右",
        "tel": "",
        "category": "基础设施:公共设施:公共厕所",
        "type": 0,
        "location": {
            "lat": 25.090425,
            "lng": 113.745119
        },
        "ad_info": {
            "adcode": 440224,
            "province": "广东省",
            "city": "韶关市",
            "district": "仁化县"
        }
    },
    {
        "id": "14503532262927419542",
        "title": "公共厕所",
        "address": "广东省韶关市仁化县建设路与规划一路交叉口西南方向56米左右",
        "tel": "",
        "category": "基础设施:公共设施:公共厕所",
        "type": 0,
        "location": {
            "lat": 25.090215,
            "lng": 113.751143
        },
        "ad_info": {
            "adcode": 440224,
            "province": "广东省",
            "city": "韶关市",
            "district": "仁化县"
        }
    },
    {
        "id": "1129826264445215865",
        "title": "公共厕所",
        "address": "广东省韶关市乳源瑶族自治县源泉路与金狮北路交叉口东南方向46米左右",
        "tel": "",
        "category": "基础设施:公共设施:公共厕所",
        "type": 0,
        "location": {
            "lat": 24.778635,
            "lng": 113.269912
        },
        "ad_info": {
            "adcode": 440232,
            "province": "广东省",
            "city": "韶关市",
            "district": "乳源瑶族自治县"
        }
    },
    {
        "id": "10731527409007303172",
        "title": "第三公共厕所",
        "address": "广东省韶关市武江区津头岭一横巷与怡华路交叉口西北300米",
        "tel": "",
        "category": "基础设施:公共设施:公共厕所",
        "type": 0,
        "location": {
            "lat": 24.798725,
            "lng": 113.572981
        },
        "ad_info": {
            "adcode": 440203,
            "province": "广东省",
            "city": "韶关市",
            "district": "武江区"
        }
    },
    {
        "id": "10460574670346180655",
        "title": "无障碍公共厕所",
        "address": "广东省韶关市武江区沐阳大道韶关学院医学院中专部",
        "tel": "",
        "category": "基础设施:公共设施:公共厕所",
        "type": 0,
        "location": {
            "lat": 24.798496,
            "lng": 113.540464
        },
        "ad_info": {
            "adcode": 440203,
            "province": "广东省",
            "city": "韶关市",
            "district": "武江区"
        }
    },
    {
        "id": "4435109012322218112",
        "title": "免费公共厕所",
        "address": "广东省韶关市南雄市林荫东路与浈江路交叉口正北方向108米左右",
        "tel": "",
        "category": "基础设施:公共设施:公共厕所",
        "type": 0,
        "location": {
            "lat": 25.112533,
            "lng": 114.314152
        },
        "ad_info": {
            "adcode": 440282,
            "province": "广东省",
            "city": "韶关市",
            "district": "南雄市"
        }
    },
    {
        "id": "5639600312252227576",
        "title": "大桥服务区公共厕所",
        "address": "广东省韶关市乳源瑶族自治县大桥镇京港澳高速公路大桥冷却场服务区",
        "tel": "",
        "category": "基础设施:公共设施:公共厕所",
        "type": 0,
        "location": {
            "lat": 25.012614,
            "lng": 113.145272
        },
        "ad_info": {
            "adcode": 440232,
            "province": "广东省",
            "city": "韶关市",
            "district": "乳源瑶族自治县"
        }
    },
    {
        "id": "5716937440226989363",
        "title": "公共厕所",
        "address": "广东省韶关市新丰县人民西路与群英路交叉口西北方向90米左右",
        "tel": "",
        "category": "基础设施:公共设施:公共厕所",
        "type": 0,
        "location": {
            "lat": 24.056855,
            "lng": 114.204283
        },
        "ad_info": {
            "adcode": 440233,
            "province": "广东省",
            "city": "韶关市",
            "district": "新丰县"
        }
    },
    {
        "id": "10137305407574407119",
        "title": "曲江服务区公共厕所",
        "address": "广东省韶关市曲江区G240与Y363交叉口东南方向1364米左右",
        "tel": "",
        "category": "基础设施:公共设施:公共厕所",
        "type": 0,
        "location": {
            "lat": 24.639581,
            "lng": 113.596656
        },
        "ad_info": {
            "adcode": 440205,
            "province": "广东省",
            "city": "韶关市",
            "district": "曲江区"
        }
    },
    {
        "id": "3776464903783008608",
        "title": "长江路公共厕所",
        "address": "广东省韶关市曲江区曲江大道与长江路交叉口西南方向102米左右",
        "tel": "",
        "category": "基础设施:公共设施:公共厕所",
        "type": 0,
        "location": {
            "lat": 24.681043,
            "lng": 113.611589
        },
        "ad_info": {
            "adcode": 440205,
            "province": "广东省",
            "city": "韶关市",
            "district": "曲江区"
        }
    },
    {
        "id": "18339150770550943961",
        "title": "韶关东服务区公共厕所",
        "address": "广东省韶关市曲江区南韶高速",
        "tel": "",
        "category": "基础设施:公共设施:公共厕所",
        "type": 0,
        "location": {
            "lat": 24.748755,
            "lng": 113.623175
        },
        "ad_info": {
            "adcode": 440205,
            "province": "广东省",
            "city": "韶关市",
            "district": "曲江区"
        }
    },
    {
        "id": "15237672007738668076",
        "title": "云岩服务区公共厕所",
        "address": "广东省韶关市乐昌市云岩镇京港澳高速公路云岩服务区西北",
        "tel": "",
        "category": "基础设施:公共设施:公共厕所",
        "type": 0,
        "location": {
            "lat": 25.085247,
            "lng": 113.109469
        },
        "ad_info": {
            "adcode": 440281,
            "province": "广东省",
            "city": "韶关市",
            "district": "乐昌市"
        }
    },
    {
        "id": "6537634827766015637",
        "title": "珠玑巷服务区公共厕所",
        "address": "广东省韶关市南雄市全安镇赣韶高速公路珠玑巷服务区",
        "tel": "",
        "category": "基础设施:公共设施:公共厕所",
        "type": 0,
        "location": {
            "lat": 25.156093,
            "lng": 114.308912
        },
        "ad_info": {
            "adcode": 440282,
            "province": "广东省",
            "city": "韶关市",
            "district": "南雄市"
        }
    },
    {
        "id": "207215111825903083",
        "title": "新丰服务区公共厕所",
        "address": "广东省韶关市新丰县Y935与Y940交叉口正东方向1599米左右",
        "tel": "",
        "category": "基础设施:公共设施:公共厕所",
        "type": 0,
        "location": {
            "lat": 24.141773,
            "lng": 114.304944
        },
        "ad_info": {
            "adcode": 440233,
            "province": "广东省",
            "city": "韶关市",
            "district": "新丰县"
        }
    },
    {
        "id": "11422048882530908333",
        "title": "旅游厕所",
        "address": "广东省韶关市新丰县石角村服务站东侧90米",
        "tel": "",
        "category": "基础设施:公共设施:公共厕所",
        "type": 0,
        "location": {
            "lat": 23.998444,
            "lng": 114.362933
        },
        "ad_info": {
            "adcode": 440233,
            "province": "广东省",
            "city": "韶关市",
            "district": "新丰县"
        }
    },
    {
        "id": "17415057587331316619",
        "title": "公共厕所",
        "address": "广东省韶关市翁源县农林东路北三巷与环城北路交叉口西南方向64米左右",
        "tel": "",
        "category": "基础设施:公共设施:公共厕所",
        "type": 0,
        "location": {
            "lat": 24.359643,
            "lng": 114.132793
        },
        "ad_info": {
            "adcode": 440229,
            "province": "广东省",
            "city": "韶关市",
            "district": "翁源县"
        }
    },
    {
        "id": "5305903614636448630",
        "title": "新丰服务区公共厕所",
        "address": "广东省韶关市新丰县马头镇大广高速公路马头服务区",
        "tel": "",
        "category": "基础设施:公共设施:公共厕所",
        "type": 0,
        "location": {
            "lat": 24.143044,
            "lng": 114.303024
        },
        "ad_info": {
            "adcode": 440233,
            "province": "广东省",
            "city": "韶关市",
            "district": "新丰县"
        }
    },
    {
        "id": "606693445633967693",
        "title": "韶关东服务区公共厕所",
        "address": "广东省韶关市曲江区南韶高速韶关东服务区",
        "tel": "",
        "category": "基础设施:公共设施:公共厕所",
        "type": 0,
        "location": {
            "lat": 24.74965,
            "lng": 113.620819
        },
        "ad_info": {
            "adcode": 440205,
            "province": "广东省",
            "city": "韶关市",
            "district": "曲江区"
        }
    },
    {
        "id": "2920620923785014417",
        "title": "曲江服务区第一公共厕所",
        "address": "广东省韶关市曲江区G240与Y363交叉口东南方向1506米左右",
        "tel": "",
        "category": "基础设施:公共设施:公共厕所",
        "type": 0,
        "location": {
            "lat": 24.638835,
            "lng": 113.598079
        },
        "ad_info": {
            "adcode": 440205,
            "province": "广东省",
            "city": "韶关市",
            "district": "曲江区"
        }
    },
    {
        "id": "6513430582890853453",
        "title": "公共厕所",
        "address": "广东省韶关市始兴县文教路与河边街交叉口正西方向25米左右",
        "tel": "",
        "category": "基础设施:公共设施:公共厕所",
        "type": 0,
        "location": {
            "lat": 24.922497,
            "lng": 114.326329
        },
        "ad_info": {
            "adcode": 440222,
            "province": "广东省",
            "city": "韶关市",
            "district": "始兴县"
        }
    },
    {
        "id": "9516638364990493239",
        "title": "珠玑巷服务区公共厕所",
        "address": "广东省韶关市南雄市全安一路与百顺四路交叉口正东方向750米左右",
        "tel": "",
        "category": "基础设施:公共设施:公共厕所",
        "type": 0,
        "location": {
            "lat": 25.154051,
            "lng": 114.310086
        },
        "ad_info": {
            "adcode": 440282,
            "province": "广东省",
            "city": "韶关市",
            "district": "南雄市"
        }
    },
    {
        "id": "10816784440876374165",
        "title": "中华园公共厕所",
        "address": "广东省韶关市曲江区沿堤二路中华园南苑-1-2栋",
        "tel": "",
        "category": "基础设施:公共设施:公共厕所",
        "type": 0,
        "location": {
            "lat": 24.677018,
            "lng": 113.600978
        },
        "ad_info": {
            "adcode": 440205,
            "province": "广东省",
            "city": "韶关市",
            "district": "曲江区"
        }
    },
    {
        "id": "4720383181172808274",
        "title": "公共厕所",
        "address": "广东省韶关市始兴县兴平路266号",
        "tel": "",
        "category": "基础设施:公共设施:公共厕所",
        "type": 0,
        "location": {
            "lat": 24.955523,
            "lng": 114.047559
        },
        "ad_info": {
            "adcode": 440222,
            "province": "广东省",
            "city": "韶关市",
            "district": "始兴县"
        }
    },
    {
        "id": "18025752654009432802",
        "title": "公共厕所",
        "address": "广东省韶关市始兴县S244",
        "tel": "",
        "category": "基础设施:公共设施:公共厕所",
        "type": 0,
        "location": {
            "lat": 24.782328,
            "lng": 114.264417
        },
        "ad_info": {
            "adcode": 440222,
            "province": "广东省",
            "city": "韶关市",
            "district": "始兴县"
        }
    },
    {
        "id": "3306962879461850598",
        "title": "公共厕所",
        "address": "广东省韶关市始兴县墨江桥北路与河南路交叉口正北方向89米左右",
        "tel": "",
        "category": "基础设施:公共设施:公共厕所",
        "type": 0,
        "location": {
            "lat": 24.944551,
            "lng": 114.060474
        },
        "ad_info": {
            "adcode": 440222,
            "province": "广东省",
            "city": "韶关市",
            "district": "始兴县"
        }
    },
    {
        "id": "10968199465160908826",
        "title": "公共厕所",
        "address": "广东省韶关市始兴县城东路201号",
        "tel": "",
        "category": "基础设施:公共设施:公共厕所",
        "type": 0,
        "location": {
            "lat": 24.949061,
            "lng": 114.075819
        },
        "ad_info": {
            "adcode": 440222,
            "province": "广东省",
            "city": "韶关市",
            "district": "始兴县"
        }
    },
    {
        "id": "10108748469019596129",
        "title": "公共厕所",
        "address": "广东省韶关市始兴县解放路95号",
        "tel": "",
        "category": "基础设施:公共设施:公共厕所",
        "type": 0,
        "location": {
            "lat": 24.945368,
            "lng": 114.067644
        },
        "ad_info": {
            "adcode": 440222,
            "province": "广东省",
            "city": "韶关市",
            "district": "始兴县"
        }
    },
    {
        "id": "5135856874158661715",
        "title": "九龄文化广场公共厕所",
        "address": "广东省韶关市始兴县墨江桥北路与广场南路交叉口正西方向76米左右",
        "tel": "",
        "category": "基础设施:公共设施:公共厕所",
        "type": 0,
        "location": {
            "lat": 24.950781,
            "lng": 114.062138
        },
        "ad_info": {
            "adcode": 440222,
            "province": "广东省",
            "city": "韶关市",
            "district": "始兴县"
        }
    },
    {
        "id": "7867337479373855584",
        "title": "墨江桥(市场内)公共厕所",
        "address": "广东省韶关市始兴县墨江桥北路与文化路交叉口正南方向161米左右",
        "tel": "",
        "category": "基础设施:公共设施:公共厕所",
        "type": 0,
        "location": {
            "lat": 24.946839,
            "lng": 114.061371
        },
        "ad_info": {
            "adcode": 440222,
            "province": "广东省",
            "city": "韶关市",
            "district": "始兴县"
        }
    },
    {
        "id": "16359626111418465346",
        "title": "公共厕所",
        "address": "广东省韶关市翁源县建设一路与环城北路交叉口正西方向28米左右",
        "tel": "",
        "category": "基础设施:公共设施:公共厕所",
        "type": 0,
        "location": {
            "lat": 24.35929,
            "lng": 114.130849
        },
        "ad_info": {
            "adcode": 440229,
            "province": "广东省",
            "city": "韶关市",
            "district": "翁源县"
        }
    },
    {
        "id": "16365218414557120493",
        "title": "公共厕所",
        "address": "广东省韶关市翁源县朝阳路与环城北路交叉口正东方向34米左右",
        "tel": "",
        "category": "基础设施:公共设施:公共厕所",
        "type": 0,
        "location": {
            "lat": 24.358986,
            "lng": 114.149032
        },
        "ad_info": {
            "adcode": 440229,
            "province": "广东省",
            "city": "韶关市",
            "district": "翁源县"
        }
    },
    {
        "id": "7358571541866058076",
        "title": "公共厕所",
        "address": "广东省韶关市武江区惠民北路81号",
        "tel": "",
        "category": "基础设施:公共设施:公共厕所",
        "type": 0,
        "location": {
            "lat": 24.812251,
            "lng": 113.589178
        },
        "ad_info": {
            "adcode": 440203,
            "province": "广东省",
            "city": "韶关市",
            "district": "武江区"
        }
    },
    {
        "id": "7928116483890459299",
        "title": "公共厕所",
        "address": "广东省韶关市武江区寻梅路与银杏大道交叉口正北方向779米左右",
        "tel": "",
        "category": "基础设施:公共设施:公共厕所",
        "type": 0,
        "location": {
            "lat": 24.799913,
            "lng": 113.50125
        },
        "ad_info": {
            "adcode": 440203,
            "province": "广东省",
            "city": "韶关市",
            "district": "武江区"
        }
    },
    {
        "id": "11419850271055340275",
        "title": "公共厕所",
        "address": "广东省韶关市武江区龙归镇河滨新街2号斜对面河边",
        "tel": "",
        "category": "基础设施:公共设施:公共厕所",
        "type": 0,
        "location": {
            "lat": 24.731061,
            "lng": 113.461751
        },
        "ad_info": {
            "adcode": 440203,
            "province": "广东省",
            "city": "韶关市",
            "district": "武江区"
        }
    },
    {
        "id": "8430483311339601336",
        "title": "公共厕所",
        "address": "广东省韶关市新丰县丰城大道与青龙巷交叉口东北方向109米左右",
        "tel": "",
        "category": "基础设施:公共设施:公共厕所",
        "type": 0,
        "location": {
            "lat": 24.060053,
            "lng": 114.218427
        },
        "ad_info": {
            "adcode": 440233,
            "province": "广东省",
            "city": "韶关市",
            "district": "新丰县"
        }
    },
    {
        "id": "6916210934101668293",
        "title": "公共厕所",
        "address": "广东省韶关市浈江区新金叶大厦东北侧150米",
        "tel": "",
        "category": "基础设施:公共设施:公共厕所",
        "type": 0,
        "location": {
            "lat": 24.775701,
            "lng": 113.589123
        },
        "ad_info": {
            "adcode": 440204,
            "province": "广东省",
            "city": "韶关市",
            "district": "浈江区"
        }
    },
    {
        "id": "15884569618796196474",
        "title": "公共厕所",
        "address": "广东省韶关市浈江区S246与S248交叉口东南方向509米左右",
        "tel": "",
        "category": "基础设施:公共设施:公共厕所",
        "type": 0,
        "location": {
            "lat": 24.886496,
            "lng": 113.536473
        },
        "ad_info": {
            "adcode": 440204,
            "province": "广东省",
            "city": "韶关市",
            "district": "浈江区"
        }
    },
    {
        "id": "11549315894900043745",
        "title": "公共厕所",
        "address": "广东省韶关市乳源瑶族自治县环城东路与鹰峰东路交叉口正北方向76米左右",
        "tel": "",
        "category": "基础设施:公共设施:公共厕所",
        "type": 0,
        "location": {
            "lat": 24.774907,
            "lng": 113.281594
        },
        "ad_info": {
            "adcode": 440232,
            "province": "广东省",
            "city": "韶关市",
            "district": "乳源瑶族自治县"
        }
    },
    {
        "id": "1253253146489331013",
        "title": "公共厕所",
        "address": "广东省韶关市南雄市永康路与青云东路交叉口西南方向55米左右",
        "tel": "",
        "category": "基础设施:公共设施:公共厕所",
        "type": 0,
        "location": {
            "lat": 25.115086,
            "lng": 114.314475
        },
        "ad_info": {
            "adcode": 440282,
            "province": "广东省",
            "city": "韶关市",
            "district": "南雄市"
        }
    },
    {
        "id": "11640098983197722178",
        "title": "公共厕所",
        "address": "广东省韶关市乳源瑶族自治县云峰路与鹰峰中路交叉口正西方向44米左右",
        "tel": "",
        "category": "基础设施:公共设施:公共厕所",
        "type": 0,
        "location": {
            "lat": 24.776168,
            "lng": 113.275484
        },
        "ad_info": {
            "adcode": 440232,
            "province": "广东省",
            "city": "韶关市",
            "district": "乳源瑶族自治县"
        }
    },
    {
        "id": "13556520515045688067",
        "title": "公共厕所",
        "address": "广东省韶关市浈江区文化街与西堤南路交叉口正西方向146米左右",
        "tel": "",
        "category": "基础设施:公共设施:公共厕所",
        "type": 0,
        "location": {
            "lat": 24.801144,
            "lng": 113.594989
        },
        "ad_info": {
            "adcode": 440204,
            "province": "广东省",
            "city": "韶关市",
            "district": "浈江区"
        }
    },
    {
        "id": "8648528753898112327",
        "title": "公共厕所",
        "address": "广东省韶关市乐昌市公主下路与公主中路交叉口正东方向17米左右",
        "tel": "",
        "category": "基础设施:公共设施:公共厕所",
        "type": 0,
        "location": {
            "lat": 25.121048,
            "lng": 113.351426
        },
        "ad_info": {
            "adcode": 440281,
            "province": "广东省",
            "city": "韶关市",
            "district": "乐昌市"
        }
    },
    {
        "id": "13113528197752952146",
        "title": "曲江服务区第二公共厕所",
        "address": "广东省韶关市曲江区G240与Y363交叉口东南方向1537米左右",
        "tel": "",
        "category": "基础设施:公共设施:公共厕所",
        "type": 0,
        "location": {
            "lat": 24.637863,
            "lng": 113.596688
        },
        "ad_info": {
            "adcode": 440205,
            "province": "广东省",
            "city": "韶关市",
            "district": "曲江区"
        }
    },
    {
        "id": "10435593418240546256",
        "title": "丹霞服务区第二公共厕所",
        "address": "广东省韶关市仁化县X793与兴甫路交叉口正西方向1524米左右",
        "tel": "",
        "category": "基础设施:公共设施:公共厕所",
        "type": 0,
        "location": {
            "lat": 24.983015,
            "lng": 113.912351
        },
        "ad_info": {
            "adcode": 440224,
            "province": "广东省",
            "city": "韶关市",
            "district": "仁化县"
        }
    },
    {
        "id": "15520052601780848763",
        "title": "公共厕所",
        "address": "广东省韶关市浈江区旺成路与浈江大道交叉口正东方向212米左右",
        "tel": "",
        "category": "基础设施:公共设施:公共厕所",
        "type": 0,
        "location": {
            "lat": 24.752912,
            "lng": 113.587145
        },
        "ad_info": {
            "adcode": 440204,
            "province": "广东省",
            "city": "韶关市",
            "district": "浈江区"
        }
    },
    {
        "id": "16253270338212210156",
        "title": "公共厕所",
        "address": "广东省韶关市武江区体育东路与新华南路交叉口东北方向113米左右",
        "tel": "",
        "category": "基础设施:公共设施:公共厕所",
        "type": 0,
        "location": {
            "lat": 24.797781,
            "lng": 113.582819
        },
        "ad_info": {
            "adcode": 440203,
            "province": "广东省",
            "city": "韶关市",
            "district": "武江区"
        }
    },
    {
        "id": "7439635065347087691",
        "title": "公共厕所",
        "address": "广东省韶关市南雄市G220与Y028交叉口正南方向190米左右",
        "tel": "",
        "category": "基础设施:公共设施:公共厕所",
        "type": 0,
        "location": {
            "lat": 25.146029,
            "lng": 114.336811
        },
        "ad_info": {
            "adcode": 440282,
            "province": "广东省",
            "city": "韶关市",
            "district": "南雄市"
        }
    },
    {
        "id": "14440399431534556470",
        "title": "公共厕所",
        "address": "广东省韶关市乐昌市107国道与G0423乐广高速出口交叉口南140米",
        "tel": "",
        "category": "基础设施:公共设施:公共厕所",
        "type": 0,
        "location": {
            "lat": 25.271913,
            "lng": 113.004792
        },
        "ad_info": {
            "adcode": 440281,
            "province": "广东省",
            "city": "韶关市",
            "district": "乐昌市"
        }
    },
    {
        "id": "6311159195935555995",
        "title": "公共厕所",
        "address": "广东省韶关市武江区武江南路7号",
        "tel": "",
        "category": "基础设施:公共设施:公共厕所",
        "type": 0,
        "location": {
            "lat": 24.80132,
            "lng": 113.592289
        },
        "ad_info": {
            "adcode": 440203,
            "province": "广东省",
            "city": "韶关市",
            "district": "武江区"
        }
    },
    {
        "id": "830630670743108739",
        "title": "公共厕所",
        "address": "广东省韶关市曲江区G240与X314交叉口西南方向55米左右",
        "tel": "",
        "category": "基础设施:公共设施:公共厕所",
        "type": 0,
        "location": {
            "lat": 24.670928,
            "lng": 113.527634
        },
        "ad_info": {
            "adcode": 440205,
            "province": "广东省",
            "city": "韶关市",
            "district": "曲江区"
        }
    },
    {
        "id": "7535835461247806942",
        "title": "公共厕所",
        "address": "广东省韶关市乐昌市公主中路与解放路交叉口正北方向60米左右",
        "tel": "",
        "category": "基础设施:公共设施:公共厕所",
        "type": 0,
        "location": {
            "lat": 25.127205,
            "lng": 113.352246
        },
        "ad_info": {
            "adcode": 440281,
            "province": "广东省",
            "city": "韶关市",
            "district": "乐昌市"
        }
    },
    {
        "id": "12305999331578717020",
        "title": "公共厕所",
        "address": "广东省韶关市南雄市大成街与成新路商业步行街交叉口西南方向35米左右",
        "tel": "",
        "category": "基础设施:公共设施:公共厕所",
        "type": 0,
        "location": {
            "lat": 25.115812,
            "lng": 114.31214
        },
        "ad_info": {
            "adcode": 440282,
            "province": "广东省",
            "city": "韶关市",
            "district": "南雄市"
        }
    },
    {
        "id": "11479392535148048727",
        "title": "公共厕所",
        "address": "广东省韶关市新丰县G220与宝丰路交叉口西北方向45米左右",
        "tel": "",
        "category": "基础设施:公共设施:公共厕所",
        "type": 0,
        "location": {
            "lat": 24.04871,
            "lng": 114.205558
        },
        "ad_info": {
            "adcode": 440233,
            "province": "广东省",
            "city": "韶关市",
            "district": "新丰县"
        }
    },
    {
        "id": "11127172077778669956",
        "title": "公共厕所",
        "address": "广东省韶关市始兴县G220与永安大道交叉口正北方向62米左右",
        "tel": "",
        "category": "基础设施:公共设施:公共厕所",
        "type": 0,
        "location": {
            "lat": 24.961757,
            "lng": 114.083911
        },
        "ad_info": {
            "adcode": 440222,
            "province": "广东省",
            "city": "韶关市",
            "district": "始兴县"
        }
    },
    {
        "id": "1564113999136405367",
        "title": "公共厕所",
        "address": "广东省韶关市乳源瑶族自治县S258与Y901交叉口东北方向114米左右",
        "tel": "",
        "category": "基础设施:公共设施:公共厕所",
        "type": 0,
        "location": {
            "lat": 24.65257,
            "lng": 113.08886
        },
        "ad_info": {
            "adcode": 440232,
            "province": "广东省",
            "city": "韶关市",
            "district": "乳源瑶族自治县"
        }
    },
    {
        "id": "14809012626466458768",
        "title": "公共厕所",
        "address": "广东省韶关市武江区蓉乐路与蓉山东路交叉口西南方向165米左右",
        "tel": "",
        "category": "基础设施:公共设施:公共厕所",
        "type": 0,
        "location": {
            "lat": 24.769384,
            "lng": 113.578173
        },
        "ad_info": {
            "adcode": 440203,
            "province": "广东省",
            "city": "韶关市",
            "district": "武江区"
        }
    },
    {
        "id": "4476840814412149881",
        "title": "旅游厕所",
        "address": "广东省韶关市乳源瑶族自治县沿江中路与鹰峰东路交叉口正南方向176米左右",
        "tel": "",
        "category": "基础设施:公共设施:公共厕所",
        "type": 0,
        "location": {
            "lat": 24.772555,
            "lng": 113.283829
        },
        "ad_info": {
            "adcode": 440232,
            "province": "广东省",
            "city": "韶关市",
            "district": "乳源瑶族自治县"
        }
    },
    {
        "id": "5110904615509003991",
        "title": "云岩服务区第二公共厕所",
        "address": "广东省韶关市乐昌市京珠高速",
        "tel": "",
        "category": "基础设施:公共设施:公共厕所",
        "type": 0,
        "location": {
            "lat": 25.086498,
            "lng": 113.110741
        },
        "ad_info": {
            "adcode": 440281,
            "province": "广东省",
            "city": "韶关市",
            "district": "乐昌市"
        }
    },
    {
        "id": "576958199448497148",
        "title": "乐昌服务区-公共厕所",
        "address": "广东省韶关市乐昌市乐昌服务区与G0423乐广高速交叉口西480米",
        "tel": "",
        "category": "基础设施:公共设施:公共厕所",
        "type": 0,
        "location": {
            "lat": 25.035352,
            "lng": 113.358827
        },
        "ad_info": {
            "adcode": 440281,
            "province": "广东省",
            "city": "韶关市",
            "district": "乐昌市"
        }
    },
    {
        "id": "17729126950560321967",
        "title": "环保公共厕所",
        "address": "广东省韶关市武江区光明一横巷与光明巷交叉口正东方向219米左右",
        "tel": "",
        "category": "基础设施:公共设施:公共厕所",
        "type": 0,
        "location": {
            "lat": 24.790994,
            "lng": 113.592726
        },
        "ad_info": {
            "adcode": 440203,
            "province": "广东省",
            "city": "韶关市",
            "district": "武江区"
        }
    },
    {
        "id": "895241291622095440",
        "title": "公共厕所",
        "address": "广东省韶关市新丰县新丰县营业厅西北侧",
        "tel": "",
        "category": "基础设施:公共设施:公共厕所",
        "type": 0,
        "location": {
            "lat": 24.160599,
            "lng": 113.884555
        },
        "ad_info": {
            "adcode": 440233,
            "province": "广东省",
            "city": "韶关市",
            "district": "新丰县"
        }
    },
    {
        "id": "5520058628258232132",
        "title": "梅花北服务区公共厕所",
        "address": "广东省韶关市乐昌市乐广高速附近",
        "tel": "",
        "category": "基础设施:公共设施:公共厕所",
        "type": 0,
        "location": {
            "lat": 25.236713,
            "lng": 113.118621
        },
        "ad_info": {
            "adcode": 440281,
            "province": "广东省",
            "city": "韶关市",
            "district": "乐昌市"
        }
    },
    {
        "id": "14153723965547500958",
        "title": "公共厕所",
        "address": "广东省韶关市乳源瑶族自治县金狮北路与金狮南路交叉口正北方向189米左右",
        "tel": "",
        "category": "基础设施:公共设施:公共厕所",
        "type": 0,
        "location": {
            "lat": 24.774579,
            "lng": 113.267821
        },
        "ad_info": {
            "adcode": 440232,
            "province": "广东省",
            "city": "韶关市",
            "district": "乳源瑶族自治县"
        }
    },
    {
        "id": "17346870466605476434",
        "title": "公共厕所",
        "address": "广东省韶关市曲江区建设北路与环山北路交叉口西北方向234米左右",
        "tel": "",
        "category": "基础设施:公共设施:公共厕所",
        "type": 0,
        "location": {
            "lat": 24.692607,
            "lng": 113.598893
        },
        "ad_info": {
            "adcode": 440205,
            "province": "广东省",
            "city": "韶关市",
            "district": "曲江区"
        }
    },
    {
        "id": "9473182088791244127",
        "title": "公共厕所",
        "address": "广东省韶关市浈江区升平路72号之2号",
        "tel": "",
        "category": "基础设施:公共设施:公共厕所",
        "type": 0,
        "location": {
            "lat": 24.813675,
            "lng": 113.594907
        },
        "ad_info": {
            "adcode": 440204,
            "province": "广东省",
            "city": "韶关市",
            "district": "浈江区"
        }
    },
    {
        "id": "2947231954001384465",
        "title": "公共厕所",
        "address": "广东省韶关市武江区惠民北路与黄田坝路交叉口东北方向15米左右",
        "tel": "",
        "category": "基础设施:公共设施:公共厕所",
        "type": 0,
        "location": {
            "lat": 24.809023,
            "lng": 113.590662
        },
        "ad_info": {
            "adcode": 440203,
            "province": "广东省",
            "city": "韶关市",
            "district": "武江区"
        }
    },
    {
        "id": "14176486336825118616",
        "title": "公共厕所",
        "address": "广东省韶关市新丰县X355与Y982交叉口西北方向472米左右",
        "tel": "",
        "category": "基础设施:公共设施:公共厕所",
        "type": 0,
        "location": {
            "lat": 24.050408,
            "lng": 114.169506
        },
        "ad_info": {
            "adcode": 440233,
            "province": "广东省",
            "city": "韶关市",
            "district": "新丰县"
        }
    },
    {
        "id": "11892942805076547657",
        "title": "公共厕所",
        "address": "广东省韶关市浈江区安全北路2号",
        "tel": "",
        "category": "基础设施:公共设施:公共厕所",
        "type": 0,
        "location": {
            "lat": 24.795763,
            "lng": 113.60319
        },
        "ad_info": {
            "adcode": 440204,
            "province": "广东省",
            "city": "韶关市",
            "district": "浈江区"
        }
    },
    {
        "id": "1817012286103850298",
        "title": "厕所",
        "address": "广东省韶关市武江区韶关市皮肤病医院(韶关市慢性病防治院)2楼",
        "tel": "",
        "category": "基础设施:公共设施:公共厕所",
        "type": 0,
        "location": {
            "lat": 24.797457,
            "lng": 113.591566
        },
        "ad_info": {
            "adcode": 440203,
            "province": "广东省",
            "city": "韶关市",
            "district": "武江区"
        }
    },
    {
        "id": "15712019655150033912",
        "title": "公共厕所",
        "address": "广东省韶关市新丰县李宁山庄北侧",
        "tel": "",
        "category": "基础设施:公共设施:公共厕所",
        "type": 0,
        "location": {
            "lat": 23.991284,
            "lng": 114.2198
        },
        "ad_info": {
            "adcode": 440233,
            "province": "广东省",
            "city": "韶关市",
            "district": "新丰县"
        }
    },
    {
        "id": "3349117215696095016",
        "title": "三棵松停车区公共厕所",
        "address": "广东省韶关市翁源县三棵松停车区充电站西南侧50米",
        "tel": "",
        "category": "基础设施:公共设施:公共厕所",
        "type": 0,
        "location": {
            "lat": 24.411315,
            "lng": 114.233301
        },
        "ad_info": {
            "adcode": 440229,
            "province": "广东省",
            "city": "韶关市",
            "district": "翁源县"
        }
    },
    {
        "id": "6807586592159257612",
        "title": "无障碍公共厕所",
        "address": "广东省韶关市仁化县G323与X793交叉口西北方向284米左右",
        "tel": "",
        "category": "基础设施:公共设施:公共厕所",
        "type": 0,
        "location": {
            "lat": 24.967751,
            "lng": 113.823135
        },
        "ad_info": {
            "adcode": 440224,
            "province": "广东省",
            "city": "韶关市",
            "district": "仁化县"
        }
    },
    {
        "id": "12513592322607281937",
        "title": "公共厕所",
        "address": "广东省韶关市始兴县Y314与Y393交叉口西南方向286米左右",
        "tel": "",
        "category": "基础设施:公共设施:公共厕所",
        "type": 0,
        "location": {
            "lat": 24.952183,
            "lng": 114.100024
        },
        "ad_info": {
            "adcode": 440222,
            "province": "广东省",
            "city": "韶关市",
            "district": "始兴县"
        }
    },
    {
        "id": "15268898117953904990",
        "title": "公共厕所(GD-SG-1079)",
        "address": "广东省韶关市翁源县润源兰业东侧230米",
        "tel": "",
        "category": "基础设施:公共设施:公共厕所",
        "type": 0,
        "location": {
            "lat": 24.472348,
            "lng": 114.080383
        },
        "ad_info": {
            "adcode": 440229,
            "province": "广东省",
            "city": "韶关市",
            "district": "翁源县"
        }
    },
    {
        "id": "1315135388587492370",
        "title": "公共厕所",
        "address": "广东省韶关市武江区焦冲路与芙蓉大道北交叉口正东方向112米左右",
        "tel": "",
        "category": "基础设施:公共设施:公共厕所",
        "type": 0,
        "location": {
            "lat": 24.76684,
            "lng": 113.543272
        },
        "ad_info": {
            "adcode": 440203,
            "province": "广东省",
            "city": "韶关市",
            "district": "武江区"
        }
    },
    {
        "id": "3299279325556227744",
        "title": "公共厕所",
        "address": "广东省韶关市南雄市主田镇窑合村委会孔地村小组",
        "tel": "",
        "category": "基础设施:公共设施:公共厕所",
        "type": 0,
        "location": {
            "lat": 24.96284,
            "lng": 114.410099
        },
        "ad_info": {
            "adcode": 440282,
            "province": "广东省",
            "city": "韶关市",
            "district": "南雄市"
        }
    },
    {
        "id": "4791086590557393505",
        "title": "阿伟锁业",
        "address": "广东省韶关市翁源县前进路与康乐路交叉口西北方向31米左右",
        "tel": "",
        "category": "基础设施:公共设施:公共厕所",
        "type": 0,
        "location": {
            "lat": 24.356841,
            "lng": 114.134849
        },
        "ad_info": {
            "adcode": 440229,
            "province": "广东省",
            "city": "韶关市",
            "district": "翁源县"
        }
    },
    {
        "id": "12209240596703165866",
        "title": "公共厕所",
        "address": "广东省韶关市浈江区吾牙街与复兴路交叉口正北方向93米左右",
        "tel": "",
        "category": "基础设施:公共设施:公共厕所",
        "type": 0,
        "location": {
            "lat": 24.803548,
            "lng": 113.596636
        },
        "ad_info": {
            "adcode": 440204,
            "province": "广东省",
            "city": "韶关市",
            "district": "浈江区"
        }
    },
    {
        "id": "325077457708327859",
        "title": "公共厕所",
        "address": "广东省韶关市南雄市麦铁杖将军庙东南侧",
        "tel": "",
        "category": "基础设施:公共设施:公共厕所",
        "type": 0,
        "location": {
            "lat": 25.188265,
            "lng": 114.027869
        },
        "ad_info": {
            "adcode": 440282,
            "province": "广东省",
            "city": "韶关市",
            "district": "南雄市"
        }
    },
    {
        "id": "15331940617697465646",
        "title": "公共厕所",
        "address": "广东省韶关市乐昌市G107与石灰冲桥交叉口东北方向793米左右",
        "tel": "",
        "category": "基础设施:公共设施:公共厕所",
        "type": 0,
        "location": {
            "lat": 25.267833,
            "lng": 113.007013
        },
        "ad_info": {
            "adcode": 440281,
            "province": "广东省",
            "city": "韶关市",
            "district": "乐昌市"
        }
    },
    {
        "id": "4793637937849166853",
        "title": "坝仔停车区公共厕所",
        "address": "广东省韶关市翁源县坝仔停车区与G0422武深高速交叉口东140米",
        "tel": "",
        "category": "基础设施:公共设施:公共厕所",
        "type": 0,
        "location": {
            "lat": 24.557339,
            "lng": 114.068409
        },
        "ad_info": {
            "adcode": 440229,
            "province": "广东省",
            "city": "韶关市",
            "district": "翁源县"
        }
    },
    {
        "id": "15477097063026751291",
        "title": "樟市停车区公共厕所",
        "address": "广东省韶关市曲江区Y212与Y214交叉口西南方向791米左右",
        "tel": "",
        "category": "基础设施:公共设施:公共厕所",
        "type": 0,
        "location": {
            "lat": 24.539715,
            "lng": 113.565554
        },
        "ad_info": {
            "adcode": 440205,
            "province": "广东省",
            "city": "韶关市",
            "district": "曲江区"
        }
    },
    {
        "id": "17274503066667812382",
        "title": "上嵩村公共厕所",
        "address": "广东省韶关市南雄市珠玑镇上嵩村委会",
        "tel": "",
        "category": "基础设施:公共设施:公共厕所",
        "type": 0,
        "location": {
            "lat": 25.262329,
            "lng": 114.297925
        },
        "ad_info": {
            "adcode": 440282,
            "province": "广东省",
            "city": "韶关市",
            "district": "南雄市"
        }
    },
    {
        "id": "1455380118994353883",
        "title": "公共厕所",
        "address": "广东省韶关市武江区新华南路与沙洲路交叉口正东方向252米左右",
        "tel": "",
        "category": "基础设施:公共设施:公共厕所",
        "type": 0,
        "location": {
            "lat": 24.787383,
            "lng": 113.59034
        },
        "ad_info": {
            "adcode": 440203,
            "province": "广东省",
            "city": "韶关市",
            "district": "武江区"
        }
    },
    {
        "id": "6885188545122177709",
        "title": "公共厕所(两江镇长塘村)",
        "address": "广东省韶关市乐昌市楠木森林公园西侧180米",
        "tel": "",
        "category": "基础设施:公共设施:公共厕所",
        "type": 0,
        "location": {
            "lat": 25.353709,
            "lng": 113.260173
        },
        "ad_info": {
            "adcode": 440281,
            "province": "广东省",
            "city": "韶关市",
            "district": "乐昌市"
        }
    },
    {
        "id": "16959600284304340874",
        "title": "公共厕所",
        "address": "广东省韶关市始兴县八一商店西侧100米",
        "tel": "",
        "category": "基础设施:公共设施:公共厕所",
        "type": 0,
        "location": {
            "lat": 24.93995,
            "lng": 114.003812
        },
        "ad_info": {
            "adcode": 440222,
            "province": "广东省",
            "city": "韶关市",
            "district": "始兴县"
        }
    },
    {
        "id": "14636061908296741865",
        "title": "粤北停车区第一公共厕所",
        "address": "广东省韶关市乐昌市粤北停车区西50米",
        "tel": "",
        "category": "基础设施:公共设施:公共厕所",
        "type": 0,
        "location": {
            "lat": 25.320534,
            "lng": 112.962589
        },
        "ad_info": {
            "adcode": 440281,
            "province": "广东省",
            "city": "韶关市",
            "district": "乐昌市"
        }
    },
    {
        "id": "8122136565319478907",
        "title": "火山停车区公共厕所",
        "address": "广东省韶关市曲江区大塘停车区西50米",
        "tel": "",
        "category": "基础设施:公共设施:公共厕所",
        "type": 0,
        "location": {
            "lat": 24.84959,
            "lng": 113.713249
        },
        "ad_info": {
            "adcode": 440205,
            "province": "广东省",
            "city": "韶关市",
            "district": "曲江区"
        }
    },
    {
        "id": "16480544649629313081",
        "title": "公共厕所",
        "address": "广东省韶关市始兴县城南镇东南村牛头陂溢富农场包装厂房后面西边水库旁",
        "tel": "",
        "category": "基础设施:公共设施:公共厕所",
        "type": 0,
        "location": {
            "lat": 24.908859,
            "lng": 114.091844
        },
        "ad_info": {
            "adcode": 440222,
            "province": "广东省",
            "city": "韶关市",
            "district": "始兴县"
        }
    },
    {
        "id": "4369362264190007519",
        "title": "公共厕所",
        "address": "广东省韶关市南雄市三佳村生态农业园东侧",
        "tel": "",
        "category": "基础设施:公共设施:公共厕所",
        "type": 0,
        "location": {
            "lat": 25.158466,
            "lng": 114.353898
        },
        "ad_info": {
            "adcode": 440282,
            "province": "广东省",
            "city": "韶关市",
            "district": "南雄市"
        }
    },
    {
        "id": "8492460851418896973",
        "title": "官渡东停车区公共厕所",
        "address": "广东省韶关市翁源县X792与Y819交叉口西南方向228米左右",
        "tel": "",
        "category": "基础设施:公共设施:公共厕所",
        "type": 0,
        "location": {
            "lat": 24.242882,
            "lng": 113.941143
        },
        "ad_info": {
            "adcode": 440229,
            "province": "广东省",
            "city": "韶关市",
            "district": "翁源县"
        }
    },
    {
        "id": "17289911331355100199",
        "title": "公共厕所",
        "address": "广东省韶关市翁源县周心路与建设二路交叉口东南方向68米左右",
        "tel": "",
        "category": "基础设施:公共设施:公共厕所",
        "type": 0,
        "location": {
            "lat": 24.24455,
            "lng": 114.027829
        },
        "ad_info": {
            "adcode": 440229,
            "province": "广东省",
            "city": "韶关市",
            "district": "翁源县"
        }
    },
    {
        "id": "1420375991811782601",
        "title": "江畔公园公共厕所",
        "address": "广东省韶关市曲江区沿堤三路与马坝大道交叉口东南方向156米左右",
        "tel": "",
        "category": "基础设施:公共设施:公共厕所",
        "type": 0,
        "location": {
            "lat": 24.677142,
            "lng": 113.589207
        },
        "ad_info": {
            "adcode": 440205,
            "province": "广东省",
            "city": "韶关市",
            "district": "曲江区"
        }
    },
    {
        "id": "11530184231220429404",
        "title": "嘉嘉利",
        "address": "广东省韶关市乐昌市人民北路与鲤鱼岭东路交叉口正西方向21米左右",
        "tel": "",
        "category": "基础设施:公共设施:公共厕所",
        "type": 0,
        "location": {
            "lat": 25.136075,
            "lng": 113.350573
        },
        "ad_info": {
            "adcode": 440281,
            "province": "广东省",
            "city": "韶关市",
            "district": "乐昌市"
        }
    },
    {
        "id": "17862061366600658987",
        "title": "公共厕所",
        "address": "广东省韶关市武江区新华南路39号",
        "tel": "",
        "category": "基础设施:公共设施:公共厕所",
        "type": 0,
        "location": {
            "lat": 24.793175,
            "lng": 113.583572
        },
        "ad_info": {
            "adcode": 440203,
            "province": "广东省",
            "city": "韶关市",
            "district": "武江区"
        }
    },
    {
        "id": "13573490914004308609",
        "title": "公共厕所",
        "address": "广东省韶关市浈江区华南农产品交易中心东北侧340米",
        "tel": "",
        "category": "基础设施:公共设施:公共厕所",
        "type": 0,
        "location": {
            "lat": 24.796211,
            "lng": 113.633933
        },
        "ad_info": {
            "adcode": 440204,
            "province": "广东省",
            "city": "韶关市",
            "district": "浈江区"
        }
    },
    {
        "id": "10028523159267297821",
        "title": "粤北停车区第二公共厕所",
        "address": "广东省韶关市乐昌市粤北停车区南50米",
        "tel": "",
        "category": "基础设施:公共设施:公共厕所",
        "type": 0,
        "location": {
            "lat": 25.320074,
            "lng": 112.963223
        },
        "ad_info": {
            "adcode": 440281,
            "province": "广东省",
            "city": "韶关市",
            "district": "乐昌市"
        }
    },
    {
        "id": "9374347661487337614",
        "title": "公共厕所",
        "address": "广东省韶关市武江区余靖路与芙蓉大道北交叉口东南方向113米左右",
        "tel": "",
        "category": "基础设施:公共设施:公共厕所",
        "type": 0,
        "location": {
            "lat": 24.768715,
            "lng": 113.544671
        },
        "ad_info": {
            "adcode": 440203,
            "province": "广东省",
            "city": "韶关市",
            "district": "武江区"
        }
    },
    {
        "id": "2307220253363021200",
        "title": "三水村旅游公共厕所",
        "address": "广东省韶关市南雄市Y461三水村卫生院旁",
        "tel": "",
        "category": "基础设施:公共设施:公共厕所",
        "type": 0,
        "location": {
            "lat": 25.16835,
            "lng": 114.449058
        },
        "ad_info": {
            "adcode": 440282,
            "province": "广东省",
            "city": "韶关市",
            "district": "南雄市"
        }
    },
    {
        "id": "8926744810215031765",
        "title": "公共厕所",
        "address": "广东省韶关市新丰县X162与Y950交叉口正南方向227米左右",
        "tel": "",
        "category": "基础设施:公共设施:公共厕所",
        "type": 0,
        "location": {
            "lat": 24.174871,
            "lng": 114.52197
        },
        "ad_info": {
            "adcode": 440233,
            "province": "广东省",
            "city": "韶关市",
            "district": "新丰县"
        }
    },
    {
        "id": "12352907910209795835",
        "title": "公共厕所(九峰镇联安村)",
        "address": "广东省韶关市乐昌市九峰街一路与248省道交叉口南480米",
        "tel": "",
        "category": "基础设施:公共设施:公共厕所",
        "type": 0,
        "location": {
            "lat": 25.338265,
            "lng": 113.374934
        },
        "ad_info": {
            "adcode": 440281,
            "province": "广东省",
            "city": "韶关市",
            "district": "乐昌市"
        }
    },
    {
        "id": "11961299102710937582",
        "title": "公共厕所",
        "address": "广东省韶关市始兴县X344与Y325交叉口正北方向570米左右",
        "tel": "",
        "category": "基础设施:公共设施:公共厕所",
        "type": 0,
        "location": {
            "lat": 24.951081,
            "lng": 114.02954
        },
        "ad_info": {
            "adcode": 440222,
            "province": "广东省",
            "city": "韶关市",
            "district": "始兴县"
        }
    },
    {
        "id": "10106510780047815986",
        "title": "公共厕所",
        "address": "广东省韶关市乳源瑶族自治县",
        "tel": "",
        "category": "基础设施:公共设施:公共厕所",
        "type": 0,
        "location": {
            "lat": 24.821937,
            "lng": 113.319205
        },
        "ad_info": {
            "adcode": 440232,
            "province": "广东省",
            "city": "韶关市",
            "district": "乳源瑶族自治县"
        }
    },
    {
        "id": "2466797613926687828",
        "title": "公共厕所",
        "address": "广东省韶关市仁化县仁厚坊东南侧",
        "tel": "",
        "category": "基础设施:公共设施:公共厕所",
        "type": 0,
        "location": {
            "lat": 25.077393,
            "lng": 113.580186
        },
        "ad_info": {
            "adcode": 440224,
            "province": "广东省",
            "city": "韶关市",
            "district": "仁化县"
        }
    },
    {
        "id": "6037706321959356888",
        "title": "高级旅游公共厕所",
        "address": "广东省韶关市乳源瑶族自治县",
        "tel": "",
        "category": "基础设施:公共设施:公共厕所",
        "type": 0,
        "location": {
            "lat": 24.678649,
            "lng": 113.039421
        },
        "ad_info": {
            "adcode": 440232,
            "province": "广东省",
            "city": "韶关市",
            "district": "乳源瑶族自治县"
        }
    },
    {
        "id": "482988497238150256",
        "title": "旅游厕所",
        "address": "广东省韶关市乳源瑶族自治县古母水卫生院西侧70米",
        "tel": "",
        "category": "基础设施:公共设施:公共厕所",
        "type": 0,
        "location": {
            "lat": 24.564443,
            "lng": 113.025688
        },
        "ad_info": {
            "adcode": 440232,
            "province": "广东省",
            "city": "韶关市",
            "district": "乳源瑶族自治县"
        }
    },
    {
        "id": "911314160714562177",
        "title": "曲江服务区第一公共厕所",
        "address": "广东省韶关市曲江区G240与Y363交叉口正南方向1444米左右",
        "tel": "",
        "category": "基础设施:公共设施:公共厕所",
        "type": 0,
        "location": {
            "lat": 24.638244,
            "lng": 113.595263
        },
        "ad_info": {
            "adcode": 440205,
            "province": "广东省",
            "city": "韶关市",
            "district": "曲江区"
        }
    },
    {
        "id": "4556825604787248844",
        "title": "公共厕所",
        "address": "广东省韶关市曲江区建设南路与沿堤三路交叉口正西方向78米左右",
        "tel": "",
        "category": "基础设施:公共设施:公共厕所",
        "type": 0,
        "location": {
            "lat": 24.676842,
            "lng": 113.598202
        },
        "ad_info": {
            "adcode": 440205,
            "province": "广东省",
            "city": "韶关市",
            "district": "曲江区"
        }
    },
    {
        "id": "3839339994931922434",
        "title": "公共厕所",
        "address": "广东省韶关市浈江区",
        "tel": "",
        "category": "基础设施:公共设施:公共厕所",
        "type": 0,
        "location": {
            "lat": 24.878814,
            "lng": 113.63088
        },
        "ad_info": {
            "adcode": 440204,
            "province": "广东省",
            "city": "韶关市",
            "district": "浈江区"
        }
    },
    {
        "id": "13779666784266536042",
        "title": "公共厕所",
        "address": "广东省韶关市南雄市X338与Y531交叉口正北方向294米左右",
        "tel": "",
        "category": "基础设施:公共设施:公共厕所",
        "type": 0,
        "location": {
            "lat": 25.284159,
            "lng": 114.529082
        },
        "ad_info": {
            "adcode": 440282,
            "province": "广东省",
            "city": "韶关市",
            "district": "南雄市"
        }
    },
    {
        "id": "8492460851418896973",
        "title": "官渡东停车区公共厕所",
        "address": "广东省韶关市翁源县X792与Y819交叉口西南方向228米左右",
        "tel": "",
        "category": "基础设施:公共设施:公共厕所",
        "type": 0,
        "location": {
            "lat": 24.242882,
            "lng": 113.941143
        },
        "ad_info": {
            "adcode": 440229,
            "province": "广东省",
            "city": "韶关市",
            "district": "翁源县"
        }
    },
    {
        "id": "17289911331355100199",
        "title": "公共厕所",
        "address": "广东省韶关市翁源县周心路与建设二路交叉口东南方向68米左右",
        "tel": "",
        "category": "基础设施:公共设施:公共厕所",
        "type": 0,
        "location": {
            "lat": 24.24455,
            "lng": 114.027829
        },
        "ad_info": {
            "adcode": 440229,
            "province": "广东省",
            "city": "韶关市",
            "district": "翁源县"
        }
    },
    {
        "id": "1420375991811782601",
        "title": "江畔公园公共厕所",
        "address": "广东省韶关市曲江区沿堤三路与马坝大道交叉口东南方向156米左右",
        "tel": "",
        "category": "基础设施:公共设施:公共厕所",
        "type": 0,
        "location": {
            "lat": 24.677142,
            "lng": 113.589207
        },
        "ad_info": {
            "adcode": 440205,
            "province": "广东省",
            "city": "韶关市",
            "district": "曲江区"
        }
    },
    {
        "id": "11530184231220429404",
        "title": "嘉嘉利",
        "address": "广东省韶关市乐昌市人民北路与鲤鱼岭东路交叉口正西方向21米左右",
        "tel": "",
        "category": "基础设施:公共设施:公共厕所",
        "type": 0,
        "location": {
            "lat": 25.136075,
            "lng": 113.350573
        },
        "ad_info": {
            "adcode": 440281,
            "province": "广东省",
            "city": "韶关市",
            "district": "乐昌市"
        }
    },
    {
        "id": "17862061366600658987",
        "title": "公共厕所",
        "address": "广东省韶关市武江区新华南路39号",
        "tel": "",
        "category": "基础设施:公共设施:公共厕所",
        "type": 0,
        "location": {
            "lat": 24.793175,
            "lng": 113.583572
        },
        "ad_info": {
            "adcode": 440203,
            "province": "广东省",
            "city": "韶关市",
            "district": "武江区"
        }
    },
    {
        "id": "13573490914004308609",
        "title": "公共厕所",
        "address": "广东省韶关市浈江区华南农产品交易中心东北侧340米",
        "tel": "",
        "category": "基础设施:公共设施:公共厕所",
        "type": 0,
        "location": {
            "lat": 24.796211,
            "lng": 113.633933
        },
        "ad_info": {
            "adcode": 440204,
            "province": "广东省",
            "city": "韶关市",
            "district": "浈江区"
        }
    },
    {
        "id": "10028523159267297821",
        "title": "粤北停车区第二公共厕所",
        "address": "广东省韶关市乐昌市粤北停车区南50米",
        "tel": "",
        "category": "基础设施:公共设施:公共厕所",
        "type": 0,
        "location": {
            "lat": 25.320074,
            "lng": 112.963223
        },
        "ad_info": {
            "adcode": 440281,
            "province": "广东省",
            "city": "韶关市",
            "district": "乐昌市"
        }
    },
    {
        "id": "9374347661487337614",
        "title": "公共厕所",
        "address": "广东省韶关市武江区余靖路与芙蓉大道北交叉口东南方向113米左右",
        "tel": "",
        "category": "基础设施:公共设施:公共厕所",
        "type": 0,
        "location": {
            "lat": 24.768715,
            "lng": 113.544671
        },
        "ad_info": {
            "adcode": 440203,
            "province": "广东省",
            "city": "韶关市",
            "district": "武江区"
        }
    },
    {
        "id": "2307220253363021200",
        "title": "三水村旅游公共厕所",
        "address": "广东省韶关市南雄市Y461三水村卫生院旁",
        "tel": "",
        "category": "基础设施:公共设施:公共厕所",
        "type": 0,
        "location": {
            "lat": 25.16835,
            "lng": 114.449058
        },
        "ad_info": {
            "adcode": 440282,
            "province": "广东省",
            "city": "韶关市",
            "district": "南雄市"
        }
    },
    {
        "id": "8926744810215031765",
        "title": "公共厕所",
        "address": "广东省韶关市新丰县X162与Y950交叉口正南方向227米左右",
        "tel": "",
        "category": "基础设施:公共设施:公共厕所",
        "type": 0,
        "location": {
            "lat": 24.174871,
            "lng": 114.52197
        },
        "ad_info": {
            "adcode": 440233,
            "province": "广东省",
            "city": "韶关市",
            "district": "新丰县"
        }
    },
    {
        "id": "12352907910209795835",
        "title": "公共厕所(九峰镇联安村)",
        "address": "广东省韶关市乐昌市九峰街一路与248省道交叉口南480米",
        "tel": "",
        "category": "基础设施:公共设施:公共厕所",
        "type": 0,
        "location": {
            "lat": 25.338265,
            "lng": 113.374934
        },
        "ad_info": {
            "adcode": 440281,
            "province": "广东省",
            "city": "韶关市",
            "district": "乐昌市"
        }
    },
    {
        "id": "11961299102710937582",
        "title": "公共厕所",
        "address": "广东省韶关市始兴县X344与Y325交叉口正北方向570米左右",
        "tel": "",
        "category": "基础设施:公共设施:公共厕所",
        "type": 0,
        "location": {
            "lat": 24.951081,
            "lng": 114.02954
        },
        "ad_info": {
            "adcode": 440222,
            "province": "广东省",
            "city": "韶关市",
            "district": "始兴县"
        }
    },
    {
        "id": "10106510780047815986",
        "title": "公共厕所",
        "address": "广东省韶关市乳源瑶族自治县",
        "tel": "",
        "category": "基础设施:公共设施:公共厕所",
        "type": 0,
        "location": {
            "lat": 24.821937,
            "lng": 113.319205
        },
        "ad_info": {
            "adcode": 440232,
            "province": "广东省",
            "city": "韶关市",
            "district": "乳源瑶族自治县"
        }
    },
    {
        "id": "2466797613926687828",
        "title": "公共厕所",
        "address": "广东省韶关市仁化县仁厚坊东南侧",
        "tel": "",
        "category": "基础设施:公共设施:公共厕所",
        "type": 0,
        "location": {
            "lat": 25.077393,
            "lng": 113.580186
        },
        "ad_info": {
            "adcode": 440224,
            "province": "广东省",
            "city": "韶关市",
            "district": "仁化县"
        }
    },
    {
        "id": "6037706321959356888",
        "title": "高级旅游公共厕所",
        "address": "广东省韶关市乳源瑶族自治县",
        "tel": "",
        "category": "基础设施:公共设施:公共厕所",
        "type": 0,
        "location": {
            "lat": 24.678649,
            "lng": 113.039421
        },
        "ad_info": {
            "adcode": 440232,
            "province": "广东省",
            "city": "韶关市",
            "district": "乳源瑶族自治县"
        }
    },
    {
        "id": "482988497238150256",
        "title": "旅游厕所",
        "address": "广东省韶关市乳源瑶族自治县古母水卫生院西侧70米",
        "tel": "",
        "category": "基础设施:公共设施:公共厕所",
        "type": 0,
        "location": {
            "lat": 24.564443,
            "lng": 113.025688
        },
        "ad_info": {
            "adcode": 440232,
            "province": "广东省",
            "city": "韶关市",
            "district": "乳源瑶族自治县"
        }
    },
    {
        "id": "911314160714562177",
        "title": "曲江服务区第一公共厕所",
        "address": "广东省韶关市曲江区G240与Y363交叉口正南方向1444米左右",
        "tel": "",
        "category": "基础设施:公共设施:公共厕所",
        "type": 0,
        "location": {
            "lat": 24.638244,
            "lng": 113.595263
        },
        "ad_info": {
            "adcode": 440205,
            "province": "广东省",
            "city": "韶关市",
            "district": "曲江区"
        }
    },
    {
        "id": "4556825604787248844",
        "title": "公共厕所",
        "address": "广东省韶关市曲江区建设南路与沿堤三路交叉口正西方向78米左右",
        "tel": "",
        "category": "基础设施:公共设施:公共厕所",
        "type": 0,
        "location": {
            "lat": 24.676842,
            "lng": 113.598202
        },
        "ad_info": {
            "adcode": 440205,
            "province": "广东省",
            "city": "韶关市",
            "district": "曲江区"
        }
    },
    {
        "id": "3839339994931922434",
        "title": "公共厕所",
        "address": "广东省韶关市浈江区",
        "tel": "",
        "category": "基础设施:公共设施:公共厕所",
        "type": 0,
        "location": {
            "lat": 24.878814,
            "lng": 113.63088
        },
        "ad_info": {
            "adcode": 440204,
            "province": "广东省",
            "city": "韶关市",
            "district": "浈江区"
        }
    },
    {
        "id": "13779666784266536042",
        "title": "公共厕所",
        "address": "广东省韶关市南雄市X338与Y531交叉口正北方向294米左右",
        "tel": "",
        "category": "基础设施:公共设施:公共厕所",
        "type": 0,
        "location": {
            "lat": 25.284159,
            "lng": 114.529082
        },
        "ad_info": {
            "adcode": 440282,
            "province": "广东省",
            "city": "韶关市",
            "district": "南雄市"
        }
    },
    {
        "id": "8492460851418896973",
        "title": "官渡东停车区公共厕所",
        "address": "广东省韶关市翁源县X792与Y819交叉口西南方向228米左右",
        "tel": "",
        "category": "基础设施:公共设施:公共厕所",
        "type": 0,
        "location": {
            "lat": 24.242882,
            "lng": 113.941143
        },
        "ad_info": {
            "adcode": 440229,
            "province": "广东省",
            "city": "韶关市",
            "district": "翁源县"
        }
    },
    {
        "id": "17289911331355100199",
        "title": "公共厕所",
        "address": "广东省韶关市翁源县周心路与建设二路交叉口东南方向68米左右",
        "tel": "",
        "category": "基础设施:公共设施:公共厕所",
        "type": 0,
        "location": {
            "lat": 24.24455,
            "lng": 114.027829
        },
        "ad_info": {
            "adcode": 440229,
            "province": "广东省",
            "city": "韶关市",
            "district": "翁源县"
        }
    },
    {
        "id": "1420375991811782601",
        "title": "江畔公园公共厕所",
        "address": "广东省韶关市曲江区沿堤三路与马坝大道交叉口东南方向156米左右",
        "tel": "",
        "category": "基础设施:公共设施:公共厕所",
        "type": 0,
        "location": {
            "lat": 24.677142,
            "lng": 113.589207
        },
        "ad_info": {
            "adcode": 440205,
            "province": "广东省",
            "city": "韶关市",
            "district": "曲江区"
        }
    },
    {
        "id": "11530184231220429404",
        "title": "嘉嘉利",
        "address": "广东省韶关市乐昌市人民北路与鲤鱼岭东路交叉口正西方向21米左右",
        "tel": "",
        "category": "基础设施:公共设施:公共厕所",
        "type": 0,
        "location": {
            "lat": 25.136075,
            "lng": 113.350573
        },
        "ad_info": {
            "adcode": 440281,
            "province": "广东省",
            "city": "韶关市",
            "district": "乐昌市"
        }
    },
    {
        "id": "17862061366600658987",
        "title": "公共厕所",
        "address": "广东省韶关市武江区新华南路39号",
        "tel": "",
        "category": "基础设施:公共设施:公共厕所",
        "type": 0,
        "location": {
            "lat": 24.793175,
            "lng": 113.583572
        },
        "ad_info": {
            "adcode": 440203,
            "province": "广东省",
            "city": "韶关市",
            "district": "武江区"
        }
    },
    {
        "id": "13573490914004308609",
        "title": "公共厕所",
        "address": "广东省韶关市浈江区华南农产品交易中心东北侧340米",
        "tel": "",
        "category": "基础设施:公共设施:公共厕所",
        "type": 0,
        "location": {
            "lat": 24.796211,
            "lng": 113.633933
        },
        "ad_info": {
            "adcode": 440204,
            "province": "广东省",
            "city": "韶关市",
            "district": "浈江区"
        }
    },
    {
        "id": "10028523159267297821",
        "title": "粤北停车区第二公共厕所",
        "address": "广东省韶关市乐昌市粤北停车区南50米",
        "tel": "",
        "category": "基础设施:公共设施:公共厕所",
        "type": 0,
        "location": {
            "lat": 25.320074,
            "lng": 112.963223
        },
        "ad_info": {
            "adcode": 440281,
            "province": "广东省",
            "city": "韶关市",
            "district": "乐昌市"
        }
    },
    {
        "id": "9374347661487337614",
        "title": "公共厕所",
        "address": "广东省韶关市武江区余靖路与芙蓉大道北交叉口东南方向113米左右",
        "tel": "",
        "category": "基础设施:公共设施:公共厕所",
        "type": 0,
        "location": {
            "lat": 24.768715,
            "lng": 113.544671
        },
        "ad_info": {
            "adcode": 440203,
            "province": "广东省",
            "city": "韶关市",
            "district": "武江区"
        }
    },
    {
        "id": "2307220253363021200",
        "title": "三水村旅游公共厕所",
        "address": "广东省韶关市南雄市Y461三水村卫生院旁",
        "tel": "",
        "category": "基础设施:公共设施:公共厕所",
        "type": 0,
        "location": {
            "lat": 25.16835,
            "lng": 114.449058
        },
        "ad_info": {
            "adcode": 440282,
            "province": "广东省",
            "city": "韶关市",
            "district": "南雄市"
        }
    },
    {
        "id": "8926744810215031765",
        "title": "公共厕所",
        "address": "广东省韶关市新丰县X162与Y950交叉口正南方向227米左右",
        "tel": "",
        "category": "基础设施:公共设施:公共厕所",
        "type": 0,
        "location": {
            "lat": 24.174871,
            "lng": 114.52197
        },
        "ad_info": {
            "adcode": 440233,
            "province": "广东省",
            "city": "韶关市",
            "district": "新丰县"
        }
    },
    {
        "id": "12352907910209795835",
        "title": "公共厕所(九峰镇联安村)",
        "address": "广东省韶关市乐昌市九峰街一路与248省道交叉口南480米",
        "tel": "",
        "category": "基础设施:公共设施:公共厕所",
        "type": 0,
        "location": {
            "lat": 25.338265,
            "lng": 113.374934
        },
        "ad_info": {
            "adcode": 440281,
            "province": "广东省",
            "city": "韶关市",
            "district": "乐昌市"
        }
    },
    {
        "id": "11961299102710937582",
        "title": "公共厕所",
        "address": "广东省韶关市始兴县X344与Y325交叉口正北方向570米左右",
        "tel": "",
        "category": "基础设施:公共设施:公共厕所",
        "type": 0,
        "location": {
            "lat": 24.951081,
            "lng": 114.02954
        },
        "ad_info": {
            "adcode": 440222,
            "province": "广东省",
            "city": "韶关市",
            "district": "始兴县"
        }
    },
    {
        "id": "10106510780047815986",
        "title": "公共厕所",
        "address": "广东省韶关市乳源瑶族自治县",
        "tel": "",
        "category": "基础设施:公共设施:公共厕所",
        "type": 0,
        "location": {
            "lat": 24.821937,
            "lng": 113.319205
        },
        "ad_info": {
            "adcode": 440232,
            "province": "广东省",
            "city": "韶关市",
            "district": "乳源瑶族自治县"
        }
    },
    {
        "id": "2466797613926687828",
        "title": "公共厕所",
        "address": "广东省韶关市仁化县仁厚坊东南侧",
        "tel": "",
        "category": "基础设施:公共设施:公共厕所",
        "type": 0,
        "location": {
            "lat": 25.077393,
            "lng": 113.580186
        },
        "ad_info": {
            "adcode": 440224,
            "province": "广东省",
            "city": "韶关市",
            "district": "仁化县"
        }
    },
    {
        "id": "6037706321959356888",
        "title": "高级旅游公共厕所",
        "address": "广东省韶关市乳源瑶族自治县",
        "tel": "",
        "category": "基础设施:公共设施:公共厕所",
        "type": 0,
        "location": {
            "lat": 24.678649,
            "lng": 113.039421
        },
        "ad_info": {
            "adcode": 440232,
            "province": "广东省",
            "city": "韶关市",
            "district": "乳源瑶族自治县"
        }
    },
    {
        "id": "482988497238150256",
        "title": "旅游厕所",
        "address": "广东省韶关市乳源瑶族自治县古母水卫生院西侧70米",
        "tel": "",
        "category": "基础设施:公共设施:公共厕所",
        "type": 0,
        "location": {
            "lat": 24.564443,
            "lng": 113.025688
        },
        "ad_info": {
            "adcode": 440232,
            "province": "广东省",
            "city": "韶关市",
            "district": "乳源瑶族自治县"
        }
    },
    {
        "id": "911314160714562177",
        "title": "曲江服务区第一公共厕所",
        "address": "广东省韶关市曲江区G240与Y363交叉口正南方向1444米左右",
        "tel": "",
        "category": "基础设施:公共设施:公共厕所",
        "type": 0,
        "location": {
            "lat": 24.638244,
            "lng": 113.595263
        },
        "ad_info": {
            "adcode": 440205,
            "province": "广东省",
            "city": "韶关市",
            "district": "曲江区"
        }
    },
    {
        "id": "4556825604787248844",
        "title": "公共厕所",
        "address": "广东省韶关市曲江区建设南路与沿堤三路交叉口正西方向78米左右",
        "tel": "",
        "category": "基础设施:公共设施:公共厕所",
        "type": 0,
        "location": {
            "lat": 24.676842,
            "lng": 113.598202
        },
        "ad_info": {
            "adcode": 440205,
            "province": "广东省",
            "city": "韶关市",
            "district": "曲江区"
        }
    },
    {
        "id": "3839339994931922434",
        "title": "公共厕所",
        "address": "广东省韶关市浈江区",
        "tel": "",
        "category": "基础设施:公共设施:公共厕所",
        "type": 0,
        "location": {
            "lat": 24.878814,
            "lng": 113.63088
        },
        "ad_info": {
            "adcode": 440204,
            "province": "广东省",
            "city": "韶关市",
            "district": "浈江区"
        }
    },
    {
        "id": "13779666784266536042",
        "title": "公共厕所",
        "address": "广东省韶关市南雄市X338与Y531交叉口正北方向294米左右",
        "tel": "",
        "category": "基础设施:公共设施:公共厕所",
        "type": 0,
        "location": {
            "lat": 25.284159,
            "lng": 114.529082
        },
        "ad_info": {
            "adcode": 440282,
            "province": "广东省",
            "city": "韶关市",
            "district": "南雄市"
        }
    },
    {
        "id": "8492460851418896973",
        "title": "官渡东停车区公共厕所",
        "address": "广东省韶关市翁源县X792与Y819交叉口西南方向228米左右",
        "tel": "",
        "category": "基础设施:公共设施:公共厕所",
        "type": 0,
        "location": {
            "lat": 24.242882,
            "lng": 113.941143
        },
        "ad_info": {
            "adcode": 440229,
            "province": "广东省",
            "city": "韶关市",
            "district": "翁源县"
        }
    },
    {
        "id": "17289911331355100199",
        "title": "公共厕所",
        "address": "广东省韶关市翁源县周心路与建设二路交叉口东南方向68米左右",
        "tel": "",
        "category": "基础设施:公共设施:公共厕所",
        "type": 0,
        "location": {
            "lat": 24.24455,
            "lng": 114.027829
        },
        "ad_info": {
            "adcode": 440229,
            "province": "广东省",
            "city": "韶关市",
            "district": "翁源县"
        }
    },
    {
        "id": "1420375991811782601",
        "title": "江畔公园公共厕所",
        "address": "广东省韶关市曲江区沿堤三路与马坝大道交叉口东南方向156米左右",
        "tel": "",
        "category": "基础设施:公共设施:公共厕所",
        "type": 0,
        "location": {
            "lat": 24.677142,
            "lng": 113.589207
        },
        "ad_info": {
            "adcode": 440205,
            "province": "广东省",
            "city": "韶关市",
            "district": "曲江区"
        }
    },
    {
        "id": "11530184231220429404",
        "title": "嘉嘉利",
        "address": "广东省韶关市乐昌市人民北路与鲤鱼岭东路交叉口正西方向21米左右",
        "tel": "",
        "category": "基础设施:公共设施:公共厕所",
        "type": 0,
        "location": {
            "lat": 25.136075,
            "lng": 113.350573
        },
        "ad_info": {
            "adcode": 440281,
            "province": "广东省",
            "city": "韶关市",
            "district": "乐昌市"
        }
    },
    {
        "id": "17862061366600658987",
        "title": "公共厕所",
        "address": "广东省韶关市武江区新华南路39号",
        "tel": "",
        "category": "基础设施:公共设施:公共厕所",
        "type": 0,
        "location": {
            "lat": 24.793175,
            "lng": 113.583572
        },
        "ad_info": {
            "adcode": 440203,
            "province": "广东省",
            "city": "韶关市",
            "district": "武江区"
        }
    },
    {
        "id": "13573490914004308609",
        "title": "公共厕所",
        "address": "广东省韶关市浈江区华南农产品交易中心东北侧340米",
        "tel": "",
        "category": "基础设施:公共设施:公共厕所",
        "type": 0,
        "location": {
            "lat": 24.796211,
            "lng": 113.633933
        },
        "ad_info": {
            "adcode": 440204,
            "province": "广东省",
            "city": "韶关市",
            "district": "浈江区"
        }
    },
    {
        "id": "10028523159267297821",
        "title": "粤北停车区第二公共厕所",
        "address": "广东省韶关市乐昌市粤北停车区南50米",
        "tel": "",
        "category": "基础设施:公共设施:公共厕所",
        "type": 0,
        "location": {
            "lat": 25.320074,
            "lng": 112.963223
        },
        "ad_info": {
            "adcode": 440281,
            "province": "广东省",
            "city": "韶关市",
            "district": "乐昌市"
        }
    },
    {
        "id": "9374347661487337614",
        "title": "公共厕所",
        "address": "广东省韶关市武江区余靖路与芙蓉大道北交叉口东南方向113米左右",
        "tel": "",
        "category": "基础设施:公共设施:公共厕所",
        "type": 0,
        "location": {
            "lat": 24.768715,
            "lng": 113.544671
        },
        "ad_info": {
            "adcode": 440203,
            "province": "广东省",
            "city": "韶关市",
            "district": "武江区"
        }
    },
    {
        "id": "2307220253363021200",
        "title": "三水村旅游公共厕所",
        "address": "广东省韶关市南雄市Y461三水村卫生院旁",
        "tel": "",
        "category": "基础设施:公共设施:公共厕所",
        "type": 0,
        "location": {
            "lat": 25.16835,
            "lng": 114.449058
        },
        "ad_info": {
            "adcode": 440282,
            "province": "广东省",
            "city": "韶关市",
            "district": "南雄市"
        }
    },
    {
        "id": "8926744810215031765",
        "title": "公共厕所",
        "address": "广东省韶关市新丰县X162与Y950交叉口正南方向227米左右",
        "tel": "",
        "category": "基础设施:公共设施:公共厕所",
        "type": 0,
        "location": {
            "lat": 24.174871,
            "lng": 114.52197
        },
        "ad_info": {
            "adcode": 440233,
            "province": "广东省",
            "city": "韶关市",
            "district": "新丰县"
        }
    },
    {
        "id": "12352907910209795835",
        "title": "公共厕所(九峰镇联安村)",
        "address": "广东省韶关市乐昌市九峰街一路与248省道交叉口南480米",
        "tel": "",
        "category": "基础设施:公共设施:公共厕所",
        "type": 0,
        "location": {
            "lat": 25.338265,
            "lng": 113.374934
        },
        "ad_info": {
            "adcode": 440281,
            "province": "广东省",
            "city": "韶关市",
            "district": "乐昌市"
        }
    },
    {
        "id": "11961299102710937582",
        "title": "公共厕所",
        "address": "广东省韶关市始兴县X344与Y325交叉口正北方向570米左右",
        "tel": "",
        "category": "基础设施:公共设施:公共厕所",
        "type": 0,
        "location": {
            "lat": 24.951081,
            "lng": 114.02954
        },
        "ad_info": {
            "adcode": 440222,
            "province": "广东省",
            "city": "韶关市",
            "district": "始兴县"
        }
    },
    {
        "id": "10106510780047815986",
        "title": "公共厕所",
        "address": "广东省韶关市乳源瑶族自治县",
        "tel": "",
        "category": "基础设施:公共设施:公共厕所",
        "type": 0,
        "location": {
            "lat": 24.821937,
            "lng": 113.319205
        },
        "ad_info": {
            "adcode": 440232,
            "province": "广东省",
            "city": "韶关市",
            "district": "乳源瑶族自治县"
        }
    },
    {
        "id": "2466797613926687828",
        "title": "公共厕所",
        "address": "广东省韶关市仁化县仁厚坊东南侧",
        "tel": "",
        "category": "基础设施:公共设施:公共厕所",
        "type": 0,
        "location": {
            "lat": 25.077393,
            "lng": 113.580186
        },
        "ad_info": {
            "adcode": 440224,
            "province": "广东省",
            "city": "韶关市",
            "district": "仁化县"
        }
    },
    {
        "id": "6037706321959356888",
        "title": "高级旅游公共厕所",
        "address": "广东省韶关市乳源瑶族自治县",
        "tel": "",
        "category": "基础设施:公共设施:公共厕所",
        "type": 0,
        "location": {
            "lat": 24.678649,
            "lng": 113.039421
        },
        "ad_info": {
            "adcode": 440232,
            "province": "广东省",
            "city": "韶关市",
            "district": "乳源瑶族自治县"
        }
    },
    {
        "id": "482988497238150256",
        "title": "旅游厕所",
        "address": "广东省韶关市乳源瑶族自治县古母水卫生院西侧70米",
        "tel": "",
        "category": "基础设施:公共设施:公共厕所",
        "type": 0,
        "location": {
            "lat": 24.564443,
            "lng": 113.025688
        },
        "ad_info": {
            "adcode": 440232,
            "province": "广东省",
            "city": "韶关市",
            "district": "乳源瑶族自治县"
        }
    },
    {
        "id": "911314160714562177",
        "title": "曲江服务区第一公共厕所",
        "address": "广东省韶关市曲江区G240与Y363交叉口正南方向1444米左右",
        "tel": "",
        "category": "基础设施:公共设施:公共厕所",
        "type": 0,
        "location": {
            "lat": 24.638244,
            "lng": 113.595263
        },
        "ad_info": {
            "adcode": 440205,
            "province": "广东省",
            "city": "韶关市",
            "district": "曲江区"
        }
    },
    {
        "id": "4556825604787248844",
        "title": "公共厕所",
        "address": "广东省韶关市曲江区建设南路与沿堤三路交叉口正西方向78米左右",
        "tel": "",
        "category": "基础设施:公共设施:公共厕所",
        "type": 0,
        "location": {
            "lat": 24.676842,
            "lng": 113.598202
        },
        "ad_info": {
            "adcode": 440205,
            "province": "广东省",
            "city": "韶关市",
            "district": "曲江区"
        }
    },
    {
        "id": "3839339994931922434",
        "title": "公共厕所",
        "address": "广东省韶关市浈江区",
        "tel": "",
        "category": "基础设施:公共设施:公共厕所",
        "type": 0,
        "location": {
            "lat": 24.878814,
            "lng": 113.63088
        },
        "ad_info": {
            "adcode": 440204,
            "province": "广东省",
            "city": "韶关市",
            "district": "浈江区"
        }
    },
    {
        "id": "13779666784266536042",
        "title": "公共厕所",
        "address": "广东省韶关市南雄市X338与Y531交叉口正北方向294米左右",
        "tel": "",
        "category": "基础设施:公共设施:公共厕所",
        "type": 0,
        "location": {
            "lat": 25.284159,
            "lng": 114.529082
        },
        "ad_info": {
            "adcode": 440282,
            "province": "广东省",
            "city": "韶关市",
            "district": "南雄市"
        }
    },
    {
        "id": "8492460851418896973",
        "title": "官渡东停车区公共厕所",
        "address": "广东省韶关市翁源县X792与Y819交叉口西南方向228米左右",
        "tel": "",
        "category": "基础设施:公共设施:公共厕所",
        "type": 0,
        "location": {
            "lat": 24.242882,
            "lng": 113.941143
        },
        "ad_info": {
            "adcode": 440229,
            "province": "广东省",
            "city": "韶关市",
            "district": "翁源县"
        }
    },
    {
        "id": "17289911331355100199",
        "title": "公共厕所",
        "address": "广东省韶关市翁源县周心路与建设二路交叉口东南方向68米左右",
        "tel": "",
        "category": "基础设施:公共设施:公共厕所",
        "type": 0,
        "location": {
            "lat": 24.24455,
            "lng": 114.027829
        },
        "ad_info": {
            "adcode": 440229,
            "province": "广东省",
            "city": "韶关市",
            "district": "翁源县"
        }
    },
    {
        "id": "1420375991811782601",
        "title": "江畔公园公共厕所",
        "address": "广东省韶关市曲江区沿堤三路与马坝大道交叉口东南方向156米左右",
        "tel": "",
        "category": "基础设施:公共设施:公共厕所",
        "type": 0,
        "location": {
            "lat": 24.677142,
            "lng": 113.589207
        },
        "ad_info": {
            "adcode": 440205,
            "province": "广东省",
            "city": "韶关市",
            "district": "曲江区"
        }
    },
    {
        "id": "11530184231220429404",
        "title": "嘉嘉利",
        "address": "广东省韶关市乐昌市人民北路与鲤鱼岭东路交叉口正西方向21米左右",
        "tel": "",
        "category": "基础设施:公共设施:公共厕所",
        "type": 0,
        "location": {
            "lat": 25.136075,
            "lng": 113.350573
        },
        "ad_info": {
            "adcode": 440281,
            "province": "广东省",
            "city": "韶关市",
            "district": "乐昌市"
        }
    },
    {
        "id": "17862061366600658987",
        "title": "公共厕所",
        "address": "广东省韶关市武江区新华南路39号",
        "tel": "",
        "category": "基础设施:公共设施:公共厕所",
        "type": 0,
        "location": {
            "lat": 24.793175,
            "lng": 113.583572
        },
        "ad_info": {
            "adcode": 440203,
            "province": "广东省",
            "city": "韶关市",
            "district": "武江区"
        }
    },
    {
        "id": "13573490914004308609",
        "title": "公共厕所",
        "address": "广东省韶关市浈江区华南农产品交易中心东北侧340米",
        "tel": "",
        "category": "基础设施:公共设施:公共厕所",
        "type": 0,
        "location": {
            "lat": 24.796211,
            "lng": 113.633933
        },
        "ad_info": {
            "adcode": 440204,
            "province": "广东省",
            "city": "韶关市",
            "district": "浈江区"
        }
    },
    {
        "id": "10028523159267297821",
        "title": "粤北停车区第二公共厕所",
        "address": "广东省韶关市乐昌市粤北停车区南50米",
        "tel": "",
        "category": "基础设施:公共设施:公共厕所",
        "type": 0,
        "location": {
            "lat": 25.320074,
            "lng": 112.963223
        },
        "ad_info": {
            "adcode": 440281,
            "province": "广东省",
            "city": "韶关市",
            "district": "乐昌市"
        }
    },
    {
        "id": "9374347661487337614",
        "title": "公共厕所",
        "address": "广东省韶关市武江区余靖路与芙蓉大道北交叉口东南方向113米左右",
        "tel": "",
        "category": "基础设施:公共设施:公共厕所",
        "type": 0,
        "location": {
            "lat": 24.768715,
            "lng": 113.544671
        },
        "ad_info": {
            "adcode": 440203,
            "province": "广东省",
            "city": "韶关市",
            "district": "武江区"
        }
    },
    {
        "id": "2307220253363021200",
        "title": "三水村旅游公共厕所",
        "address": "广东省韶关市南雄市Y461三水村卫生院旁",
        "tel": "",
        "category": "基础设施:公共设施:公共厕所",
        "type": 0,
        "location": {
            "lat": 25.16835,
            "lng": 114.449058
        },
        "ad_info": {
            "adcode": 440282,
            "province": "广东省",
            "city": "韶关市",
            "district": "南雄市"
        }
    },
    {
        "id": "8926744810215031765",
        "title": "公共厕所",
        "address": "广东省韶关市新丰县X162与Y950交叉口正南方向227米左右",
        "tel": "",
        "category": "基础设施:公共设施:公共厕所",
        "type": 0,
        "location": {
            "lat": 24.174871,
            "lng": 114.52197
        },
        "ad_info": {
            "adcode": 440233,
            "province": "广东省",
            "city": "韶关市",
            "district": "新丰县"
        }
    },
    {
        "id": "12352907910209795835",
        "title": "公共厕所(九峰镇联安村)",
        "address": "广东省韶关市乐昌市九峰街一路与248省道交叉口南480米",
        "tel": "",
        "category": "基础设施:公共设施:公共厕所",
        "type": 0,
        "location": {
            "lat": 25.338265,
            "lng": 113.374934
        },
        "ad_info": {
            "adcode": 440281,
            "province": "广东省",
            "city": "韶关市",
            "district": "乐昌市"
        }
    },
    {
        "id": "11961299102710937582",
        "title": "公共厕所",
        "address": "广东省韶关市始兴县X344与Y325交叉口正北方向570米左右",
        "tel": "",
        "category": "基础设施:公共设施:公共厕所",
        "type": 0,
        "location": {
            "lat": 24.951081,
            "lng": 114.02954
        },
        "ad_info": {
            "adcode": 440222,
            "province": "广东省",
            "city": "韶关市",
            "district": "始兴县"
        }
    },
    {
        "id": "10106510780047815986",
        "title": "公共厕所",
        "address": "广东省韶关市乳源瑶族自治县",
        "tel": "",
        "category": "基础设施:公共设施:公共厕所",
        "type": 0,
        "location": {
            "lat": 24.821937,
            "lng": 113.319205
        },
        "ad_info": {
            "adcode": 440232,
            "province": "广东省",
            "city": "韶关市",
            "district": "乳源瑶族自治县"
        }
    },
    {
        "id": "2466797613926687828",
        "title": "公共厕所",
        "address": "广东省韶关市仁化县仁厚坊东南侧",
        "tel": "",
        "category": "基础设施:公共设施:公共厕所",
        "type": 0,
        "location": {
            "lat": 25.077393,
            "lng": 113.580186
        },
        "ad_info": {
            "adcode": 440224,
            "province": "广东省",
            "city": "韶关市",
            "district": "仁化县"
        }
    },
    {
        "id": "6037706321959356888",
        "title": "高级旅游公共厕所",
        "address": "广东省韶关市乳源瑶族自治县",
        "tel": "",
        "category": "基础设施:公共设施:公共厕所",
        "type": 0,
        "location": {
            "lat": 24.678649,
            "lng": 113.039421
        },
        "ad_info": {
            "adcode": 440232,
            "province": "广东省",
            "city": "韶关市",
            "district": "乳源瑶族自治县"
        }
    },
    {
        "id": "482988497238150256",
        "title": "旅游厕所",
        "address": "广东省韶关市乳源瑶族自治县古母水卫生院西侧70米",
        "tel": "",
        "category": "基础设施:公共设施:公共厕所",
        "type": 0,
        "location": {
            "lat": 24.564443,
            "lng": 113.025688
        },
        "ad_info": {
            "adcode": 440232,
            "province": "广东省",
            "city": "韶关市",
            "district": "乳源瑶族自治县"
        }
    },
    {
        "id": "911314160714562177",
        "title": "曲江服务区第一公共厕所",
        "address": "广东省韶关市曲江区G240与Y363交叉口正南方向1444米左右",
        "tel": "",
        "category": "基础设施:公共设施:公共厕所",
        "type": 0,
        "location": {
            "lat": 24.638244,
            "lng": 113.595263
        },
        "ad_info": {
            "adcode": 440205,
            "province": "广东省",
            "city": "韶关市",
            "district": "曲江区"
        }
    },
    {
        "id": "4556825604787248844",
        "title": "公共厕所",
        "address": "广东省韶关市曲江区建设南路与沿堤三路交叉口正西方向78米左右",
        "tel": "",
        "category": "基础设施:公共设施:公共厕所",
        "type": 0,
        "location": {
            "lat": 24.676842,
            "lng": 113.598202
        },
        "ad_info": {
            "adcode": 440205,
            "province": "广东省",
            "city": "韶关市",
            "district": "曲江区"
        }
    },
    {
        "id": "3839339994931922434",
        "title": "公共厕所",
        "address": "广东省韶关市浈江区",
        "tel": "",
        "category": "基础设施:公共设施:公共厕所",
        "type": 0,
        "location": {
            "lat": 24.878814,
            "lng": 113.63088
        },
        "ad_info": {
            "adcode": 440204,
            "province": "广东省",
            "city": "韶关市",
            "district": "浈江区"
        }
    },
    {
        "id": "13779666784266536042",
        "title": "公共厕所",
        "address": "广东省韶关市南雄市X338与Y531交叉口正北方向294米左右",
        "tel": "",
        "category": "基础设施:公共设施:公共厕所",
        "type": 0,
        "location": {
            "lat": 25.284159,
            "lng": 114.529082
        },
        "ad_info": {
            "adcode": 440282,
            "province": "广东省",
            "city": "韶关市",
            "district": "南雄市"
        }
    },
    {
        "id": "8492460851418896973",
        "title": "官渡东停车区公共厕所",
        "address": "广东省韶关市翁源县X792与Y819交叉口西南方向228米左右",
        "tel": "",
        "category": "基础设施:公共设施:公共厕所",
        "type": 0,
        "location": {
            "lat": 24.242882,
            "lng": 113.941143
        },
        "ad_info": {
            "adcode": 440229,
            "province": "广东省",
            "city": "韶关市",
            "district": "翁源县"
        }
    },
    {
        "id": "17289911331355100199",
        "title": "公共厕所",
        "address": "广东省韶关市翁源县周心路与建设二路交叉口东南方向68米左右",
        "tel": "",
        "category": "基础设施:公共设施:公共厕所",
        "type": 0,
        "location": {
            "lat": 24.24455,
            "lng": 114.027829
        },
        "ad_info": {
            "adcode": 440229,
            "province": "广东省",
            "city": "韶关市",
            "district": "翁源县"
        }
    },
    {
        "id": "1420375991811782601",
        "title": "江畔公园公共厕所",
        "address": "广东省韶关市曲江区沿堤三路与马坝大道交叉口东南方向156米左右",
        "tel": "",
        "category": "基础设施:公共设施:公共厕所",
        "type": 0,
        "location": {
            "lat": 24.677142,
            "lng": 113.589207
        },
        "ad_info": {
            "adcode": 440205,
            "province": "广东省",
            "city": "韶关市",
            "district": "曲江区"
        }
    },
    {
        "id": "11530184231220429404",
        "title": "嘉嘉利",
        "address": "广东省韶关市乐昌市人民北路与鲤鱼岭东路交叉口正西方向21米左右",
        "tel": "",
        "category": "基础设施:公共设施:公共厕所",
        "type": 0,
        "location": {
            "lat": 25.136075,
            "lng": 113.350573
        },
        "ad_info": {
            "adcode": 440281,
            "province": "广东省",
            "city": "韶关市",
            "district": "乐昌市"
        }
    },
    {
        "id": "17862061366600658987",
        "title": "公共厕所",
        "address": "广东省韶关市武江区新华南路39号",
        "tel": "",
        "category": "基础设施:公共设施:公共厕所",
        "type": 0,
        "location": {
            "lat": 24.793175,
            "lng": 113.583572
        },
        "ad_info": {
            "adcode": 440203,
            "province": "广东省",
            "city": "韶关市",
            "district": "武江区"
        }
    },
    {
        "id": "13573490914004308609",
        "title": "公共厕所",
        "address": "广东省韶关市浈江区华南农产品交易中心东北侧340米",
        "tel": "",
        "category": "基础设施:公共设施:公共厕所",
        "type": 0,
        "location": {
            "lat": 24.796211,
            "lng": 113.633933
        },
        "ad_info": {
            "adcode": 440204,
            "province": "广东省",
            "city": "韶关市",
            "district": "浈江区"
        }
    },
    {
        "id": "10028523159267297821",
        "title": "粤北停车区第二公共厕所",
        "address": "广东省韶关市乐昌市粤北停车区南50米",
        "tel": "",
        "category": "基础设施:公共设施:公共厕所",
        "type": 0,
        "location": {
            "lat": 25.320074,
            "lng": 112.963223
        },
        "ad_info": {
            "adcode": 440281,
            "province": "广东省",
            "city": "韶关市",
            "district": "乐昌市"
        }
    },
    {
        "id": "9374347661487337614",
        "title": "公共厕所",
        "address": "广东省韶关市武江区余靖路与芙蓉大道北交叉口东南方向113米左右",
        "tel": "",
        "category": "基础设施:公共设施:公共厕所",
        "type": 0,
        "location": {
            "lat": 24.768715,
            "lng": 113.544671
        },
        "ad_info": {
            "adcode": 440203,
            "province": "广东省",
            "city": "韶关市",
            "district": "武江区"
        }
    },
    {
        "id": "2307220253363021200",
        "title": "三水村旅游公共厕所",
        "address": "广东省韶关市南雄市Y461三水村卫生院旁",
        "tel": "",
        "category": "基础设施:公共设施:公共厕所",
        "type": 0,
        "location": {
            "lat": 25.16835,
            "lng": 114.449058
        },
        "ad_info": {
            "adcode": 440282,
            "province": "广东省",
            "city": "韶关市",
            "district": "南雄市"
        }
    },
    {
        "id": "8926744810215031765",
        "title": "公共厕所",
        "address": "广东省韶关市新丰县X162与Y950交叉口正南方向227米左右",
        "tel": "",
        "category": "基础设施:公共设施:公共厕所",
        "type": 0,
        "location": {
            "lat": 24.174871,
            "lng": 114.52197
        },
        "ad_info": {
            "adcode": 440233,
            "province": "广东省",
            "city": "韶关市",
            "district": "新丰县"
        }
    },
    {
        "id": "12352907910209795835",
        "title": "公共厕所(九峰镇联安村)",
        "address": "广东省韶关市乐昌市九峰街一路与248省道交叉口南480米",
        "tel": "",
        "category": "基础设施:公共设施:公共厕所",
        "type": 0,
        "location": {
            "lat": 25.338265,
            "lng": 113.374934
        },
        "ad_info": {
            "adcode": 440281,
            "province": "广东省",
            "city": "韶关市",
            "district": "乐昌市"
        }
    },
    {
        "id": "11961299102710937582",
        "title": "公共厕所",
        "address": "广东省韶关市始兴县X344与Y325交叉口正北方向570米左右",
        "tel": "",
        "category": "基础设施:公共设施:公共厕所",
        "type": 0,
        "location": {
            "lat": 24.951081,
            "lng": 114.02954
        },
        "ad_info": {
            "adcode": 440222,
            "province": "广东省",
            "city": "韶关市",
            "district": "始兴县"
        }
    },
    {
        "id": "10106510780047815986",
        "title": "公共厕所",
        "address": "广东省韶关市乳源瑶族自治县",
        "tel": "",
        "category": "基础设施:公共设施:公共厕所",
        "type": 0,
        "location": {
            "lat": 24.821937,
            "lng": 113.319205
        },
        "ad_info": {
            "adcode": 440232,
            "province": "广东省",
            "city": "韶关市",
            "district": "乳源瑶族自治县"
        }
    },
    {
        "id": "2466797613926687828",
        "title": "公共厕所",
        "address": "广东省韶关市仁化县仁厚坊东南侧",
        "tel": "",
        "category": "基础设施:公共设施:公共厕所",
        "type": 0,
        "location": {
            "lat": 25.077393,
            "lng": 113.580186
        },
        "ad_info": {
            "adcode": 440224,
            "province": "广东省",
            "city": "韶关市",
            "district": "仁化县"
        }
    },
    {
        "id": "6037706321959356888",
        "title": "高级旅游公共厕所",
        "address": "广东省韶关市乳源瑶族自治县",
        "tel": "",
        "category": "基础设施:公共设施:公共厕所",
        "type": 0,
        "location": {
            "lat": 24.678649,
            "lng": 113.039421
        },
        "ad_info": {
            "adcode": 440232,
            "province": "广东省",
            "city": "韶关市",
            "district": "乳源瑶族自治县"
        }
    },
    {
        "id": "482988497238150256",
        "title": "旅游厕所",
        "address": "广东省韶关市乳源瑶族自治县古母水卫生院西侧70米",
        "tel": "",
        "category": "基础设施:公共设施:公共厕所",
        "type": 0,
        "location": {
            "lat": 24.564443,
            "lng": 113.025688
        },
        "ad_info": {
            "adcode": 440232,
            "province": "广东省",
            "city": "韶关市",
            "district": "乳源瑶族自治县"
        }
    },
    {
        "id": "911314160714562177",
        "title": "曲江服务区第一公共厕所",
        "address": "广东省韶关市曲江区G240与Y363交叉口正南方向1444米左右",
        "tel": "",
        "category": "基础设施:公共设施:公共厕所",
        "type": 0,
        "location": {
            "lat": 24.638244,
            "lng": 113.595263
        },
        "ad_info": {
            "adcode": 440205,
            "province": "广东省",
            "city": "韶关市",
            "district": "曲江区"
        }
    },
    {
        "id": "4556825604787248844",
        "title": "公共厕所",
        "address": "广东省韶关市曲江区建设南路与沿堤三路交叉口正西方向78米左右",
        "tel": "",
        "category": "基础设施:公共设施:公共厕所",
        "type": 0,
        "location": {
            "lat": 24.676842,
            "lng": 113.598202
        },
        "ad_info": {
            "adcode": 440205,
            "province": "广东省",
            "city": "韶关市",
            "district": "曲江区"
        }
    },
    {
        "id": "3839339994931922434",
        "title": "公共厕所",
        "address": "广东省韶关市浈江区",
        "tel": "",
        "category": "基础设施:公共设施:公共厕所",
        "type": 0,
        "location": {
            "lat": 24.878814,
            "lng": 113.63088
        },
        "ad_info": {
            "adcode": 440204,
            "province": "广东省",
            "city": "韶关市",
            "district": "浈江区"
        }
    },
    {
        "id": "13779666784266536042",
        "title": "公共厕所",
        "address": "广东省韶关市南雄市X338与Y531交叉口正北方向294米左右",
        "tel": "",
        "category": "基础设施:公共设施:公共厕所",
        "type": 0,
        "location": {
            "lat": 25.284159,
            "lng": 114.529082
        },
        "ad_info": {
            "adcode": 440282,
            "province": "广东省",
            "city": "韶关市",
            "district": "南雄市"
        }
    },
    {
        "id": "8492460851418896973",
        "title": "官渡东停车区公共厕所",
        "address": "广东省韶关市翁源县X792与Y819交叉口西南方向228米左右",
        "tel": "",
        "category": "基础设施:公共设施:公共厕所",
        "type": 0,
        "location": {
            "lat": 24.242882,
            "lng": 113.941143
        },
        "ad_info": {
            "adcode": 440229,
            "province": "广东省",
            "city": "韶关市",
            "district": "翁源县"
        }
    },
    {
        "id": "17289911331355100199",
        "title": "公共厕所",
        "address": "广东省韶关市翁源县周心路与建设二路交叉口东南方向68米左右",
        "tel": "",
        "category": "基础设施:公共设施:公共厕所",
        "type": 0,
        "location": {
            "lat": 24.24455,
            "lng": 114.027829
        },
        "ad_info": {
            "adcode": 440229,
            "province": "广东省",
            "city": "韶关市",
            "district": "翁源县"
        }
    },
    {
        "id": "1420375991811782601",
        "title": "江畔公园公共厕所",
        "address": "广东省韶关市曲江区沿堤三路与马坝大道交叉口东南方向156米左右",
        "tel": "",
        "category": "基础设施:公共设施:公共厕所",
        "type": 0,
        "location": {
            "lat": 24.677142,
            "lng": 113.589207
        },
        "ad_info": {
            "adcode": 440205,
            "province": "广东省",
            "city": "韶关市",
            "district": "曲江区"
        }
    },
    {
        "id": "11530184231220429404",
        "title": "嘉嘉利",
        "address": "广东省韶关市乐昌市人民北路与鲤鱼岭东路交叉口正西方向21米左右",
        "tel": "",
        "category": "基础设施:公共设施:公共厕所",
        "type": 0,
        "location": {
            "lat": 25.136075,
            "lng": 113.350573
        },
        "ad_info": {
            "adcode": 440281,
            "province": "广东省",
            "city": "韶关市",
            "district": "乐昌市"
        }
    },
    {
        "id": "17862061366600658987",
        "title": "公共厕所",
        "address": "广东省韶关市武江区新华南路39号",
        "tel": "",
        "category": "基础设施:公共设施:公共厕所",
        "type": 0,
        "location": {
            "lat": 24.793175,
            "lng": 113.583572
        },
        "ad_info": {
            "adcode": 440203,
            "province": "广东省",
            "city": "韶关市",
            "district": "武江区"
        }
    },
    {
        "id": "13573490914004308609",
        "title": "公共厕所",
        "address": "广东省韶关市浈江区华南农产品交易中心东北侧340米",
        "tel": "",
        "category": "基础设施:公共设施:公共厕所",
        "type": 0,
        "location": {
            "lat": 24.796211,
            "lng": 113.633933
        },
        "ad_info": {
            "adcode": 440204,
            "province": "广东省",
            "city": "韶关市",
            "district": "浈江区"
        }
    },
    {
        "id": "10028523159267297821",
        "title": "粤北停车区第二公共厕所",
        "address": "广东省韶关市乐昌市粤北停车区南50米",
        "tel": "",
        "category": "基础设施:公共设施:公共厕所",
        "type": 0,
        "location": {
            "lat": 25.320074,
            "lng": 112.963223
        },
        "ad_info": {
            "adcode": 440281,
            "province": "广东省",
            "city": "韶关市",
            "district": "乐昌市"
        }
    },
    {
        "id": "9374347661487337614",
        "title": "公共厕所",
        "address": "广东省韶关市武江区余靖路与芙蓉大道北交叉口东南方向113米左右",
        "tel": "",
        "category": "基础设施:公共设施:公共厕所",
        "type": 0,
        "location": {
            "lat": 24.768715,
            "lng": 113.544671
        },
        "ad_info": {
            "adcode": 440203,
            "province": "广东省",
            "city": "韶关市",
            "district": "武江区"
        }
    },
    {
        "id": "2307220253363021200",
        "title": "三水村旅游公共厕所",
        "address": "广东省韶关市南雄市Y461三水村卫生院旁",
        "tel": "",
        "category": "基础设施:公共设施:公共厕所",
        "type": 0,
        "location": {
            "lat": 25.16835,
            "lng": 114.449058
        },
        "ad_info": {
            "adcode": 440282,
            "province": "广东省",
            "city": "韶关市",
            "district": "南雄市"
        }
    },
    {
        "id": "8926744810215031765",
        "title": "公共厕所",
        "address": "广东省韶关市新丰县X162与Y950交叉口正南方向227米左右",
        "tel": "",
        "category": "基础设施:公共设施:公共厕所",
        "type": 0,
        "location": {
            "lat": 24.174871,
            "lng": 114.52197
        },
        "ad_info": {
            "adcode": 440233,
            "province": "广东省",
            "city": "韶关市",
            "district": "新丰县"
        }
    },
    {
        "id": "12352907910209795835",
        "title": "公共厕所(九峰镇联安村)",
        "address": "广东省韶关市乐昌市九峰街一路与248省道交叉口南480米",
        "tel": "",
        "category": "基础设施:公共设施:公共厕所",
        "type": 0,
        "location": {
            "lat": 25.338265,
            "lng": 113.374934
        },
        "ad_info": {
            "adcode": 440281,
            "province": "广东省",
            "city": "韶关市",
            "district": "乐昌市"
        }
    },
    {
        "id": "11961299102710937582",
        "title": "公共厕所",
        "address": "广东省韶关市始兴县X344与Y325交叉口正北方向570米左右",
        "tel": "",
        "category": "基础设施:公共设施:公共厕所",
        "type": 0,
        "location": {
            "lat": 24.951081,
            "lng": 114.02954
        },
        "ad_info": {
            "adcode": 440222,
            "province": "广东省",
            "city": "韶关市",
            "district": "始兴县"
        }
    },
    {
        "id": "10106510780047815986",
        "title": "公共厕所",
        "address": "广东省韶关市乳源瑶族自治县",
        "tel": "",
        "category": "基础设施:公共设施:公共厕所",
        "type": 0,
        "location": {
            "lat": 24.821937,
            "lng": 113.319205
        },
        "ad_info": {
            "adcode": 440232,
            "province": "广东省",
            "city": "韶关市",
            "district": "乳源瑶族自治县"
        }
    },
    {
        "id": "2466797613926687828",
        "title": "公共厕所",
        "address": "广东省韶关市仁化县仁厚坊东南侧",
        "tel": "",
        "category": "基础设施:公共设施:公共厕所",
        "type": 0,
        "location": {
            "lat": 25.077393,
            "lng": 113.580186
        },
        "ad_info": {
            "adcode": 440224,
            "province": "广东省",
            "city": "韶关市",
            "district": "仁化县"
        }
    },
    {
        "id": "6037706321959356888",
        "title": "高级旅游公共厕所",
        "address": "广东省韶关市乳源瑶族自治县",
        "tel": "",
        "category": "基础设施:公共设施:公共厕所",
        "type": 0,
        "location": {
            "lat": 24.678649,
            "lng": 113.039421
        },
        "ad_info": {
            "adcode": 440232,
            "province": "广东省",
            "city": "韶关市",
            "district": "乳源瑶族自治县"
        }
    },
    {
        "id": "482988497238150256",
        "title": "旅游厕所",
        "address": "广东省韶关市乳源瑶族自治县古母水卫生院西侧70米",
        "tel": "",
        "category": "基础设施:公共设施:公共厕所",
        "type": 0,
        "location": {
            "lat": 24.564443,
            "lng": 113.025688
        },
        "ad_info": {
            "adcode": 440232,
            "province": "广东省",
            "city": "韶关市",
            "district": "乳源瑶族自治县"
        }
    },
    {
        "id": "911314160714562177",
        "title": "曲江服务区第一公共厕所",
        "address": "广东省韶关市曲江区G240与Y363交叉口正南方向1444米左右",
        "tel": "",
        "category": "基础设施:公共设施:公共厕所",
        "type": 0,
        "location": {
            "lat": 24.638244,
            "lng": 113.595263
        },
        "ad_info": {
            "adcode": 440205,
            "province": "广东省",
            "city": "韶关市",
            "district": "曲江区"
        }
    },
    {
        "id": "4556825604787248844",
        "title": "公共厕所",
        "address": "广东省韶关市曲江区建设南路与沿堤三路交叉口正西方向78米左右",
        "tel": "",
        "category": "基础设施:公共设施:公共厕所",
        "type": 0,
        "location": {
            "lat": 24.676842,
            "lng": 113.598202
        },
        "ad_info": {
            "adcode": 440205,
            "province": "广东省",
            "city": "韶关市",
            "district": "曲江区"
        }
    },
    {
        "id": "3839339994931922434",
        "title": "公共厕所",
        "address": "广东省韶关市浈江区",
        "tel": "",
        "category": "基础设施:公共设施:公共厕所",
        "type": 0,
        "location": {
            "lat": 24.878814,
            "lng": 113.63088
        },
        "ad_info": {
            "adcode": 440204,
            "province": "广东省",
            "city": "韶关市",
            "district": "浈江区"
        }
    },
    {
        "id": "13779666784266536042",
        "title": "公共厕所",
        "address": "广东省韶关市南雄市X338与Y531交叉口正北方向294米左右",
        "tel": "",
        "category": "基础设施:公共设施:公共厕所",
        "type": 0,
        "location": {
            "lat": 25.284159,
            "lng": 114.529082
        },
        "ad_info": {
            "adcode": 440282,
            "province": "广东省",
            "city": "韶关市",
            "district": "南雄市"
        }
    },
    {
        "id": "8492460851418896973",
        "title": "官渡东停车区公共厕所",
        "address": "广东省韶关市翁源县X792与Y819交叉口西南方向228米左右",
        "tel": "",
        "category": "基础设施:公共设施:公共厕所",
        "type": 0,
        "location": {
            "lat": 24.242882,
            "lng": 113.941143
        },
        "ad_info": {
            "adcode": 440229,
            "province": "广东省",
            "city": "韶关市",
            "district": "翁源县"
        }
    },
    {
        "id": "17289911331355100199",
        "title": "公共厕所",
        "address": "广东省韶关市翁源县周心路与建设二路交叉口东南方向68米左右",
        "tel": "",
        "category": "基础设施:公共设施:公共厕所",
        "type": 0,
        "location": {
            "lat": 24.24455,
            "lng": 114.027829
        },
        "ad_info": {
            "adcode": 440229,
            "province": "广东省",
            "city": "韶关市",
            "district": "翁源县"
        }
    },
    {
        "id": "1420375991811782601",
        "title": "江畔公园公共厕所",
        "address": "广东省韶关市曲江区沿堤三路与马坝大道交叉口东南方向156米左右",
        "tel": "",
        "category": "基础设施:公共设施:公共厕所",
        "type": 0,
        "location": {
            "lat": 24.677142,
            "lng": 113.589207
        },
        "ad_info": {
            "adcode": 440205,
            "province": "广东省",
            "city": "韶关市",
            "district": "曲江区"
        }
    },
    {
        "id": "11530184231220429404",
        "title": "嘉嘉利",
        "address": "广东省韶关市乐昌市人民北路与鲤鱼岭东路交叉口正西方向21米左右",
        "tel": "",
        "category": "基础设施:公共设施:公共厕所",
        "type": 0,
        "location": {
            "lat": 25.136075,
            "lng": 113.350573
        },
        "ad_info": {
            "adcode": 440281,
            "province": "广东省",
            "city": "韶关市",
            "district": "乐昌市"
        }
    },
    {
        "id": "17862061366600658987",
        "title": "公共厕所",
        "address": "广东省韶关市武江区新华南路39号",
        "tel": "",
        "category": "基础设施:公共设施:公共厕所",
        "type": 0,
        "location": {
            "lat": 24.793175,
            "lng": 113.583572
        },
        "ad_info": {
            "adcode": 440203,
            "province": "广东省",
            "city": "韶关市",
            "district": "武江区"
        }
    },
    {
        "id": "13573490914004308609",
        "title": "公共厕所",
        "address": "广东省韶关市浈江区华南农产品交易中心东北侧340米",
        "tel": "",
        "category": "基础设施:公共设施:公共厕所",
        "type": 0,
        "location": {
            "lat": 24.796211,
            "lng": 113.633933
        },
        "ad_info": {
            "adcode": 440204,
            "province": "广东省",
            "city": "韶关市",
            "district": "浈江区"
        }
    },
    {
        "id": "10028523159267297821",
        "title": "粤北停车区第二公共厕所",
        "address": "广东省韶关市乐昌市粤北停车区南50米",
        "tel": "",
        "category": "基础设施:公共设施:公共厕所",
        "type": 0,
        "location": {
            "lat": 25.320074,
            "lng": 112.963223
        },
        "ad_info": {
            "adcode": 440281,
            "province": "广东省",
            "city": "韶关市",
            "district": "乐昌市"
        }
    },
    {
        "id": "9374347661487337614",
        "title": "公共厕所",
        "address": "广东省韶关市武江区余靖路与芙蓉大道北交叉口东南方向113米左右",
        "tel": "",
        "category": "基础设施:公共设施:公共厕所",
        "type": 0,
        "location": {
            "lat": 24.768715,
            "lng": 113.544671
        },
        "ad_info": {
            "adcode": 440203,
            "province": "广东省",
            "city": "韶关市",
            "district": "武江区"
        }
    },
    {
        "id": "2307220253363021200",
        "title": "三水村旅游公共厕所",
        "address": "广东省韶关市南雄市Y461三水村卫生院旁",
        "tel": "",
        "category": "基础设施:公共设施:公共厕所",
        "type": 0,
        "location": {
            "lat": 25.16835,
            "lng": 114.449058
        },
        "ad_info": {
            "adcode": 440282,
            "province": "广东省",
            "city": "韶关市",
            "district": "南雄市"
        }
    },
    {
        "id": "8926744810215031765",
        "title": "公共厕所",
        "address": "广东省韶关市新丰县X162与Y950交叉口正南方向227米左右",
        "tel": "",
        "category": "基础设施:公共设施:公共厕所",
        "type": 0,
        "location": {
            "lat": 24.174871,
            "lng": 114.52197
        },
        "ad_info": {
            "adcode": 440233,
            "province": "广东省",
            "city": "韶关市",
            "district": "新丰县"
        }
    },
    {
        "id": "12352907910209795835",
        "title": "公共厕所(九峰镇联安村)",
        "address": "广东省韶关市乐昌市九峰街一路与248省道交叉口南480米",
        "tel": "",
        "category": "基础设施:公共设施:公共厕所",
        "type": 0,
        "location": {
            "lat": 25.338265,
            "lng": 113.374934
        },
        "ad_info": {
            "adcode": 440281,
            "province": "广东省",
            "city": "韶关市",
            "district": "乐昌市"
        }
    },
    {
        "id": "11961299102710937582",
        "title": "公共厕所",
        "address": "广东省韶关市始兴县X344与Y325交叉口正北方向570米左右",
        "tel": "",
        "category": "基础设施:公共设施:公共厕所",
        "type": 0,
        "location": {
            "lat": 24.951081,
            "lng": 114.02954
        },
        "ad_info": {
            "adcode": 440222,
            "province": "广东省",
            "city": "韶关市",
            "district": "始兴县"
        }
    },
    {
        "id": "10106510780047815986",
        "title": "公共厕所",
        "address": "广东省韶关市乳源瑶族自治县",
        "tel": "",
        "category": "基础设施:公共设施:公共厕所",
        "type": 0,
        "location": {
            "lat": 24.821937,
            "lng": 113.319205
        },
        "ad_info": {
            "adcode": 440232,
            "province": "广东省",
            "city": "韶关市",
            "district": "乳源瑶族自治县"
        }
    },
    {
        "id": "2466797613926687828",
        "title": "公共厕所",
        "address": "广东省韶关市仁化县仁厚坊东南侧",
        "tel": "",
        "category": "基础设施:公共设施:公共厕所",
        "type": 0,
        "location": {
            "lat": 25.077393,
            "lng": 113.580186
        },
        "ad_info": {
            "adcode": 440224,
            "province": "广东省",
            "city": "韶关市",
            "district": "仁化县"
        }
    },
    {
        "id": "6037706321959356888",
        "title": "高级旅游公共厕所",
        "address": "广东省韶关市乳源瑶族自治县",
        "tel": "",
        "category": "基础设施:公共设施:公共厕所",
        "type": 0,
        "location": {
            "lat": 24.678649,
            "lng": 113.039421
        },
        "ad_info": {
            "adcode": 440232,
            "province": "广东省",
            "city": "韶关市",
            "district": "乳源瑶族自治县"
        }
    },
    {
        "id": "482988497238150256",
        "title": "旅游厕所",
        "address": "广东省韶关市乳源瑶族自治县古母水卫生院西侧70米",
        "tel": "",
        "category": "基础设施:公共设施:公共厕所",
        "type": 0,
        "location": {
            "lat": 24.564443,
            "lng": 113.025688
        },
        "ad_info": {
            "adcode": 440232,
            "province": "广东省",
            "city": "韶关市",
            "district": "乳源瑶族自治县"
        }
    },
    {
        "id": "911314160714562177",
        "title": "曲江服务区第一公共厕所",
        "address": "广东省韶关市曲江区G240与Y363交叉口正南方向1444米左右",
        "tel": "",
        "category": "基础设施:公共设施:公共厕所",
        "type": 0,
        "location": {
            "lat": 24.638244,
            "lng": 113.595263
        },
        "ad_info": {
            "adcode": 440205,
            "province": "广东省",
            "city": "韶关市",
            "district": "曲江区"
        }
    },
    {
        "id": "4556825604787248844",
        "title": "公共厕所",
        "address": "广东省韶关市曲江区建设南路与沿堤三路交叉口正西方向78米左右",
        "tel": "",
        "category": "基础设施:公共设施:公共厕所",
        "type": 0,
        "location": {
            "lat": 24.676842,
            "lng": 113.598202
        },
        "ad_info": {
            "adcode": 440205,
            "province": "广东省",
            "city": "韶关市",
            "district": "曲江区"
        }
    },
    {
        "id": "3839339994931922434",
        "title": "公共厕所",
        "address": "广东省韶关市浈江区",
        "tel": "",
        "category": "基础设施:公共设施:公共厕所",
        "type": 0,
        "location": {
            "lat": 24.878814,
            "lng": 113.63088
        },
        "ad_info": {
            "adcode": 440204,
            "province": "广东省",
            "city": "韶关市",
            "district": "浈江区"
        }
    },
    {
        "id": "13779666784266536042",
        "title": "公共厕所",
        "address": "广东省韶关市南雄市X338与Y531交叉口正北方向294米左右",
        "tel": "",
        "category": "基础设施:公共设施:公共厕所",
        "type": 0,
        "location": {
            "lat": 25.284159,
            "lng": 114.529082
        },
        "ad_info": {
            "adcode": 440282,
            "province": "广东省",
            "city": "韶关市",
            "district": "南雄市"
        }
    },
    {
        "id": "8492460851418896973",
        "title": "官渡东停车区公共厕所",
        "address": "广东省韶关市翁源县X792与Y819交叉口西南方向228米左右",
        "tel": "",
        "category": "基础设施:公共设施:公共厕所",
        "type": 0,
        "location": {
            "lat": 24.242882,
            "lng": 113.941143
        },
        "ad_info": {
            "adcode": 440229,
            "province": "广东省",
            "city": "韶关市",
            "district": "翁源县"
        }
    },
    {
        "id": "17289911331355100199",
        "title": "公共厕所",
        "address": "广东省韶关市翁源县周心路与建设二路交叉口东南方向68米左右",
        "tel": "",
        "category": "基础设施:公共设施:公共厕所",
        "type": 0,
        "location": {
            "lat": 24.24455,
            "lng": 114.027829
        },
        "ad_info": {
            "adcode": 440229,
            "province": "广东省",
            "city": "韶关市",
            "district": "翁源县"
        }
    },
    {
        "id": "1420375991811782601",
        "title": "江畔公园公共厕所",
        "address": "广东省韶关市曲江区沿堤三路与马坝大道交叉口东南方向156米左右",
        "tel": "",
        "category": "基础设施:公共设施:公共厕所",
        "type": 0,
        "location": {
            "lat": 24.677142,
            "lng": 113.589207
        },
        "ad_info": {
            "adcode": 440205,
            "province": "广东省",
            "city": "韶关市",
            "district": "曲江区"
        }
    },
    {
        "id": "11530184231220429404",
        "title": "嘉嘉利",
        "address": "广东省韶关市乐昌市人民北路与鲤鱼岭东路交叉口正西方向21米左右",
        "tel": "",
        "category": "基础设施:公共设施:公共厕所",
        "type": 0,
        "location": {
            "lat": 25.136075,
            "lng": 113.350573
        },
        "ad_info": {
            "adcode": 440281,
            "province": "广东省",
            "city": "韶关市",
            "district": "乐昌市"
        }
    },
    {
        "id": "17862061366600658987",
        "title": "公共厕所",
        "address": "广东省韶关市武江区新华南路39号",
        "tel": "",
        "category": "基础设施:公共设施:公共厕所",
        "type": 0,
        "location": {
            "lat": 24.793175,
            "lng": 113.583572
        },
        "ad_info": {
            "adcode": 440203,
            "province": "广东省",
            "city": "韶关市",
            "district": "武江区"
        }
    },
    {
        "id": "13573490914004308609",
        "title": "公共厕所",
        "address": "广东省韶关市浈江区华南农产品交易中心东北侧340米",
        "tel": "",
        "category": "基础设施:公共设施:公共厕所",
        "type": 0,
        "location": {
            "lat": 24.796211,
            "lng": 113.633933
        },
        "ad_info": {
            "adcode": 440204,
            "province": "广东省",
            "city": "韶关市",
            "district": "浈江区"
        }
    },
    {
        "id": "10028523159267297821",
        "title": "粤北停车区第二公共厕所",
        "address": "广东省韶关市乐昌市粤北停车区南50米",
        "tel": "",
        "category": "基础设施:公共设施:公共厕所",
        "type": 0,
        "location": {
            "lat": 25.320074,
            "lng": 112.963223
        },
        "ad_info": {
            "adcode": 440281,
            "province": "广东省",
            "city": "韶关市",
            "district": "乐昌市"
        }
    },
    {
        "id": "9374347661487337614",
        "title": "公共厕所",
        "address": "广东省韶关市武江区余靖路与芙蓉大道北交叉口东南方向113米左右",
        "tel": "",
        "category": "基础设施:公共设施:公共厕所",
        "type": 0,
        "location": {
            "lat": 24.768715,
            "lng": 113.544671
        },
        "ad_info": {
            "adcode": 440203,
            "province": "广东省",
            "city": "韶关市",
            "district": "武江区"
        }
    },
    {
        "id": "2307220253363021200",
        "title": "三水村旅游公共厕所",
        "address": "广东省韶关市南雄市Y461三水村卫生院旁",
        "tel": "",
        "category": "基础设施:公共设施:公共厕所",
        "type": 0,
        "location": {
            "lat": 25.16835,
            "lng": 114.449058
        },
        "ad_info": {
            "adcode": 440282,
            "province": "广东省",
            "city": "韶关市",
            "district": "南雄市"
        }
    },
    {
        "id": "8926744810215031765",
        "title": "公共厕所",
        "address": "广东省韶关市新丰县X162与Y950交叉口正南方向227米左右",
        "tel": "",
        "category": "基础设施:公共设施:公共厕所",
        "type": 0,
        "location": {
            "lat": 24.174871,
            "lng": 114.52197
        },
        "ad_info": {
            "adcode": 440233,
            "province": "广东省",
            "city": "韶关市",
            "district": "新丰县"
        }
    },
    {
        "id": "12352907910209795835",
        "title": "公共厕所(九峰镇联安村)",
        "address": "广东省韶关市乐昌市九峰街一路与248省道交叉口南480米",
        "tel": "",
        "category": "基础设施:公共设施:公共厕所",
        "type": 0,
        "location": {
            "lat": 25.338265,
            "lng": 113.374934
        },
        "ad_info": {
            "adcode": 440281,
            "province": "广东省",
            "city": "韶关市",
            "district": "乐昌市"
        }
    },
    {
        "id": "11961299102710937582",
        "title": "公共厕所",
        "address": "广东省韶关市始兴县X344与Y325交叉口正北方向570米左右",
        "tel": "",
        "category": "基础设施:公共设施:公共厕所",
        "type": 0,
        "location": {
            "lat": 24.951081,
            "lng": 114.02954
        },
        "ad_info": {
            "adcode": 440222,
            "province": "广东省",
            "city": "韶关市",
            "district": "始兴县"
        }
    },
    {
        "id": "10106510780047815986",
        "title": "公共厕所",
        "address": "广东省韶关市乳源瑶族自治县",
        "tel": "",
        "category": "基础设施:公共设施:公共厕所",
        "type": 0,
        "location": {
            "lat": 24.821937,
            "lng": 113.319205
        },
        "ad_info": {
            "adcode": 440232,
            "province": "广东省",
            "city": "韶关市",
            "district": "乳源瑶族自治县"
        }
    },
    {
        "id": "2466797613926687828",
        "title": "公共厕所",
        "address": "广东省韶关市仁化县仁厚坊东南侧",
        "tel": "",
        "category": "基础设施:公共设施:公共厕所",
        "type": 0,
        "location": {
            "lat": 25.077393,
            "lng": 113.580186
        },
        "ad_info": {
            "adcode": 440224,
            "province": "广东省",
            "city": "韶关市",
            "district": "仁化县"
        }
    },
    {
        "id": "6037706321959356888",
        "title": "高级旅游公共厕所",
        "address": "广东省韶关市乳源瑶族自治县",
        "tel": "",
        "category": "基础设施:公共设施:公共厕所",
        "type": 0,
        "location": {
            "lat": 24.678649,
            "lng": 113.039421
        },
        "ad_info": {
            "adcode": 440232,
            "province": "广东省",
            "city": "韶关市",
            "district": "乳源瑶族自治县"
        }
    },
    {
        "id": "482988497238150256",
        "title": "旅游厕所",
        "address": "广东省韶关市乳源瑶族自治县古母水卫生院西侧70米",
        "tel": "",
        "category": "基础设施:公共设施:公共厕所",
        "type": 0,
        "location": {
            "lat": 24.564443,
            "lng": 113.025688
        },
        "ad_info": {
            "adcode": 440232,
            "province": "广东省",
            "city": "韶关市",
            "district": "乳源瑶族自治县"
        }
    },
    {
        "id": "911314160714562177",
        "title": "曲江服务区第一公共厕所",
        "address": "广东省韶关市曲江区G240与Y363交叉口正南方向1444米左右",
        "tel": "",
        "category": "基础设施:公共设施:公共厕所",
        "type": 0,
        "location": {
            "lat": 24.638244,
            "lng": 113.595263
        },
        "ad_info": {
            "adcode": 440205,
            "province": "广东省",
            "city": "韶关市",
            "district": "曲江区"
        }
    },
    {
        "id": "4556825604787248844",
        "title": "公共厕所",
        "address": "广东省韶关市曲江区建设南路与沿堤三路交叉口正西方向78米左右",
        "tel": "",
        "category": "基础设施:公共设施:公共厕所",
        "type": 0,
        "location": {
            "lat": 24.676842,
            "lng": 113.598202
        },
        "ad_info": {
            "adcode": 440205,
            "province": "广东省",
            "city": "韶关市",
            "district": "曲江区"
        }
    },
    {
        "id": "3839339994931922434",
        "title": "公共厕所",
        "address": "广东省韶关市浈江区",
        "tel": "",
        "category": "基础设施:公共设施:公共厕所",
        "type": 0,
        "location": {
            "lat": 24.878814,
            "lng": 113.63088
        },
        "ad_info": {
            "adcode": 440204,
            "province": "广东省",
            "city": "韶关市",
            "district": "浈江区"
        }
    },
    {
        "id": "13779666784266536042",
        "title": "公共厕所",
        "address": "广东省韶关市南雄市X338与Y531交叉口正北方向294米左右",
        "tel": "",
        "category": "基础设施:公共设施:公共厕所",
        "type": 0,
        "location": {
            "lat": 25.284159,
            "lng": 114.529082
        },
        "ad_info": {
            "adcode": 440282,
            "province": "广东省",
            "city": "韶关市",
            "district": "南雄市"
        }
    },
    {
        "id": "8492460851418896973",
        "title": "官渡东停车区公共厕所",
        "address": "广东省韶关市翁源县X792与Y819交叉口西南方向228米左右",
        "tel": "",
        "category": "基础设施:公共设施:公共厕所",
        "type": 0,
        "location": {
            "lat": 24.242882,
            "lng": 113.941143
        },
        "ad_info": {
            "adcode": 440229,
            "province": "广东省",
            "city": "韶关市",
            "district": "翁源县"
        }
    },
    {
        "id": "17289911331355100199",
        "title": "公共厕所",
        "address": "广东省韶关市翁源县周心路与建设二路交叉口东南方向68米左右",
        "tel": "",
        "category": "基础设施:公共设施:公共厕所",
        "type": 0,
        "location": {
            "lat": 24.24455,
            "lng": 114.027829
        },
        "ad_info": {
            "adcode": 440229,
            "province": "广东省",
            "city": "韶关市",
            "district": "翁源县"
        }
    },
    {
        "id": "1420375991811782601",
        "title": "江畔公园公共厕所",
        "address": "广东省韶关市曲江区沿堤三路与马坝大道交叉口东南方向156米左右",
        "tel": "",
        "category": "基础设施:公共设施:公共厕所",
        "type": 0,
        "location": {
            "lat": 24.677142,
            "lng": 113.589207
        },
        "ad_info": {
            "adcode": 440205,
            "province": "广东省",
            "city": "韶关市",
            "district": "曲江区"
        }
    },
    {
        "id": "11530184231220429404",
        "title": "嘉嘉利",
        "address": "广东省韶关市乐昌市人民北路与鲤鱼岭东路交叉口正西方向21米左右",
        "tel": "",
        "category": "基础设施:公共设施:公共厕所",
        "type": 0,
        "location": {
            "lat": 25.136075,
            "lng": 113.350573
        },
        "ad_info": {
            "adcode": 440281,
            "province": "广东省",
            "city": "韶关市",
            "district": "乐昌市"
        }
    },
    {
        "id": "17862061366600658987",
        "title": "公共厕所",
        "address": "广东省韶关市武江区新华南路39号",
        "tel": "",
        "category": "基础设施:公共设施:公共厕所",
        "type": 0,
        "location": {
            "lat": 24.793175,
            "lng": 113.583572
        },
        "ad_info": {
            "adcode": 440203,
            "province": "广东省",
            "city": "韶关市",
            "district": "武江区"
        }
    },
    {
        "id": "13573490914004308609",
        "title": "公共厕所",
        "address": "广东省韶关市浈江区华南农产品交易中心东北侧340米",
        "tel": "",
        "category": "基础设施:公共设施:公共厕所",
        "type": 0,
        "location": {
            "lat": 24.796211,
            "lng": 113.633933
        },
        "ad_info": {
            "adcode": 440204,
            "province": "广东省",
            "city": "韶关市",
            "district": "浈江区"
        }
    },
    {
        "id": "10028523159267297821",
        "title": "粤北停车区第二公共厕所",
        "address": "广东省韶关市乐昌市粤北停车区南50米",
        "tel": "",
        "category": "基础设施:公共设施:公共厕所",
        "type": 0,
        "location": {
            "lat": 25.320074,
            "lng": 112.963223
        },
        "ad_info": {
            "adcode": 440281,
            "province": "广东省",
            "city": "韶关市",
            "district": "乐昌市"
        }
    },
    {
        "id": "9374347661487337614",
        "title": "公共厕所",
        "address": "广东省韶关市武江区余靖路与芙蓉大道北交叉口东南方向113米左右",
        "tel": "",
        "category": "基础设施:公共设施:公共厕所",
        "type": 0,
        "location": {
            "lat": 24.768715,
            "lng": 113.544671
        },
        "ad_info": {
            "adcode": 440203,
            "province": "广东省",
            "city": "韶关市",
            "district": "武江区"
        }
    },
    {
        "id": "2307220253363021200",
        "title": "三水村旅游公共厕所",
        "address": "广东省韶关市南雄市Y461三水村卫生院旁",
        "tel": "",
        "category": "基础设施:公共设施:公共厕所",
        "type": 0,
        "location": {
            "lat": 25.16835,
            "lng": 114.449058
        },
        "ad_info": {
            "adcode": 440282,
            "province": "广东省",
            "city": "韶关市",
            "district": "南雄市"
        }
    },
    {
        "id": "8926744810215031765",
        "title": "公共厕所",
        "address": "广东省韶关市新丰县X162与Y950交叉口正南方向227米左右",
        "tel": "",
        "category": "基础设施:公共设施:公共厕所",
        "type": 0,
        "location": {
            "lat": 24.174871,
            "lng": 114.52197
        },
        "ad_info": {
            "adcode": 440233,
            "province": "广东省",
            "city": "韶关市",
            "district": "新丰县"
        }
    },
    {
        "id": "12352907910209795835",
        "title": "公共厕所(九峰镇联安村)",
        "address": "广东省韶关市乐昌市九峰街一路与248省道交叉口南480米",
        "tel": "",
        "category": "基础设施:公共设施:公共厕所",
        "type": 0,
        "location": {
            "lat": 25.338265,
            "lng": 113.374934
        },
        "ad_info": {
            "adcode": 440281,
            "province": "广东省",
            "city": "韶关市",
            "district": "乐昌市"
        }
    },
    {
        "id": "11961299102710937582",
        "title": "公共厕所",
        "address": "广东省韶关市始兴县X344与Y325交叉口正北方向570米左右",
        "tel": "",
        "category": "基础设施:公共设施:公共厕所",
        "type": 0,
        "location": {
            "lat": 24.951081,
            "lng": 114.02954
        },
        "ad_info": {
            "adcode": 440222,
            "province": "广东省",
            "city": "韶关市",
            "district": "始兴县"
        }
    },
    {
        "id": "10106510780047815986",
        "title": "公共厕所",
        "address": "广东省韶关市乳源瑶族自治县",
        "tel": "",
        "category": "基础设施:公共设施:公共厕所",
        "type": 0,
        "location": {
            "lat": 24.821937,
            "lng": 113.319205
        },
        "ad_info": {
            "adcode": 440232,
            "province": "广东省",
            "city": "韶关市",
            "district": "乳源瑶族自治县"
        }
    },
    {
        "id": "2466797613926687828",
        "title": "公共厕所",
        "address": "广东省韶关市仁化县仁厚坊东南侧",
        "tel": "",
        "category": "基础设施:公共设施:公共厕所",
        "type": 0,
        "location": {
            "lat": 25.077393,
            "lng": 113.580186
        },
        "ad_info": {
            "adcode": 440224,
            "province": "广东省",
            "city": "韶关市",
            "district": "仁化县"
        }
    },
    {
        "id": "6037706321959356888",
        "title": "高级旅游公共厕所",
        "address": "广东省韶关市乳源瑶族自治县",
        "tel": "",
        "category": "基础设施:公共设施:公共厕所",
        "type": 0,
        "location": {
            "lat": 24.678649,
            "lng": 113.039421
        },
        "ad_info": {
            "adcode": 440232,
            "province": "广东省",
            "city": "韶关市",
            "district": "乳源瑶族自治县"
        }
    },
    {
        "id": "482988497238150256",
        "title": "旅游厕所",
        "address": "广东省韶关市乳源瑶族自治县古母水卫生院西侧70米",
        "tel": "",
        "category": "基础设施:公共设施:公共厕所",
        "type": 0,
        "location": {
            "lat": 24.564443,
            "lng": 113.025688
        },
        "ad_info": {
            "adcode": 440232,
            "province": "广东省",
            "city": "韶关市",
            "district": "乳源瑶族自治县"
        }
    },
    {
        "id": "911314160714562177",
        "title": "曲江服务区第一公共厕所",
        "address": "广东省韶关市曲江区G240与Y363交叉口正南方向1444米左右",
        "tel": "",
        "category": "基础设施:公共设施:公共厕所",
        "type": 0,
        "location": {
            "lat": 24.638244,
            "lng": 113.595263
        },
        "ad_info": {
            "adcode": 440205,
            "province": "广东省",
            "city": "韶关市",
            "district": "曲江区"
        }
    },
    {
        "id": "4556825604787248844",
        "title": "公共厕所",
        "address": "广东省韶关市曲江区建设南路与沿堤三路交叉口正西方向78米左右",
        "tel": "",
        "category": "基础设施:公共设施:公共厕所",
        "type": 0,
        "location": {
            "lat": 24.676842,
            "lng": 113.598202
        },
        "ad_info": {
            "adcode": 440205,
            "province": "广东省",
            "city": "韶关市",
            "district": "曲江区"
        }
    },
    {
        "id": "3839339994931922434",
        "title": "公共厕所",
        "address": "广东省韶关市浈江区",
        "tel": "",
        "category": "基础设施:公共设施:公共厕所",
        "type": 0,
        "location": {
            "lat": 24.878814,
            "lng": 113.63088
        },
        "ad_info": {
            "adcode": 440204,
            "province": "广东省",
            "city": "韶关市",
            "district": "浈江区"
        }
    },
    {
        "id": "13779666784266536042",
        "title": "公共厕所",
        "address": "广东省韶关市南雄市X338与Y531交叉口正北方向294米左右",
        "tel": "",
        "category": "基础设施:公共设施:公共厕所",
        "type": 0,
        "location": {
            "lat": 25.284159,
            "lng": 114.529082
        },
        "ad_info": {
            "adcode": 440282,
            "province": "广东省",
            "city": "韶关市",
            "district": "南雄市"
        }
    }
]