[
    {
        "id": "18269061942181060068",
        "title": "公共厕所",
        "address": "安徽省马鞍山市花山区新岗路新岗二村33栋前面",
        "tel": "",
        "category": "基础设施:公共设施:公共厕所",
        "type": 0,
        "location": {
            "lat": 31.677189,
            "lng": 118.514195
        },
        "ad_info": {
            "adcode": 340503,
            "province": "安徽省",
            "city": "马鞍山市",
            "district": "花山区"
        }
    },
    {
        "id": "18019156537623830611",
        "title": "公共厕所",
        "address": "安徽省马鞍山市花山区湖南东路与船墩路交叉口正西方向101米左右",
        "tel": "",
        "category": "基础设施:公共设施:公共厕所",
        "type": 0,
        "location": {
            "lat": 31.683965,
            "lng": 118.572091
        },
        "ad_info": {
            "adcode": 340503,
            "province": "安徽省",
            "city": "马鞍山市",
            "district": "花山区"
        }
    },
    {
        "id": "5775900363930165294",
        "title": "公共厕所",
        "address": "安徽省马鞍山市花山区党校路与花山路交叉口正北方向77米左右",
        "tel": "",
        "category": "基础设施:公共设施:公共厕所",
        "type": 0,
        "location": {
            "lat": 31.686569,
            "lng": 118.522
        },
        "ad_info": {
            "adcode": 340503,
            "province": "安徽省",
            "city": "马鞍山市",
            "district": "花山区"
        }
    },
    {
        "id": "15008657560646712297",
        "title": "公共厕所",
        "address": "安徽省马鞍山市花山区天宝路与滨河路交叉口正东方向21米左右",
        "tel": "",
        "category": "基础设施:公共设施:公共厕所",
        "type": 0,
        "location": {
            "lat": 31.67554,
            "lng": 118.539911
        },
        "ad_info": {
            "adcode": 340503,
            "province": "安徽省",
            "city": "马鞍山市",
            "district": "花山区"
        }
    },
    {
        "id": "1412914539093724682",
        "title": "公共厕所",
        "address": "安徽省马鞍山市花山区天宝路与雨山东路交叉口东南方向68米左右",
        "tel": "",
        "category": "基础设施:公共设施:公共厕所",
        "type": 0,
        "location": {
            "lat": 31.672522,
            "lng": 118.539819
        },
        "ad_info": {
            "adcode": 340503,
            "province": "安徽省",
            "city": "马鞍山市",
            "district": "花山区"
        }
    },
    {
        "id": "6086627733559910291",
        "title": "公共厕所",
        "address": "安徽省马鞍山市花山区健康路与花山路交叉口西南方向53米左右",
        "tel": "",
        "category": "基础设施:公共设施:公共厕所",
        "type": 0,
        "location": {
            "lat": 31.705086,
            "lng": 118.507719
        },
        "ad_info": {
            "adcode": 340503,
            "province": "安徽省",
            "city": "马鞍山市",
            "district": "花山区"
        }
    },
    {
        "id": "10298713406861145802",
        "title": "公共厕所",
        "address": "安徽省马鞍山市花山区幸福路与金字塘路交叉口东北方向68米左右",
        "tel": "",
        "category": "基础设施:公共设施:公共厕所",
        "type": 0,
        "location": {
            "lat": 31.720074,
            "lng": 118.485281
        },
        "ad_info": {
            "adcode": 340503,
            "province": "安徽省",
            "city": "马鞍山市",
            "district": "花山区"
        }
    },
    {
        "id": "16392324639584913944",
        "title": "公共厕所",
        "address": "安徽省马鞍山市花山区林里路与江东大道北段交叉口西南方向223米左右",
        "tel": "",
        "category": "基础设施:公共设施:公共厕所",
        "type": 0,
        "location": {
            "lat": 31.7233,
            "lng": 118.515434
        },
        "ad_info": {
            "adcode": 340503,
            "province": "安徽省",
            "city": "马鞍山市",
            "district": "花山区"
        }
    },
    {
        "id": "10483197795887774366",
        "title": "公共厕所",
        "address": "安徽省马鞍山市花山区园桥路与花果山路交叉口正东方向201米左右",
        "tel": "",
        "category": "基础设施:公共设施:公共厕所",
        "type": 0,
        "location": {
            "lat": 31.712375,
            "lng": 118.518857
        },
        "ad_info": {
            "adcode": 340503,
            "province": "安徽省",
            "city": "马鞍山市",
            "district": "花山区"
        }
    },
    {
        "id": "15063780065555796974",
        "title": "公共厕所",
        "address": "安徽省马鞍山市花山区湖北东路东苑小区",
        "tel": "",
        "category": "基础设施:公共设施:公共厕所",
        "type": 0,
        "location": {
            "lat": 31.699913,
            "lng": 118.521886
        },
        "ad_info": {
            "adcode": 340503,
            "province": "安徽省",
            "city": "马鞍山市",
            "district": "花山区"
        }
    },
    {
        "id": "14041178381441714683",
        "title": "公共厕所",
        "address": "安徽省马鞍山市雨山区东湖路东湖公园内",
        "tel": "",
        "category": "基础设施:公共设施:公共厕所",
        "type": 0,
        "location": {
            "lat": 31.658789,
            "lng": 118.520792
        },
        "ad_info": {
            "adcode": 340504,
            "province": "安徽省",
            "city": "马鞍山市",
            "district": "雨山区"
        }
    },
    {
        "id": "16080386722545191365",
        "title": "公共厕所",
        "address": "安徽省马鞍山市花山区葛羊路与江东大道北段交叉口东北220米",
        "tel": "",
        "category": "基础设施:公共设施:公共厕所",
        "type": 0,
        "location": {
            "lat": 31.716679,
            "lng": 118.525688
        },
        "ad_info": {
            "adcode": 340503,
            "province": "安徽省",
            "city": "马鞍山市",
            "district": "花山区"
        }
    },
    {
        "id": "3470814944027476529",
        "title": "公共厕所",
        "address": "安徽省马鞍山市花山区江东大道北段11号花果山公园(东南角)",
        "tel": "",
        "category": "基础设施:公共设施:公共厕所",
        "type": 0,
        "location": {
            "lat": 31.708851,
            "lng": 118.522612
        },
        "ad_info": {
            "adcode": 340503,
            "province": "安徽省",
            "city": "马鞍山市",
            "district": "花山区"
        }
    },
    {
        "id": "11798826759167235292",
        "title": "公共厕所",
        "address": "安徽省马鞍山市花山区解放路与车站路交叉口西南方向54米左右",
        "tel": "",
        "category": "基础设施:公共设施:公共厕所",
        "type": 0,
        "location": {
            "lat": 31.705784,
            "lng": 118.505274
        },
        "ad_info": {
            "adcode": 340503,
            "province": "安徽省",
            "city": "马鞍山市",
            "district": "花山区"
        }
    },
    {
        "id": "2049659282460345259",
        "title": "公共厕所",
        "address": "安徽省马鞍山市花山区慈湖河路与湖北东路交叉口正北方向90米左右",
        "tel": "",
        "category": "基础设施:公共设施:公共厕所",
        "type": 0,
        "location": {
            "lat": 31.702234,
            "lng": 118.533071
        },
        "ad_info": {
            "adcode": 340503,
            "province": "安徽省",
            "city": "马鞍山市",
            "district": "花山区"
        }
    },
    {
        "id": "8781684398981963257",
        "title": "公共厕所",
        "address": "安徽省马鞍山市花山区青山塑业再生资源有限公司东侧120米",
        "tel": "",
        "category": "基础设施:公共设施:公共厕所",
        "type": 0,
        "location": {
            "lat": 31.732785,
            "lng": 118.53537
        },
        "ad_info": {
            "adcode": 340503,
            "province": "安徽省",
            "city": "马鞍山市",
            "district": "花山区"
        }
    },
    {
        "id": "6586960098518858005",
        "title": "公共厕所",
        "address": "安徽省马鞍山市含山县门庄巷玉龙公园(北侧)",
        "tel": "",
        "category": "基础设施:公共设施:公共厕所",
        "type": 0,
        "location": {
            "lat": 31.726099,
            "lng": 118.103206
        },
        "ad_info": {
            "adcode": 340522,
            "province": "安徽省",
            "city": "马鞍山市",
            "district": "含山县"
        }
    },
    {
        "id": "11121700082459173887",
        "title": "公共厕所",
        "address": "安徽省马鞍山市花山区北庄西巷与桃源路交叉口东北方向71米左右",
        "tel": "",
        "category": "基础设施:公共设施:公共厕所",
        "type": 0,
        "location": {
            "lat": 31.679877,
            "lng": 118.512207
        },
        "ad_info": {
            "adcode": 340503,
            "province": "安徽省",
            "city": "马鞍山市",
            "district": "花山区"
        }
    },
    {
        "id": "16454404504974093586",
        "title": "公共厕所",
        "address": "安徽省马鞍山市花山区濮塘中心小学乡村少年宫东南侧50米",
        "tel": "",
        "category": "基础设施:公共设施:公共厕所",
        "type": 0,
        "location": {
            "lat": 31.710294,
            "lng": 118.659557
        },
        "ad_info": {
            "adcode": 340503,
            "province": "安徽省",
            "city": "马鞍山市",
            "district": "花山区"
        }
    },
    {
        "id": "3356998187686222945",
        "title": "公共厕所",
        "address": "安徽省马鞍山市花山区湖南东路与红东路交叉口正东方向146米左右",
        "tel": "",
        "category": "基础设施:公共设施:公共厕所",
        "type": 0,
        "location": {
            "lat": 31.683853,
            "lng": 118.549756
        },
        "ad_info": {
            "adcode": 340503,
            "province": "安徽省",
            "city": "马鞍山市",
            "district": "花山区"
        }
    },
    {
        "id": "1618630116312446417",
        "title": "公共厕所",
        "address": "安徽省马鞍山市当涂县提署中路与行春中路交叉口正北方向136米左右",
        "tel": "",
        "category": "基础设施:公共设施:公共厕所",
        "type": 0,
        "location": {
            "lat": 31.555562,
            "lng": 118.498122
        },
        "ad_info": {
            "adcode": 340521,
            "province": "安徽省",
            "city": "马鞍山市",
            "district": "当涂县"
        }
    },
    {
        "id": "1370443993034487468",
        "title": "公共厕所",
        "address": "安徽省马鞍山市花山区人民新村21幢(沙塘路西)",
        "tel": "",
        "category": "基础设施:公共设施:公共厕所",
        "type": 0,
        "location": {
            "lat": 31.699333,
            "lng": 118.501129
        },
        "ad_info": {
            "adcode": 340503,
            "province": "安徽省",
            "city": "马鞍山市",
            "district": "花山区"
        }
    },
    {
        "id": "16749620209723761426",
        "title": "公共厕所",
        "address": "安徽省马鞍山市花山区北湖小路与沙塘路交叉口正西方向105米左右",
        "tel": "",
        "category": "基础设施:公共设施:公共厕所",
        "type": 0,
        "location": {
            "lat": 31.702921,
            "lng": 118.501659
        },
        "ad_info": {
            "adcode": 340503,
            "province": "安徽省",
            "city": "马鞍山市",
            "district": "花山区"
        }
    },
    {
        "id": "1117232553502488463",
        "title": "公共厕所",
        "address": "安徽省马鞍山市花山区马鞍山站(红旗北路西)",
        "tel": "",
        "category": "基础设施:公共设施:公共厕所",
        "type": 0,
        "location": {
            "lat": 31.70796,
            "lng": 118.502688
        },
        "ad_info": {
            "adcode": 340503,
            "province": "安徽省",
            "city": "马鞍山市",
            "district": "花山区"
        }
    },
    {
        "id": "13353567627628791159",
        "title": "公共厕所",
        "address": "安徽省马鞍山市花山区花山路和平楼集贸市场",
        "tel": "",
        "category": "基础设施:公共设施:公共厕所",
        "type": 0,
        "location": {
            "lat": 31.708818,
            "lng": 118.507081
        },
        "ad_info": {
            "adcode": 340503,
            "province": "安徽省",
            "city": "马鞍山市",
            "district": "花山区"
        }
    },
    {
        "id": "4893497834773248491",
        "title": "公共厕所",
        "address": "安徽省马鞍山市当涂县于湖路与振兴北路交叉口西北方向387米左右",
        "tel": "",
        "category": "基础设施:公共设施:公共厕所",
        "type": 0,
        "location": {
            "lat": 31.57466,
            "lng": 118.49742
        },
        "ad_info": {
            "adcode": 340521,
            "province": "安徽省",
            "city": "马鞍山市",
            "district": "当涂县"
        }
    },
    {
        "id": "714596650656521055",
        "title": "公共厕所",
        "address": "安徽省马鞍山市花山区S205与濮塘老街交叉口西北方向99米左右",
        "tel": "",
        "category": "基础设施:公共设施:公共厕所",
        "type": 0,
        "location": {
            "lat": 31.711108,
            "lng": 118.651197
        },
        "ad_info": {
            "adcode": 340503,
            "province": "安徽省",
            "city": "马鞍山市",
            "district": "花山区"
        }
    },
    {
        "id": "9275077316241332344",
        "title": "公共厕所",
        "address": "安徽省马鞍山市花山区中杭路与化工路交叉口正北方向177米左右",
        "tel": "",
        "category": "基础设施:公共设施:公共厕所",
        "type": 0,
        "location": {
            "lat": 31.752913,
            "lng": 118.514175
        },
        "ad_info": {
            "adcode": 340503,
            "province": "安徽省",
            "city": "马鞍山市",
            "district": "花山区"
        }
    },
    {
        "id": "5126169736661772063",
        "title": "公共厕所",
        "address": "安徽省马鞍山市雨山区湖东南路(节庆广场)",
        "tel": "",
        "category": "基础设施:公共设施:公共厕所",
        "type": 0,
        "location": {
            "lat": 31.632026,
            "lng": 118.508512
        },
        "ad_info": {
            "adcode": 340504,
            "province": "安徽省",
            "city": "马鞍山市",
            "district": "雨山区"
        }
    },
    {
        "id": "9404545950399020829",
        "title": "公共厕所",
        "address": "安徽省马鞍山市含山县华阳西路与华阳路交叉口正北方向149米左右",
        "tel": "",
        "category": "基础设施:公共设施:公共厕所",
        "type": 0,
        "location": {
            "lat": 31.719957,
            "lng": 118.096647
        },
        "ad_info": {
            "adcode": 340522,
            "province": "安徽省",
            "city": "马鞍山市",
            "district": "含山县"
        }
    },
    {
        "id": "5600350540833761745",
        "title": "公共厕所",
        "address": "安徽省马鞍山市含山县太湖山南路与环城南路交叉口西北方向147米左右",
        "tel": "",
        "category": "基础设施:公共设施:公共厕所",
        "type": 0,
        "location": {
            "lat": 31.714541,
            "lng": 118.09829
        },
        "ad_info": {
            "adcode": 340522,
            "province": "安徽省",
            "city": "马鞍山市",
            "district": "含山县"
        }
    },
    {
        "id": "3728761269417863210",
        "title": "公共厕所",
        "address": "安徽省马鞍山市当涂县中心街与学知路交叉口正西方向178米左右",
        "tel": "",
        "category": "基础设施:公共设施:公共厕所",
        "type": 0,
        "location": {
            "lat": 31.438164,
            "lng": 118.603259
        },
        "ad_info": {
            "adcode": 340521,
            "province": "安徽省",
            "city": "马鞍山市",
            "district": "当涂县"
        }
    },
    {
        "id": "10285490200482470320",
        "title": "公共厕所",
        "address": "安徽省马鞍山市博望区云台山路与富人街交叉口西南方向95米左右",
        "tel": "",
        "category": "基础设施:公共设施:公共厕所",
        "type": 0,
        "location": {
            "lat": 31.561124,
            "lng": 118.847426
        },
        "ad_info": {
            "adcode": 340506,
            "province": "安徽省",
            "city": "马鞍山市",
            "district": "博望区"
        }
    },
    {
        "id": "4849309356900763266",
        "title": "公共厕所",
        "address": "安徽省马鞍山市当涂县姑孰南路与青莲中路交叉口西北方向263米左右",
        "tel": "",
        "category": "基础设施:公共设施:公共厕所",
        "type": 0,
        "location": {
            "lat": 31.564243,
            "lng": 118.485351
        },
        "ad_info": {
            "adcode": 340521,
            "province": "安徽省",
            "city": "马鞍山市",
            "district": "当涂县"
        }
    },
    {
        "id": "16981996512169547601",
        "title": "公共厕所",
        "address": "安徽省马鞍山市雨山区唐贤街采石第一楼(采石小学西南)",
        "tel": "",
        "category": "基础设施:公共设施:公共厕所",
        "type": 0,
        "location": {
            "lat": 31.653854,
            "lng": 118.46431
        },
        "ad_info": {
            "adcode": 340504,
            "province": "安徽省",
            "city": "马鞍山市",
            "district": "雨山区"
        }
    },
    {
        "id": "6974567906708306757",
        "title": "公共厕所",
        "address": "安徽省马鞍山市花山区恒兴路与长江路交叉口东南方向97米左右",
        "tel": "",
        "category": "基础设施:公共设施:公共厕所",
        "type": 0,
        "location": {
            "lat": 31.72204,
            "lng": 118.477413
        },
        "ad_info": {
            "adcode": 340503,
            "province": "安徽省",
            "city": "马鞍山市",
            "district": "花山区"
        }
    },
    {
        "id": "16439085027402770410",
        "title": "天汇酒店-洗手间",
        "address": "安徽省马鞍山市花山区雨山东路865号(近佳山路口)",
        "tel": "",
        "category": "基础设施:公共设施:公共厕所",
        "type": 0,
        "location": {
            "lat": 31.672673,
            "lng": 118.516162
        },
        "ad_info": {
            "adcode": 340503,
            "province": "安徽省",
            "city": "马鞍山市",
            "district": "花山区"
        }
    },
    {
        "id": "14466724148572735903",
        "title": "公共厕所",
        "address": "安徽省马鞍山市当涂县新起点汽车服务中心东南侧240米",
        "tel": "",
        "category": "基础设施:公共设施:公共厕所",
        "type": 0,
        "location": {
            "lat": 31.47193,
            "lng": 118.467356
        },
        "ad_info": {
            "adcode": 340521,
            "province": "安徽省",
            "city": "马鞍山市",
            "district": "当涂县"
        }
    },
    {
        "id": "17524789906859799472",
        "title": "公共厕所",
        "address": "安徽省马鞍山市当涂县梅塘路太白公园(东南角)",
        "tel": "",
        "category": "基础设施:公共设施:公共厕所",
        "type": 0,
        "location": {
            "lat": 31.566229,
            "lng": 118.498598
        },
        "ad_info": {
            "adcode": 340521,
            "province": "安徽省",
            "city": "马鞍山市",
            "district": "当涂县"
        }
    },
    {
        "id": "179016225897185146",
        "title": "公共厕所",
        "address": "安徽省马鞍山市当涂县江东大道与江东大道南段交叉口东北方向191米左右",
        "tel": "",
        "category": "基础设施:公共设施:公共厕所",
        "type": 0,
        "location": {
            "lat": 31.560598,
            "lng": 118.525933
        },
        "ad_info": {
            "adcode": 340521,
            "province": "安徽省",
            "city": "马鞍山市",
            "district": "当涂县"
        }
    },
    {
        "id": "15314421818048483499",
        "title": "公共厕所",
        "address": "安徽省马鞍山市博望区溧当路与辽河路交叉口东南方向261米左右",
        "tel": "",
        "category": "基础设施:公共设施:公共厕所",
        "type": 0,
        "location": {
            "lat": 31.569407,
            "lng": 118.810122
        },
        "ad_info": {
            "adcode": 340506,
            "province": "安徽省",
            "city": "马鞍山市",
            "district": "博望区"
        }
    },
    {
        "id": "4671216571236932093",
        "title": "公共厕所",
        "address": "安徽省马鞍山市含山县陶南路",
        "tel": "",
        "category": "基础设施:公共设施:公共厕所",
        "type": 0,
        "location": {
            "lat": 31.595671,
            "lng": 118.124939
        },
        "ad_info": {
            "adcode": 340522,
            "province": "安徽省",
            "city": "马鞍山市",
            "district": "含山县"
        }
    },
    {
        "id": "11941888417731474485",
        "title": "公共厕所",
        "address": "安徽省马鞍山市含山县广场南路与望梅路交叉口西北方向97米左右",
        "tel": "",
        "category": "基础设施:公共设施:公共厕所",
        "type": 0,
        "location": {
            "lat": 31.734386,
            "lng": 118.109087
        },
        "ad_info": {
            "adcode": 340522,
            "province": "安徽省",
            "city": "马鞍山市",
            "district": "含山县"
        }
    },
    {
        "id": "13745677450116461618",
        "title": "公共厕所",
        "address": "安徽省马鞍山市花山区城建路与竹园路交叉口正北方向63米左右",
        "tel": "",
        "category": "基础设施:公共设施:公共厕所",
        "type": 0,
        "location": {
            "lat": 31.700314,
            "lng": 118.507903
        },
        "ad_info": {
            "adcode": 340503,
            "province": "安徽省",
            "city": "马鞍山市",
            "district": "花山区"
        }
    },
    {
        "id": "12245470158232158998",
        "title": "公共厕所",
        "address": "安徽省马鞍山市花山区纬一路与经一路交叉口西北方向84米左右",
        "tel": "",
        "category": "基础设施:公共设施:公共厕所",
        "type": 0,
        "location": {
            "lat": 31.723005,
            "lng": 118.527712
        },
        "ad_info": {
            "adcode": 340503,
            "province": "安徽省",
            "city": "马鞍山市",
            "district": "花山区"
        }
    },
    {
        "id": "8756958137902001764",
        "title": "公共厕所",
        "address": "安徽省马鞍山市花山区雨山东路与马向路辅路交叉口正南方向127米左右",
        "tel": "",
        "category": "基础设施:公共设施:公共厕所",
        "type": 0,
        "location": {
            "lat": 31.670314,
            "lng": 118.549586
        },
        "ad_info": {
            "adcode": 340503,
            "province": "安徽省",
            "city": "马鞍山市",
            "district": "花山区"
        }
    },
    {
        "id": "13558063877124388712",
        "title": "公共厕所",
        "address": "安徽省马鞍山市当涂县太平府北路与青莲东路交叉口东南方向87米左右",
        "tel": "",
        "category": "基础设施:公共设施:公共厕所",
        "type": 0,
        "location": {
            "lat": 31.562532,
            "lng": 118.510629
        },
        "ad_info": {
            "adcode": 340521,
            "province": "安徽省",
            "city": "马鞍山市",
            "district": "当涂县"
        }
    },
    {
        "id": "8513181418888327452",
        "title": "公共厕所",
        "address": "安徽省马鞍山市含山县金氏调味品有限公司西北侧290米",
        "tel": "",
        "category": "基础设施:公共设施:公共厕所",
        "type": 0,
        "location": {
            "lat": 31.766187,
            "lng": 118.173981
        },
        "ad_info": {
            "adcode": 340522,
            "province": "安徽省",
            "city": "马鞍山市",
            "district": "含山县"
        }
    },
    {
        "id": "12881318081589025227",
        "title": "公共厕所",
        "address": "安徽省马鞍山市花山区慈湖河路辅路与桥山路交叉口正南方向269米左右",
        "tel": "",
        "category": "基础设施:公共设施:公共厕所",
        "type": 0,
        "location": {
            "lat": 31.707592,
            "lng": 118.532046
        },
        "ad_info": {
            "adcode": 340503,
            "province": "安徽省",
            "city": "马鞍山市",
            "district": "花山区"
        }
    },
    {
        "id": "77614897472835867",
        "title": "公共厕所",
        "address": "安徽省马鞍山市雨山区雨山东路与马向路辅路交叉口正南方向701米左右",
        "tel": "",
        "category": "基础设施:公共设施:公共厕所",
        "type": 0,
        "location": {
            "lat": 31.658656,
            "lng": 118.566628
        },
        "ad_info": {
            "adcode": 340504,
            "province": "安徽省",
            "city": "马鞍山市",
            "district": "雨山区"
        }
    },
    {
        "id": "16624245098372997920",
        "title": "公共厕所",
        "address": "安徽省马鞍山市当涂县东大街与八六路交叉口西北方向55米左右",
        "tel": "",
        "category": "基础设施:公共设施:公共厕所",
        "type": 0,
        "location": {
            "lat": 31.55493,
            "lng": 118.490357
        },
        "ad_info": {
            "adcode": 340521,
            "province": "安徽省",
            "city": "马鞍山市",
            "district": "当涂县"
        }
    },
    {
        "id": "166135908086902024",
        "title": "公共厕所",
        "address": "安徽省马鞍山市当涂县凤凰东路与凤山东路交叉口正东方向108米左右",
        "tel": "",
        "category": "基础设施:公共设施:公共厕所",
        "type": 0,
        "location": {
            "lat": 31.477444,
            "lng": 118.450965
        },
        "ad_info": {
            "adcode": 340521,
            "province": "安徽省",
            "city": "马鞍山市",
            "district": "当涂县"
        }
    },
    {
        "id": "664619785356280185",
        "title": "公共厕所",
        "address": "安徽省马鞍山市当涂县S205与S445交叉口正东方向147米左右",
        "tel": "",
        "category": "基础设施:公共设施:公共厕所",
        "type": 0,
        "location": {
            "lat": 31.569126,
            "lng": 118.604794
        },
        "ad_info": {
            "adcode": 340521,
            "province": "安徽省",
            "city": "马鞍山市",
            "district": "当涂县"
        }
    },
    {
        "id": "2832428663701850549",
        "title": "公共厕所",
        "address": "安徽省马鞍山市雨山区映翠路与红旗中路交叉口西南方向31米左右",
        "tel": "",
        "category": "基础设施:公共设施:公共厕所",
        "type": 0,
        "location": {
            "lat": 31.65851,
            "lng": 118.488056
        },
        "ad_info": {
            "adcode": 340504,
            "province": "安徽省",
            "city": "马鞍山市",
            "district": "雨山区"
        }
    },
    {
        "id": "1581298154336285661",
        "title": "公共厕所",
        "address": "安徽省马鞍山市当涂县种树路与阳冰路交叉口正北方向95米左右",
        "tel": "",
        "category": "基础设施:公共设施:公共厕所",
        "type": 0,
        "location": {
            "lat": 31.475046,
            "lng": 118.551838
        },
        "ad_info": {
            "adcode": 340521,
            "province": "安徽省",
            "city": "马鞍山市",
            "district": "当涂县"
        }
    },
    {
        "id": "14432619737178784549",
        "title": "公共厕所",
        "address": "安徽省马鞍山市花山区建材街与慈湖河路交叉口东南方向321米左右",
        "tel": "",
        "category": "基础设施:公共设施:公共厕所",
        "type": 0,
        "location": {
            "lat": 31.687246,
            "lng": 118.535978
        },
        "ad_info": {
            "adcode": 340503,
            "province": "安徽省",
            "city": "马鞍山市",
            "district": "花山区"
        }
    },
    {
        "id": "5699294075425603595",
        "title": "公共厕所",
        "address": "安徽省马鞍山市花山区北庄西巷与黄梅巷交叉口正南方向175米左右",
        "tel": "",
        "category": "基础设施:公共设施:公共厕所",
        "type": 0,
        "location": {
            "lat": 31.681239,
            "lng": 118.511921
        },
        "ad_info": {
            "adcode": 340503,
            "province": "安徽省",
            "city": "马鞍山市",
            "district": "花山区"
        }
    },
    {
        "id": "12533927789388542547",
        "title": "公共厕所",
        "address": "安徽省马鞍山市雨山区湖西中路88号雨东村17栋对面",
        "tel": "",
        "category": "基础设施:公共设施:公共厕所",
        "type": 0,
        "location": {
            "lat": 31.676088,
            "lng": 118.497345
        },
        "ad_info": {
            "adcode": 340504,
            "province": "安徽省",
            "city": "马鞍山市",
            "district": "雨山区"
        }
    },
    {
        "id": "11900100790087601719",
        "title": "公共厕所",
        "address": "安徽省马鞍山市花山区湖东北路428号",
        "tel": "",
        "category": "基础设施:公共设施:公共厕所",
        "type": 0,
        "location": {
            "lat": 31.69157,
            "lng": 118.510593
        },
        "ad_info": {
            "adcode": 340503,
            "province": "安徽省",
            "city": "马鞍山市",
            "district": "花山区"
        }
    },
    {
        "id": "5057904340480871988",
        "title": "公共厕所",
        "address": "安徽省马鞍山市含山县白马村游客服务中心北侧",
        "tel": "",
        "category": "基础设施:公共设施:公共厕所",
        "type": 0,
        "location": {
            "lat": 31.709459,
            "lng": 117.996943
        },
        "ad_info": {
            "adcode": 340522,
            "province": "安徽省",
            "city": "马鞍山市",
            "district": "含山县"
        }
    },
    {
        "id": "10704527844999422389",
        "title": "公共厕所",
        "address": "安徽省马鞍山市花山区湖东中路与雨山东路交叉口东北方向65米左右",
        "tel": "",
        "category": "基础设施:公共设施:公共厕所",
        "type": 0,
        "location": {
            "lat": 31.67358,
            "lng": 118.51064
        },
        "ad_info": {
            "adcode": 340503,
            "province": "安徽省",
            "city": "马鞍山市",
            "district": "花山区"
        }
    },
    {
        "id": "13912981159563132811",
        "title": "公共厕所",
        "address": "安徽省马鞍山市雨山区湖西北路与育才路交叉口西北方向91米左右",
        "tel": "",
        "category": "基础设施:公共设施:公共厕所",
        "type": 0,
        "location": {
            "lat": 31.690011,
            "lng": 118.497369
        },
        "ad_info": {
            "adcode": 340504,
            "province": "安徽省",
            "city": "马鞍山市",
            "district": "雨山区"
        }
    },
    {
        "id": "14771526730216991169",
        "title": "公共厕所",
        "address": "安徽省马鞍山市花山区安霍路与船墩路交叉口正北方向261米左右",
        "tel": "",
        "category": "基础设施:公共设施:公共厕所",
        "type": 0,
        "location": {
            "lat": 31.688271,
            "lng": 118.572101
        },
        "ad_info": {
            "adcode": 340503,
            "province": "安徽省",
            "city": "马鞍山市",
            "district": "花山区"
        }
    },
    {
        "id": "6737175766147032497",
        "title": "公共厕所",
        "address": "安徽省马鞍山市花山区梅园路与重阳路交叉口东北方向32米左右",
        "tel": "",
        "category": "基础设施:公共设施:公共厕所",
        "type": 0,
        "location": {
            "lat": 31.677061,
            "lng": 118.52178
        },
        "ad_info": {
            "adcode": 340503,
            "province": "安徽省",
            "city": "马鞍山市",
            "district": "花山区"
        }
    },
    {
        "id": "7681337531952469321",
        "title": "肯德基(新亚餐厅)-洗手间",
        "address": "安徽省马鞍山市花山区新亚巷与湖南东路交叉口西北方向37米左右",
        "tel": "",
        "category": "基础设施:公共设施:公共厕所",
        "type": 0,
        "location": {
            "lat": 31.684679,
            "lng": 118.511051
        },
        "ad_info": {
            "adcode": 340503,
            "province": "安徽省",
            "city": "马鞍山市",
            "district": "花山区"
        }
    },
    {
        "id": "12399353469804304837",
        "title": "公共厕所",
        "address": "安徽省马鞍山市当涂县东岳庙路与济美路交叉口东北方向114米左右",
        "tel": "",
        "category": "基础设施:公共设施:公共厕所",
        "type": 0,
        "location": {
            "lat": 31.558003,
            "lng": 118.47732
        },
        "ad_info": {
            "adcode": 340521,
            "province": "安徽省",
            "city": "马鞍山市",
            "district": "当涂县"
        }
    },
    {
        "id": "17071717146901948005",
        "title": "公共厕所",
        "address": "安徽省马鞍山市含山县陶厂镇司徒村粉丝厂南侧230米",
        "tel": "",
        "category": "基础设施:公共设施:公共厕所",
        "type": 0,
        "location": {
            "lat": 31.557455,
            "lng": 118.080348
        },
        "ad_info": {
            "adcode": 340522,
            "province": "安徽省",
            "city": "马鞍山市",
            "district": "含山县"
        }
    },
    {
        "id": "10081684519066646327",
        "title": "公共厕所",
        "address": "安徽省马鞍山市当涂县行春北路与青莲中路交叉口正北方向90米左右",
        "tel": "",
        "category": "基础设施:公共设施:公共厕所",
        "type": 0,
        "location": {
            "lat": 31.563802,
            "lng": 118.497844
        },
        "ad_info": {
            "adcode": 340521,
            "province": "安徽省",
            "city": "马鞍山市",
            "district": "当涂县"
        }
    },
    {
        "id": "8109121292005687451",
        "title": "公共厕所",
        "address": "安徽省马鞍山市雨山区紫霞路南湖公园(南侧)",
        "tel": "",
        "category": "基础设施:公共设施:公共厕所",
        "type": 0,
        "location": {
            "lat": 31.680552,
            "lng": 118.5028
        },
        "ad_info": {
            "adcode": 340504,
            "province": "安徽省",
            "city": "马鞍山市",
            "district": "雨山区"
        }
    },
    {
        "id": "12139200811929126766",
        "title": "公共厕所",
        "address": "安徽省马鞍山市花山区湖北东路与花山路交叉口东北方向129米左右",
        "tel": "",
        "category": "基础设施:公共设施:公共厕所",
        "type": 0,
        "location": {
            "lat": 31.699684,
            "lng": 118.514411
        },
        "ad_info": {
            "adcode": 340503,
            "province": "安徽省",
            "city": "马鞍山市",
            "district": "花山区"
        }
    },
    {
        "id": "2155872623427950606",
        "title": "公共厕所",
        "address": "安徽省马鞍山市当涂县山水大道与涂山大道交叉口正西方向395米左右",
        "tel": "",
        "category": "基础设施:公共设施:公共厕所",
        "type": 0,
        "location": {
            "lat": 31.515528,
            "lng": 118.547071
        },
        "ad_info": {
            "adcode": 340521,
            "province": "安徽省",
            "city": "马鞍山市",
            "district": "当涂县"
        }
    },
    {
        "id": "4154941904020494136",
        "title": "公共厕所",
        "address": "安徽省马鞍山市花山区湖东北路与竹园路交叉口西南方向49米左右",
        "tel": "",
        "category": "基础设施:公共设施:公共厕所",
        "type": 0,
        "location": {
            "lat": 31.700361,
            "lng": 118.50989
        },
        "ad_info": {
            "adcode": 340503,
            "province": "安徽省",
            "city": "马鞍山市",
            "district": "花山区"
        }
    },
    {
        "id": "9245869851069427549",
        "title": "公共厕所",
        "address": "安徽省马鞍山市花山区太白大道与艳阳路交叉口西北方向116米左右",
        "tel": "",
        "category": "基础设施:公共设施:公共厕所",
        "type": 0,
        "location": {
            "lat": 31.674225,
            "lng": 118.503946
        },
        "ad_info": {
            "adcode": 340503,
            "province": "安徽省",
            "city": "马鞍山市",
            "district": "花山区"
        }
    },
    {
        "id": "11922047779865088540",
        "title": "公共厕所(内部专用)",
        "address": "安徽省马鞍山市雨山区印山西路与印山路交叉口正南方向172米左右",
        "tel": "",
        "category": "基础设施:公共设施:公共厕所",
        "type": 0,
        "location": {
            "lat": 31.661773,
            "lng": 118.48867
        },
        "ad_info": {
            "adcode": 340504,
            "province": "安徽省",
            "city": "马鞍山市",
            "district": "雨山区"
        }
    },
    {
        "id": "10176895581096986623",
        "title": "公共厕所",
        "address": "安徽省马鞍山市花山区湖东北路与葛羊路交叉口正南方向200米左右",
        "tel": "",
        "category": "基础设施:公共设施:公共厕所",
        "type": 0,
        "location": {
            "lat": 31.70851,
            "lng": 118.51009
        },
        "ad_info": {
            "adcode": 340503,
            "province": "安徽省",
            "city": "马鞍山市",
            "district": "花山区"
        }
    },
    {
        "id": "6037752710383731068",
        "title": "公共厕所",
        "address": "安徽省马鞍山市当涂县445省道与G4211宁芜高速出口交叉口西180米",
        "tel": "",
        "category": "基础设施:公共设施:公共厕所",
        "type": 0,
        "location": {
            "lat": 31.553177,
            "lng": 118.531289
        },
        "ad_info": {
            "adcode": 340521,
            "province": "安徽省",
            "city": "马鞍山市",
            "district": "当涂县"
        }
    },
    {
        "id": "9533885582272035065",
        "title": "公共厕所",
        "address": "安徽省马鞍山市花山区矿南路与矿西路交叉口正南方向23米左右",
        "tel": "",
        "category": "基础设施:公共设施:公共厕所",
        "type": 0,
        "location": {
            "lat": 31.682147,
            "lng": 118.520224
        },
        "ad_info": {
            "adcode": 340503,
            "province": "安徽省",
            "city": "马鞍山市",
            "district": "花山区"
        }
    },
    {
        "id": "9298613540306520721",
        "title": "公共厕所",
        "address": "安徽省马鞍山市花山区纬一路与经二路交叉口西北方向314米左右",
        "tel": "",
        "category": "基础设施:公共设施:公共厕所",
        "type": 0,
        "location": {
            "lat": 31.723376,
            "lng": 118.522229
        },
        "ad_info": {
            "adcode": 340503,
            "province": "安徽省",
            "city": "马鞍山市",
            "district": "花山区"
        }
    },
    {
        "id": "13215660913663748869",
        "title": "公共厕所",
        "address": "安徽省马鞍山市花山区江东大道中段与江东大道北段交叉口正北方向72米左右",
        "tel": "",
        "category": "基础设施:公共设施:公共厕所",
        "type": 0,
        "location": {
            "lat": 31.684991,
            "lng": 118.523243
        },
        "ad_info": {
            "adcode": 340503,
            "province": "安徽省",
            "city": "马鞍山市",
            "district": "花山区"
        }
    },
    {
        "id": "3350342527121728771",
        "title": "公共厕所",
        "address": "安徽省马鞍山市含山县枫香路与长山路交叉口正北方向106米左右",
        "tel": "",
        "category": "基础设施:公共设施:公共厕所",
        "type": 0,
        "location": {
            "lat": 31.726945,
            "lng": 118.096133
        },
        "ad_info": {
            "adcode": 340522,
            "province": "安徽省",
            "city": "马鞍山市",
            "district": "含山县"
        }
    },
    {
        "id": "8629653969256968584",
        "title": "濮塘自然风景区-公共厕所",
        "address": "安徽省马鞍山市花山区X001与幽谷路交叉口正东方向319米左右",
        "tel": "",
        "category": "基础设施:公共设施:公共厕所",
        "type": 0,
        "location": {
            "lat": 31.710443,
            "lng": 118.681564
        },
        "ad_info": {
            "adcode": 340503,
            "province": "安徽省",
            "city": "马鞍山市",
            "district": "花山区"
        }
    },
    {
        "id": "12834648548263032571",
        "title": "男洗手间",
        "address": "安徽省马鞍山市雨山区太白大道与映翠路交叉口东北方向196米左右",
        "tel": "",
        "category": "基础设施:公共设施:公共厕所",
        "type": 0,
        "location": {
            "lat": 31.658705,
            "lng": 118.505551
        },
        "ad_info": {
            "adcode": 340504,
            "province": "安徽省",
            "city": "马鞍山市",
            "district": "雨山区"
        }
    },
    {
        "id": "5173822717750355252",
        "title": "公共厕所",
        "address": "安徽省马鞍山市和县历阳中路与篾匠街交叉口正西方向197米左右",
        "tel": "",
        "category": "基础设施:公共设施:公共厕所",
        "type": 0,
        "location": {
            "lat": 31.715773,
            "lng": 118.362854
        },
        "ad_info": {
            "adcode": 340523,
            "province": "安徽省",
            "city": "马鞍山市",
            "district": "和县"
        }
    },
    {
        "id": "9132677495079536306",
        "title": "公共厕所",
        "address": "安徽省马鞍山市和县G347中国石油(和县康复医院北)",
        "tel": "",
        "category": "基础设施:公共设施:公共厕所",
        "type": 0,
        "location": {
            "lat": 31.597733,
            "lng": 118.312227
        },
        "ad_info": {
            "adcode": 340523,
            "province": "安徽省",
            "city": "马鞍山市",
            "district": "和县"
        }
    },
    {
        "id": "6455302536512374220",
        "title": "免费公共厕所",
        "address": "安徽省马鞍山市当涂县南寺西路与西苑北路交叉口正北方向181米左右",
        "tel": "",
        "category": "基础设施:公共设施:公共厕所",
        "type": 0,
        "location": {
            "lat": 31.552214,
            "lng": 118.483911
        },
        "ad_info": {
            "adcode": 340521,
            "province": "安徽省",
            "city": "马鞍山市",
            "district": "当涂县"
        }
    },
    {
        "id": "13382538289661184288",
        "title": "无障碍公共厕所",
        "address": "安徽省马鞍山市雨山区康复路与育才路交叉口正东方向104米左右",
        "tel": "",
        "category": "基础设施:公共设施:公共厕所",
        "type": 0,
        "location": {
            "lat": 31.689243,
            "lng": 118.492636
        },
        "ad_info": {
            "adcode": 340504,
            "province": "安徽省",
            "city": "马鞍山市",
            "district": "雨山区"
        }
    },
    {
        "id": "296298371522625398",
        "title": "公共厕所",
        "address": "安徽省马鞍山市和县农业嘉年华西南侧50米",
        "tel": "",
        "category": "基础设施:公共设施:公共厕所",
        "type": 0,
        "location": {
            "lat": 31.750894,
            "lng": 118.404653
        },
        "ad_info": {
            "adcode": 340523,
            "province": "安徽省",
            "city": "马鞍山市",
            "district": "和县"
        }
    },
    {
        "id": "6445764544494295201",
        "title": "公共厕所",
        "address": "安徽省马鞍山市和县S210与海峰西路交叉口正东方向309米左右",
        "tel": "",
        "category": "基础设施:公共设施:公共厕所",
        "type": 0,
        "location": {
            "lat": 31.733423,
            "lng": 118.340315
        },
        "ad_info": {
            "adcode": 340523,
            "province": "安徽省",
            "city": "马鞍山市",
            "district": "和县"
        }
    },
    {
        "id": "14597288110914546040",
        "title": "公共厕所",
        "address": "安徽省马鞍山市和县S438与乌江大桥交叉口正南方向204米左右",
        "tel": "",
        "category": "基础设施:公共设施:公共厕所",
        "type": 0,
        "location": {
            "lat": 31.859925,
            "lng": 118.465183
        },
        "ad_info": {
            "adcode": 340523,
            "province": "安徽省",
            "city": "马鞍山市",
            "district": "和县"
        }
    },
    {
        "id": "8481991625764395762",
        "title": "公共厕所",
        "address": "安徽省马鞍山市和县滨河风景带南面",
        "tel": "",
        "category": "基础设施:公共设施:公共厕所",
        "type": 0,
        "location": {
            "lat": 31.69492,
            "lng": 118.360459
        },
        "ad_info": {
            "adcode": 340523,
            "province": "安徽省",
            "city": "马鞍山市",
            "district": "和县"
        }
    },
    {
        "id": "13761459069875083057",
        "title": "公共厕所",
        "address": "安徽省马鞍山市和县皖江蔬菜批发市场",
        "tel": "",
        "category": "基础设施:公共设施:公共厕所",
        "type": 0,
        "location": {
            "lat": 31.694107,
            "lng": 118.354732
        },
        "ad_info": {
            "adcode": 340523,
            "province": "安徽省",
            "city": "马鞍山市",
            "district": "和县"
        }
    },
    {
        "id": "16591578883332151247",
        "title": "公共厕所",
        "address": "安徽省马鞍山市当涂县竹巷翠竹小区",
        "tel": "",
        "category": "基础设施:公共设施:公共厕所",
        "type": 0,
        "location": {
            "lat": 31.551353,
            "lng": 118.489677
        },
        "ad_info": {
            "adcode": 340521,
            "province": "安徽省",
            "city": "马鞍山市",
            "district": "当涂县"
        }
    },
    {
        "id": "13672485471415374536",
        "title": "公共厕所",
        "address": "安徽省马鞍山市和县和县镇淮街90号",
        "tel": "",
        "category": "基础设施:公共设施:公共厕所",
        "type": 0,
        "location": {
            "lat": 31.711733,
            "lng": 118.368053
        },
        "ad_info": {
            "adcode": 340523,
            "province": "安徽省",
            "city": "马鞍山市",
            "district": "和县"
        }
    },
    {
        "id": "3680893995954473257",
        "title": "梅塘西路公共厕所",
        "address": "安徽省马鞍山市当涂县东营北路与梅塘路交叉口东南方向62米左右",
        "tel": "",
        "category": "基础设施:公共设施:公共厕所",
        "type": 0,
        "location": {
            "lat": 31.56612,
            "lng": 118.493263
        },
        "ad_info": {
            "adcode": 340521,
            "province": "安徽省",
            "city": "马鞍山市",
            "district": "当涂县"
        }
    },
    {
        "id": "11853281358424260499",
        "title": "公共厕所",
        "address": "安徽省马鞍山市雨山区康泰路康泰佳苑",
        "tel": "",
        "category": "基础设施:公共设施:公共厕所",
        "type": 0,
        "location": {
            "lat": 31.664117,
            "lng": 118.502409
        },
        "ad_info": {
            "adcode": 340504,
            "province": "安徽省",
            "city": "马鞍山市",
            "district": "雨山区"
        }
    },
    {
        "id": "5509369749418928631",
        "title": "公共厕所",
        "address": "安徽省马鞍山市和县腰埠加油站(105省道南)",
        "tel": "",
        "category": "基础设施:公共设施:公共厕所",
        "type": 0,
        "location": {
            "lat": 31.761093,
            "lng": 118.189517
        },
        "ad_info": {
            "adcode": 340523,
            "province": "安徽省",
            "city": "马鞍山市",
            "district": "和县"
        }
    },
    {
        "id": "12859190120764828819",
        "title": "清溪服务区公共厕所",
        "address": "安徽省马鞍山市含山县中国石化清溪服务区南加油站西侧200米",
        "tel": "",
        "category": "基础设施:公共设施:公共厕所",
        "type": 0,
        "location": {
            "lat": 31.635399,
            "lng": 118.017677
        },
        "ad_info": {
            "adcode": 340522,
            "province": "安徽省",
            "city": "马鞍山市",
            "district": "含山县"
        }
    },
    {
        "id": "10148572384164078799",
        "title": "公共厕所",
        "address": "安徽省马鞍山市和县龙潭南路57号",
        "tel": "",
        "category": "基础设施:公共设施:公共厕所",
        "type": 0,
        "location": {
            "lat": 31.713165,
            "lng": 118.359551
        },
        "ad_info": {
            "adcode": 340523,
            "province": "安徽省",
            "city": "马鞍山市",
            "district": "和县"
        }
    },
    {
        "id": "13193275463432114075",
        "title": "公共厕所",
        "address": "安徽省马鞍山市和县通江路与龙潭北路交叉口正南方向209米左右",
        "tel": "",
        "category": "基础设施:公共设施:公共厕所",
        "type": 0,
        "location": {
            "lat": 31.728222,
            "lng": 118.360703
        },
        "ad_info": {
            "adcode": 340523,
            "province": "安徽省",
            "city": "马鞍山市",
            "district": "和县"
        }
    },
    {
        "id": "17645155981698352041",
        "title": "福山服务区公共厕所",
        "address": "安徽省马鞍山市含山县X020与X022交叉口西北方向1267米左右",
        "tel": "",
        "category": "基础设施:公共设施:公共厕所",
        "type": 0,
        "location": {
            "lat": 31.582228,
            "lng": 118.028012
        },
        "ad_info": {
            "adcode": 340522,
            "province": "安徽省",
            "city": "马鞍山市",
            "district": "含山县"
        }
    },
    {
        "id": "15805673299419031160",
        "title": "太白岛服务区公共厕所",
        "address": "安徽省马鞍山市当涂县三联路与花溪大道交叉口正北方向638米左右",
        "tel": "",
        "category": "基础设施:公共设施:公共厕所",
        "type": 0,
        "location": {
            "lat": 31.607751,
            "lng": 118.438247
        },
        "ad_info": {
            "adcode": 340521,
            "province": "安徽省",
            "city": "马鞍山市",
            "district": "当涂县"
        }
    },
    {
        "id": "8480328971807681669",
        "title": "福山服务区公共厕所",
        "address": "安徽省马鞍山市含山县X020与X022交叉口正西方向1375米左右",
        "tel": "",
        "category": "基础设施:公共设施:公共厕所",
        "type": 0,
        "location": {
            "lat": 31.580257,
            "lng": 118.025675
        },
        "ad_info": {
            "adcode": 340522,
            "province": "安徽省",
            "city": "马鞍山市",
            "district": "含山县"
        }
    },
    {
        "id": "16922272596532528734",
        "title": "清溪服务区公共厕所",
        "address": "安徽省马鞍山市含山县S22天潜高速附近",
        "tel": "",
        "category": "基础设施:公共设施:公共厕所",
        "type": 0,
        "location": {
            "lat": 31.634333,
            "lng": 118.018449
        },
        "ad_info": {
            "adcode": 340522,
            "province": "安徽省",
            "city": "马鞍山市",
            "district": "含山县"
        }
    },
    {
        "id": "13939443513259747958",
        "title": "公共厕所",
        "address": "安徽省马鞍山市和县和州南路与和州路交叉口东南方向459米左右",
        "tel": "",
        "category": "基础设施:公共设施:公共厕所",
        "type": 0,
        "location": {
            "lat": 31.695242,
            "lng": 118.357528
        },
        "ad_info": {
            "adcode": 340523,
            "province": "安徽省",
            "city": "马鞍山市",
            "district": "和县"
        }
    },
    {
        "id": "12406899211174566164",
        "title": "公共厕所",
        "address": "安徽省马鞍山市雨山区师苑路与湖东中路交叉口西北方向35米左右",
        "tel": "",
        "category": "基础设施:公共设施:公共厕所",
        "type": 0,
        "location": {
            "lat": 31.668651,
            "lng": 118.509875
        },
        "ad_info": {
            "adcode": 340504,
            "province": "安徽省",
            "city": "马鞍山市",
            "district": "雨山区"
        }
    },
    {
        "id": "15964681805119939734",
        "title": "公共厕所",
        "address": "安徽省马鞍山市当涂县太白湖东侧160米",
        "tel": "",
        "category": "基础设施:公共设施:公共厕所",
        "type": 0,
        "location": {
            "lat": 31.494961,
            "lng": 118.55541
        },
        "ad_info": {
            "adcode": 340521,
            "province": "安徽省",
            "city": "马鞍山市",
            "district": "当涂县"
        }
    },
    {
        "id": "8983508781019613338",
        "title": "太白服务区第二公共厕所",
        "address": "安徽省马鞍山市当涂县S208与宁芜高速交叉口正北方向522米左右",
        "tel": "",
        "category": "基础设施:公共设施:公共厕所",
        "type": 0,
        "location": {
            "lat": 31.490186,
            "lng": 118.525532
        },
        "ad_info": {
            "adcode": 340521,
            "province": "安徽省",
            "city": "马鞍山市",
            "district": "当涂县"
        }
    },
    {
        "id": "10506220444862462247",
        "title": "旅游公共厕所",
        "address": "安徽省马鞍山市和县历阳西路269号",
        "tel": "",
        "category": "基础设施:公共设施:公共厕所",
        "type": 0,
        "location": {
            "lat": 31.715849,
            "lng": 118.354438
        },
        "ad_info": {
            "adcode": 340523,
            "province": "安徽省",
            "city": "马鞍山市",
            "district": "和县"
        }
    },
    {
        "id": "13373755805667875075",
        "title": "公共厕所",
        "address": "安徽省马鞍山市雨山区雨田路与青山路交叉口正西方向26米左右",
        "tel": "",
        "category": "基础设施:公共设施:公共厕所",
        "type": 0,
        "location": {
            "lat": 31.634786,
            "lng": 118.484086
        },
        "ad_info": {
            "adcode": 340504,
            "province": "安徽省",
            "city": "马鞍山市",
            "district": "雨山区"
        }
    },
    {
        "id": "8261227241762543731",
        "title": "公共厕所",
        "address": "安徽省马鞍山市雨山区朱然路与花园路交叉口正东方向75米左右",
        "tel": "",
        "category": "基础设施:公共设施:公共厕所",
        "type": 0,
        "location": {
            "lat": 31.669341,
            "lng": 118.49384
        },
        "ad_info": {
            "adcode": 340504,
            "province": "安徽省",
            "city": "马鞍山市",
            "district": "雨山区"
        }
    },
    {
        "id": "9047739464628611531",
        "title": "公共厕所",
        "address": "安徽省马鞍山市雨山区红旗中路50号",
        "tel": "",
        "category": "基础设施:公共设施:公共厕所",
        "type": 0,
        "location": {
            "lat": 31.69005,
            "lng": 118.490564
        },
        "ad_info": {
            "adcode": 340504,
            "province": "安徽省",
            "city": "马鞍山市",
            "district": "雨山区"
        }
    },
    {
        "id": "4528216383955410616",
        "title": "公共厕所",
        "address": "安徽省马鞍山市雨山区三台路与红旗北路交叉口西北方向71米左右",
        "tel": "",
        "category": "基础设施:公共设施:公共厕所",
        "type": 0,
        "location": {
            "lat": 31.692951,
            "lng": 118.49157
        },
        "ad_info": {
            "adcode": 340504,
            "province": "安徽省",
            "city": "马鞍山市",
            "district": "雨山区"
        }
    },
    {
        "id": "14461871311279564332",
        "title": "公共厕所",
        "address": "安徽省马鞍山市雨山区向山北路与向山路交叉口东北方向152米左右",
        "tel": "",
        "category": "基础设施:公共设施:公共厕所",
        "type": 0,
        "location": {
            "lat": 31.663669,
            "lng": 118.598799
        },
        "ad_info": {
            "adcode": 340504,
            "province": "安徽省",
            "city": "马鞍山市",
            "district": "雨山区"
        }
    },
    {
        "id": "8540446688617827347",
        "title": "太白服务区第一公共厕所",
        "address": "安徽省马鞍山市当涂县太白服务区与G4211宁芜高速入口交叉口西160米",
        "tel": "",
        "category": "基础设施:公共设施:公共厕所",
        "type": 0,
        "location": {
            "lat": 31.488245,
            "lng": 118.523867
        },
        "ad_info": {
            "adcode": 340521,
            "province": "安徽省",
            "city": "马鞍山市",
            "district": "当涂县"
        }
    },
    {
        "id": "12040601526751858776",
        "title": "公共厕所",
        "address": "安徽省马鞍山市和县无为大堤087号",
        "tel": "",
        "category": "基础设施:公共设施:公共厕所",
        "type": 0,
        "location": {
            "lat": 31.537753,
            "lng": 118.312473
        },
        "ad_info": {
            "adcode": 340523,
            "province": "安徽省",
            "city": "马鞍山市",
            "district": "和县"
        }
    },
    {
        "id": "4951331053267431288",
        "title": "香泉服务区公共厕所",
        "address": "安徽省马鞍山市和县香泉服务区",
        "tel": "",
        "category": "基础设施:公共设施:公共厕所",
        "type": 0,
        "location": {
            "lat": 31.922649,
            "lng": 118.341852
        },
        "ad_info": {
            "adcode": 340523,
            "province": "安徽省",
            "city": "马鞍山市",
            "district": "和县"
        }
    },
    {
        "id": "2112426516385384260",
        "title": "香泉服务区公共厕所",
        "address": "安徽省马鞍山市和县香泉服务区",
        "tel": "",
        "category": "基础设施:公共设施:公共厕所",
        "type": 0,
        "location": {
            "lat": 31.92565,
            "lng": 118.343234
        },
        "ad_info": {
            "adcode": 340523,
            "province": "安徽省",
            "city": "马鞍山市",
            "district": "和县"
        }
    },
    {
        "id": "7689787811914609928",
        "title": "公共厕所",
        "address": "安徽省马鞍山市雨山区S205与S313交叉口正南方向40米左右",
        "tel": "",
        "category": "基础设施:公共设施:公共厕所",
        "type": 0,
        "location": {
            "lat": 31.670708,
            "lng": 118.607204
        },
        "ad_info": {
            "adcode": 340504,
            "province": "安徽省",
            "city": "马鞍山市",
            "district": "雨山区"
        }
    },
    {
        "id": "12761101984412162592",
        "title": "华城游园公共厕所",
        "address": "安徽省马鞍山市花山区国际华城游园",
        "tel": "",
        "category": "基础设施:公共设施:公共厕所",
        "type": 0,
        "location": {
            "lat": 31.689483,
            "lng": 118.529871
        },
        "ad_info": {
            "adcode": 340503,
            "province": "安徽省",
            "city": "马鞍山市",
            "district": "花山区"
        }
    },
    {
        "id": "3271721248935424229",
        "title": "公共厕所",
        "address": "安徽省马鞍山市博望区博望镇三杨小学隔壁",
        "tel": "",
        "category": "基础设施:公共设施:公共厕所",
        "type": 0,
        "location": {
            "lat": 31.556033,
            "lng": 118.856454
        },
        "ad_info": {
            "adcode": 340506,
            "province": "安徽省",
            "city": "马鞍山市",
            "district": "博望区"
        }
    },
    {
        "id": "14357359311843836959",
        "title": "公共厕所",
        "address": "安徽省马鞍山市当涂县提署中路与马军寨路交叉口西南方向78米左右",
        "tel": "",
        "category": "基础设施:公共设施:公共厕所",
        "type": 0,
        "location": {
            "lat": 31.554168,
            "lng": 118.492334
        },
        "ad_info": {
            "adcode": 340521,
            "province": "安徽省",
            "city": "马鞍山市",
            "district": "当涂县"
        }
    },
    {
        "id": "3581092364334039911",
        "title": "公共厕所",
        "address": "安徽省马鞍山市博望区S446与梅小路交叉口正南方向204米左右",
        "tel": "",
        "category": "基础设施:公共设施:公共厕所",
        "type": 0,
        "location": {
            "lat": 31.54578,
            "lng": 118.710793
        },
        "ad_info": {
            "adcode": 340506,
            "province": "安徽省",
            "city": "马鞍山市",
            "district": "博望区"
        }
    },
    {
        "id": "15460335806808054701",
        "title": "公共厕所",
        "address": "安徽省马鞍山市雨山区朱然路与花园路交叉口西南方向167米左右",
        "tel": "",
        "category": "基础设施:公共设施:公共厕所",
        "type": 0,
        "location": {
            "lat": 31.66601,
            "lng": 118.49252
        },
        "ad_info": {
            "adcode": 340504,
            "province": "安徽省",
            "city": "马鞍山市",
            "district": "雨山区"
        }
    },
    {
        "id": "15835489579702019153",
        "title": "公共厕所",
        "address": "安徽省马鞍山市和县206省道东50米",
        "tel": "",
        "category": "基础设施:公共设施:公共厕所",
        "type": 0,
        "location": {
            "lat": 31.901318,
            "lng": 118.316381
        },
        "ad_info": {
            "adcode": 340523,
            "province": "安徽省",
            "city": "马鞍山市",
            "district": "和县"
        }
    },
    {
        "id": "9366129526302293550",
        "title": "公共厕所",
        "address": "安徽省马鞍山市和县昭明路与迎江路交叉口东北方向172米左右",
        "tel": "",
        "category": "基础设施:公共设施:公共厕所",
        "type": 0,
        "location": {
            "lat": 31.722887,
            "lng": 118.364408
        },
        "ad_info": {
            "adcode": 340523,
            "province": "安徽省",
            "city": "马鞍山市",
            "district": "和县"
        }
    },
    {
        "id": "2183864512990457605",
        "title": "公共厕所",
        "address": "安徽省马鞍山市花山区幸福路138号",
        "tel": "",
        "category": "基础设施:公共设施:公共厕所",
        "type": 0,
        "location": {
            "lat": 31.719259,
            "lng": 118.493973
        },
        "ad_info": {
            "adcode": 340503,
            "province": "安徽省",
            "city": "马鞍山市",
            "district": "花山区"
        }
    },
    {
        "id": "11730548627242196039",
        "title": "公共厕所",
        "address": "安徽省马鞍山市博望区溧当路与贺兰山路交叉口正东方向79米左右",
        "tel": "",
        "category": "基础设施:公共设施:公共厕所",
        "type": 0,
        "location": {
            "lat": 31.590963,
            "lng": 118.788857
        },
        "ad_info": {
            "adcode": 340506,
            "province": "安徽省",
            "city": "马鞍山市",
            "district": "博望区"
        }
    },
    {
        "id": "10059895452226928515",
        "title": "公共厕所",
        "address": "安徽省马鞍山市当涂县河滨路与西大街交叉口东南方向62米左右",
        "tel": "",
        "category": "基础设施:公共设施:公共厕所",
        "type": 0,
        "location": {
            "lat": 31.548634,
            "lng": 118.487863
        },
        "ad_info": {
            "adcode": 340521,
            "province": "安徽省",
            "city": "马鞍山市",
            "district": "当涂县"
        }
    },
    {
        "id": "6519031534202685075",
        "title": "太白服务区公共厕所",
        "address": "安徽省马鞍山市当涂县G4211宁芜高速入口与太白服务区交叉口东北220米",
        "tel": "",
        "category": "基础设施:公共设施:公共厕所",
        "type": 0,
        "location": {
            "lat": 31.489452,
            "lng": 118.526416
        },
        "ad_info": {
            "adcode": 340521,
            "province": "安徽省",
            "city": "马鞍山市",
            "district": "当涂县"
        }
    },
    {
        "id": "12709841849174459519",
        "title": "公共厕所",
        "address": "安徽省马鞍山市雨山区向山北路与向山路交叉口西南方向102米左右",
        "tel": "",
        "category": "基础设施:公共设施:公共厕所",
        "type": 0,
        "location": {
            "lat": 31.662541,
            "lng": 118.59646
        },
        "ad_info": {
            "adcode": 340504,
            "province": "安徽省",
            "city": "马鞍山市",
            "district": "雨山区"
        }
    },
    {
        "id": "12177021119764511636",
        "title": "旅游公共厕所",
        "address": "安徽省马鞍山市和县昭明路与西香西路辅路交叉口正西方向39米左右",
        "tel": "",
        "category": "基础设施:公共设施:公共厕所",
        "type": 0,
        "location": {
            "lat": 31.870245,
            "lng": 118.32871
        },
        "ad_info": {
            "adcode": 340523,
            "province": "安徽省",
            "city": "马鞍山市",
            "district": "和县"
        }
    },
    {
        "id": "6093400234904057943",
        "title": "公共厕所",
        "address": "安徽省马鞍山市和县海峰中路与海峰路辅路交叉口正北方向96米左右",
        "tel": "",
        "category": "基础设施:公共设施:公共厕所",
        "type": 0,
        "location": {
            "lat": 31.737695,
            "lng": 118.352755
        },
        "ad_info": {
            "adcode": 340523,
            "province": "安徽省",
            "city": "马鞍山市",
            "district": "和县"
        }
    },
    {
        "id": "2568693753297371535",
        "title": "公共厕所",
        "address": "安徽省马鞍山市花山区慈湖河路与湖北东路交叉口正北方向128米左右",
        "tel": "",
        "category": "基础设施:公共设施:公共厕所",
        "type": 0,
        "location": {
            "lat": 31.702549,
            "lng": 118.533214
        },
        "ad_info": {
            "adcode": 340503,
            "province": "安徽省",
            "city": "马鞍山市",
            "district": "花山区"
        }
    },
    {
        "id": "331560389161107135",
        "title": "香泉温泉度假村-洗手间",
        "address": "安徽省马鞍山市和县山庄路香泉温泉疗养山庄",
        "tel": "",
        "category": "基础设施:公共设施:公共厕所",
        "type": 0,
        "location": {
            "lat": 31.865881,
            "lng": 118.318552
        },
        "ad_info": {
            "adcode": 340523,
            "province": "安徽省",
            "city": "马鞍山市",
            "district": "和县"
        }
    },
    {
        "id": "2899153401739901828",
        "title": "公共厕所",
        "address": "安徽省马鞍山市雨山区唐贤街与牛渚路交叉口东南方向149米左右",
        "tel": "",
        "category": "基础设施:公共设施:公共厕所",
        "type": 0,
        "location": {
            "lat": 31.653967,
            "lng": 118.468021
        },
        "ad_info": {
            "adcode": 340504,
            "province": "安徽省",
            "city": "马鞍山市",
            "district": "雨山区"
        }
    },
    {
        "id": "249671564750107629",
        "title": "公共厕所",
        "address": "安徽省马鞍山市花山区新工房路新工房小区",
        "tel": "",
        "category": "基础设施:公共设施:公共厕所",
        "type": 0,
        "location": {
            "lat": 31.7229,
            "lng": 118.488114
        },
        "ad_info": {
            "adcode": 340503,
            "province": "安徽省",
            "city": "马鞍山市",
            "district": "花山区"
        }
    },
    {
        "id": "7147395355735145892",
        "title": "公共厕所",
        "address": "安徽省马鞍山市含山县仙踪路与褒禅山路交叉口东北方向55米左右",
        "tel": "",
        "category": "基础设施:公共设施:公共厕所",
        "type": 0,
        "location": {
            "lat": 31.732355,
            "lng": 118.092956
        },
        "ad_info": {
            "adcode": 340522,
            "province": "安徽省",
            "city": "马鞍山市",
            "district": "含山县"
        }
    },
    {
        "id": "519083062310109308",
        "title": "公共厕所",
        "address": "安徽省马鞍山市雨山区红旗南路与青山路交叉口东北方向98米左右",
        "tel": "",
        "category": "基础设施:公共设施:公共厕所",
        "type": 0,
        "location": {
            "lat": 31.635308,
            "lng": 118.490033
        },
        "ad_info": {
            "adcode": 340504,
            "province": "安徽省",
            "city": "马鞍山市",
            "district": "雨山区"
        }
    },
    {
        "id": "11773995308986997173",
        "title": "公共厕所",
        "address": "安徽省马鞍山市当涂县南寺中路与南寺西路交叉口正北方向102米左右",
        "tel": "",
        "category": "基础设施:公共设施:公共厕所",
        "type": 0,
        "location": {
            "lat": 31.551006,
            "lng": 118.487732
        },
        "ad_info": {
            "adcode": 340521,
            "province": "安徽省",
            "city": "马鞍山市",
            "district": "当涂县"
        }
    },
    {
        "id": "4802546739257115654",
        "title": "公共厕所",
        "address": "安徽省马鞍山市含山县留守妇女互助小组陈列馆东北侧120米",
        "tel": "",
        "category": "基础设施:公共设施:公共厕所",
        "type": 0,
        "location": {
            "lat": 31.72596,
            "lng": 117.969667
        },
        "ad_info": {
            "adcode": 340522,
            "province": "安徽省",
            "city": "马鞍山市",
            "district": "含山县"
        }
    },
    {
        "id": "14877180546982297818",
        "title": "公共厕所",
        "address": "安徽省马鞍山市雨山区向山北路与向山路交叉口正南方向390米左右",
        "tel": "",
        "category": "基础设施:公共设施:公共厕所",
        "type": 0,
        "location": {
            "lat": 31.659431,
            "lng": 118.59684
        },
        "ad_info": {
            "adcode": 340504,
            "province": "安徽省",
            "city": "马鞍山市",
            "district": "雨山区"
        }
    },
    {
        "id": "15317362802585903332",
        "title": "无障碍公共厕所",
        "address": "安徽省马鞍山市雨山区常青路与平湖路交叉口正南方向86米左右",
        "tel": "",
        "category": "基础设施:公共设施:公共厕所",
        "type": 0,
        "location": {
            "lat": 31.690182,
            "lng": 118.495323
        },
        "ad_info": {
            "adcode": 340504,
            "province": "安徽省",
            "city": "马鞍山市",
            "district": "雨山区"
        }
    },
    {
        "id": "11560034390618941904",
        "title": "陈村公共厕所",
        "address": "安徽省马鞍山市当涂县S446与澄湖路交叉口西北方向414米左右",
        "tel": "",
        "category": "基础设施:公共设施:公共厕所",
        "type": 0,
        "location": {
            "lat": 31.46177,
            "lng": 118.780687
        },
        "ad_info": {
            "adcode": 340521,
            "province": "安徽省",
            "city": "马鞍山市",
            "district": "当涂县"
        }
    },
    {
        "id": "8460490817389783533",
        "title": "公共厕所",
        "address": "安徽省马鞍山市含山县环峰南路与环峰路交叉口正北方向239米左右",
        "tel": "",
        "category": "基础设施:公共设施:公共厕所",
        "type": 0,
        "location": {
            "lat": 31.715587,
            "lng": 118.108697
        },
        "ad_info": {
            "adcode": 340522,
            "province": "安徽省",
            "city": "马鞍山市",
            "district": "含山县"
        }
    },
    {
        "id": "162847992904558201",
        "title": "公共厕所",
        "address": "安徽省马鞍山市含山县太湖山路与西林路交叉口正南方向206米左右",
        "tel": "",
        "category": "基础设施:公共设施:公共厕所",
        "type": 0,
        "location": {
            "lat": 31.550785,
            "lng": 117.954983
        },
        "ad_info": {
            "adcode": 340522,
            "province": "安徽省",
            "city": "马鞍山市",
            "district": "含山县"
        }
    },
    {
        "id": "14585876535241767286",
        "title": "公共厕所",
        "address": "安徽省马鞍山市当涂县东营南路与青莲中路交叉口正东方向229米左右",
        "tel": "",
        "category": "基础设施:公共设施:公共厕所",
        "type": 0,
        "location": {
            "lat": 31.563553,
            "lng": 118.495691
        },
        "ad_info": {
            "adcode": 340521,
            "province": "安徽省",
            "city": "马鞍山市",
            "district": "当涂县"
        }
    },
    {
        "id": "10163496908916427660",
        "title": "公共厕所",
        "address": "安徽省马鞍山市博望区X041与山口路交叉口西北方向240米左右",
        "tel": "",
        "category": "基础设施:公共设施:公共厕所",
        "type": 0,
        "location": {
            "lat": 31.625603,
            "lng": 118.73764
        },
        "ad_info": {
            "adcode": 340506,
            "province": "安徽省",
            "city": "马鞍山市",
            "district": "博望区"
        }
    },
    {
        "id": "16708194406933228175",
        "title": "公共厕所",
        "address": "安徽省马鞍山市雨山区湖东南路与银黄东路交叉口正北方向164米左右",
        "tel": "",
        "category": "基础设施:公共设施:公共厕所",
        "type": 0,
        "location": {
            "lat": 31.594068,
            "lng": 118.512111
        },
        "ad_info": {
            "adcode": 340504,
            "province": "安徽省",
            "city": "马鞍山市",
            "district": "雨山区"
        }
    },
    {
        "id": "14819680012948732030",
        "title": "公共厕所",
        "address": "安徽省马鞍山市花山区S313与苏村路交叉口东北方向201米左右",
        "tel": "",
        "category": "基础设施:公共设施:公共厕所",
        "type": 0,
        "location": {
            "lat": 31.668946,
            "lng": 118.585817
        },
        "ad_info": {
            "adcode": 340503,
            "province": "安徽省",
            "city": "马鞍山市",
            "district": "花山区"
        }
    },
    {
        "id": "8059401633673662489",
        "title": "彰教西赵土地庙厕所",
        "address": "安徽省马鞍山市当涂县彰教路",
        "tel": "",
        "category": "基础设施:公共设施:公共厕所",
        "type": 0,
        "location": {
            "lat": 31.417011,
            "lng": 118.794905
        },
        "ad_info": {
            "adcode": 340521,
            "province": "安徽省",
            "city": "马鞍山市",
            "district": "当涂县"
        }
    },
    {
        "id": "3070100267219174288",
        "title": "女洗手间",
        "address": "安徽省马鞍山市花山区湖南西路8号金鹰国际购物中心F6",
        "tel": "",
        "category": "基础设施:公共设施:女洗手间",
        "type": 0,
        "location": {
            "lat": 31.685641,
            "lng": 118.508529
        },
        "ad_info": {
            "adcode": 340503,
            "province": "安徽省",
            "city": "马鞍山市",
            "district": "花山区"
        }
    },
    {
        "id": "9691631050009355440",
        "title": "历阳公园旅游公共厕所",
        "address": "安徽省马鞍山市和县历阳东路与朝阳路交叉口正北方向144米左右",
        "tel": "",
        "category": "基础设施:公共设施:公共厕所",
        "type": 0,
        "location": {
            "lat": 31.716493,
            "lng": 118.370584
        },
        "ad_info": {
            "adcode": 340523,
            "province": "安徽省",
            "city": "马鞍山市",
            "district": "和县"
        }
    },
    {
        "id": "9512728473371159824",
        "title": "无障碍公共厕所",
        "address": "安徽省马鞍山市花山区江东大道中段与雨山东路交叉口正南方向112米左右",
        "tel": "",
        "category": "基础设施:公共设施:公共厕所",
        "type": 0,
        "location": {
            "lat": 31.672262,
            "lng": 118.524053
        },
        "ad_info": {
            "adcode": 340503,
            "province": "安徽省",
            "city": "马鞍山市",
            "district": "花山区"
        }
    },
    {
        "id": "2508335530723523233",
        "title": "女洗手间",
        "address": "安徽省马鞍山市花山区湖南西路8号金鹰国际购物中心B1",
        "tel": "",
        "category": "基础设施:公共设施:女洗手间",
        "type": 0,
        "location": {
            "lat": 31.685654,
            "lng": 118.508679
        },
        "ad_info": {
            "adcode": 340503,
            "province": "安徽省",
            "city": "马鞍山市",
            "district": "花山区"
        }
    },
    {
        "id": "9048252406610880350",
        "title": "男洗手间",
        "address": "安徽省马鞍山市雨山区",
        "tel": "",
        "category": "基础设施:公共设施:公共厕所",
        "type": 0,
        "location": {
            "lat": 31.626289,
            "lng": 118.527575
        },
        "ad_info": {
            "adcode": 340504,
            "province": "安徽省",
            "city": "马鞍山市",
            "district": "雨山区"
        }
    },
    {
        "id": "5951175386868053443",
        "title": "公共厕所",
        "address": "安徽省马鞍山市和县滨河大道与龙潭南路交叉口西北方向44米左右",
        "tel": "",
        "category": "基础设施:公共设施:公共厕所",
        "type": 0,
        "location": {
            "lat": 31.705614,
            "lng": 118.358859
        },
        "ad_info": {
            "adcode": 340523,
            "province": "安徽省",
            "city": "马鞍山市",
            "district": "和县"
        }
    },
    {
        "id": "12691208197470890329",
        "title": "公共厕所",
        "address": "安徽省马鞍山市当涂县乐华二路与兴马大道交叉口东南方向466米左右",
        "tel": "",
        "category": "基础设施:公共设施:公共厕所",
        "type": 0,
        "location": {
            "lat": 31.575231,
            "lng": 118.537334
        },
        "ad_info": {
            "adcode": 340521,
            "province": "安徽省",
            "city": "马鞍山市",
            "district": "当涂县"
        }
    },
    {
        "id": "5955448164870213784",
        "title": "公共厕所",
        "address": "安徽省马鞍山市雨山区印山西路与永丰河路交叉口正东方向99米左右",
        "tel": "",
        "category": "基础设施:公共设施:公共厕所",
        "type": 0,
        "location": {
            "lat": 31.663507,
            "lng": 118.508868
        },
        "ad_info": {
            "adcode": 340504,
            "province": "安徽省",
            "city": "马鞍山市",
            "district": "雨山区"
        }
    },
    {
        "id": "15110828151855279689",
        "title": "洗手间",
        "address": "安徽省马鞍山市雨山区太白大道3200号万达广场B1",
        "tel": "",
        "category": "基础设施:公共设施:公共厕所",
        "type": 0,
        "location": {
            "lat": 31.656604,
            "lng": 118.505317
        },
        "ad_info": {
            "adcode": 340504,
            "province": "安徽省",
            "city": "马鞍山市",
            "district": "雨山区"
        }
    },
    {
        "id": "486526233663975899",
        "title": "窑厂队公厕",
        "address": "安徽省马鞍山市花山区X001(旧)",
        "tel": "",
        "category": "基础设施:公共设施:公共厕所",
        "type": 0,
        "location": {
            "lat": 31.723487,
            "lng": 118.613784
        },
        "ad_info": {
            "adcode": 340503,
            "province": "安徽省",
            "city": "马鞍山市",
            "district": "花山区"
        }
    },
    {
        "id": "9112457399001452239",
        "title": "洗手间",
        "address": "安徽省马鞍山市雨山区太白大道3200号万达广场B1",
        "tel": "",
        "category": "基础设施:公共设施:公共厕所",
        "type": 0,
        "location": {
            "lat": 31.658089,
            "lng": 118.506317
        },
        "ad_info": {
            "adcode": 340504,
            "province": "安徽省",
            "city": "马鞍山市",
            "district": "雨山区"
        }
    },
    {
        "id": "9109316165903202925",
        "title": "公共厕所",
        "address": "安徽省马鞍山市含山县兴隆大道与巨兴路交叉口西北方向118米左右",
        "tel": "",
        "category": "基础设施:公共设施:公共厕所",
        "type": 0,
        "location": {
            "lat": 31.656743,
            "lng": 117.990209
        },
        "ad_info": {
            "adcode": 340522,
            "province": "安徽省",
            "city": "马鞍山市",
            "district": "含山县"
        }
    },
    {
        "id": "10101122466607887104",
        "title": "博望汽车站公共厕所",
        "address": "安徽省马鞍山市博望区富人街与春江路交叉口西北方向181米左右",
        "tel": "",
        "category": "基础设施:公共设施:公共厕所",
        "type": 0,
        "location": {
            "lat": 31.564151,
            "lng": 118.849656
        },
        "ad_info": {
            "adcode": 340506,
            "province": "安徽省",
            "city": "马鞍山市",
            "district": "博望区"
        }
    },
    {
        "id": "6197301581391885567",
        "title": "公共厕所",
        "address": "安徽省马鞍山市花山区幸福路与杨家山路交叉口东南方向69米左右",
        "tel": "",
        "category": "基础设施:公共设施:公共厕所",
        "type": 0,
        "location": {
            "lat": 31.717989,
            "lng": 118.49461
        },
        "ad_info": {
            "adcode": 340503,
            "province": "安徽省",
            "city": "马鞍山市",
            "district": "花山区"
        }
    },
    {
        "id": "7809044154948960966",
        "title": "公共厕所",
        "address": "安徽省马鞍山市当涂县S330与西河路交叉口东南方向438米左右",
        "tel": "",
        "category": "基础设施:公共设施:公共厕所",
        "type": 0,
        "location": {
            "lat": 31.417553,
            "lng": 118.525591
        },
        "ad_info": {
            "adcode": 340521,
            "province": "安徽省",
            "city": "马鞍山市",
            "district": "当涂县"
        }
    },
    {
        "id": "13537971790608670372",
        "title": "公共厕所",
        "address": "安徽省马鞍山市和县历阳中路115号",
        "tel": "",
        "category": "基础设施:公共设施:公共厕所",
        "type": 0,
        "location": {
            "lat": 31.716111,
            "lng": 118.362829
        },
        "ad_info": {
            "adcode": 340523,
            "province": "安徽省",
            "city": "马鞍山市",
            "district": "和县"
        }
    },
    {
        "id": "5534238732270395710",
        "title": "旅游无障碍公共厕所",
        "address": "安徽省马鞍山市和县和县人民医院门诊部东北侧150米",
        "tel": "",
        "category": "基础设施:公共设施:公共厕所",
        "type": 0,
        "location": {
            "lat": 31.737505,
            "lng": 118.343731
        },
        "ad_info": {
            "adcode": 340523,
            "province": "安徽省",
            "city": "马鞍山市",
            "district": "和县"
        }
    },
    {
        "id": "10434911829873433983",
        "title": "公共厕所",
        "address": "安徽省马鞍山市花山区真趣园路与花山南路交叉口东北方向39米左右",
        "tel": "",
        "category": "基础设施:公共设施:公共厕所",
        "type": 0,
        "location": {
            "lat": 31.683198,
            "lng": 118.525177
        },
        "ad_info": {
            "adcode": 340503,
            "province": "安徽省",
            "city": "马鞍山市",
            "district": "花山区"
        }
    },
    {
        "id": "1223681725428997678",
        "title": "公共厕所",
        "address": "安徽省马鞍山市当涂县江东大道与江东大道南段交叉口东南方向125米左右",
        "tel": "",
        "category": "基础设施:公共设施:公共厕所",
        "type": 0,
        "location": {
            "lat": 31.558937,
            "lng": 118.52554
        },
        "ad_info": {
            "adcode": 340521,
            "province": "安徽省",
            "city": "马鞍山市",
            "district": "当涂县"
        }
    },
    {
        "id": "9829885651638115146",
        "title": "公共厕所",
        "address": "安徽省马鞍山市含山县清溪东街",
        "tel": "",
        "category": "基础设施:公共设施:公共厕所",
        "type": 0,
        "location": {
            "lat": 31.656358,
            "lng": 118.002576
        },
        "ad_info": {
            "adcode": 340522,
            "province": "安徽省",
            "city": "马鞍山市",
            "district": "含山县"
        }
    },
    {
        "id": "17872080803495507560",
        "title": "公共厕所",
        "address": "安徽省马鞍山市雨山区太白大道与花园路交叉口正南方向112米左右",
        "tel": "",
        "category": "基础设施:公共设施:公共厕所",
        "type": 0,
        "location": {
            "lat": 31.665885,
            "lng": 118.504117
        },
        "ad_info": {
            "adcode": 340504,
            "province": "安徽省",
            "city": "马鞍山市",
            "district": "雨山区"
        }
    },
    {
        "id": "4145670019921032677",
        "title": "洗手间",
        "address": "安徽省马鞍山市雨山区太白大道3200号万达广场B1",
        "tel": "",
        "category": "基础设施:公共设施:公共厕所",
        "type": 0,
        "location": {
            "lat": 31.655923,
            "lng": 118.505314
        },
        "ad_info": {
            "adcode": 340504,
            "province": "安徽省",
            "city": "马鞍山市",
            "district": "雨山区"
        }
    },
    {
        "id": "12800038765218176741",
        "title": "公共厕所",
        "address": "安徽省马鞍山市花山区湖北东路与花山路交叉口东北方向97米左右",
        "tel": "",
        "category": "基础设施:公共设施:公共厕所",
        "type": 0,
        "location": {
            "lat": 31.699427,
            "lng": 118.51425
        },
        "ad_info": {
            "adcode": 340503,
            "province": "安徽省",
            "city": "马鞍山市",
            "district": "花山区"
        }
    },
    {
        "id": "10045708081324542669",
        "title": "公共厕所",
        "address": "安徽省马鞍山市当涂县S208与中闸路交叉口正西方向82米左右",
        "tel": "",
        "category": "基础设施:公共设施:公共厕所",
        "type": 0,
        "location": {
            "lat": 31.354016,
            "lng": 118.581182
        },
        "ad_info": {
            "adcode": 340521,
            "province": "安徽省",
            "city": "马鞍山市",
            "district": "当涂县"
        }
    },
    {
        "id": "17978764442603762311",
        "title": "公共厕所",
        "address": "安徽省马鞍山市当涂县东营北路与东营南路交叉口西南方向234米左右",
        "tel": "",
        "category": "基础设施:公共设施:公共厕所",
        "type": 0,
        "location": {
            "lat": 31.563398,
            "lng": 118.490836
        },
        "ad_info": {
            "adcode": 340521,
            "province": "安徽省",
            "city": "马鞍山市",
            "district": "当涂县"
        }
    },
    {
        "id": "6352627276034265584",
        "title": "男洗手间",
        "address": "安徽省马鞍山市花山区湖南西路8号金鹰国际购物中心F2",
        "tel": "",
        "category": "基础设施:公共设施:男洗手间",
        "type": 0,
        "location": {
            "lat": 31.685342,
            "lng": 118.509722
        },
        "ad_info": {
            "adcode": 340503,
            "province": "安徽省",
            "city": "马鞍山市",
            "district": "花山区"
        }
    },
    {
        "id": "3938292631720235168",
        "title": "洗手间",
        "address": "安徽省马鞍山市雨山区太白大道3200号万达广场F1",
        "tel": "",
        "category": "基础设施:公共设施:公共厕所",
        "type": 0,
        "location": {
            "lat": 31.660654,
            "lng": 118.505994
        },
        "ad_info": {
            "adcode": 340504,
            "province": "安徽省",
            "city": "马鞍山市",
            "district": "雨山区"
        }
    },
    {
        "id": "13279029660970780040",
        "title": "洗手间",
        "address": "安徽省马鞍山市雨山区太白大道3200号万达广场F3",
        "tel": "",
        "category": "基础设施:公共设施:公共厕所",
        "type": 0,
        "location": {
            "lat": 31.659777,
            "lng": 118.505696
        },
        "ad_info": {
            "adcode": 340504,
            "province": "安徽省",
            "city": "马鞍山市",
            "district": "雨山区"
        }
    },
    {
        "id": "16750132115877900749",
        "title": "洗手间",
        "address": "安徽省马鞍山市雨山区太白大道3200号万达广场F2",
        "tel": "",
        "category": "基础设施:公共设施:公共厕所",
        "type": 0,
        "location": {
            "lat": 31.65979,
            "lng": 118.505688
        },
        "ad_info": {
            "adcode": 340504,
            "province": "安徽省",
            "city": "马鞍山市",
            "district": "雨山区"
        }
    },
    {
        "id": "2198498962737779089",
        "title": "公共厕所",
        "address": "安徽省马鞍山市雨山区映翠路与永丰河路交叉口正西方向156米左右",
        "tel": "",
        "category": "基础设施:公共设施:公共厕所",
        "type": 0,
        "location": {
            "lat": 31.657332,
            "lng": 118.506195
        },
        "ad_info": {
            "adcode": 340504,
            "province": "安徽省",
            "city": "马鞍山市",
            "district": "雨山区"
        }
    },
    {
        "id": "8775996617828101002",
        "title": "公共厕所",
        "address": "安徽省马鞍山市花山区天宝路与雨山东路交叉口正东方向258米左右",
        "tel": "",
        "category": "基础设施:公共设施:公共厕所",
        "type": 0,
        "location": {
            "lat": 31.672061,
            "lng": 118.541781
        },
        "ad_info": {
            "adcode": 340503,
            "province": "安徽省",
            "city": "马鞍山市",
            "district": "花山区"
        }
    },
    {
        "id": "4524738561414736503",
        "title": "洗手间",
        "address": "安徽省马鞍山市雨山区太白大道3200号万达广场F4",
        "tel": "",
        "category": "基础设施:公共设施:公共厕所",
        "type": 0,
        "location": {
            "lat": 31.660192,
            "lng": 118.505167
        },
        "ad_info": {
            "adcode": 340504,
            "province": "安徽省",
            "city": "马鞍山市",
            "district": "雨山区"
        }
    },
    {
        "id": "2550853509315108375",
        "title": "男洗手间",
        "address": "安徽省马鞍山市花山区湖南西路8号金鹰国际购物中心F6",
        "tel": "",
        "category": "基础设施:公共设施:男洗手间",
        "type": 0,
        "location": {
            "lat": 31.685327,
            "lng": 118.509724
        },
        "ad_info": {
            "adcode": 340503,
            "province": "安徽省",
            "city": "马鞍山市",
            "district": "花山区"
        }
    },
    {
        "id": "9811781739698189739",
        "title": "公共厕所",
        "address": "安徽省马鞍山市雨山区永庆路与雨园路交叉口东南方向67米左右",
        "tel": "",
        "category": "基础设施:公共设施:公共厕所",
        "type": 0,
        "location": {
            "lat": 31.669741,
            "lng": 118.481924
        },
        "ad_info": {
            "adcode": 340504,
            "province": "安徽省",
            "city": "马鞍山市",
            "district": "雨山区"
        }
    },
    {
        "id": "7908187641374327172",
        "title": "公共厕所",
        "address": "安徽省马鞍山市雨山区陶庄路与雨山西路交叉口东北方向237米左右",
        "tel": "",
        "category": "基础设施:公共设施:公共厕所",
        "type": 0,
        "location": {
            "lat": 31.678266,
            "lng": 118.478187
        },
        "ad_info": {
            "adcode": 340504,
            "province": "安徽省",
            "city": "马鞍山市",
            "district": "雨山区"
        }
    },
    {
        "id": "16512340108871666234",
        "title": "公共厕所",
        "address": "安徽省马鞍山市博望区新合路与新沙路交叉口正西方向138米左右",
        "tel": "",
        "category": "基础设施:公共设施:公共厕所",
        "type": 0,
        "location": {
            "lat": 31.556168,
            "lng": 118.80053
        },
        "ad_info": {
            "adcode": 340506,
            "province": "安徽省",
            "city": "马鞍山市",
            "district": "博望区"
        }
    },
    {
        "id": "1132129364172963632",
        "title": "公共厕所",
        "address": "安徽省马鞍山市当涂县行春中路与青莲中路交叉口正南方向185米左右",
        "tel": "",
        "category": "基础设施:公共设施:公共厕所",
        "type": 0,
        "location": {
            "lat": 31.561248,
            "lng": 118.497903
        },
        "ad_info": {
            "adcode": 340521,
            "province": "安徽省",
            "city": "马鞍山市",
            "district": "当涂县"
        }
    },
    {
        "id": "2180679121037795468",
        "title": "厕所",
        "address": "安徽省马鞍山市含山县朝阳路与褒禅山路交叉口正北方向85米左右",
        "tel": "",
        "category": "基础设施:公共设施:公共厕所",
        "type": 0,
        "location": {
            "lat": 31.737398,
            "lng": 118.11359
        },
        "ad_info": {
            "adcode": 340522,
            "province": "安徽省",
            "city": "马鞍山市",
            "district": "含山县"
        }
    },
    {
        "id": "15833625888655537594",
        "title": "洗手间",
        "address": "安徽省马鞍山市雨山区太白大道3200号万达广场B1",
        "tel": "",
        "category": "基础设施:公共设施:公共厕所",
        "type": 0,
        "location": {
            "lat": 31.659995,
            "lng": 118.505807
        },
        "ad_info": {
            "adcode": 340504,
            "province": "安徽省",
            "city": "马鞍山市",
            "district": "雨山区"
        }
    },
    {
        "id": "9778616276772626412",
        "title": "公共厕所",
        "address": "安徽省马鞍山市花山区体育路与山湖路交叉口正东方向119米左右",
        "tel": "",
        "category": "基础设施:公共设施:公共厕所",
        "type": 0,
        "location": {
            "lat": 31.68401,
            "lng": 118.565136
        },
        "ad_info": {
            "adcode": 340503,
            "province": "安徽省",
            "city": "马鞍山市",
            "district": "花山区"
        }
    },
    {
        "id": "8796866515743380247",
        "title": "洗手间",
        "address": "安徽省马鞍山市雨山区太白大道3200号万达广场B2",
        "tel": "",
        "category": "基础设施:公共设施:公共厕所",
        "type": 0,
        "location": {
            "lat": 31.656594,
            "lng": 118.505315
        },
        "ad_info": {
            "adcode": 340504,
            "province": "安徽省",
            "city": "马鞍山市",
            "district": "雨山区"
        }
    },
    {
        "id": "6017625790755768449",
        "title": "公共厕所",
        "address": "安徽省马鞍山市含山县松亭巷与环峰西路交叉口东南方向80米左右",
        "tel": "",
        "category": "基础设施:公共设施:公共厕所",
        "type": 0,
        "location": {
            "lat": 31.719115,
            "lng": 118.104958
        },
        "ad_info": {
            "adcode": 340522,
            "province": "安徽省",
            "city": "马鞍山市",
            "district": "含山县"
        }
    },
    {
        "id": "14686373274877233736",
        "title": "公共厕所",
        "address": "安徽省马鞍山市花山区天门大道与慈湖路交叉口正南方向137米左右",
        "tel": "",
        "category": "基础设施:公共设施:公共厕所",
        "type": 0,
        "location": {
            "lat": 31.735497,
            "lng": 118.514959
        },
        "ad_info": {
            "adcode": 340503,
            "province": "安徽省",
            "city": "马鞍山市",
            "district": "花山区"
        }
    },
    {
        "id": "15906728253006466012",
        "title": "女洗手间",
        "address": "安徽省马鞍山市花山区湖南西路8号金鹰国际购物中心F2",
        "tel": "",
        "category": "基础设施:公共设施:女洗手间",
        "type": 0,
        "location": {
            "lat": 31.685596,
            "lng": 118.508514
        },
        "ad_info": {
            "adcode": 340503,
            "province": "安徽省",
            "city": "马鞍山市",
            "district": "花山区"
        }
    },
    {
        "id": "14227491641359023877",
        "title": "公共厕所",
        "address": "安徽省马鞍山市含山县东关路与白石路交叉口正北方向1793米左右",
        "tel": "",
        "category": "基础设施:公共设施:公共厕所",
        "type": 0,
        "location": {
            "lat": 31.517055,
            "lng": 117.977268
        },
        "ad_info": {
            "adcode": 340522,
            "province": "安徽省",
            "city": "马鞍山市",
            "district": "含山县"
        }
    },
    {
        "id": "14409316509879341061",
        "title": "公共厕所",
        "address": "安徽省马鞍山市花山区木易建材厂东北侧110米",
        "tel": "",
        "category": "基础设施:公共设施:公共厕所",
        "type": 0,
        "location": {
            "lat": 31.745724,
            "lng": 118.622451
        },
        "ad_info": {
            "adcode": 340503,
            "province": "安徽省",
            "city": "马鞍山市",
            "district": "花山区"
        }
    },
    {
        "id": "13074900271319736516",
        "title": "洗手间",
        "address": "安徽省马鞍山市雨山区太白大道3200号万达广场B2",
        "tel": "",
        "category": "基础设施:公共设施:公共厕所",
        "type": 0,
        "location": {
            "lat": 31.658055,
            "lng": 118.506285
        },
        "ad_info": {
            "adcode": 340504,
            "province": "安徽省",
            "city": "马鞍山市",
            "district": "雨山区"
        }
    },
    {
        "id": "4404065359141778005",
        "title": "公共厕所",
        "address": "安徽省马鞍山市雨山区红旗南路与青山路交叉口正东方向78米左右",
        "tel": "",
        "category": "基础设施:公共设施:公共厕所",
        "type": 0,
        "location": {
            "lat": 31.635072,
            "lng": 118.489917
        },
        "ad_info": {
            "adcode": 340504,
            "province": "安徽省",
            "city": "马鞍山市",
            "district": "雨山区"
        }
    },
    {
        "id": "1928940096246775692",
        "title": "公共厕所",
        "address": "安徽省马鞍山市花山区江东大道中段与江东大道北段交叉口西北方向103米左右",
        "tel": "",
        "category": "基础设施:公共设施:公共厕所",
        "type": 0,
        "location": {
            "lat": 31.685172,
            "lng": 118.522912
        },
        "ad_info": {
            "adcode": 340503,
            "province": "安徽省",
            "city": "马鞍山市",
            "district": "花山区"
        }
    },
    {
        "id": "1405847339159278227",
        "title": "公共厕所",
        "address": "安徽省马鞍山市含山县华阳路与环峰路交叉口东南方向273米左右",
        "tel": "",
        "category": "基础设施:公共设施:公共厕所",
        "type": 0,
        "location": {
            "lat": 31.721851,
            "lng": 118.110969
        },
        "ad_info": {
            "adcode": 340522,
            "province": "安徽省",
            "city": "马鞍山市",
            "district": "含山县"
        }
    },
    {
        "id": "8775996617828101002",
        "title": "公共厕所",
        "address": "安徽省马鞍山市花山区天宝路与雨山东路交叉口正东方向258米左右",
        "tel": "",
        "category": "基础设施:公共设施:公共厕所",
        "type": 0,
        "location": {
            "lat": 31.672061,
            "lng": 118.541781
        },
        "ad_info": {
            "adcode": 340503,
            "province": "安徽省",
            "city": "马鞍山市",
            "district": "花山区"
        }
    },
    {
        "id": "4524738561414736503",
        "title": "洗手间",
        "address": "安徽省马鞍山市雨山区太白大道3200号万达广场F4",
        "tel": "",
        "category": "基础设施:公共设施:公共厕所",
        "type": 0,
        "location": {
            "lat": 31.660192,
            "lng": 118.505167
        },
        "ad_info": {
            "adcode": 340504,
            "province": "安徽省",
            "city": "马鞍山市",
            "district": "雨山区"
        }
    },
    {
        "id": "2550853509315108375",
        "title": "男洗手间",
        "address": "安徽省马鞍山市花山区湖南西路8号金鹰国际购物中心F6",
        "tel": "",
        "category": "基础设施:公共设施:男洗手间",
        "type": 0,
        "location": {
            "lat": 31.685327,
            "lng": 118.509724
        },
        "ad_info": {
            "adcode": 340503,
            "province": "安徽省",
            "city": "马鞍山市",
            "district": "花山区"
        }
    },
    {
        "id": "9811781739698189739",
        "title": "公共厕所",
        "address": "安徽省马鞍山市雨山区永庆路与雨园路交叉口东南方向67米左右",
        "tel": "",
        "category": "基础设施:公共设施:公共厕所",
        "type": 0,
        "location": {
            "lat": 31.669741,
            "lng": 118.481924
        },
        "ad_info": {
            "adcode": 340504,
            "province": "安徽省",
            "city": "马鞍山市",
            "district": "雨山区"
        }
    },
    {
        "id": "7908187641374327172",
        "title": "公共厕所",
        "address": "安徽省马鞍山市雨山区陶庄路与雨山西路交叉口东北方向237米左右",
        "tel": "",
        "category": "基础设施:公共设施:公共厕所",
        "type": 0,
        "location": {
            "lat": 31.678266,
            "lng": 118.478187
        },
        "ad_info": {
            "adcode": 340504,
            "province": "安徽省",
            "city": "马鞍山市",
            "district": "雨山区"
        }
    },
    {
        "id": "16512340108871666234",
        "title": "公共厕所",
        "address": "安徽省马鞍山市博望区新合路与新沙路交叉口正西方向138米左右",
        "tel": "",
        "category": "基础设施:公共设施:公共厕所",
        "type": 0,
        "location": {
            "lat": 31.556168,
            "lng": 118.80053
        },
        "ad_info": {
            "adcode": 340506,
            "province": "安徽省",
            "city": "马鞍山市",
            "district": "博望区"
        }
    },
    {
        "id": "1132129364172963632",
        "title": "公共厕所",
        "address": "安徽省马鞍山市当涂县行春中路与青莲中路交叉口正南方向185米左右",
        "tel": "",
        "category": "基础设施:公共设施:公共厕所",
        "type": 0,
        "location": {
            "lat": 31.561248,
            "lng": 118.497903
        },
        "ad_info": {
            "adcode": 340521,
            "province": "安徽省",
            "city": "马鞍山市",
            "district": "当涂县"
        }
    },
    {
        "id": "2180679121037795468",
        "title": "厕所",
        "address": "安徽省马鞍山市含山县朝阳路与褒禅山路交叉口正北方向85米左右",
        "tel": "",
        "category": "基础设施:公共设施:公共厕所",
        "type": 0,
        "location": {
            "lat": 31.737398,
            "lng": 118.11359
        },
        "ad_info": {
            "adcode": 340522,
            "province": "安徽省",
            "city": "马鞍山市",
            "district": "含山县"
        }
    },
    {
        "id": "15833625888655537594",
        "title": "洗手间",
        "address": "安徽省马鞍山市雨山区太白大道3200号万达广场B1",
        "tel": "",
        "category": "基础设施:公共设施:公共厕所",
        "type": 0,
        "location": {
            "lat": 31.659995,
            "lng": 118.505807
        },
        "ad_info": {
            "adcode": 340504,
            "province": "安徽省",
            "city": "马鞍山市",
            "district": "雨山区"
        }
    },
    {
        "id": "9778616276772626412",
        "title": "公共厕所",
        "address": "安徽省马鞍山市花山区体育路与山湖路交叉口正东方向119米左右",
        "tel": "",
        "category": "基础设施:公共设施:公共厕所",
        "type": 0,
        "location": {
            "lat": 31.68401,
            "lng": 118.565136
        },
        "ad_info": {
            "adcode": 340503,
            "province": "安徽省",
            "city": "马鞍山市",
            "district": "花山区"
        }
    },
    {
        "id": "8796866515743380247",
        "title": "洗手间",
        "address": "安徽省马鞍山市雨山区太白大道3200号万达广场B2",
        "tel": "",
        "category": "基础设施:公共设施:公共厕所",
        "type": 0,
        "location": {
            "lat": 31.656594,
            "lng": 118.505315
        },
        "ad_info": {
            "adcode": 340504,
            "province": "安徽省",
            "city": "马鞍山市",
            "district": "雨山区"
        }
    },
    {
        "id": "6017625790755768449",
        "title": "公共厕所",
        "address": "安徽省马鞍山市含山县松亭巷与环峰西路交叉口东南方向80米左右",
        "tel": "",
        "category": "基础设施:公共设施:公共厕所",
        "type": 0,
        "location": {
            "lat": 31.719115,
            "lng": 118.104958
        },
        "ad_info": {
            "adcode": 340522,
            "province": "安徽省",
            "city": "马鞍山市",
            "district": "含山县"
        }
    },
    {
        "id": "14686373274877233736",
        "title": "公共厕所",
        "address": "安徽省马鞍山市花山区天门大道与慈湖路交叉口正南方向137米左右",
        "tel": "",
        "category": "基础设施:公共设施:公共厕所",
        "type": 0,
        "location": {
            "lat": 31.735497,
            "lng": 118.514959
        },
        "ad_info": {
            "adcode": 340503,
            "province": "安徽省",
            "city": "马鞍山市",
            "district": "花山区"
        }
    },
    {
        "id": "15906728253006466012",
        "title": "女洗手间",
        "address": "安徽省马鞍山市花山区湖南西路8号金鹰国际购物中心F2",
        "tel": "",
        "category": "基础设施:公共设施:女洗手间",
        "type": 0,
        "location": {
            "lat": 31.685596,
            "lng": 118.508514
        },
        "ad_info": {
            "adcode": 340503,
            "province": "安徽省",
            "city": "马鞍山市",
            "district": "花山区"
        }
    },
    {
        "id": "14227491641359023877",
        "title": "公共厕所",
        "address": "安徽省马鞍山市含山县东关路与白石路交叉口正北方向1793米左右",
        "tel": "",
        "category": "基础设施:公共设施:公共厕所",
        "type": 0,
        "location": {
            "lat": 31.517055,
            "lng": 117.977268
        },
        "ad_info": {
            "adcode": 340522,
            "province": "安徽省",
            "city": "马鞍山市",
            "district": "含山县"
        }
    },
    {
        "id": "14409316509879341061",
        "title": "公共厕所",
        "address": "安徽省马鞍山市花山区木易建材厂东北侧110米",
        "tel": "",
        "category": "基础设施:公共设施:公共厕所",
        "type": 0,
        "location": {
            "lat": 31.745724,
            "lng": 118.622451
        },
        "ad_info": {
            "adcode": 340503,
            "province": "安徽省",
            "city": "马鞍山市",
            "district": "花山区"
        }
    },
    {
        "id": "13074900271319736516",
        "title": "洗手间",
        "address": "安徽省马鞍山市雨山区太白大道3200号万达广场B2",
        "tel": "",
        "category": "基础设施:公共设施:公共厕所",
        "type": 0,
        "location": {
            "lat": 31.658055,
            "lng": 118.506285
        },
        "ad_info": {
            "adcode": 340504,
            "province": "安徽省",
            "city": "马鞍山市",
            "district": "雨山区"
        }
    },
    {
        "id": "4404065359141778005",
        "title": "公共厕所",
        "address": "安徽省马鞍山市雨山区红旗南路与青山路交叉口正东方向78米左右",
        "tel": "",
        "category": "基础设施:公共设施:公共厕所",
        "type": 0,
        "location": {
            "lat": 31.635072,
            "lng": 118.489917
        },
        "ad_info": {
            "adcode": 340504,
            "province": "安徽省",
            "city": "马鞍山市",
            "district": "雨山区"
        }
    },
    {
        "id": "1928940096246775692",
        "title": "公共厕所",
        "address": "安徽省马鞍山市花山区江东大道中段与江东大道北段交叉口西北方向103米左右",
        "tel": "",
        "category": "基础设施:公共设施:公共厕所",
        "type": 0,
        "location": {
            "lat": 31.685172,
            "lng": 118.522912
        },
        "ad_info": {
            "adcode": 340503,
            "province": "安徽省",
            "city": "马鞍山市",
            "district": "花山区"
        }
    },
    {
        "id": "1405847339159278227",
        "title": "公共厕所",
        "address": "安徽省马鞍山市含山县华阳路与环峰路交叉口东南方向273米左右",
        "tel": "",
        "category": "基础设施:公共设施:公共厕所",
        "type": 0,
        "location": {
            "lat": 31.721851,
            "lng": 118.110969
        },
        "ad_info": {
            "adcode": 340522,
            "province": "安徽省",
            "city": "马鞍山市",
            "district": "含山县"
        }
    },
    {
        "id": "8775996617828101002",
        "title": "公共厕所",
        "address": "安徽省马鞍山市花山区天宝路与雨山东路交叉口正东方向258米左右",
        "tel": "",
        "category": "基础设施:公共设施:公共厕所",
        "type": 0,
        "location": {
            "lat": 31.672061,
            "lng": 118.541781
        },
        "ad_info": {
            "adcode": 340503,
            "province": "安徽省",
            "city": "马鞍山市",
            "district": "花山区"
        }
    },
    {
        "id": "4524738561414736503",
        "title": "洗手间",
        "address": "安徽省马鞍山市雨山区太白大道3200号万达广场F4",
        "tel": "",
        "category": "基础设施:公共设施:公共厕所",
        "type": 0,
        "location": {
            "lat": 31.660192,
            "lng": 118.505167
        },
        "ad_info": {
            "adcode": 340504,
            "province": "安徽省",
            "city": "马鞍山市",
            "district": "雨山区"
        }
    },
    {
        "id": "2550853509315108375",
        "title": "男洗手间",
        "address": "安徽省马鞍山市花山区湖南西路8号金鹰国际购物中心F6",
        "tel": "",
        "category": "基础设施:公共设施:男洗手间",
        "type": 0,
        "location": {
            "lat": 31.685327,
            "lng": 118.509724
        },
        "ad_info": {
            "adcode": 340503,
            "province": "安徽省",
            "city": "马鞍山市",
            "district": "花山区"
        }
    },
    {
        "id": "9811781739698189739",
        "title": "公共厕所",
        "address": "安徽省马鞍山市雨山区永庆路与雨园路交叉口东南方向67米左右",
        "tel": "",
        "category": "基础设施:公共设施:公共厕所",
        "type": 0,
        "location": {
            "lat": 31.669741,
            "lng": 118.481924
        },
        "ad_info": {
            "adcode": 340504,
            "province": "安徽省",
            "city": "马鞍山市",
            "district": "雨山区"
        }
    },
    {
        "id": "7908187641374327172",
        "title": "公共厕所",
        "address": "安徽省马鞍山市雨山区陶庄路与雨山西路交叉口东北方向237米左右",
        "tel": "",
        "category": "基础设施:公共设施:公共厕所",
        "type": 0,
        "location": {
            "lat": 31.678266,
            "lng": 118.478187
        },
        "ad_info": {
            "adcode": 340504,
            "province": "安徽省",
            "city": "马鞍山市",
            "district": "雨山区"
        }
    },
    {
        "id": "16512340108871666234",
        "title": "公共厕所",
        "address": "安徽省马鞍山市博望区新合路与新沙路交叉口正西方向138米左右",
        "tel": "",
        "category": "基础设施:公共设施:公共厕所",
        "type": 0,
        "location": {
            "lat": 31.556168,
            "lng": 118.80053
        },
        "ad_info": {
            "adcode": 340506,
            "province": "安徽省",
            "city": "马鞍山市",
            "district": "博望区"
        }
    },
    {
        "id": "1132129364172963632",
        "title": "公共厕所",
        "address": "安徽省马鞍山市当涂县行春中路与青莲中路交叉口正南方向185米左右",
        "tel": "",
        "category": "基础设施:公共设施:公共厕所",
        "type": 0,
        "location": {
            "lat": 31.561248,
            "lng": 118.497903
        },
        "ad_info": {
            "adcode": 340521,
            "province": "安徽省",
            "city": "马鞍山市",
            "district": "当涂县"
        }
    },
    {
        "id": "2180679121037795468",
        "title": "厕所",
        "address": "安徽省马鞍山市含山县朝阳路与褒禅山路交叉口正北方向85米左右",
        "tel": "",
        "category": "基础设施:公共设施:公共厕所",
        "type": 0,
        "location": {
            "lat": 31.737398,
            "lng": 118.11359
        },
        "ad_info": {
            "adcode": 340522,
            "province": "安徽省",
            "city": "马鞍山市",
            "district": "含山县"
        }
    },
    {
        "id": "15833625888655537594",
        "title": "洗手间",
        "address": "安徽省马鞍山市雨山区太白大道3200号万达广场B1",
        "tel": "",
        "category": "基础设施:公共设施:公共厕所",
        "type": 0,
        "location": {
            "lat": 31.659995,
            "lng": 118.505807
        },
        "ad_info": {
            "adcode": 340504,
            "province": "安徽省",
            "city": "马鞍山市",
            "district": "雨山区"
        }
    },
    {
        "id": "9778616276772626412",
        "title": "公共厕所",
        "address": "安徽省马鞍山市花山区体育路与山湖路交叉口正东方向119米左右",
        "tel": "",
        "category": "基础设施:公共设施:公共厕所",
        "type": 0,
        "location": {
            "lat": 31.68401,
            "lng": 118.565136
        },
        "ad_info": {
            "adcode": 340503,
            "province": "安徽省",
            "city": "马鞍山市",
            "district": "花山区"
        }
    },
    {
        "id": "8796866515743380247",
        "title": "洗手间",
        "address": "安徽省马鞍山市雨山区太白大道3200号万达广场B2",
        "tel": "",
        "category": "基础设施:公共设施:公共厕所",
        "type": 0,
        "location": {
            "lat": 31.656594,
            "lng": 118.505315
        },
        "ad_info": {
            "adcode": 340504,
            "province": "安徽省",
            "city": "马鞍山市",
            "district": "雨山区"
        }
    },
    {
        "id": "6017625790755768449",
        "title": "公共厕所",
        "address": "安徽省马鞍山市含山县松亭巷与环峰西路交叉口东南方向80米左右",
        "tel": "",
        "category": "基础设施:公共设施:公共厕所",
        "type": 0,
        "location": {
            "lat": 31.719115,
            "lng": 118.104958
        },
        "ad_info": {
            "adcode": 340522,
            "province": "安徽省",
            "city": "马鞍山市",
            "district": "含山县"
        }
    },
    {
        "id": "14686373274877233736",
        "title": "公共厕所",
        "address": "安徽省马鞍山市花山区天门大道与慈湖路交叉口正南方向137米左右",
        "tel": "",
        "category": "基础设施:公共设施:公共厕所",
        "type": 0,
        "location": {
            "lat": 31.735497,
            "lng": 118.514959
        },
        "ad_info": {
            "adcode": 340503,
            "province": "安徽省",
            "city": "马鞍山市",
            "district": "花山区"
        }
    },
    {
        "id": "15906728253006466012",
        "title": "女洗手间",
        "address": "安徽省马鞍山市花山区湖南西路8号金鹰国际购物中心F2",
        "tel": "",
        "category": "基础设施:公共设施:女洗手间",
        "type": 0,
        "location": {
            "lat": 31.685596,
            "lng": 118.508514
        },
        "ad_info": {
            "adcode": 340503,
            "province": "安徽省",
            "city": "马鞍山市",
            "district": "花山区"
        }
    },
    {
        "id": "14227491641359023877",
        "title": "公共厕所",
        "address": "安徽省马鞍山市含山县东关路与白石路交叉口正北方向1793米左右",
        "tel": "",
        "category": "基础设施:公共设施:公共厕所",
        "type": 0,
        "location": {
            "lat": 31.517055,
            "lng": 117.977268
        },
        "ad_info": {
            "adcode": 340522,
            "province": "安徽省",
            "city": "马鞍山市",
            "district": "含山县"
        }
    },
    {
        "id": "14409316509879341061",
        "title": "公共厕所",
        "address": "安徽省马鞍山市花山区木易建材厂东北侧110米",
        "tel": "",
        "category": "基础设施:公共设施:公共厕所",
        "type": 0,
        "location": {
            "lat": 31.745724,
            "lng": 118.622451
        },
        "ad_info": {
            "adcode": 340503,
            "province": "安徽省",
            "city": "马鞍山市",
            "district": "花山区"
        }
    },
    {
        "id": "13074900271319736516",
        "title": "洗手间",
        "address": "安徽省马鞍山市雨山区太白大道3200号万达广场B2",
        "tel": "",
        "category": "基础设施:公共设施:公共厕所",
        "type": 0,
        "location": {
            "lat": 31.658055,
            "lng": 118.506285
        },
        "ad_info": {
            "adcode": 340504,
            "province": "安徽省",
            "city": "马鞍山市",
            "district": "雨山区"
        }
    },
    {
        "id": "4404065359141778005",
        "title": "公共厕所",
        "address": "安徽省马鞍山市雨山区红旗南路与青山路交叉口正东方向78米左右",
        "tel": "",
        "category": "基础设施:公共设施:公共厕所",
        "type": 0,
        "location": {
            "lat": 31.635072,
            "lng": 118.489917
        },
        "ad_info": {
            "adcode": 340504,
            "province": "安徽省",
            "city": "马鞍山市",
            "district": "雨山区"
        }
    },
    {
        "id": "1928940096246775692",
        "title": "公共厕所",
        "address": "安徽省马鞍山市花山区江东大道中段与江东大道北段交叉口西北方向103米左右",
        "tel": "",
        "category": "基础设施:公共设施:公共厕所",
        "type": 0,
        "location": {
            "lat": 31.685172,
            "lng": 118.522912
        },
        "ad_info": {
            "adcode": 340503,
            "province": "安徽省",
            "city": "马鞍山市",
            "district": "花山区"
        }
    },
    {
        "id": "1405847339159278227",
        "title": "公共厕所",
        "address": "安徽省马鞍山市含山县华阳路与环峰路交叉口东南方向273米左右",
        "tel": "",
        "category": "基础设施:公共设施:公共厕所",
        "type": 0,
        "location": {
            "lat": 31.721851,
            "lng": 118.110969
        },
        "ad_info": {
            "adcode": 340522,
            "province": "安徽省",
            "city": "马鞍山市",
            "district": "含山县"
        }
    },
    {
        "id": "8775996617828101002",
        "title": "公共厕所",
        "address": "安徽省马鞍山市花山区天宝路与雨山东路交叉口正东方向258米左右",
        "tel": "",
        "category": "基础设施:公共设施:公共厕所",
        "type": 0,
        "location": {
            "lat": 31.672061,
            "lng": 118.541781
        },
        "ad_info": {
            "adcode": 340503,
            "province": "安徽省",
            "city": "马鞍山市",
            "district": "花山区"
        }
    },
    {
        "id": "4524738561414736503",
        "title": "洗手间",
        "address": "安徽省马鞍山市雨山区太白大道3200号万达广场F4",
        "tel": "",
        "category": "基础设施:公共设施:公共厕所",
        "type": 0,
        "location": {
            "lat": 31.660192,
            "lng": 118.505167
        },
        "ad_info": {
            "adcode": 340504,
            "province": "安徽省",
            "city": "马鞍山市",
            "district": "雨山区"
        }
    },
    {
        "id": "2550853509315108375",
        "title": "男洗手间",
        "address": "安徽省马鞍山市花山区湖南西路8号金鹰国际购物中心F6",
        "tel": "",
        "category": "基础设施:公共设施:男洗手间",
        "type": 0,
        "location": {
            "lat": 31.685327,
            "lng": 118.509724
        },
        "ad_info": {
            "adcode": 340503,
            "province": "安徽省",
            "city": "马鞍山市",
            "district": "花山区"
        }
    },
    {
        "id": "9811781739698189739",
        "title": "公共厕所",
        "address": "安徽省马鞍山市雨山区永庆路与雨园路交叉口东南方向67米左右",
        "tel": "",
        "category": "基础设施:公共设施:公共厕所",
        "type": 0,
        "location": {
            "lat": 31.669741,
            "lng": 118.481924
        },
        "ad_info": {
            "adcode": 340504,
            "province": "安徽省",
            "city": "马鞍山市",
            "district": "雨山区"
        }
    },
    {
        "id": "7908187641374327172",
        "title": "公共厕所",
        "address": "安徽省马鞍山市雨山区陶庄路与雨山西路交叉口东北方向237米左右",
        "tel": "",
        "category": "基础设施:公共设施:公共厕所",
        "type": 0,
        "location": {
            "lat": 31.678266,
            "lng": 118.478187
        },
        "ad_info": {
            "adcode": 340504,
            "province": "安徽省",
            "city": "马鞍山市",
            "district": "雨山区"
        }
    },
    {
        "id": "16512340108871666234",
        "title": "公共厕所",
        "address": "安徽省马鞍山市博望区新合路与新沙路交叉口正西方向138米左右",
        "tel": "",
        "category": "基础设施:公共设施:公共厕所",
        "type": 0,
        "location": {
            "lat": 31.556168,
            "lng": 118.80053
        },
        "ad_info": {
            "adcode": 340506,
            "province": "安徽省",
            "city": "马鞍山市",
            "district": "博望区"
        }
    },
    {
        "id": "1132129364172963632",
        "title": "公共厕所",
        "address": "安徽省马鞍山市当涂县行春中路与青莲中路交叉口正南方向185米左右",
        "tel": "",
        "category": "基础设施:公共设施:公共厕所",
        "type": 0,
        "location": {
            "lat": 31.561248,
            "lng": 118.497903
        },
        "ad_info": {
            "adcode": 340521,
            "province": "安徽省",
            "city": "马鞍山市",
            "district": "当涂县"
        }
    },
    {
        "id": "2180679121037795468",
        "title": "厕所",
        "address": "安徽省马鞍山市含山县朝阳路与褒禅山路交叉口正北方向85米左右",
        "tel": "",
        "category": "基础设施:公共设施:公共厕所",
        "type": 0,
        "location": {
            "lat": 31.737398,
            "lng": 118.11359
        },
        "ad_info": {
            "adcode": 340522,
            "province": "安徽省",
            "city": "马鞍山市",
            "district": "含山县"
        }
    },
    {
        "id": "15833625888655537594",
        "title": "洗手间",
        "address": "安徽省马鞍山市雨山区太白大道3200号万达广场B1",
        "tel": "",
        "category": "基础设施:公共设施:公共厕所",
        "type": 0,
        "location": {
            "lat": 31.659995,
            "lng": 118.505807
        },
        "ad_info": {
            "adcode": 340504,
            "province": "安徽省",
            "city": "马鞍山市",
            "district": "雨山区"
        }
    },
    {
        "id": "9778616276772626412",
        "title": "公共厕所",
        "address": "安徽省马鞍山市花山区体育路与山湖路交叉口正东方向119米左右",
        "tel": "",
        "category": "基础设施:公共设施:公共厕所",
        "type": 0,
        "location": {
            "lat": 31.68401,
            "lng": 118.565136
        },
        "ad_info": {
            "adcode": 340503,
            "province": "安徽省",
            "city": "马鞍山市",
            "district": "花山区"
        }
    },
    {
        "id": "8796866515743380247",
        "title": "洗手间",
        "address": "安徽省马鞍山市雨山区太白大道3200号万达广场B2",
        "tel": "",
        "category": "基础设施:公共设施:公共厕所",
        "type": 0,
        "location": {
            "lat": 31.656594,
            "lng": 118.505315
        },
        "ad_info": {
            "adcode": 340504,
            "province": "安徽省",
            "city": "马鞍山市",
            "district": "雨山区"
        }
    },
    {
        "id": "6017625790755768449",
        "title": "公共厕所",
        "address": "安徽省马鞍山市含山县松亭巷与环峰西路交叉口东南方向80米左右",
        "tel": "",
        "category": "基础设施:公共设施:公共厕所",
        "type": 0,
        "location": {
            "lat": 31.719115,
            "lng": 118.104958
        },
        "ad_info": {
            "adcode": 340522,
            "province": "安徽省",
            "city": "马鞍山市",
            "district": "含山县"
        }
    },
    {
        "id": "14686373274877233736",
        "title": "公共厕所",
        "address": "安徽省马鞍山市花山区天门大道与慈湖路交叉口正南方向137米左右",
        "tel": "",
        "category": "基础设施:公共设施:公共厕所",
        "type": 0,
        "location": {
            "lat": 31.735497,
            "lng": 118.514959
        },
        "ad_info": {
            "adcode": 340503,
            "province": "安徽省",
            "city": "马鞍山市",
            "district": "花山区"
        }
    },
    {
        "id": "15906728253006466012",
        "title": "女洗手间",
        "address": "安徽省马鞍山市花山区湖南西路8号金鹰国际购物中心F2",
        "tel": "",
        "category": "基础设施:公共设施:女洗手间",
        "type": 0,
        "location": {
            "lat": 31.685596,
            "lng": 118.508514
        },
        "ad_info": {
            "adcode": 340503,
            "province": "安徽省",
            "city": "马鞍山市",
            "district": "花山区"
        }
    },
    {
        "id": "14227491641359023877",
        "title": "公共厕所",
        "address": "安徽省马鞍山市含山县东关路与白石路交叉口正北方向1793米左右",
        "tel": "",
        "category": "基础设施:公共设施:公共厕所",
        "type": 0,
        "location": {
            "lat": 31.517055,
            "lng": 117.977268
        },
        "ad_info": {
            "adcode": 340522,
            "province": "安徽省",
            "city": "马鞍山市",
            "district": "含山县"
        }
    },
    {
        "id": "14409316509879341061",
        "title": "公共厕所",
        "address": "安徽省马鞍山市花山区木易建材厂东北侧110米",
        "tel": "",
        "category": "基础设施:公共设施:公共厕所",
        "type": 0,
        "location": {
            "lat": 31.745724,
            "lng": 118.622451
        },
        "ad_info": {
            "adcode": 340503,
            "province": "安徽省",
            "city": "马鞍山市",
            "district": "花山区"
        }
    },
    {
        "id": "13074900271319736516",
        "title": "洗手间",
        "address": "安徽省马鞍山市雨山区太白大道3200号万达广场B2",
        "tel": "",
        "category": "基础设施:公共设施:公共厕所",
        "type": 0,
        "location": {
            "lat": 31.658055,
            "lng": 118.506285
        },
        "ad_info": {
            "adcode": 340504,
            "province": "安徽省",
            "city": "马鞍山市",
            "district": "雨山区"
        }
    },
    {
        "id": "4404065359141778005",
        "title": "公共厕所",
        "address": "安徽省马鞍山市雨山区红旗南路与青山路交叉口正东方向78米左右",
        "tel": "",
        "category": "基础设施:公共设施:公共厕所",
        "type": 0,
        "location": {
            "lat": 31.635072,
            "lng": 118.489917
        },
        "ad_info": {
            "adcode": 340504,
            "province": "安徽省",
            "city": "马鞍山市",
            "district": "雨山区"
        }
    },
    {
        "id": "1928940096246775692",
        "title": "公共厕所",
        "address": "安徽省马鞍山市花山区江东大道中段与江东大道北段交叉口西北方向103米左右",
        "tel": "",
        "category": "基础设施:公共设施:公共厕所",
        "type": 0,
        "location": {
            "lat": 31.685172,
            "lng": 118.522912
        },
        "ad_info": {
            "adcode": 340503,
            "province": "安徽省",
            "city": "马鞍山市",
            "district": "花山区"
        }
    },
    {
        "id": "1405847339159278227",
        "title": "公共厕所",
        "address": "安徽省马鞍山市含山县华阳路与环峰路交叉口东南方向273米左右",
        "tel": "",
        "category": "基础设施:公共设施:公共厕所",
        "type": 0,
        "location": {
            "lat": 31.721851,
            "lng": 118.110969
        },
        "ad_info": {
            "adcode": 340522,
            "province": "安徽省",
            "city": "马鞍山市",
            "district": "含山县"
        }
    },
    {
        "id": "8775996617828101002",
        "title": "公共厕所",
        "address": "安徽省马鞍山市花山区天宝路与雨山东路交叉口正东方向258米左右",
        "tel": "",
        "category": "基础设施:公共设施:公共厕所",
        "type": 0,
        "location": {
            "lat": 31.672061,
            "lng": 118.541781
        },
        "ad_info": {
            "adcode": 340503,
            "province": "安徽省",
            "city": "马鞍山市",
            "district": "花山区"
        }
    },
    {
        "id": "4524738561414736503",
        "title": "洗手间",
        "address": "安徽省马鞍山市雨山区太白大道3200号万达广场F4",
        "tel": "",
        "category": "基础设施:公共设施:公共厕所",
        "type": 0,
        "location": {
            "lat": 31.660192,
            "lng": 118.505167
        },
        "ad_info": {
            "adcode": 340504,
            "province": "安徽省",
            "city": "马鞍山市",
            "district": "雨山区"
        }
    },
    {
        "id": "2550853509315108375",
        "title": "男洗手间",
        "address": "安徽省马鞍山市花山区湖南西路8号金鹰国际购物中心F6",
        "tel": "",
        "category": "基础设施:公共设施:男洗手间",
        "type": 0,
        "location": {
            "lat": 31.685327,
            "lng": 118.509724
        },
        "ad_info": {
            "adcode": 340503,
            "province": "安徽省",
            "city": "马鞍山市",
            "district": "花山区"
        }
    },
    {
        "id": "9811781739698189739",
        "title": "公共厕所",
        "address": "安徽省马鞍山市雨山区永庆路与雨园路交叉口东南方向67米左右",
        "tel": "",
        "category": "基础设施:公共设施:公共厕所",
        "type": 0,
        "location": {
            "lat": 31.669741,
            "lng": 118.481924
        },
        "ad_info": {
            "adcode": 340504,
            "province": "安徽省",
            "city": "马鞍山市",
            "district": "雨山区"
        }
    },
    {
        "id": "7908187641374327172",
        "title": "公共厕所",
        "address": "安徽省马鞍山市雨山区陶庄路与雨山西路交叉口东北方向237米左右",
        "tel": "",
        "category": "基础设施:公共设施:公共厕所",
        "type": 0,
        "location": {
            "lat": 31.678266,
            "lng": 118.478187
        },
        "ad_info": {
            "adcode": 340504,
            "province": "安徽省",
            "city": "马鞍山市",
            "district": "雨山区"
        }
    },
    {
        "id": "16512340108871666234",
        "title": "公共厕所",
        "address": "安徽省马鞍山市博望区新合路与新沙路交叉口正西方向138米左右",
        "tel": "",
        "category": "基础设施:公共设施:公共厕所",
        "type": 0,
        "location": {
            "lat": 31.556168,
            "lng": 118.80053
        },
        "ad_info": {
            "adcode": 340506,
            "province": "安徽省",
            "city": "马鞍山市",
            "district": "博望区"
        }
    },
    {
        "id": "1132129364172963632",
        "title": "公共厕所",
        "address": "安徽省马鞍山市当涂县行春中路与青莲中路交叉口正南方向185米左右",
        "tel": "",
        "category": "基础设施:公共设施:公共厕所",
        "type": 0,
        "location": {
            "lat": 31.561248,
            "lng": 118.497903
        },
        "ad_info": {
            "adcode": 340521,
            "province": "安徽省",
            "city": "马鞍山市",
            "district": "当涂县"
        }
    },
    {
        "id": "2180679121037795468",
        "title": "厕所",
        "address": "安徽省马鞍山市含山县朝阳路与褒禅山路交叉口正北方向85米左右",
        "tel": "",
        "category": "基础设施:公共设施:公共厕所",
        "type": 0,
        "location": {
            "lat": 31.737398,
            "lng": 118.11359
        },
        "ad_info": {
            "adcode": 340522,
            "province": "安徽省",
            "city": "马鞍山市",
            "district": "含山县"
        }
    },
    {
        "id": "15833625888655537594",
        "title": "洗手间",
        "address": "安徽省马鞍山市雨山区太白大道3200号万达广场B1",
        "tel": "",
        "category": "基础设施:公共设施:公共厕所",
        "type": 0,
        "location": {
            "lat": 31.659995,
            "lng": 118.505807
        },
        "ad_info": {
            "adcode": 340504,
            "province": "安徽省",
            "city": "马鞍山市",
            "district": "雨山区"
        }
    },
    {
        "id": "9778616276772626412",
        "title": "公共厕所",
        "address": "安徽省马鞍山市花山区体育路与山湖路交叉口正东方向119米左右",
        "tel": "",
        "category": "基础设施:公共设施:公共厕所",
        "type": 0,
        "location": {
            "lat": 31.68401,
            "lng": 118.565136
        },
        "ad_info": {
            "adcode": 340503,
            "province": "安徽省",
            "city": "马鞍山市",
            "district": "花山区"
        }
    },
    {
        "id": "8796866515743380247",
        "title": "洗手间",
        "address": "安徽省马鞍山市雨山区太白大道3200号万达广场B2",
        "tel": "",
        "category": "基础设施:公共设施:公共厕所",
        "type": 0,
        "location": {
            "lat": 31.656594,
            "lng": 118.505315
        },
        "ad_info": {
            "adcode": 340504,
            "province": "安徽省",
            "city": "马鞍山市",
            "district": "雨山区"
        }
    },
    {
        "id": "6017625790755768449",
        "title": "公共厕所",
        "address": "安徽省马鞍山市含山县松亭巷与环峰西路交叉口东南方向80米左右",
        "tel": "",
        "category": "基础设施:公共设施:公共厕所",
        "type": 0,
        "location": {
            "lat": 31.719115,
            "lng": 118.104958
        },
        "ad_info": {
            "adcode": 340522,
            "province": "安徽省",
            "city": "马鞍山市",
            "district": "含山县"
        }
    },
    {
        "id": "14686373274877233736",
        "title": "公共厕所",
        "address": "安徽省马鞍山市花山区天门大道与慈湖路交叉口正南方向137米左右",
        "tel": "",
        "category": "基础设施:公共设施:公共厕所",
        "type": 0,
        "location": {
            "lat": 31.735497,
            "lng": 118.514959
        },
        "ad_info": {
            "adcode": 340503,
            "province": "安徽省",
            "city": "马鞍山市",
            "district": "花山区"
        }
    },
    {
        "id": "15906728253006466012",
        "title": "女洗手间",
        "address": "安徽省马鞍山市花山区湖南西路8号金鹰国际购物中心F2",
        "tel": "",
        "category": "基础设施:公共设施:女洗手间",
        "type": 0,
        "location": {
            "lat": 31.685596,
            "lng": 118.508514
        },
        "ad_info": {
            "adcode": 340503,
            "province": "安徽省",
            "city": "马鞍山市",
            "district": "花山区"
        }
    },
    {
        "id": "14227491641359023877",
        "title": "公共厕所",
        "address": "安徽省马鞍山市含山县东关路与白石路交叉口正北方向1793米左右",
        "tel": "",
        "category": "基础设施:公共设施:公共厕所",
        "type": 0,
        "location": {
            "lat": 31.517055,
            "lng": 117.977268
        },
        "ad_info": {
            "adcode": 340522,
            "province": "安徽省",
            "city": "马鞍山市",
            "district": "含山县"
        }
    },
    {
        "id": "14409316509879341061",
        "title": "公共厕所",
        "address": "安徽省马鞍山市花山区木易建材厂东北侧110米",
        "tel": "",
        "category": "基础设施:公共设施:公共厕所",
        "type": 0,
        "location": {
            "lat": 31.745724,
            "lng": 118.622451
        },
        "ad_info": {
            "adcode": 340503,
            "province": "安徽省",
            "city": "马鞍山市",
            "district": "花山区"
        }
    },
    {
        "id": "13074900271319736516",
        "title": "洗手间",
        "address": "安徽省马鞍山市雨山区太白大道3200号万达广场B2",
        "tel": "",
        "category": "基础设施:公共设施:公共厕所",
        "type": 0,
        "location": {
            "lat": 31.658055,
            "lng": 118.506285
        },
        "ad_info": {
            "adcode": 340504,
            "province": "安徽省",
            "city": "马鞍山市",
            "district": "雨山区"
        }
    },
    {
        "id": "4404065359141778005",
        "title": "公共厕所",
        "address": "安徽省马鞍山市雨山区红旗南路与青山路交叉口正东方向78米左右",
        "tel": "",
        "category": "基础设施:公共设施:公共厕所",
        "type": 0,
        "location": {
            "lat": 31.635072,
            "lng": 118.489917
        },
        "ad_info": {
            "adcode": 340504,
            "province": "安徽省",
            "city": "马鞍山市",
            "district": "雨山区"
        }
    },
    {
        "id": "1928940096246775692",
        "title": "公共厕所",
        "address": "安徽省马鞍山市花山区江东大道中段与江东大道北段交叉口西北方向103米左右",
        "tel": "",
        "category": "基础设施:公共设施:公共厕所",
        "type": 0,
        "location": {
            "lat": 31.685172,
            "lng": 118.522912
        },
        "ad_info": {
            "adcode": 340503,
            "province": "安徽省",
            "city": "马鞍山市",
            "district": "花山区"
        }
    },
    {
        "id": "1405847339159278227",
        "title": "公共厕所",
        "address": "安徽省马鞍山市含山县华阳路与环峰路交叉口东南方向273米左右",
        "tel": "",
        "category": "基础设施:公共设施:公共厕所",
        "type": 0,
        "location": {
            "lat": 31.721851,
            "lng": 118.110969
        },
        "ad_info": {
            "adcode": 340522,
            "province": "安徽省",
            "city": "马鞍山市",
            "district": "含山县"
        }
    },
    {
        "id": "8775996617828101002",
        "title": "公共厕所",
        "address": "安徽省马鞍山市花山区天宝路与雨山东路交叉口正东方向258米左右",
        "tel": "",
        "category": "基础设施:公共设施:公共厕所",
        "type": 0,
        "location": {
            "lat": 31.672061,
            "lng": 118.541781
        },
        "ad_info": {
            "adcode": 340503,
            "province": "安徽省",
            "city": "马鞍山市",
            "district": "花山区"
        }
    },
    {
        "id": "4524738561414736503",
        "title": "洗手间",
        "address": "安徽省马鞍山市雨山区太白大道3200号万达广场F4",
        "tel": "",
        "category": "基础设施:公共设施:公共厕所",
        "type": 0,
        "location": {
            "lat": 31.660192,
            "lng": 118.505167
        },
        "ad_info": {
            "adcode": 340504,
            "province": "安徽省",
            "city": "马鞍山市",
            "district": "雨山区"
        }
    },
    {
        "id": "2550853509315108375",
        "title": "男洗手间",
        "address": "安徽省马鞍山市花山区湖南西路8号金鹰国际购物中心F6",
        "tel": "",
        "category": "基础设施:公共设施:男洗手间",
        "type": 0,
        "location": {
            "lat": 31.685327,
            "lng": 118.509724
        },
        "ad_info": {
            "adcode": 340503,
            "province": "安徽省",
            "city": "马鞍山市",
            "district": "花山区"
        }
    },
    {
        "id": "9811781739698189739",
        "title": "公共厕所",
        "address": "安徽省马鞍山市雨山区永庆路与雨园路交叉口东南方向67米左右",
        "tel": "",
        "category": "基础设施:公共设施:公共厕所",
        "type": 0,
        "location": {
            "lat": 31.669741,
            "lng": 118.481924
        },
        "ad_info": {
            "adcode": 340504,
            "province": "安徽省",
            "city": "马鞍山市",
            "district": "雨山区"
        }
    },
    {
        "id": "7908187641374327172",
        "title": "公共厕所",
        "address": "安徽省马鞍山市雨山区陶庄路与雨山西路交叉口东北方向237米左右",
        "tel": "",
        "category": "基础设施:公共设施:公共厕所",
        "type": 0,
        "location": {
            "lat": 31.678266,
            "lng": 118.478187
        },
        "ad_info": {
            "adcode": 340504,
            "province": "安徽省",
            "city": "马鞍山市",
            "district": "雨山区"
        }
    },
    {
        "id": "16512340108871666234",
        "title": "公共厕所",
        "address": "安徽省马鞍山市博望区新合路与新沙路交叉口正西方向138米左右",
        "tel": "",
        "category": "基础设施:公共设施:公共厕所",
        "type": 0,
        "location": {
            "lat": 31.556168,
            "lng": 118.80053
        },
        "ad_info": {
            "adcode": 340506,
            "province": "安徽省",
            "city": "马鞍山市",
            "district": "博望区"
        }
    },
    {
        "id": "1132129364172963632",
        "title": "公共厕所",
        "address": "安徽省马鞍山市当涂县行春中路与青莲中路交叉口正南方向185米左右",
        "tel": "",
        "category": "基础设施:公共设施:公共厕所",
        "type": 0,
        "location": {
            "lat": 31.561248,
            "lng": 118.497903
        },
        "ad_info": {
            "adcode": 340521,
            "province": "安徽省",
            "city": "马鞍山市",
            "district": "当涂县"
        }
    },
    {
        "id": "2180679121037795468",
        "title": "厕所",
        "address": "安徽省马鞍山市含山县朝阳路与褒禅山路交叉口正北方向85米左右",
        "tel": "",
        "category": "基础设施:公共设施:公共厕所",
        "type": 0,
        "location": {
            "lat": 31.737398,
            "lng": 118.11359
        },
        "ad_info": {
            "adcode": 340522,
            "province": "安徽省",
            "city": "马鞍山市",
            "district": "含山县"
        }
    },
    {
        "id": "15833625888655537594",
        "title": "洗手间",
        "address": "安徽省马鞍山市雨山区太白大道3200号万达广场B1",
        "tel": "",
        "category": "基础设施:公共设施:公共厕所",
        "type": 0,
        "location": {
            "lat": 31.659995,
            "lng": 118.505807
        },
        "ad_info": {
            "adcode": 340504,
            "province": "安徽省",
            "city": "马鞍山市",
            "district": "雨山区"
        }
    },
    {
        "id": "9778616276772626412",
        "title": "公共厕所",
        "address": "安徽省马鞍山市花山区体育路与山湖路交叉口正东方向119米左右",
        "tel": "",
        "category": "基础设施:公共设施:公共厕所",
        "type": 0,
        "location": {
            "lat": 31.68401,
            "lng": 118.565136
        },
        "ad_info": {
            "adcode": 340503,
            "province": "安徽省",
            "city": "马鞍山市",
            "district": "花山区"
        }
    },
    {
        "id": "8796866515743380247",
        "title": "洗手间",
        "address": "安徽省马鞍山市雨山区太白大道3200号万达广场B2",
        "tel": "",
        "category": "基础设施:公共设施:公共厕所",
        "type": 0,
        "location": {
            "lat": 31.656594,
            "lng": 118.505315
        },
        "ad_info": {
            "adcode": 340504,
            "province": "安徽省",
            "city": "马鞍山市",
            "district": "雨山区"
        }
    },
    {
        "id": "6017625790755768449",
        "title": "公共厕所",
        "address": "安徽省马鞍山市含山县松亭巷与环峰西路交叉口东南方向80米左右",
        "tel": "",
        "category": "基础设施:公共设施:公共厕所",
        "type": 0,
        "location": {
            "lat": 31.719115,
            "lng": 118.104958
        },
        "ad_info": {
            "adcode": 340522,
            "province": "安徽省",
            "city": "马鞍山市",
            "district": "含山县"
        }
    },
    {
        "id": "14686373274877233736",
        "title": "公共厕所",
        "address": "安徽省马鞍山市花山区天门大道与慈湖路交叉口正南方向137米左右",
        "tel": "",
        "category": "基础设施:公共设施:公共厕所",
        "type": 0,
        "location": {
            "lat": 31.735497,
            "lng": 118.514959
        },
        "ad_info": {
            "adcode": 340503,
            "province": "安徽省",
            "city": "马鞍山市",
            "district": "花山区"
        }
    },
    {
        "id": "15906728253006466012",
        "title": "女洗手间",
        "address": "安徽省马鞍山市花山区湖南西路8号金鹰国际购物中心F2",
        "tel": "",
        "category": "基础设施:公共设施:女洗手间",
        "type": 0,
        "location": {
            "lat": 31.685596,
            "lng": 118.508514
        },
        "ad_info": {
            "adcode": 340503,
            "province": "安徽省",
            "city": "马鞍山市",
            "district": "花山区"
        }
    },
    {
        "id": "14227491641359023877",
        "title": "公共厕所",
        "address": "安徽省马鞍山市含山县东关路与白石路交叉口正北方向1793米左右",
        "tel": "",
        "category": "基础设施:公共设施:公共厕所",
        "type": 0,
        "location": {
            "lat": 31.517055,
            "lng": 117.977268
        },
        "ad_info": {
            "adcode": 340522,
            "province": "安徽省",
            "city": "马鞍山市",
            "district": "含山县"
        }
    },
    {
        "id": "14409316509879341061",
        "title": "公共厕所",
        "address": "安徽省马鞍山市花山区木易建材厂东北侧110米",
        "tel": "",
        "category": "基础设施:公共设施:公共厕所",
        "type": 0,
        "location": {
            "lat": 31.745724,
            "lng": 118.622451
        },
        "ad_info": {
            "adcode": 340503,
            "province": "安徽省",
            "city": "马鞍山市",
            "district": "花山区"
        }
    },
    {
        "id": "13074900271319736516",
        "title": "洗手间",
        "address": "安徽省马鞍山市雨山区太白大道3200号万达广场B2",
        "tel": "",
        "category": "基础设施:公共设施:公共厕所",
        "type": 0,
        "location": {
            "lat": 31.658055,
            "lng": 118.506285
        },
        "ad_info": {
            "adcode": 340504,
            "province": "安徽省",
            "city": "马鞍山市",
            "district": "雨山区"
        }
    },
    {
        "id": "4404065359141778005",
        "title": "公共厕所",
        "address": "安徽省马鞍山市雨山区红旗南路与青山路交叉口正东方向78米左右",
        "tel": "",
        "category": "基础设施:公共设施:公共厕所",
        "type": 0,
        "location": {
            "lat": 31.635072,
            "lng": 118.489917
        },
        "ad_info": {
            "adcode": 340504,
            "province": "安徽省",
            "city": "马鞍山市",
            "district": "雨山区"
        }
    },
    {
        "id": "1928940096246775692",
        "title": "公共厕所",
        "address": "安徽省马鞍山市花山区江东大道中段与江东大道北段交叉口西北方向103米左右",
        "tel": "",
        "category": "基础设施:公共设施:公共厕所",
        "type": 0,
        "location": {
            "lat": 31.685172,
            "lng": 118.522912
        },
        "ad_info": {
            "adcode": 340503,
            "province": "安徽省",
            "city": "马鞍山市",
            "district": "花山区"
        }
    },
    {
        "id": "1405847339159278227",
        "title": "公共厕所",
        "address": "安徽省马鞍山市含山县华阳路与环峰路交叉口东南方向273米左右",
        "tel": "",
        "category": "基础设施:公共设施:公共厕所",
        "type": 0,
        "location": {
            "lat": 31.721851,
            "lng": 118.110969
        },
        "ad_info": {
            "adcode": 340522,
            "province": "安徽省",
            "city": "马鞍山市",
            "district": "含山县"
        }
    },
    {
        "id": "8775996617828101002",
        "title": "公共厕所",
        "address": "安徽省马鞍山市花山区天宝路与雨山东路交叉口正东方向258米左右",
        "tel": "",
        "category": "基础设施:公共设施:公共厕所",
        "type": 0,
        "location": {
            "lat": 31.672061,
            "lng": 118.541781
        },
        "ad_info": {
            "adcode": 340503,
            "province": "安徽省",
            "city": "马鞍山市",
            "district": "花山区"
        }
    },
    {
        "id": "4524738561414736503",
        "title": "洗手间",
        "address": "安徽省马鞍山市雨山区太白大道3200号万达广场F4",
        "tel": "",
        "category": "基础设施:公共设施:公共厕所",
        "type": 0,
        "location": {
            "lat": 31.660192,
            "lng": 118.505167
        },
        "ad_info": {
            "adcode": 340504,
            "province": "安徽省",
            "city": "马鞍山市",
            "district": "雨山区"
        }
    },
    {
        "id": "2550853509315108375",
        "title": "男洗手间",
        "address": "安徽省马鞍山市花山区湖南西路8号金鹰国际购物中心F6",
        "tel": "",
        "category": "基础设施:公共设施:男洗手间",
        "type": 0,
        "location": {
            "lat": 31.685327,
            "lng": 118.509724
        },
        "ad_info": {
            "adcode": 340503,
            "province": "安徽省",
            "city": "马鞍山市",
            "district": "花山区"
        }
    },
    {
        "id": "9811781739698189739",
        "title": "公共厕所",
        "address": "安徽省马鞍山市雨山区永庆路与雨园路交叉口东南方向67米左右",
        "tel": "",
        "category": "基础设施:公共设施:公共厕所",
        "type": 0,
        "location": {
            "lat": 31.669741,
            "lng": 118.481924
        },
        "ad_info": {
            "adcode": 340504,
            "province": "安徽省",
            "city": "马鞍山市",
            "district": "雨山区"
        }
    },
    {
        "id": "7908187641374327172",
        "title": "公共厕所",
        "address": "安徽省马鞍山市雨山区陶庄路与雨山西路交叉口东北方向237米左右",
        "tel": "",
        "category": "基础设施:公共设施:公共厕所",
        "type": 0,
        "location": {
            "lat": 31.678266,
            "lng": 118.478187
        },
        "ad_info": {
            "adcode": 340504,
            "province": "安徽省",
            "city": "马鞍山市",
            "district": "雨山区"
        }
    },
    {
        "id": "16512340108871666234",
        "title": "公共厕所",
        "address": "安徽省马鞍山市博望区新合路与新沙路交叉口正西方向138米左右",
        "tel": "",
        "category": "基础设施:公共设施:公共厕所",
        "type": 0,
        "location": {
            "lat": 31.556168,
            "lng": 118.80053
        },
        "ad_info": {
            "adcode": 340506,
            "province": "安徽省",
            "city": "马鞍山市",
            "district": "博望区"
        }
    },
    {
        "id": "1132129364172963632",
        "title": "公共厕所",
        "address": "安徽省马鞍山市当涂县行春中路与青莲中路交叉口正南方向185米左右",
        "tel": "",
        "category": "基础设施:公共设施:公共厕所",
        "type": 0,
        "location": {
            "lat": 31.561248,
            "lng": 118.497903
        },
        "ad_info": {
            "adcode": 340521,
            "province": "安徽省",
            "city": "马鞍山市",
            "district": "当涂县"
        }
    },
    {
        "id": "2180679121037795468",
        "title": "厕所",
        "address": "安徽省马鞍山市含山县朝阳路与褒禅山路交叉口正北方向85米左右",
        "tel": "",
        "category": "基础设施:公共设施:公共厕所",
        "type": 0,
        "location": {
            "lat": 31.737398,
            "lng": 118.11359
        },
        "ad_info": {
            "adcode": 340522,
            "province": "安徽省",
            "city": "马鞍山市",
            "district": "含山县"
        }
    },
    {
        "id": "15833625888655537594",
        "title": "洗手间",
        "address": "安徽省马鞍山市雨山区太白大道3200号万达广场B1",
        "tel": "",
        "category": "基础设施:公共设施:公共厕所",
        "type": 0,
        "location": {
            "lat": 31.659995,
            "lng": 118.505807
        },
        "ad_info": {
            "adcode": 340504,
            "province": "安徽省",
            "city": "马鞍山市",
            "district": "雨山区"
        }
    },
    {
        "id": "9778616276772626412",
        "title": "公共厕所",
        "address": "安徽省马鞍山市花山区体育路与山湖路交叉口正东方向119米左右",
        "tel": "",
        "category": "基础设施:公共设施:公共厕所",
        "type": 0,
        "location": {
            "lat": 31.68401,
            "lng": 118.565136
        },
        "ad_info": {
            "adcode": 340503,
            "province": "安徽省",
            "city": "马鞍山市",
            "district": "花山区"
        }
    },
    {
        "id": "8796866515743380247",
        "title": "洗手间",
        "address": "安徽省马鞍山市雨山区太白大道3200号万达广场B2",
        "tel": "",
        "category": "基础设施:公共设施:公共厕所",
        "type": 0,
        "location": {
            "lat": 31.656594,
            "lng": 118.505315
        },
        "ad_info": {
            "adcode": 340504,
            "province": "安徽省",
            "city": "马鞍山市",
            "district": "雨山区"
        }
    },
    {
        "id": "6017625790755768449",
        "title": "公共厕所",
        "address": "安徽省马鞍山市含山县松亭巷与环峰西路交叉口东南方向80米左右",
        "tel": "",
        "category": "基础设施:公共设施:公共厕所",
        "type": 0,
        "location": {
            "lat": 31.719115,
            "lng": 118.104958
        },
        "ad_info": {
            "adcode": 340522,
            "province": "安徽省",
            "city": "马鞍山市",
            "district": "含山县"
        }
    },
    {
        "id": "14686373274877233736",
        "title": "公共厕所",
        "address": "安徽省马鞍山市花山区天门大道与慈湖路交叉口正南方向137米左右",
        "tel": "",
        "category": "基础设施:公共设施:公共厕所",
        "type": 0,
        "location": {
            "lat": 31.735497,
            "lng": 118.514959
        },
        "ad_info": {
            "adcode": 340503,
            "province": "安徽省",
            "city": "马鞍山市",
            "district": "花山区"
        }
    },
    {
        "id": "15906728253006466012",
        "title": "女洗手间",
        "address": "安徽省马鞍山市花山区湖南西路8号金鹰国际购物中心F2",
        "tel": "",
        "category": "基础设施:公共设施:女洗手间",
        "type": 0,
        "location": {
            "lat": 31.685596,
            "lng": 118.508514
        },
        "ad_info": {
            "adcode": 340503,
            "province": "安徽省",
            "city": "马鞍山市",
            "district": "花山区"
        }
    },
    {
        "id": "14227491641359023877",
        "title": "公共厕所",
        "address": "安徽省马鞍山市含山县东关路与白石路交叉口正北方向1793米左右",
        "tel": "",
        "category": "基础设施:公共设施:公共厕所",
        "type": 0,
        "location": {
            "lat": 31.517055,
            "lng": 117.977268
        },
        "ad_info": {
            "adcode": 340522,
            "province": "安徽省",
            "city": "马鞍山市",
            "district": "含山县"
        }
    },
    {
        "id": "14409316509879341061",
        "title": "公共厕所",
        "address": "安徽省马鞍山市花山区木易建材厂东北侧110米",
        "tel": "",
        "category": "基础设施:公共设施:公共厕所",
        "type": 0,
        "location": {
            "lat": 31.745724,
            "lng": 118.622451
        },
        "ad_info": {
            "adcode": 340503,
            "province": "安徽省",
            "city": "马鞍山市",
            "district": "花山区"
        }
    },
    {
        "id": "13074900271319736516",
        "title": "洗手间",
        "address": "安徽省马鞍山市雨山区太白大道3200号万达广场B2",
        "tel": "",
        "category": "基础设施:公共设施:公共厕所",
        "type": 0,
        "location": {
            "lat": 31.658055,
            "lng": 118.506285
        },
        "ad_info": {
            "adcode": 340504,
            "province": "安徽省",
            "city": "马鞍山市",
            "district": "雨山区"
        }
    },
    {
        "id": "4404065359141778005",
        "title": "公共厕所",
        "address": "安徽省马鞍山市雨山区红旗南路与青山路交叉口正东方向78米左右",
        "tel": "",
        "category": "基础设施:公共设施:公共厕所",
        "type": 0,
        "location": {
            "lat": 31.635072,
            "lng": 118.489917
        },
        "ad_info": {
            "adcode": 340504,
            "province": "安徽省",
            "city": "马鞍山市",
            "district": "雨山区"
        }
    },
    {
        "id": "1928940096246775692",
        "title": "公共厕所",
        "address": "安徽省马鞍山市花山区江东大道中段与江东大道北段交叉口西北方向103米左右",
        "tel": "",
        "category": "基础设施:公共设施:公共厕所",
        "type": 0,
        "location": {
            "lat": 31.685172,
            "lng": 118.522912
        },
        "ad_info": {
            "adcode": 340503,
            "province": "安徽省",
            "city": "马鞍山市",
            "district": "花山区"
        }
    },
    {
        "id": "1405847339159278227",
        "title": "公共厕所",
        "address": "安徽省马鞍山市含山县华阳路与环峰路交叉口东南方向273米左右",
        "tel": "",
        "category": "基础设施:公共设施:公共厕所",
        "type": 0,
        "location": {
            "lat": 31.721851,
            "lng": 118.110969
        },
        "ad_info": {
            "adcode": 340522,
            "province": "安徽省",
            "city": "马鞍山市",
            "district": "含山县"
        }
    },
    {
        "id": "8775996617828101002",
        "title": "公共厕所",
        "address": "安徽省马鞍山市花山区天宝路与雨山东路交叉口正东方向258米左右",
        "tel": "",
        "category": "基础设施:公共设施:公共厕所",
        "type": 0,
        "location": {
            "lat": 31.672061,
            "lng": 118.541781
        },
        "ad_info": {
            "adcode": 340503,
            "province": "安徽省",
            "city": "马鞍山市",
            "district": "花山区"
        }
    },
    {
        "id": "4524738561414736503",
        "title": "洗手间",
        "address": "安徽省马鞍山市雨山区太白大道3200号万达广场F4",
        "tel": "",
        "category": "基础设施:公共设施:公共厕所",
        "type": 0,
        "location": {
            "lat": 31.660192,
            "lng": 118.505167
        },
        "ad_info": {
            "adcode": 340504,
            "province": "安徽省",
            "city": "马鞍山市",
            "district": "雨山区"
        }
    },
    {
        "id": "2550853509315108375",
        "title": "男洗手间",
        "address": "安徽省马鞍山市花山区湖南西路8号金鹰国际购物中心F6",
        "tel": "",
        "category": "基础设施:公共设施:男洗手间",
        "type": 0,
        "location": {
            "lat": 31.685327,
            "lng": 118.509724
        },
        "ad_info": {
            "adcode": 340503,
            "province": "安徽省",
            "city": "马鞍山市",
            "district": "花山区"
        }
    },
    {
        "id": "9811781739698189739",
        "title": "公共厕所",
        "address": "安徽省马鞍山市雨山区永庆路与雨园路交叉口东南方向67米左右",
        "tel": "",
        "category": "基础设施:公共设施:公共厕所",
        "type": 0,
        "location": {
            "lat": 31.669741,
            "lng": 118.481924
        },
        "ad_info": {
            "adcode": 340504,
            "province": "安徽省",
            "city": "马鞍山市",
            "district": "雨山区"
        }
    },
    {
        "id": "7908187641374327172",
        "title": "公共厕所",
        "address": "安徽省马鞍山市雨山区陶庄路与雨山西路交叉口东北方向237米左右",
        "tel": "",
        "category": "基础设施:公共设施:公共厕所",
        "type": 0,
        "location": {
            "lat": 31.678266,
            "lng": 118.478187
        },
        "ad_info": {
            "adcode": 340504,
            "province": "安徽省",
            "city": "马鞍山市",
            "district": "雨山区"
        }
    },
    {
        "id": "16512340108871666234",
        "title": "公共厕所",
        "address": "安徽省马鞍山市博望区新合路与新沙路交叉口正西方向138米左右",
        "tel": "",
        "category": "基础设施:公共设施:公共厕所",
        "type": 0,
        "location": {
            "lat": 31.556168,
            "lng": 118.80053
        },
        "ad_info": {
            "adcode": 340506,
            "province": "安徽省",
            "city": "马鞍山市",
            "district": "博望区"
        }
    },
    {
        "id": "1132129364172963632",
        "title": "公共厕所",
        "address": "安徽省马鞍山市当涂县行春中路与青莲中路交叉口正南方向185米左右",
        "tel": "",
        "category": "基础设施:公共设施:公共厕所",
        "type": 0,
        "location": {
            "lat": 31.561248,
            "lng": 118.497903
        },
        "ad_info": {
            "adcode": 340521,
            "province": "安徽省",
            "city": "马鞍山市",
            "district": "当涂县"
        }
    },
    {
        "id": "2180679121037795468",
        "title": "厕所",
        "address": "安徽省马鞍山市含山县朝阳路与褒禅山路交叉口正北方向85米左右",
        "tel": "",
        "category": "基础设施:公共设施:公共厕所",
        "type": 0,
        "location": {
            "lat": 31.737398,
            "lng": 118.11359
        },
        "ad_info": {
            "adcode": 340522,
            "province": "安徽省",
            "city": "马鞍山市",
            "district": "含山县"
        }
    },
    {
        "id": "15833625888655537594",
        "title": "洗手间",
        "address": "安徽省马鞍山市雨山区太白大道3200号万达广场B1",
        "tel": "",
        "category": "基础设施:公共设施:公共厕所",
        "type": 0,
        "location": {
            "lat": 31.659995,
            "lng": 118.505807
        },
        "ad_info": {
            "adcode": 340504,
            "province": "安徽省",
            "city": "马鞍山市",
            "district": "雨山区"
        }
    },
    {
        "id": "9778616276772626412",
        "title": "公共厕所",
        "address": "安徽省马鞍山市花山区体育路与山湖路交叉口正东方向119米左右",
        "tel": "",
        "category": "基础设施:公共设施:公共厕所",
        "type": 0,
        "location": {
            "lat": 31.68401,
            "lng": 118.565136
        },
        "ad_info": {
            "adcode": 340503,
            "province": "安徽省",
            "city": "马鞍山市",
            "district": "花山区"
        }
    },
    {
        "id": "8796866515743380247",
        "title": "洗手间",
        "address": "安徽省马鞍山市雨山区太白大道3200号万达广场B2",
        "tel": "",
        "category": "基础设施:公共设施:公共厕所",
        "type": 0,
        "location": {
            "lat": 31.656594,
            "lng": 118.505315
        },
        "ad_info": {
            "adcode": 340504,
            "province": "安徽省",
            "city": "马鞍山市",
            "district": "雨山区"
        }
    },
    {
        "id": "6017625790755768449",
        "title": "公共厕所",
        "address": "安徽省马鞍山市含山县松亭巷与环峰西路交叉口东南方向80米左右",
        "tel": "",
        "category": "基础设施:公共设施:公共厕所",
        "type": 0,
        "location": {
            "lat": 31.719115,
            "lng": 118.104958
        },
        "ad_info": {
            "adcode": 340522,
            "province": "安徽省",
            "city": "马鞍山市",
            "district": "含山县"
        }
    },
    {
        "id": "14686373274877233736",
        "title": "公共厕所",
        "address": "安徽省马鞍山市花山区天门大道与慈湖路交叉口正南方向137米左右",
        "tel": "",
        "category": "基础设施:公共设施:公共厕所",
        "type": 0,
        "location": {
            "lat": 31.735497,
            "lng": 118.514959
        },
        "ad_info": {
            "adcode": 340503,
            "province": "安徽省",
            "city": "马鞍山市",
            "district": "花山区"
        }
    },
    {
        "id": "15906728253006466012",
        "title": "女洗手间",
        "address": "安徽省马鞍山市花山区湖南西路8号金鹰国际购物中心F2",
        "tel": "",
        "category": "基础设施:公共设施:女洗手间",
        "type": 0,
        "location": {
            "lat": 31.685596,
            "lng": 118.508514
        },
        "ad_info": {
            "adcode": 340503,
            "province": "安徽省",
            "city": "马鞍山市",
            "district": "花山区"
        }
    },
    {
        "id": "14227491641359023877",
        "title": "公共厕所",
        "address": "安徽省马鞍山市含山县东关路与白石路交叉口正北方向1793米左右",
        "tel": "",
        "category": "基础设施:公共设施:公共厕所",
        "type": 0,
        "location": {
            "lat": 31.517055,
            "lng": 117.977268
        },
        "ad_info": {
            "adcode": 340522,
            "province": "安徽省",
            "city": "马鞍山市",
            "district": "含山县"
        }
    },
    {
        "id": "14409316509879341061",
        "title": "公共厕所",
        "address": "安徽省马鞍山市花山区木易建材厂东北侧110米",
        "tel": "",
        "category": "基础设施:公共设施:公共厕所",
        "type": 0,
        "location": {
            "lat": 31.745724,
            "lng": 118.622451
        },
        "ad_info": {
            "adcode": 340503,
            "province": "安徽省",
            "city": "马鞍山市",
            "district": "花山区"
        }
    },
    {
        "id": "13074900271319736516",
        "title": "洗手间",
        "address": "安徽省马鞍山市雨山区太白大道3200号万达广场B2",
        "tel": "",
        "category": "基础设施:公共设施:公共厕所",
        "type": 0,
        "location": {
            "lat": 31.658055,
            "lng": 118.506285
        },
        "ad_info": {
            "adcode": 340504,
            "province": "安徽省",
            "city": "马鞍山市",
            "district": "雨山区"
        }
    },
    {
        "id": "4404065359141778005",
        "title": "公共厕所",
        "address": "安徽省马鞍山市雨山区红旗南路与青山路交叉口正东方向78米左右",
        "tel": "",
        "category": "基础设施:公共设施:公共厕所",
        "type": 0,
        "location": {
            "lat": 31.635072,
            "lng": 118.489917
        },
        "ad_info": {
            "adcode": 340504,
            "province": "安徽省",
            "city": "马鞍山市",
            "district": "雨山区"
        }
    },
    {
        "id": "1928940096246775692",
        "title": "公共厕所",
        "address": "安徽省马鞍山市花山区江东大道中段与江东大道北段交叉口西北方向103米左右",
        "tel": "",
        "category": "基础设施:公共设施:公共厕所",
        "type": 0,
        "location": {
            "lat": 31.685172,
            "lng": 118.522912
        },
        "ad_info": {
            "adcode": 340503,
            "province": "安徽省",
            "city": "马鞍山市",
            "district": "花山区"
        }
    },
    {
        "id": "1405847339159278227",
        "title": "公共厕所",
        "address": "安徽省马鞍山市含山县华阳路与环峰路交叉口东南方向273米左右",
        "tel": "",
        "category": "基础设施:公共设施:公共厕所",
        "type": 0,
        "location": {
            "lat": 31.721851,
            "lng": 118.110969
        },
        "ad_info": {
            "adcode": 340522,
            "province": "安徽省",
            "city": "马鞍山市",
            "district": "含山县"
        }
    }
]