[
    {
        "id": "14069327718587501043",
        "title": "公共厕所",
        "address": "黑龙江省鸡西市鸡冠区康乐街与康新路交叉口正南方向48米左右",
        "tel": "",
        "category": "基础设施:公共设施:公共厕所",
        "type": 0,
        "location": {
            "lat": 45.293042,
            "lng": 130.956571
        },
        "ad_info": {
            "adcode": 230302,
            "province": "黑龙江省",
            "city": "鸡西市",
            "district": "鸡冠区"
        }
    },
    {
        "id": "14076340272076383253",
        "title": "公共厕所",
        "address": "黑龙江省鸡西市鸡冠区沿河南路与跃进街交叉口东北方向14米左右",
        "tel": "",
        "category": "基础设施:公共设施:公共厕所",
        "type": 0,
        "location": {
            "lat": 45.290482,
            "lng": 130.969348
        },
        "ad_info": {
            "adcode": 230302,
            "province": "黑龙江省",
            "city": "鸡西市",
            "district": "鸡冠区"
        }
    },
    {
        "id": "9956157666733863936",
        "title": "公共厕所",
        "address": "黑龙江省鸡西市鸡冠区新兴路与红胜街交叉口正北方向190米左右",
        "tel": "",
        "category": "基础设施:公共设施:公共厕所",
        "type": 0,
        "location": {
            "lat": 45.291067,
            "lng": 130.956631
        },
        "ad_info": {
            "adcode": 230302,
            "province": "黑龙江省",
            "city": "鸡西市",
            "district": "鸡冠区"
        }
    },
    {
        "id": "13347032182542763462",
        "title": "公共厕所",
        "address": "黑龙江省鸡西市鸡冠区新兴路与长征街交叉口西北方向42米左右",
        "tel": "",
        "category": "基础设施:公共设施:公共厕所",
        "type": 0,
        "location": {
            "lat": 45.298062,
            "lng": 130.938998
        },
        "ad_info": {
            "adcode": 230302,
            "province": "黑龙江省",
            "city": "鸡西市",
            "district": "鸡冠区"
        }
    },
    {
        "id": "16339920347579215904",
        "title": "公共厕所",
        "address": "黑龙江省鸡西市鸡冠区兴国中路与腾飞桥交叉口东南方向38米左右",
        "tel": "",
        "category": "基础设施:公共设施:公共厕所",
        "type": 0,
        "location": {
            "lat": 45.307469,
            "lng": 130.974337
        },
        "ad_info": {
            "adcode": 230302,
            "province": "黑龙江省",
            "city": "鸡西市",
            "district": "鸡冠区"
        }
    },
    {
        "id": "14633462791013721507",
        "title": "公共厕所",
        "address": "黑龙江省鸡西市密山市穆棱街68号",
        "tel": "",
        "category": "基础设施:公共设施:公共厕所",
        "type": 0,
        "location": {
            "lat": 45.542623,
            "lng": 131.87239
        },
        "ad_info": {
            "adcode": 230382,
            "province": "黑龙江省",
            "city": "鸡西市",
            "district": "密山市"
        }
    },
    {
        "id": "10424952154058315975",
        "title": "公共厕所",
        "address": "黑龙江省鸡西市虎林市安乐东路与建设西街交叉口正南方向91米左右",
        "tel": "",
        "category": "基础设施:公共设施:公共厕所",
        "type": 0,
        "location": {
            "lat": 45.76802,
            "lng": 132.964154
        },
        "ad_info": {
            "adcode": 230381,
            "province": "黑龙江省",
            "city": "鸡西市",
            "district": "虎林市"
        }
    },
    {
        "id": "3759300028123720803",
        "title": "公共厕所",
        "address": "黑龙江省鸡西市鸡东县中心大街与红星路交叉口东北方向115米左右",
        "tel": "",
        "category": "基础设施:公共设施:公共厕所",
        "type": 0,
        "location": {
            "lat": 45.260659,
            "lng": 131.136015
        },
        "ad_info": {
            "adcode": 230321,
            "province": "黑龙江省",
            "city": "鸡西市",
            "district": "鸡东县"
        }
    },
    {
        "id": "18065719059982245042",
        "title": "公共厕所",
        "address": "黑龙江省鸡西市鸡冠区富强路与西胜街交叉口正东方向239米左右",
        "tel": "",
        "category": "基础设施:公共设施:公共厕所",
        "type": 0,
        "location": {
            "lat": 45.305964,
            "lng": 130.962233
        },
        "ad_info": {
            "adcode": 230302,
            "province": "黑龙江省",
            "city": "鸡西市",
            "district": "鸡冠区"
        }
    },
    {
        "id": "13489243536264339627",
        "title": "公共厕所",
        "address": "黑龙江省鸡西市鸡冠区和平北大街与娱乐北街交叉口正西方向15米左右",
        "tel": "",
        "category": "基础设施:公共设施:公共厕所",
        "type": 0,
        "location": {
            "lat": 45.296499,
            "lng": 130.967821
        },
        "ad_info": {
            "adcode": 230302,
            "province": "黑龙江省",
            "city": "鸡西市",
            "district": "鸡冠区"
        }
    },
    {
        "id": "388162353430666377",
        "title": "公共厕所",
        "address": "黑龙江省鸡西市鸡冠区和平北大街园林小区",
        "tel": "",
        "category": "基础设施:公共设施:公共厕所",
        "type": 0,
        "location": {
            "lat": 45.303176,
            "lng": 130.976947
        },
        "ad_info": {
            "adcode": 230302,
            "province": "黑龙江省",
            "city": "鸡西市",
            "district": "鸡冠区"
        }
    },
    {
        "id": "15261444553384065173",
        "title": "公共厕所",
        "address": "黑龙江省鸡西市虎林市安乐路与爱民西街交叉口正南方向43米左右",
        "tel": "",
        "category": "基础设施:公共设施:公共厕所",
        "type": 0,
        "location": {
            "lat": 45.770286,
            "lng": 132.962647
        },
        "ad_info": {
            "adcode": 230381,
            "province": "黑龙江省",
            "city": "鸡西市",
            "district": "虎林市"
        }
    },
    {
        "id": "6564495686808814933",
        "title": "公共厕所",
        "address": "黑龙江省鸡西市鸡冠区新华街与祥光路交叉口正西方向56米左右",
        "tel": "",
        "category": "基础设施:公共设施:公共厕所",
        "type": 0,
        "location": {
            "lat": 45.307194,
            "lng": 130.980394
        },
        "ad_info": {
            "adcode": 230302,
            "province": "黑龙江省",
            "city": "鸡西市",
            "district": "鸡冠区"
        }
    },
    {
        "id": "9085821888821167069",
        "title": "公共厕所",
        "address": "黑龙江省鸡西市虎林市建设西街与邮政路交叉口正北方向64米左右",
        "tel": "",
        "category": "基础设施:公共设施:公共厕所",
        "type": 0,
        "location": {
            "lat": 45.769325,
            "lng": 132.97288
        },
        "ad_info": {
            "adcode": 230381,
            "province": "黑龙江省",
            "city": "鸡西市",
            "district": "虎林市"
        }
    },
    {
        "id": "11515783703516410832",
        "title": "公共厕所",
        "address": "黑龙江省鸡西市鸡冠区红军路与鸿雁西街交叉口东南方向27米左右",
        "tel": "",
        "category": "基础设施:公共设施:公共厕所",
        "type": 0,
        "location": {
            "lat": 45.305763,
            "lng": 130.981986
        },
        "ad_info": {
            "adcode": 230302,
            "province": "黑龙江省",
            "city": "鸡西市",
            "district": "鸡冠区"
        }
    },
    {
        "id": "13820527122082721230",
        "title": "公共厕所",
        "address": "黑龙江省鸡西市鸡冠区东山街与向东路交叉口东南方向112米左右",
        "tel": "",
        "category": "基础设施:公共设施:公共厕所",
        "type": 0,
        "location": {
            "lat": 45.287826,
            "lng": 130.980408
        },
        "ad_info": {
            "adcode": 230302,
            "province": "黑龙江省",
            "city": "鸡西市",
            "district": "鸡冠区"
        }
    },
    {
        "id": "8120690605427769085",
        "title": "公共厕所",
        "address": "黑龙江省鸡西市鸡冠区万达路与中心大街交叉口东南方向46米左右",
        "tel": "",
        "category": "基础设施:公共设施:公共厕所",
        "type": 0,
        "location": {
            "lat": 45.30565,
            "lng": 130.988958
        },
        "ad_info": {
            "adcode": 230302,
            "province": "黑龙江省",
            "city": "鸡西市",
            "district": "鸡冠区"
        }
    },
    {
        "id": "12346103339913962624",
        "title": "公共厕所",
        "address": "黑龙江省鸡西市鸡东县中心大街与银峰大街交叉口正北方向335米左右",
        "tel": "",
        "category": "基础设施:公共设施:公共厕所",
        "type": 0,
        "location": {
            "lat": 45.264435,
            "lng": 131.131388
        },
        "ad_info": {
            "adcode": 230321,
            "province": "黑龙江省",
            "city": "鸡西市",
            "district": "鸡东县"
        }
    },
    {
        "id": "15944348980925881958",
        "title": "公共厕所",
        "address": "黑龙江省鸡西市鸡冠区兴国东路与兴旺巷交叉口正东方向240米左右",
        "tel": "",
        "category": "基础设施:公共设施:公共厕所",
        "type": 0,
        "location": {
            "lat": 45.296041,
            "lng": 131.005404
        },
        "ad_info": {
            "adcode": 230302,
            "province": "黑龙江省",
            "city": "鸡西市",
            "district": "鸡冠区"
        }
    },
    {
        "id": "745187262092152613",
        "title": "公共厕所",
        "address": "黑龙江省鸡西市鸡冠区永昌路与鸿雁街交叉口东南方向57米左右",
        "tel": "",
        "category": "基础设施:公共设施:公共厕所",
        "type": 0,
        "location": {
            "lat": 45.304339,
            "lng": 130.983078
        },
        "ad_info": {
            "adcode": 230302,
            "province": "黑龙江省",
            "city": "鸡西市",
            "district": "鸡冠区"
        }
    },
    {
        "id": "13631415962843981624",
        "title": "公共厕所",
        "address": "黑龙江省鸡西市虎林市安居路与爱民西街交叉口正北方向87米左右",
        "tel": "",
        "category": "基础设施:公共设施:公共厕所",
        "type": 0,
        "location": {
            "lat": 45.771462,
            "lng": 132.969573
        },
        "ad_info": {
            "adcode": 230381,
            "province": "黑龙江省",
            "city": "鸡西市",
            "district": "虎林市"
        }
    },
    {
        "id": "9897208033853572466",
        "title": "公共厕所",
        "address": "黑龙江省鸡西市虎林市保健街与市场路交叉口正南方向108米左右",
        "tel": "",
        "category": "基础设施:公共设施:公共厕所",
        "type": 0,
        "location": {
            "lat": 45.772426,
            "lng": 132.97955
        },
        "ad_info": {
            "adcode": 230381,
            "province": "黑龙江省",
            "city": "鸡西市",
            "district": "虎林市"
        }
    },
    {
        "id": "416181345392668435",
        "title": "公共厕所",
        "address": "黑龙江省鸡西市鸡冠区休闲街与兴国中路交叉口西南方向132米左右",
        "tel": "",
        "category": "基础设施:公共设施:公共厕所",
        "type": 0,
        "location": {
            "lat": 45.308208,
            "lng": 130.970822
        },
        "ad_info": {
            "adcode": 230302,
            "province": "黑龙江省",
            "city": "鸡西市",
            "district": "鸡冠区"
        }
    },
    {
        "id": "3808549856275603275",
        "title": "公共厕所",
        "address": "黑龙江省鸡西市鸡冠区康乐街与康乐西街交叉口东南方向50米左右",
        "tel": "",
        "category": "基础设施:公共设施:公共厕所",
        "type": 0,
        "location": {
            "lat": 45.293182,
            "lng": 130.963359
        },
        "ad_info": {
            "adcode": 230302,
            "province": "黑龙江省",
            "city": "鸡西市",
            "district": "鸡冠区"
        }
    },
    {
        "id": "12205795380549352189",
        "title": "公共厕所",
        "address": "黑龙江省鸡西市鸡东县蓝天名苑北侧190米",
        "tel": "",
        "category": "基础设施:公共设施:公共厕所",
        "type": 0,
        "location": {
            "lat": 45.258321,
            "lng": 131.151416
        },
        "ad_info": {
            "adcode": 230321,
            "province": "黑龙江省",
            "city": "鸡西市",
            "district": "鸡东县"
        }
    },
    {
        "id": "3576302472468447891",
        "title": "公共厕所",
        "address": "黑龙江省鸡西市密山市穆棱街与邮电路交叉口西北方向190米左右",
        "tel": "",
        "category": "基础设施:公共设施:公共厕所",
        "type": 0,
        "location": {
            "lat": 45.546999,
            "lng": 131.881564
        },
        "ad_info": {
            "adcode": 230382,
            "province": "黑龙江省",
            "city": "鸡西市",
            "district": "密山市"
        }
    },
    {
        "id": "17142581727188678609",
        "title": "公共厕所",
        "address": "黑龙江省鸡西市密山市光复路与光明街交叉口正南方向173米左右",
        "tel": "",
        "category": "基础设施:公共设施:公共厕所",
        "type": 0,
        "location": {
            "lat": 45.536834,
            "lng": 131.87668
        },
        "ad_info": {
            "adcode": 230382,
            "province": "黑龙江省",
            "city": "鸡西市",
            "district": "密山市"
        }
    },
    {
        "id": "4844329956473884544",
        "title": "公共厕所",
        "address": "黑龙江省鸡西市麻山区中兴路与中心街交叉口西北方向115米左右",
        "tel": "",
        "category": "基础设施:公共设施:公共厕所",
        "type": 0,
        "location": {
            "lat": 45.20983,
            "lng": 130.480012
        },
        "ad_info": {
            "adcode": 230307,
            "province": "黑龙江省",
            "city": "鸡西市",
            "district": "麻山区"
        }
    },
    {
        "id": "13879011617950967635",
        "title": "公共厕所",
        "address": "黑龙江省鸡西市虎林市吉庆路与安兴大街交叉口正西方向205米左右",
        "tel": "",
        "category": "基础设施:公共设施:公共厕所",
        "type": 0,
        "location": {
            "lat": 45.718055,
            "lng": 133.324773
        },
        "ad_info": {
            "adcode": 230381,
            "province": "黑龙江省",
            "city": "鸡西市",
            "district": "虎林市"
        }
    },
    {
        "id": "13689314014941018969",
        "title": "公共厕所",
        "address": "黑龙江省鸡西市滴道区G201与建华路交叉口正西方向212米左右",
        "tel": "",
        "category": "基础设施:公共设施:公共厕所",
        "type": 0,
        "location": {
            "lat": 45.346904,
            "lng": 130.826969
        },
        "ad_info": {
            "adcode": 230304,
            "province": "黑龙江省",
            "city": "鸡西市",
            "district": "滴道区"
        }
    },
    {
        "id": "17630259491433373415",
        "title": "公共厕所",
        "address": "黑龙江省鸡西市鸡东县凤凰大道与双凤路交叉口西北方向110米左右",
        "tel": "",
        "category": "基础设施:公共设施:公共厕所",
        "type": 0,
        "location": {
            "lat": 45.040988,
            "lng": 131.202392
        },
        "ad_info": {
            "adcode": 230321,
            "province": "黑龙江省",
            "city": "鸡西市",
            "district": "鸡东县"
        }
    },
    {
        "id": "18079021392402389389",
        "title": "公共厕所",
        "address": "黑龙江省鸡西市虎林市建设西街与红旗路交叉口正北方向41米左右",
        "tel": "",
        "category": "基础设施:公共设施:公共厕所",
        "type": 0,
        "location": {
            "lat": 45.769107,
            "lng": 132.976053
        },
        "ad_info": {
            "adcode": 230381,
            "province": "黑龙江省",
            "city": "鸡西市",
            "district": "虎林市"
        }
    },
    {
        "id": "12057997700318156518",
        "title": "公共厕所",
        "address": "黑龙江省鸡西市密山市安定路与安民路交叉口正东方向195米左右",
        "tel": "",
        "category": "基础设施:公共设施:公共厕所",
        "type": 0,
        "location": {
            "lat": 45.538596,
            "lng": 131.868001
        },
        "ad_info": {
            "adcode": 230382,
            "province": "黑龙江省",
            "city": "鸡西市",
            "district": "密山市"
        }
    },
    {
        "id": "8959433476927097090",
        "title": "公共厕所",
        "address": "黑龙江省鸡西市鸡冠区园林路园林小区",
        "tel": "",
        "category": "基础设施:公共设施:公共厕所",
        "type": 0,
        "location": {
            "lat": 45.30007,
            "lng": 130.979536
        },
        "ad_info": {
            "adcode": 230302,
            "province": "黑龙江省",
            "city": "鸡西市",
            "district": "鸡冠区"
        }
    },
    {
        "id": "10005861360783089590",
        "title": "公共厕所",
        "address": "黑龙江省鸡西市鸡冠区红军路(新华四号楼)",
        "tel": "",
        "category": "基础设施:公共设施:公共厕所",
        "type": 0,
        "location": {
            "lat": 45.300755,
            "lng": 130.990156
        },
        "ad_info": {
            "adcode": 230302,
            "province": "黑龙江省",
            "city": "鸡西市",
            "district": "鸡冠区"
        }
    },
    {
        "id": "13968372572669717819",
        "title": "公共厕所",
        "address": "黑龙江省鸡西市虎林市X122与Y087交叉口西南方向41米左右",
        "tel": "",
        "category": "基础设施:公共设施:公共厕所",
        "type": 0,
        "location": {
            "lat": 45.76719,
            "lng": 133.011091
        },
        "ad_info": {
            "adcode": 230381,
            "province": "黑龙江省",
            "city": "鸡西市",
            "district": "虎林市"
        }
    },
    {
        "id": "1719115537311709420",
        "title": "公共厕所",
        "address": "黑龙江省鸡西市虎林市211省道与309省道交叉口西北50米",
        "tel": "",
        "category": "基础设施:公共设施:公共厕所",
        "type": 0,
        "location": {
            "lat": 45.989467,
            "lng": 133.667058
        },
        "ad_info": {
            "adcode": 230381,
            "province": "黑龙江省",
            "city": "鸡西市",
            "district": "虎林市"
        }
    },
    {
        "id": "7151252956768682075",
        "title": "公共厕所",
        "address": "黑龙江省鸡西市鸡东县振兴大街与新医圣路交叉口正北方向163米左右",
        "tel": "",
        "category": "基础设施:公共设施:公共厕所",
        "type": 0,
        "location": {
            "lat": 45.249303,
            "lng": 131.161107
        },
        "ad_info": {
            "adcode": 230321,
            "province": "黑龙江省",
            "city": "鸡西市",
            "district": "鸡东县"
        }
    },
    {
        "id": "4668156134518685278",
        "title": "公共厕所",
        "address": "黑龙江省鸡西市虎林市北兴东街和谐小区",
        "tel": "",
        "category": "基础设施:公共设施:公共厕所",
        "type": 0,
        "location": {
            "lat": 45.776795,
            "lng": 132.979515
        },
        "ad_info": {
            "adcode": 230381,
            "province": "黑龙江省",
            "city": "鸡西市",
            "district": "虎林市"
        }
    },
    {
        "id": "11022664006462910066",
        "title": "公共厕所",
        "address": "黑龙江省鸡西市鸡冠区文化路与西园路交叉口正北方向72米左右",
        "tel": "",
        "category": "基础设施:公共设施:公共厕所",
        "type": 0,
        "location": {
            "lat": 45.301451,
            "lng": 130.928872
        },
        "ad_info": {
            "adcode": 230302,
            "province": "黑龙江省",
            "city": "鸡西市",
            "district": "鸡冠区"
        }
    },
    {
        "id": "9875628582312947176",
        "title": "公共卫生间",
        "address": "黑龙江省鸡西市鸡冠区北环路与政祥路交叉口西北方向153米左右",
        "tel": "",
        "category": "基础设施:公共设施:公共厕所",
        "type": 0,
        "location": {
            "lat": 45.310821,
            "lng": 130.982548
        },
        "ad_info": {
            "adcode": 230302,
            "province": "黑龙江省",
            "city": "鸡西市",
            "district": "鸡冠区"
        }
    },
    {
        "id": "8495502343873088386",
        "title": "公共厕所",
        "address": "黑龙江省鸡西市密山市人民大药房北侧杨家面食旁",
        "tel": "",
        "category": "基础设施:公共设施:公共厕所",
        "type": 0,
        "location": {
            "lat": 45.547164,
            "lng": 131.873173
        },
        "ad_info": {
            "adcode": 230382,
            "province": "黑龙江省",
            "city": "鸡西市",
            "district": "密山市"
        }
    },
    {
        "id": "6204109995246099217",
        "title": "公共厕所",
        "address": "黑龙江省鸡西市密山市白云路与长明街交叉口东南方向59米左右",
        "tel": "",
        "category": "基础设施:公共设施:公共厕所",
        "type": 0,
        "location": {
            "lat": 45.548426,
            "lng": 131.878146
        },
        "ad_info": {
            "adcode": 230382,
            "province": "黑龙江省",
            "city": "鸡西市",
            "district": "密山市"
        }
    },
    {
        "id": "16116016100956407483",
        "title": "公共厕所",
        "address": "黑龙江省鸡西市鸡冠区东胜街与北环东路交叉口正南方向277米左右",
        "tel": "",
        "category": "基础设施:公共设施:公共厕所",
        "type": 0,
        "location": {
            "lat": 45.300087,
            "lng": 131.000837
        },
        "ad_info": {
            "adcode": 230302,
            "province": "黑龙江省",
            "city": "鸡西市",
            "district": "鸡冠区"
        }
    },
    {
        "id": "8089684653520392398",
        "title": "公共厕所",
        "address": "黑龙江省鸡西市鸡冠区电工路与鸡密南路交叉口东南方向259米左右",
        "tel": "",
        "category": "基础设施:公共设施:公共厕所",
        "type": 0,
        "location": {
            "lat": 45.29392,
            "lng": 130.99189
        },
        "ad_info": {
            "adcode": 230302,
            "province": "黑龙江省",
            "city": "鸡西市",
            "district": "鸡冠区"
        }
    },
    {
        "id": "7391731312173236828",
        "title": "公共厕所",
        "address": "黑龙江省鸡西市密山市安仁路与长明街交叉口正西方向116米左右",
        "tel": "",
        "category": "基础设施:公共设施:公共厕所",
        "type": 0,
        "location": {
            "lat": 45.541174,
            "lng": 131.861614
        },
        "ad_info": {
            "adcode": 230382,
            "province": "黑龙江省",
            "city": "鸡西市",
            "district": "密山市"
        }
    },
    {
        "id": "14520764421307204537",
        "title": "公共厕所",
        "address": "黑龙江省鸡西市梨树区206省道东50米",
        "tel": "",
        "category": "基础设施:公共设施:公共厕所",
        "type": 0,
        "location": {
            "lat": 45.155642,
            "lng": 130.758998
        },
        "ad_info": {
            "adcode": 230305,
            "province": "黑龙江省",
            "city": "鸡西市",
            "district": "梨树区"
        }
    },
    {
        "id": "3088109627893395730",
        "title": "公共厕所",
        "address": "黑龙江省鸡西市鸡冠区丰泰街与红军路交叉口正西方向53米左右",
        "tel": "",
        "category": "基础设施:公共设施:公共厕所",
        "type": 0,
        "location": {
            "lat": 45.304427,
            "lng": 130.983694
        },
        "ad_info": {
            "adcode": 230302,
            "province": "黑龙江省",
            "city": "鸡西市",
            "district": "鸡冠区"
        }
    },
    {
        "id": "7353041491840253171",
        "title": "公共厕所",
        "address": "黑龙江省鸡西市梨树区东大街鸡西六中",
        "tel": "",
        "category": "基础设施:公共设施:公共厕所",
        "type": 0,
        "location": {
            "lat": 45.094206,
            "lng": 130.702628
        },
        "ad_info": {
            "adcode": 230305,
            "province": "黑龙江省",
            "city": "鸡西市",
            "district": "梨树区"
        }
    },
    {
        "id": "15669146959294141928",
        "title": "公共卫生间",
        "address": "黑龙江省鸡西市鸡东县解放路与银峰大街交叉口西北方向123米左右",
        "tel": "",
        "category": "基础设施:公共设施:公共厕所",
        "type": 0,
        "location": {
            "lat": 45.25856,
            "lng": 131.135714
        },
        "ad_info": {
            "adcode": 230321,
            "province": "黑龙江省",
            "city": "鸡西市",
            "district": "鸡东县"
        }
    },
    {
        "id": "9228820098578710269",
        "title": "公共厕所",
        "address": "黑龙江省鸡西市鸡冠区休闲街与兴国中路交叉口西南方向130米左右",
        "tel": "",
        "category": "基础设施:公共设施:公共厕所",
        "type": 0,
        "location": {
            "lat": 45.308788,
            "lng": 130.970027
        },
        "ad_info": {
            "adcode": 230302,
            "province": "黑龙江省",
            "city": "鸡西市",
            "district": "鸡冠区"
        }
    },
    {
        "id": "5549186233600916595",
        "title": "公共厕所",
        "address": "黑龙江省鸡西市鸡冠区兴国东路与兴国中路交叉口正东方向157米左右",
        "tel": "",
        "category": "基础设施:公共设施:公共厕所",
        "type": 0,
        "location": {
            "lat": 45.29728,
            "lng": 130.99715
        },
        "ad_info": {
            "adcode": 230302,
            "province": "黑龙江省",
            "city": "鸡西市",
            "district": "鸡冠区"
        }
    },
    {
        "id": "16049270071292983471",
        "title": "公共厕所",
        "address": "黑龙江省鸡西市鸡冠区利民路与畔湖街交叉口东北方向41米左右",
        "tel": "",
        "category": "基础设施:公共设施:公共厕所",
        "type": 0,
        "location": {
            "lat": 45.312077,
            "lng": 130.968623
        },
        "ad_info": {
            "adcode": 230302,
            "province": "黑龙江省",
            "city": "鸡西市",
            "district": "鸡冠区"
        }
    },
    {
        "id": "496105465577771128",
        "title": "公共厕所",
        "address": "黑龙江省鸡西市鸡冠区北山路与南星街交叉口西南方向51米左右",
        "tel": "",
        "category": "基础设施:公共设施:公共厕所",
        "type": 0,
        "location": {
            "lat": 45.293645,
            "lng": 130.976778
        },
        "ad_info": {
            "adcode": 230302,
            "province": "黑龙江省",
            "city": "鸡西市",
            "district": "鸡冠区"
        }
    },
    {
        "id": "5421352109343437159",
        "title": "公共厕所",
        "address": "黑龙江省鸡西市密山市新开街与永固路交叉口正西方向683米左右",
        "tel": "",
        "category": "基础设施:公共设施:公共厕所",
        "type": 0,
        "location": {
            "lat": 45.549648,
            "lng": 131.853607
        },
        "ad_info": {
            "adcode": 230382,
            "province": "黑龙江省",
            "city": "鸡西市",
            "district": "密山市"
        }
    },
    {
        "id": "9448268790412890527",
        "title": "公共厕所",
        "address": "黑龙江省鸡西市恒山区中心街与南一路交叉口东南方向77米左右",
        "tel": "",
        "category": "基础设施:公共设施:公共厕所",
        "type": 0,
        "location": {
            "lat": 45.212038,
            "lng": 130.912948
        },
        "ad_info": {
            "adcode": 230303,
            "province": "黑龙江省",
            "city": "鸡西市",
            "district": "恒山区"
        }
    },
    {
        "id": "3993849064720684906",
        "title": "公共厕所",
        "address": "黑龙江省鸡西市虎林市东方红路与森工路交叉口东北方向65米左右",
        "tel": "",
        "category": "基础设施:公共设施:公共厕所",
        "type": 0,
        "location": {
            "lat": 46.205653,
            "lng": 133.096301
        },
        "ad_info": {
            "adcode": 230381,
            "province": "黑龙江省",
            "city": "鸡西市",
            "district": "虎林市"
        }
    },
    {
        "id": "964856364037037461",
        "title": "公共厕所",
        "address": "黑龙江省鸡西市密山市同心路与晨曲街交叉口东南方向907米左右",
        "tel": "",
        "category": "基础设施:公共设施:公共厕所",
        "type": 0,
        "location": {
            "lat": 45.535122,
            "lng": 131.894994
        },
        "ad_info": {
            "adcode": 230382,
            "province": "黑龙江省",
            "city": "鸡西市",
            "district": "密山市"
        }
    },
    {
        "id": "14975101315673427364",
        "title": "公共厕所",
        "address": "黑龙江省鸡西市密山市同心路与晨曲街交叉口东南方向648米左右",
        "tel": "",
        "category": "基础设施:公共设施:公共厕所",
        "type": 0,
        "location": {
            "lat": 45.53746,
            "lng": 131.89396
        },
        "ad_info": {
            "adcode": 230382,
            "province": "黑龙江省",
            "city": "鸡西市",
            "district": "密山市"
        }
    },
    {
        "id": "2503229965978625686",
        "title": "公共厕所",
        "address": "黑龙江省鸡西市密山市民主街与永固路交叉口西南方向166米左右",
        "tel": "",
        "category": "基础设施:公共设施:公共厕所",
        "type": 0,
        "location": {
            "lat": 45.538955,
            "lng": 131.868634
        },
        "ad_info": {
            "adcode": 230382,
            "province": "黑龙江省",
            "city": "鸡西市",
            "district": "密山市"
        }
    },
    {
        "id": "18223707890773343439",
        "title": "公共厕所",
        "address": "黑龙江省鸡西市鸡冠区兴北街与兴国东路交叉口正北方向158米左右",
        "tel": "",
        "category": "基础设施:公共设施:公共厕所",
        "type": 0,
        "location": {
            "lat": 45.295364,
            "lng": 131.01677
        },
        "ad_info": {
            "adcode": 230302,
            "province": "黑龙江省",
            "city": "鸡西市",
            "district": "鸡冠区"
        }
    },
    {
        "id": "14918621062502763226",
        "title": "公共厕所",
        "address": "黑龙江省鸡西市鸡冠区北环东路与北环路交叉口正南方向233米左右",
        "tel": "",
        "category": "基础设施:公共设施:公共厕所",
        "type": 0,
        "location": {
            "lat": 45.296841,
            "lng": 131.022907
        },
        "ad_info": {
            "adcode": 230302,
            "province": "黑龙江省",
            "city": "鸡西市",
            "district": "鸡冠区"
        }
    },
    {
        "id": "12401770368856049719",
        "title": "公共厕所",
        "address": "黑龙江省鸡西市虎林市文化路与铁北街交叉口正西方向52米左右",
        "tel": "",
        "category": "基础设施:公共设施:公共厕所",
        "type": 0,
        "location": {
            "lat": 45.765193,
            "lng": 132.973845
        },
        "ad_info": {
            "adcode": 230381,
            "province": "黑龙江省",
            "city": "鸡西市",
            "district": "虎林市"
        }
    },
    {
        "id": "2721066146734926547",
        "title": "公共厕所",
        "address": "黑龙江省鸡西市恒山区S206与交通街交叉口正东方向101米左右",
        "tel": "",
        "category": "基础设施:公共设施:公共厕所",
        "type": 0,
        "location": {
            "lat": 45.208806,
            "lng": 130.906396
        },
        "ad_info": {
            "adcode": 230303,
            "province": "黑龙江省",
            "city": "鸡西市",
            "district": "恒山区"
        }
    },
    {
        "id": "11317169731346530871",
        "title": "公共厕所",
        "address": "黑龙江省鸡西市密山市G331裴德站",
        "tel": "",
        "category": "基础设施:公共设施:公共厕所",
        "type": 0,
        "location": {
            "lat": 45.637367,
            "lng": 131.903389
        },
        "ad_info": {
            "adcode": 230382,
            "province": "黑龙江省",
            "city": "鸡西市",
            "district": "密山市"
        }
    },
    {
        "id": "2836498885012247787",
        "title": "公共厕所",
        "address": "黑龙江省鸡西市鸡东县G201与Y053交叉口正西方向186米左右",
        "tel": "",
        "category": "基础设施:公共设施:公共厕所",
        "type": 0,
        "location": {
            "lat": 45.499955,
            "lng": 130.948219
        },
        "ad_info": {
            "adcode": 230321,
            "province": "黑龙江省",
            "city": "鸡西市",
            "district": "鸡东县"
        }
    },
    {
        "id": "10737866451377757626",
        "title": "公共厕所",
        "address": "黑龙江省鸡西市鸡东县凤鸣路与彩凤路交叉口正北方向122米左右",
        "tel": "",
        "category": "基础设施:公共设施:公共厕所",
        "type": 0,
        "location": {
            "lat": 45.042289,
            "lng": 131.205157
        },
        "ad_info": {
            "adcode": 230321,
            "province": "黑龙江省",
            "city": "鸡西市",
            "district": "鸡东县"
        }
    },
    {
        "id": "5550259754615191375",
        "title": "公共厕所",
        "address": "黑龙江省鸡西市鸡冠区南山路122号",
        "tel": "",
        "category": "基础设施:公共设施:公共厕所",
        "type": 0,
        "location": {
            "lat": 45.300891,
            "lng": 130.956405
        },
        "ad_info": {
            "adcode": 230302,
            "province": "黑龙江省",
            "city": "鸡西市",
            "district": "鸡冠区"
        }
    },
    {
        "id": "12704123252055099044",
        "title": "公共厕所",
        "address": "黑龙江省鸡西市虎林市安居路与建设西街交叉口东南方向34米左右",
        "tel": "",
        "category": "基础设施:公共设施:公共厕所",
        "type": 0,
        "location": {
            "lat": 45.768538,
            "lng": 132.969883
        },
        "ad_info": {
            "adcode": 230381,
            "province": "黑龙江省",
            "city": "鸡西市",
            "district": "虎林市"
        }
    },
    {
        "id": "9255907431215037138",
        "title": "公共厕所",
        "address": "黑龙江省鸡西市鸡冠区左家街与西郊路交叉口东北方向348米左右",
        "tel": "",
        "category": "基础设施:公共设施:公共厕所",
        "type": 0,
        "location": {
            "lat": 45.321434,
            "lng": 130.930863
        },
        "ad_info": {
            "adcode": 230302,
            "province": "黑龙江省",
            "city": "鸡西市",
            "district": "鸡冠区"
        }
    },
    {
        "id": "4307470206364554835",
        "title": "公共厕所",
        "address": "黑龙江省鸡西市鸡冠区兴国中路与广益街交叉口正南方向77米左右",
        "tel": "",
        "category": "基础设施:公共设施:公共厕所",
        "type": 0,
        "location": {
            "lat": 45.299839,
            "lng": 130.986063
        },
        "ad_info": {
            "adcode": 230302,
            "province": "黑龙江省",
            "city": "鸡西市",
            "district": "鸡冠区"
        }
    },
    {
        "id": "1259519635276465601",
        "title": "公共厕所",
        "address": "黑龙江省鸡西市鸡冠区建安街17号",
        "tel": "",
        "category": "基础设施:公共设施:公共厕所",
        "type": 0,
        "location": {
            "lat": 45.299861,
            "lng": 130.966773
        },
        "ad_info": {
            "adcode": 230302,
            "province": "黑龙江省",
            "city": "鸡西市",
            "district": "鸡冠区"
        }
    },
    {
        "id": "1129310004606517901",
        "title": "公共厕所",
        "address": "黑龙江省鸡西市密山市光复街与延寿路交叉口东北方向54米左右",
        "tel": "",
        "category": "基础设施:公共设施:公共厕所",
        "type": 0,
        "location": {
            "lat": 45.547539,
            "lng": 131.870009
        },
        "ad_info": {
            "adcode": 230382,
            "province": "黑龙江省",
            "city": "鸡西市",
            "district": "密山市"
        }
    },
    {
        "id": "8358985039779603065",
        "title": "公共厕所",
        "address": "黑龙江省鸡西市虎林市育才路虎林市第一中学",
        "tel": "",
        "category": "基础设施:公共设施:公共厕所",
        "type": 0,
        "location": {
            "lat": 45.767447,
            "lng": 132.984345
        },
        "ad_info": {
            "adcode": 230381,
            "province": "黑龙江省",
            "city": "鸡西市",
            "district": "虎林市"
        }
    },
    {
        "id": "10685926294474475016",
        "title": "公共厕所",
        "address": "黑龙江省鸡西市虎林市金爱烤肉(安居路西)",
        "tel": "",
        "category": "基础设施:公共设施:公共厕所",
        "type": 0,
        "location": {
            "lat": 45.772577,
            "lng": 132.967826
        },
        "ad_info": {
            "adcode": 230381,
            "province": "黑龙江省",
            "city": "鸡西市",
            "district": "虎林市"
        }
    },
    {
        "id": "7462653501627342604",
        "title": "公共厕所",
        "address": "黑龙江省鸡西市密山市永固路217号",
        "tel": "",
        "category": "基础设施:公共设施:公共厕所",
        "type": 0,
        "location": {
            "lat": 45.538585,
            "lng": 131.871994
        },
        "ad_info": {
            "adcode": 230382,
            "province": "黑龙江省",
            "city": "鸡西市",
            "district": "密山市"
        }
    },
    {
        "id": "18227138388295080153",
        "title": "公共厕所",
        "address": "黑龙江省鸡西市虎林市爱民西街虎林市实验小学西南侧",
        "tel": "",
        "category": "基础设施:公共设施:公共厕所",
        "type": 0,
        "location": {
            "lat": 45.771101,
            "lng": 132.964595
        },
        "ad_info": {
            "adcode": 230381,
            "province": "黑龙江省",
            "city": "鸡西市",
            "district": "虎林市"
        }
    },
    {
        "id": "16648799483416209281",
        "title": "公共厕所",
        "address": "黑龙江省鸡西市鸡东县北华大街与校园路交叉口西北方向29米左右",
        "tel": "",
        "category": "基础设施:公共设施:公共厕所",
        "type": 0,
        "location": {
            "lat": 45.25613,
            "lng": 131.159238
        },
        "ad_info": {
            "adcode": 230321,
            "province": "黑龙江省",
            "city": "鸡西市",
            "district": "鸡东县"
        }
    },
    {
        "id": "9089484321166924208",
        "title": "公共厕所",
        "address": "黑龙江省鸡西市鸡冠区文化路与文苑街交叉口东北方向32米左右",
        "tel": "",
        "category": "基础设施:公共设施:公共厕所",
        "type": 0,
        "location": {
            "lat": 45.302616,
            "lng": 130.951232
        },
        "ad_info": {
            "adcode": 230302,
            "province": "黑龙江省",
            "city": "鸡西市",
            "district": "鸡冠区"
        }
    },
    {
        "id": "18133620751784301195",
        "title": "公共厕所",
        "address": "黑龙江省鸡西市鸡冠区南环路与文成街交叉口正西方向1824米左右",
        "tel": "",
        "category": "基础设施:公共设施:公共厕所",
        "type": 0,
        "location": {
            "lat": 45.283199,
            "lng": 130.88974
        },
        "ad_info": {
            "adcode": 230302,
            "province": "黑龙江省",
            "city": "鸡西市",
            "district": "鸡冠区"
        }
    },
    {
        "id": "222639889636657672",
        "title": "公共厕所",
        "address": "黑龙江省鸡西市鸡冠区兴国东路与兴旺巷交叉口正东方向203米左右",
        "tel": "",
        "category": "基础设施:公共设施:公共厕所",
        "type": 0,
        "location": {
            "lat": 45.296054,
            "lng": 131.00491
        },
        "ad_info": {
            "adcode": 230302,
            "province": "黑龙江省",
            "city": "鸡西市",
            "district": "鸡冠区"
        }
    },
    {
        "id": "4725877296449473051",
        "title": "公共厕所",
        "address": "黑龙江省鸡西市鸡冠区文化路与西园路交叉口正东方向141米左右",
        "tel": "",
        "category": "基础设施:公共设施:公共厕所",
        "type": 0,
        "location": {
            "lat": 45.30112,
            "lng": 130.930628
        },
        "ad_info": {
            "adcode": 230302,
            "province": "黑龙江省",
            "city": "鸡西市",
            "district": "鸡冠区"
        }
    },
    {
        "id": "1869220406217936222",
        "title": "公共厕所",
        "address": "黑龙江省鸡西市鸡冠区红旗路与迎宾街交叉口西南方向31米左右",
        "tel": "",
        "category": "基础设施:公共设施:公共厕所",
        "type": 0,
        "location": {
            "lat": 45.295598,
            "lng": 130.970932
        },
        "ad_info": {
            "adcode": 230302,
            "province": "黑龙江省",
            "city": "鸡西市",
            "district": "鸡冠区"
        }
    },
    {
        "id": "14076262568334950612",
        "title": "公共厕所",
        "address": "黑龙江省鸡西市鸡冠区利民路与水岸街交叉口正西方向459米左右",
        "tel": "",
        "category": "基础设施:公共设施:公共厕所",
        "type": 0,
        "location": {
            "lat": 45.315284,
            "lng": 130.958111
        },
        "ad_info": {
            "adcode": 230302,
            "province": "黑龙江省",
            "city": "鸡西市",
            "district": "鸡冠区"
        }
    },
    {
        "id": "6845512773669448839",
        "title": "公共厕所",
        "address": "黑龙江省鸡西市城子河区Y002与政通路交叉口东南方向62米左右",
        "tel": "",
        "category": "基础设施:公共设施:公共厕所",
        "type": 0,
        "location": {
            "lat": 45.338058,
            "lng": 131.034751
        },
        "ad_info": {
            "adcode": 230306,
            "province": "黑龙江省",
            "city": "鸡西市",
            "district": "城子河区"
        }
    },
    {
        "id": "6905013423409859693",
        "title": "公共厕所",
        "address": "黑龙江省鸡西市密山市X119与密兴高速交叉口正北方向1463米左右",
        "tel": "",
        "category": "基础设施:公共设施:公共厕所",
        "type": 0,
        "location": {
            "lat": 45.383371,
            "lng": 132.320081
        },
        "ad_info": {
            "adcode": 230382,
            "province": "黑龙江省",
            "city": "鸡西市",
            "district": "密山市"
        }
    },
    {
        "id": "10502327176282047653",
        "title": "公共厕所",
        "address": "黑龙江省鸡西市虎林市桥梁路与解放东街交叉口正东方向502米左右",
        "tel": "",
        "category": "基础设施:公共设施:公共厕所",
        "type": 0,
        "location": {
            "lat": 45.76644,
            "lng": 133.00256
        },
        "ad_info": {
            "adcode": 230381,
            "province": "黑龙江省",
            "city": "鸡西市",
            "district": "虎林市"
        }
    },
    {
        "id": "9323124000717302895",
        "title": "公共厕所",
        "address": "黑龙江省鸡西市密山市060乡道与119县道交叉口东北200米",
        "tel": "",
        "category": "基础设施:公共设施:公共厕所",
        "type": 0,
        "location": {
            "lat": 45.455496,
            "lng": 132.259996
        },
        "ad_info": {
            "adcode": 230382,
            "province": "黑龙江省",
            "city": "鸡西市",
            "district": "密山市"
        }
    },
    {
        "id": "9319075681866234893",
        "title": "公共厕所",
        "address": "黑龙江省鸡西市梨树区206省道西50米",
        "tel": "",
        "category": "基础设施:公共设施:公共厕所",
        "type": 0,
        "location": {
            "lat": 45.147145,
            "lng": 130.75347
        },
        "ad_info": {
            "adcode": 230305,
            "province": "黑龙江省",
            "city": "鸡西市",
            "district": "梨树区"
        }
    },
    {
        "id": "11012521383135538152",
        "title": "公共厕所",
        "address": "黑龙江省鸡西市虎林市G331与北京路交叉口正东方向610米左右",
        "tel": "",
        "category": "基础设施:公共设施:公共厕所",
        "type": 0,
        "location": {
            "lat": 45.744939,
            "lng": 132.81545
        },
        "ad_info": {
            "adcode": 230381,
            "province": "黑龙江省",
            "city": "鸡西市",
            "district": "虎林市"
        }
    },
    {
        "id": "1949772762982812610",
        "title": "公共厕所",
        "address": "黑龙江省鸡西市恒山区恒桦公路与迎新路交叉口东南方向448米左右",
        "tel": "",
        "category": "基础设施:公共设施:公共厕所",
        "type": 0,
        "location": {
            "lat": 45.194583,
            "lng": 130.899455
        },
        "ad_info": {
            "adcode": 230303,
            "province": "黑龙江省",
            "city": "鸡西市",
            "district": "恒山区"
        }
    },
    {
        "id": "7797116649346046174",
        "title": "公共厕所",
        "address": "黑龙江省鸡西市鸡东县S314与Y047交叉口东南方向129米左右",
        "tel": "",
        "category": "基础设施:公共设施:公共厕所",
        "type": 0,
        "location": {
            "lat": 45.184192,
            "lng": 131.238814
        },
        "ad_info": {
            "adcode": 230321,
            "province": "黑龙江省",
            "city": "鸡西市",
            "district": "鸡东县"
        }
    },
    {
        "id": "5750862562828187341",
        "title": "公共厕所",
        "address": "黑龙江省鸡西市密山市G331与G501交叉口西南方向368米左右",
        "tel": "",
        "category": "基础设施:公共设施:公共厕所",
        "type": 0,
        "location": {
            "lat": 45.512468,
            "lng": 131.808885
        },
        "ad_info": {
            "adcode": 230382,
            "province": "黑龙江省",
            "city": "鸡西市",
            "district": "密山市"
        }
    },
    {
        "id": "9366146827981968086",
        "title": "公共厕所",
        "address": "黑龙江省鸡西市虎林市爱民东街中国石油加油站",
        "tel": "",
        "category": "基础设施:公共设施:公共厕所",
        "type": 0,
        "location": {
            "lat": 45.770356,
            "lng": 132.985798
        },
        "ad_info": {
            "adcode": 230381,
            "province": "黑龙江省",
            "city": "鸡西市",
            "district": "虎林市"
        }
    },
    {
        "id": "8767343755544168733",
        "title": "公共厕所",
        "address": "黑龙江省鸡西市密山市309省道西50米",
        "tel": "",
        "category": "基础设施:公共设施:公共厕所",
        "type": 0,
        "location": {
            "lat": 45.503026,
            "lng": 131.789737
        },
        "ad_info": {
            "adcode": 230382,
            "province": "黑龙江省",
            "city": "鸡西市",
            "district": "密山市"
        }
    },
    {
        "id": "13726835711085332039",
        "title": "公共厕所",
        "address": "黑龙江省鸡西市虎林市建设西街与邮政路交叉口西北方向137米左右",
        "tel": "",
        "category": "基础设施:公共设施:公共厕所",
        "type": 0,
        "location": {
            "lat": 45.769677,
            "lng": 132.971486
        },
        "ad_info": {
            "adcode": 230381,
            "province": "黑龙江省",
            "city": "鸡西市",
            "district": "虎林市"
        }
    },
    {
        "id": "6543669934704378910",
        "title": "公共厕所",
        "address": "黑龙江省鸡西市虎林市东山路与建设东街交叉口东南方向87米左右",
        "tel": "",
        "category": "基础设施:公共设施:公共厕所",
        "type": 0,
        "location": {
            "lat": 45.768024,
            "lng": 132.989231
        },
        "ad_info": {
            "adcode": 230381,
            "province": "黑龙江省",
            "city": "鸡西市",
            "district": "虎林市"
        }
    },
    {
        "id": "16809869989541186717",
        "title": "公共厕所",
        "address": "黑龙江省鸡西市鸡冠区培新路与鸡密南路交叉口正南方向34米左右",
        "tel": "",
        "category": "基础设施:公共设施:公共厕所",
        "type": 0,
        "location": {
            "lat": 45.28919,
            "lng": 130.997356
        },
        "ad_info": {
            "adcode": 230302,
            "province": "黑龙江省",
            "city": "鸡西市",
            "district": "鸡冠区"
        }
    },
    {
        "id": "9762659612605740589",
        "title": "公共厕所",
        "address": "黑龙江省鸡西市鸡冠区东胜街与北环东路交叉口正南方向285米左右",
        "tel": "",
        "category": "基础设施:公共设施:公共厕所",
        "type": 0,
        "location": {
            "lat": 45.300029,
            "lng": 131.000518
        },
        "ad_info": {
            "adcode": 230302,
            "province": "黑龙江省",
            "city": "鸡西市",
            "district": "鸡冠区"
        }
    },
    {
        "id": "8580329137216065603",
        "title": "公共厕所",
        "address": "黑龙江省鸡西市鸡冠区利民路与北环路交叉口东南方向439米左右",
        "tel": "",
        "category": "基础设施:公共设施:公共厕所",
        "type": 0,
        "location": {
            "lat": 45.318853,
            "lng": 130.9562
        },
        "ad_info": {
            "adcode": 230302,
            "province": "黑龙江省",
            "city": "鸡西市",
            "district": "鸡冠区"
        }
    },
    {
        "id": "10189296032631690088",
        "title": "公共厕所",
        "address": "黑龙江省鸡西市鸡冠区兴北街与兴国东路交叉口东北方向14米左右",
        "tel": "",
        "category": "基础设施:公共设施:公共厕所",
        "type": 0,
        "location": {
            "lat": 45.29413,
            "lng": 131.016183
        },
        "ad_info": {
            "adcode": 230302,
            "province": "黑龙江省",
            "city": "鸡西市",
            "district": "鸡冠区"
        }
    },
    {
        "id": "9470289302102611986",
        "title": "公共厕所",
        "address": "黑龙江省鸡西市鸡冠区北环东路与北环路交叉口西南方向170米左右",
        "tel": "",
        "category": "基础设施:公共设施:公共厕所",
        "type": 0,
        "location": {
            "lat": 45.297665,
            "lng": 131.020755
        },
        "ad_info": {
            "adcode": 230302,
            "province": "黑龙江省",
            "city": "鸡西市",
            "district": "鸡冠区"
        }
    },
    {
        "id": "18338104079453220223",
        "title": "公共厕所",
        "address": "黑龙江省鸡西市虎林市市场路虎林市第一小学",
        "tel": "",
        "category": "基础设施:公共设施:公共厕所",
        "type": 0,
        "location": {
            "lat": 45.769862,
            "lng": 132.979405
        },
        "ad_info": {
            "adcode": 230381,
            "province": "黑龙江省",
            "city": "鸡西市",
            "district": "虎林市"
        }
    },
    {
        "id": "17620111854622946290",
        "title": "公共厕所",
        "address": "黑龙江省鸡西市城子河区民才街与民育街交叉口正西方向18米左右",
        "tel": "",
        "category": "基础设施:公共设施:公共厕所",
        "type": 0,
        "location": {
            "lat": 45.316383,
            "lng": 130.99643
        },
        "ad_info": {
            "adcode": 230306,
            "province": "黑龙江省",
            "city": "鸡西市",
            "district": "城子河区"
        }
    },
    {
        "id": "16053195504617960077",
        "title": "环卫公共厕所",
        "address": "黑龙江省鸡西市鸡冠区康乐东街与跃进街交叉口西北方向16米左右",
        "tel": "",
        "category": "基础设施:公共设施:公共厕所",
        "type": 0,
        "location": {
            "lat": 45.293599,
            "lng": 130.968983
        },
        "ad_info": {
            "adcode": 230302,
            "province": "黑龙江省",
            "city": "鸡西市",
            "district": "鸡冠区"
        }
    },
    {
        "id": "12258176211373900459",
        "title": "鸡西停车区公共厕所",
        "address": "黑龙江省鸡西市滴道区鸡西停车区西50米",
        "tel": "",
        "category": "基础设施:公共设施:公共厕所",
        "type": 0,
        "location": {
            "lat": 45.312736,
            "lng": 130.775737
        },
        "ad_info": {
            "adcode": 230304,
            "province": "黑龙江省",
            "city": "鸡西市",
            "district": "滴道区"
        }
    },
    {
        "id": "13349632804612733002",
        "title": "鸡西停车区公共厕所",
        "address": "黑龙江省鸡西市滴道区鸡西停车区与G11鹤大高速交叉口南360米",
        "tel": "",
        "category": "基础设施:公共设施:公共厕所",
        "type": 0,
        "location": {
            "lat": 45.312204,
            "lng": 130.77774
        },
        "ad_info": {
            "adcode": 230304,
            "province": "黑龙江省",
            "city": "鸡西市",
            "district": "滴道区"
        }
    },
    {
        "id": "727497088819476441",
        "title": "虎林停车区公共厕所",
        "address": "黑龙江省鸡西市虎林市建鸡高速与鸡虎高速交叉口东南方向258米左右",
        "tel": "",
        "category": "基础设施:公共设施:公共厕所",
        "type": 0,
        "location": {
            "lat": 45.761433,
            "lng": 132.837079
        },
        "ad_info": {
            "adcode": 230381,
            "province": "黑龙江省",
            "city": "鸡西市",
            "district": "虎林市"
        }
    },
    {
        "id": "17369546226320338729",
        "title": "公共厕所",
        "address": "黑龙江省鸡西市鸡冠区广源一路与广益街交叉口正东方向33米左右",
        "tel": "",
        "category": "基础设施:公共设施:公共厕所",
        "type": 0,
        "location": {
            "lat": 45.30335,
            "lng": 130.989932
        },
        "ad_info": {
            "adcode": 230302,
            "province": "黑龙江省",
            "city": "鸡西市",
            "district": "鸡冠区"
        }
    },
    {
        "id": "3511598070848970160",
        "title": "无障碍公共厕所",
        "address": "黑龙江省鸡西市虎林市建设西街与红旗路交叉口西北方向60米左右",
        "tel": "",
        "category": "基础设施:公共设施:公共厕所",
        "type": 0,
        "location": {
            "lat": 45.769255,
            "lng": 132.975545
        },
        "ad_info": {
            "adcode": 230381,
            "province": "黑龙江省",
            "city": "鸡西市",
            "district": "虎林市"
        }
    },
    {
        "id": "9902670065032816049",
        "title": "东风服务区公共厕所",
        "address": "黑龙江省鸡西市鸡东县S11建鸡高速与东风服务区交叉口西北360米",
        "tel": "",
        "category": "基础设施:公共设施:公共厕所",
        "type": 0,
        "location": {
            "lat": 45.311193,
            "lng": 131.131586
        },
        "ad_info": {
            "adcode": 230321,
            "province": "黑龙江省",
            "city": "鸡西市",
            "district": "鸡东县"
        }
    },
    {
        "id": "3292317334675609523",
        "title": "虎林停车区公共厕所",
        "address": "黑龙江省鸡西市虎林市建鸡高速与鸡虎高速交叉口正东方向231米左右",
        "tel": "",
        "category": "基础设施:公共设施:公共厕所",
        "type": 0,
        "location": {
            "lat": 45.763062,
            "lng": 132.837091
        },
        "ad_info": {
            "adcode": 230381,
            "province": "黑龙江省",
            "city": "鸡西市",
            "district": "虎林市"
        }
    },
    {
        "id": "5124980907784915521",
        "title": "密山服务区公共厕所",
        "address": "黑龙江省鸡西市密山市建鸡高速与鸡虎高速交叉口正东方向414米左右",
        "tel": "",
        "category": "基础设施:公共设施:公共厕所",
        "type": 0,
        "location": {
            "lat": 45.444012,
            "lng": 131.715405
        },
        "ad_info": {
            "adcode": 230382,
            "province": "黑龙江省",
            "city": "鸡西市",
            "district": "密山市"
        }
    },
    {
        "id": "12864575480704133513",
        "title": "环卫公共厕所",
        "address": "黑龙江省鸡西市鸡冠区正大医院西北侧50米",
        "tel": "",
        "category": "基础设施:公共设施:公共厕所",
        "type": 0,
        "location": {
            "lat": 45.292289,
            "lng": 130.996995
        },
        "ad_info": {
            "adcode": 230302,
            "province": "黑龙江省",
            "city": "鸡西市",
            "district": "鸡冠区"
        }
    },
    {
        "id": "11394517260180390664",
        "title": "兴凯湖服务区公共厕所",
        "address": "黑龙江省鸡西市密山市X119与兴凯湖湿地桥交叉口正北方向1134米左右",
        "tel": "",
        "category": "基础设施:公共设施:公共厕所",
        "type": 0,
        "location": {
            "lat": 45.370947,
            "lng": 132.321644
        },
        "ad_info": {
            "adcode": 230382,
            "province": "黑龙江省",
            "city": "鸡西市",
            "district": "密山市"
        }
    },
    {
        "id": "1771416023491132638",
        "title": "兴农服务区公共厕所",
        "address": "黑龙江省鸡西市鸡东县G11鹤大高速与兴农服务区交叉口西北360米",
        "tel": "",
        "category": "基础设施:公共设施:公共厕所",
        "type": 0,
        "location": {
            "lat": 45.507651,
            "lng": 130.941878
        },
        "ad_info": {
            "adcode": 230321,
            "province": "黑龙江省",
            "city": "鸡西市",
            "district": "鸡东县"
        }
    },
    {
        "id": "2066523052158360330",
        "title": "兴农服务区公共厕所",
        "address": "黑龙江省鸡西市鸡东县G201与Y053交叉口西北方向881米左右",
        "tel": "",
        "category": "基础设施:公共设施:公共厕所",
        "type": 0,
        "location": {
            "lat": 45.506792,
            "lng": 130.944426
        },
        "ad_info": {
            "adcode": 230321,
            "province": "黑龙江省",
            "city": "鸡西市",
            "district": "鸡东县"
        }
    },
    {
        "id": "6623080709999318708",
        "title": "东风服务区公共厕所",
        "address": "黑龙江省鸡西市鸡东县建鸡高速",
        "tel": "",
        "category": "基础设施:公共设施:公共厕所",
        "type": 0,
        "location": {
            "lat": 45.309604,
            "lng": 131.130388
        },
        "ad_info": {
            "adcode": 230321,
            "province": "黑龙江省",
            "city": "鸡西市",
            "district": "鸡东县"
        }
    },
    {
        "id": "16392221295171589767",
        "title": "兴凯服务区公共厕所",
        "address": "黑龙江省鸡西市密山市兴凯服务区南30米",
        "tel": "",
        "category": "基础设施:公共设施:公共厕所",
        "type": 0,
        "location": {
            "lat": 45.706046,
            "lng": 132.185589
        },
        "ad_info": {
            "adcode": 230382,
            "province": "黑龙江省",
            "city": "鸡西市",
            "district": "密山市"
        }
    },
    {
        "id": "9724618348697698763",
        "title": "密山服务区公共厕所",
        "address": "黑龙江省鸡西市密山市建鸡高速与鸡虎高速交叉口东北方向380米左右",
        "tel": "",
        "category": "基础设施:公共设施:公共厕所",
        "type": 0,
        "location": {
            "lat": 45.445126,
            "lng": 131.71387
        },
        "ad_info": {
            "adcode": 230382,
            "province": "黑龙江省",
            "city": "鸡西市",
            "district": "密山市"
        }
    },
    {
        "id": "11428338132588445554",
        "title": "公共厕所",
        "address": "黑龙江省鸡西市鸡东县解放路翰景华庭",
        "tel": "",
        "category": "基础设施:公共设施:公共厕所",
        "type": 0,
        "location": {
            "lat": 45.257578,
            "lng": 131.136379
        },
        "ad_info": {
            "adcode": 230321,
            "province": "黑龙江省",
            "city": "鸡西市",
            "district": "鸡东县"
        }
    },
    {
        "id": "1693417521865610684",
        "title": "公共厕所",
        "address": "黑龙江省鸡西市滴道区新兴街与方虎路交叉口正西方向51米左右",
        "tel": "",
        "category": "基础设施:公共设施:公共厕所",
        "type": 0,
        "location": {
            "lat": 45.347263,
            "lng": 130.853554
        },
        "ad_info": {
            "adcode": 230304,
            "province": "黑龙江省",
            "city": "鸡西市",
            "district": "滴道区"
        }
    },
    {
        "id": "3557813209454859384",
        "title": "公共厕所",
        "address": "黑龙江省鸡西市密山市Y005与Y061交叉口正东方向765米左右",
        "tel": "",
        "category": "基础设施:公共设施:公共厕所",
        "type": 0,
        "location": {
            "lat": 45.278115,
            "lng": 132.027965
        },
        "ad_info": {
            "adcode": 230382,
            "province": "黑龙江省",
            "city": "鸡西市",
            "district": "密山市"
        }
    },
    {
        "id": "8869037292846555365",
        "title": "公共厕所",
        "address": "黑龙江省鸡西市虎林市G331与方虎路街交叉口东北方向74米左右",
        "tel": "",
        "category": "基础设施:公共设施:公共厕所",
        "type": 0,
        "location": {
            "lat": 45.725873,
            "lng": 132.246551
        },
        "ad_info": {
            "adcode": 230381,
            "province": "黑龙江省",
            "city": "鸡西市",
            "district": "虎林市"
        }
    },
    {
        "id": "13981640298979180496",
        "title": "公共厕所",
        "address": "黑龙江省鸡西市密山市G331与G501交叉口正西方向1070米左右",
        "tel": "",
        "category": "基础设施:公共设施:公共厕所",
        "type": 0,
        "location": {
            "lat": 45.511999,
            "lng": 131.799394
        },
        "ad_info": {
            "adcode": 230382,
            "province": "黑龙江省",
            "city": "鸡西市",
            "district": "密山市"
        }
    },
    {
        "id": "1291070540805957032",
        "title": "公共厕所",
        "address": "黑龙江省鸡西市鸡冠区御龙山庄东侧260米",
        "tel": "",
        "category": "基础设施:公共设施:公共厕所",
        "type": 0,
        "location": {
            "lat": 45.25098,
            "lng": 131.058613
        },
        "ad_info": {
            "adcode": 230302,
            "province": "黑龙江省",
            "city": "鸡西市",
            "district": "鸡冠区"
        }
    },
    {
        "id": "11791651432694674705",
        "title": "公共厕所",
        "address": "黑龙江省鸡西市恒山区南一路与育新街交叉口正东方向457米左右",
        "tel": "",
        "category": "基础设施:公共设施:公共厕所",
        "type": 0,
        "location": {
            "lat": 45.214914,
            "lng": 130.920101
        },
        "ad_info": {
            "adcode": 230303,
            "province": "黑龙江省",
            "city": "鸡西市",
            "district": "恒山区"
        }
    },
    {
        "id": "15254782946559641876",
        "title": "公共厕所",
        "address": "黑龙江省鸡西市鸡东县东山街与中心大街交叉口东南方向333米左右",
        "tel": "",
        "category": "基础设施:公共设施:公共厕所",
        "type": 0,
        "location": {
            "lat": 45.245671,
            "lng": 131.163342
        },
        "ad_info": {
            "adcode": 230321,
            "province": "黑龙江省",
            "city": "鸡西市",
            "district": "鸡东县"
        }
    },
    {
        "id": "15161223702007340959",
        "title": "兴凯服务区公共厕所",
        "address": "黑龙江省鸡西市密山市建鸡高速与鸡虎高速交叉口西北方向271米左右",
        "tel": "",
        "category": "基础设施:公共设施:公共厕所",
        "type": 0,
        "location": {
            "lat": 45.707928,
            "lng": 132.18606
        },
        "ad_info": {
            "adcode": 230382,
            "province": "黑龙江省",
            "city": "鸡西市",
            "district": "密山市"
        }
    },
    {
        "id": "2363709716731841151",
        "title": "公共厕所",
        "address": "黑龙江省鸡西市密山市裕民路72号",
        "tel": "",
        "category": "基础设施:公共设施:公共厕所",
        "type": 0,
        "location": {
            "lat": 45.542612,
            "lng": 131.869504
        },
        "ad_info": {
            "adcode": 230382,
            "province": "黑龙江省",
            "city": "鸡西市",
            "district": "密山市"
        }
    },
    {
        "id": "12155043644399913688",
        "title": "公共厕所",
        "address": "黑龙江省鸡西市密山市X119与东安街交叉口西南方向626米左右",
        "tel": "",
        "category": "基础设施:公共设施:公共厕所",
        "type": 0,
        "location": {
            "lat": 45.551131,
            "lng": 131.895313
        },
        "ad_info": {
            "adcode": 230382,
            "province": "黑龙江省",
            "city": "鸡西市",
            "district": "密山市"
        }
    },
    {
        "id": "1450359484263767399",
        "title": "公共厕所",
        "address": "黑龙江省鸡西市虎林市北兴西街与平安北路交叉口东南方向15米左右",
        "tel": "",
        "category": "基础设施:公共设施:公共厕所",
        "type": 0,
        "location": {
            "lat": 45.77563,
            "lng": 132.96975
        },
        "ad_info": {
            "adcode": 230381,
            "province": "黑龙江省",
            "city": "鸡西市",
            "district": "虎林市"
        }
    },
    {
        "id": "4105678352892507845",
        "title": "公共厕所",
        "address": "黑龙江省鸡西市鸡冠区劳动路与新政街交叉口正东方向16米左右",
        "tel": "",
        "category": "基础设施:公共设施:公共厕所",
        "type": 0,
        "location": {
            "lat": 45.29747,
            "lng": 130.973118
        },
        "ad_info": {
            "adcode": 230302,
            "province": "黑龙江省",
            "city": "鸡西市",
            "district": "鸡冠区"
        }
    }
]