[
    {
        "id": "3840459198936735416",
        "title": "公共厕所",
        "address": "黑龙江省鹤岗市工农区东解放路与龙运街交叉口西北方向41米左右",
        "tel": "",
        "category": "基础设施:公共设施:公共厕所",
        "type": 0,
        "location": {
            "lat": 47.342178,
            "lng": 130.282226
        },
        "ad_info": {
            "adcode": 230403,
            "province": "黑龙江省",
            "city": "鹤岗市",
            "district": "工农区"
        }
    },
    {
        "id": "931397572937868988",
        "title": "公共厕所",
        "address": "黑龙江省鹤岗市南山区南红旗路与长青街交叉口东南方向39米左右",
        "tel": "",
        "category": "基础设施:公共设施:公共厕所",
        "type": 0,
        "location": {
            "lat": 47.277288,
            "lng": 130.261515
        },
        "ad_info": {
            "adcode": 230404,
            "province": "黑龙江省",
            "city": "鹤岗市",
            "district": "南山区"
        }
    },
    {
        "id": "2201013894530250787",
        "title": "公共厕所",
        "address": "黑龙江省鹤岗市萝北县江滨路与汤原街交叉口南100米",
        "tel": "",
        "category": "基础设施:公共设施:公共厕所",
        "type": 0,
        "location": {
            "lat": 47.424277,
            "lng": 130.537941
        },
        "ad_info": {
            "adcode": 230421,
            "province": "黑龙江省",
            "city": "鹤岗市",
            "district": "萝北县"
        }
    },
    {
        "id": "11959697517829069618",
        "title": "公共厕所",
        "address": "黑龙江省鹤岗市萝北县名山街与绥滨路交叉口西北方向234米左右",
        "tel": "",
        "category": "基础设施:公共设施:公共厕所",
        "type": 0,
        "location": {
            "lat": 47.437782,
            "lng": 130.548185
        },
        "ad_info": {
            "adcode": 230421,
            "province": "黑龙江省",
            "city": "鹤岗市",
            "district": "萝北县"
        }
    },
    {
        "id": "17438551256232355532",
        "title": "公共厕所",
        "address": "黑龙江省鹤岗市工农区东方白鹳大街与白鹳大街交叉口正南方向290米左右",
        "tel": "",
        "category": "基础设施:公共设施:公共厕所",
        "type": 0,
        "location": {
            "lat": 47.302147,
            "lng": 130.254088
        },
        "ad_info": {
            "adcode": 230403,
            "province": "黑龙江省",
            "city": "鹤岗市",
            "district": "工农区"
        }
    },
    {
        "id": "16725560122677915482",
        "title": "公共厕所",
        "address": "黑龙江省鹤岗市工农区东方白鹳大街与药厂街交叉口正南方向58米左右",
        "tel": "",
        "category": "基础设施:公共设施:公共厕所",
        "type": 0,
        "location": {
            "lat": 47.304298,
            "lng": 130.254395
        },
        "ad_info": {
            "adcode": 230403,
            "province": "黑龙江省",
            "city": "鹤岗市",
            "district": "工农区"
        }
    },
    {
        "id": "10825212787274135865",
        "title": "公共卫生间",
        "address": "黑龙江省鹤岗市萝北县景观路与迎宾街交叉口西北方向120米左右",
        "tel": "",
        "category": "基础设施:公共设施:公共厕所",
        "type": 0,
        "location": {
            "lat": 47.577091,
            "lng": 130.833848
        },
        "ad_info": {
            "adcode": 230421,
            "province": "黑龙江省",
            "city": "鹤岗市",
            "district": "萝北县"
        }
    },
    {
        "id": "5196687006641521772",
        "title": "公共厕所",
        "address": "黑龙江省鹤岗市工农区东方白鹳大街与昌南路交叉口西南方向84米左右",
        "tel": "",
        "category": "基础设施:公共设施:公共厕所",
        "type": 0,
        "location": {
            "lat": 47.304161,
            "lng": 130.245261
        },
        "ad_info": {
            "adcode": 230403,
            "province": "黑龙江省",
            "city": "鹤岗市",
            "district": "工农区"
        }
    },
    {
        "id": "3978180866080487909",
        "title": "公共卫生间",
        "address": "黑龙江省鹤岗市萝北县文明路与迎宾街交叉口西北方向24米左右",
        "tel": "",
        "category": "基础设施:公共设施:公共厕所",
        "type": 0,
        "location": {
            "lat": 47.575783,
            "lng": 130.822123
        },
        "ad_info": {
            "adcode": 230421,
            "province": "黑龙江省",
            "city": "鹤岗市",
            "district": "萝北县"
        }
    },
    {
        "id": "1235234912478795990",
        "title": "公共厕所",
        "address": "黑龙江省鹤岗市绥滨县富强路与文化街交叉口正东方向82米左右",
        "tel": "",
        "category": "基础设施:公共设施:公共厕所",
        "type": 0,
        "location": {
            "lat": 47.288983,
            "lng": 131.861845
        },
        "ad_info": {
            "adcode": 230422,
            "province": "黑龙江省",
            "city": "鹤岗市",
            "district": "绥滨县"
        }
    },
    {
        "id": "4687342530334993248",
        "title": "公共厕所",
        "address": "黑龙江省鹤岗市绥滨县向阳路与文化街交叉口西南方向54米左右",
        "tel": "",
        "category": "基础设施:公共设施:公共厕所",
        "type": 0,
        "location": {
            "lat": 47.288153,
            "lng": 131.864564
        },
        "ad_info": {
            "adcode": 230422,
            "province": "黑龙江省",
            "city": "鹤岗市",
            "district": "绥滨县"
        }
    },
    {
        "id": "3987705899865974327",
        "title": "公共厕所",
        "address": "黑龙江省鹤岗市工农区学府路文化广场(南侧)",
        "tel": "",
        "category": "基础设施:公共设施:公共厕所",
        "type": 0,
        "location": {
            "lat": 47.321955,
            "lng": 130.274486
        },
        "ad_info": {
            "adcode": 230403,
            "province": "黑龙江省",
            "city": "鹤岗市",
            "district": "工农区"
        }
    },
    {
        "id": "6839528623018728297",
        "title": "公共厕所",
        "address": "黑龙江省鹤岗市萝北县宝林路与迎宾街交叉口正南方向60米左右",
        "tel": "",
        "category": "基础设施:公共设施:公共厕所",
        "type": 0,
        "location": {
            "lat": 47.575967,
            "lng": 130.837185
        },
        "ad_info": {
            "adcode": 230421,
            "province": "黑龙江省",
            "city": "鹤岗市",
            "district": "萝北县"
        }
    },
    {
        "id": "11426877540665302235",
        "title": "公共厕所",
        "address": "黑龙江省鹤岗市工农区北红旗路与育才路交叉口正南方向119米左右",
        "tel": "",
        "category": "基础设施:公共设施:公共厕所",
        "type": 0,
        "location": {
            "lat": 47.313417,
            "lng": 130.273748
        },
        "ad_info": {
            "adcode": 230403,
            "province": "黑龙江省",
            "city": "鹤岗市",
            "district": "工农区"
        }
    },
    {
        "id": "13289824462597385293",
        "title": "公共厕所",
        "address": "黑龙江省鹤岗市萝北县兴川路与军川大街交叉口西北方向174米左右",
        "tel": "",
        "category": "基础设施:公共设施:公共厕所",
        "type": 0,
        "location": {
            "lat": 47.535565,
            "lng": 131.256939
        },
        "ad_info": {
            "adcode": 230421,
            "province": "黑龙江省",
            "city": "鹤岗市",
            "district": "萝北县"
        }
    },
    {
        "id": "11817853136414750042",
        "title": "公共厕所",
        "address": "黑龙江省鹤岗市萝北县G332与凤翔大街交叉口东北方向671米左右",
        "tel": "",
        "category": "基础设施:公共设施:公共厕所",
        "type": 0,
        "location": {
            "lat": 47.594168,
            "lng": 130.878809
        },
        "ad_info": {
            "adcode": 230421,
            "province": "黑龙江省",
            "city": "鹤岗市",
            "district": "萝北县"
        }
    },
    {
        "id": "11177730341149086427",
        "title": "公共厕所",
        "address": "黑龙江省鹤岗市绥滨县绥福路与美食街交叉口正西方向128米左右",
        "tel": "",
        "category": "基础设施:公共设施:公共厕所",
        "type": 0,
        "location": {
            "lat": 47.521663,
            "lng": 131.684759
        },
        "ad_info": {
            "adcode": 230422,
            "province": "黑龙江省",
            "city": "鹤岗市",
            "district": "绥滨县"
        }
    },
    {
        "id": "6489696265763212174",
        "title": "公共厕所",
        "address": "黑龙江省鹤岗市南山区南岗路与通矿街交叉口正北方向89米左右",
        "tel": "",
        "category": "基础设施:公共设施:公共厕所",
        "type": 0,
        "location": {
            "lat": 47.310548,
            "lng": 130.295804
        },
        "ad_info": {
            "adcode": 230404,
            "province": "黑龙江省",
            "city": "鹤岗市",
            "district": "南山区"
        }
    },
    {
        "id": "17014026867977144406",
        "title": "公共厕所",
        "address": "黑龙江省鹤岗市工农区东解放路南二道街与农贸路交叉口正西方向11米左右",
        "tel": "",
        "category": "基础设施:公共设施:公共厕所",
        "type": 0,
        "location": {
            "lat": 47.332132,
            "lng": 130.283606
        },
        "ad_info": {
            "adcode": 230403,
            "province": "黑龙江省",
            "city": "鹤岗市",
            "district": "工农区"
        }
    },
    {
        "id": "15689691718840729068",
        "title": "公共厕所",
        "address": "黑龙江省鹤岗市兴安区光宇路与宇南街交叉口正北方向446米左右",
        "tel": "",
        "category": "基础设施:公共设施:公共厕所",
        "type": 0,
        "location": {
            "lat": 47.282452,
            "lng": 130.249246
        },
        "ad_info": {
            "adcode": 230405,
            "province": "黑龙江省",
            "city": "鹤岗市",
            "district": "兴安区"
        }
    },
    {
        "id": "15584761020374589412",
        "title": "公共厕所",
        "address": "黑龙江省鹤岗市南山区南山路与邮电南街交叉口东南方向29米左右",
        "tel": "",
        "category": "基础设施:公共设施:公共厕所",
        "type": 0,
        "location": {
            "lat": 47.290304,
            "lng": 130.287279
        },
        "ad_info": {
            "adcode": 230404,
            "province": "黑龙江省",
            "city": "鹤岗市",
            "district": "南山区"
        }
    },
    {
        "id": "4220436562482132349",
        "title": "公共厕所",
        "address": "黑龙江省鹤岗市工农区育英街与铁西路交叉口正北方向389米左右",
        "tel": "",
        "category": "基础设施:公共设施:公共厕所",
        "type": 0,
        "location": {
            "lat": 47.319056,
            "lng": 130.283678
        },
        "ad_info": {
            "adcode": 230403,
            "province": "黑龙江省",
            "city": "鹤岗市",
            "district": "工农区"
        }
    },
    {
        "id": "16879803748571895891",
        "title": "公共厕所",
        "address": "黑龙江省鹤岗市东山区东岗路与国防路交叉口东南方向50米左右",
        "tel": "",
        "category": "基础设施:公共设施:公共厕所",
        "type": 0,
        "location": {
            "lat": 47.331284,
            "lng": 130.330406
        },
        "ad_info": {
            "adcode": 230406,
            "province": "黑龙江省",
            "city": "鹤岗市",
            "district": "东山区"
        }
    },
    {
        "id": "16998222470959628263",
        "title": "公共厕所",
        "address": "黑龙江省鹤岗市工农区西内环路与西解放路交叉口东北方向93米左右",
        "tel": "",
        "category": "基础设施:公共设施:公共厕所",
        "type": 0,
        "location": {
            "lat": 47.324941,
            "lng": 130.268886
        },
        "ad_info": {
            "adcode": 230403,
            "province": "黑龙江省",
            "city": "鹤岗市",
            "district": "工农区"
        }
    },
    {
        "id": "13781992312880413778",
        "title": "公共厕所",
        "address": "黑龙江省鹤岗市南山区南山路与奋斗路交叉口东北方向43米左右",
        "tel": "",
        "category": "基础设施:公共设施:公共厕所",
        "type": 0,
        "location": {
            "lat": 47.289012,
            "lng": 130.287314
        },
        "ad_info": {
            "adcode": 230404,
            "province": "黑龙江省",
            "city": "鹤岗市",
            "district": "南山区"
        }
    },
    {
        "id": "10633779465674543004",
        "title": "公共厕所",
        "address": "黑龙江省鹤岗市东山区新建路与景阳街交叉口正东方向123米左右",
        "tel": "",
        "category": "基础设施:公共设施:公共厕所",
        "type": 0,
        "location": {
            "lat": 47.115191,
            "lng": 130.312092
        },
        "ad_info": {
            "adcode": 230406,
            "province": "黑龙江省",
            "city": "鹤岗市",
            "district": "东山区"
        }
    },
    {
        "id": "14072365127558159139",
        "title": "公共厕所",
        "address": "黑龙江省鹤岗市萝北县北一街与文明路交叉口正南方向60米左右",
        "tel": "",
        "category": "基础设施:公共设施:公共厕所",
        "type": 0,
        "location": {
            "lat": 47.554673,
            "lng": 130.461082
        },
        "ad_info": {
            "adcode": 230421,
            "province": "黑龙江省",
            "city": "鹤岗市",
            "district": "萝北县"
        }
    },
    {
        "id": "5242533414629144013",
        "title": "公共厕所",
        "address": "黑龙江省鹤岗市东山区新丰路与龙源路交叉口西北方向59米左右",
        "tel": "",
        "category": "基础设施:公共设施:公共厕所",
        "type": 0,
        "location": {
            "lat": 47.329248,
            "lng": 130.236597
        },
        "ad_info": {
            "adcode": 230406,
            "province": "黑龙江省",
            "city": "鹤岗市",
            "district": "东山区"
        }
    },
    {
        "id": "16126827883635975042",
        "title": "公共厕所",
        "address": "黑龙江省鹤岗市向阳区南翼路与新生街交叉口正南方向580米左右",
        "tel": "",
        "category": "基础设施:公共设施:公共厕所",
        "type": 0,
        "location": {
            "lat": 47.331139,
            "lng": 130.304166
        },
        "ad_info": {
            "adcode": 230402,
            "province": "黑龙江省",
            "city": "鹤岗市",
            "district": "向阳区"
        }
    },
    {
        "id": "6138937908756635010",
        "title": "公共厕所",
        "address": "黑龙江省鹤岗市兴山区兴山路与十三厂街交叉口东北方向123米左右",
        "tel": "",
        "category": "基础设施:公共设施:公共厕所",
        "type": 0,
        "location": {
            "lat": 47.365553,
            "lng": 130.31511
        },
        "ad_info": {
            "adcode": 230407,
            "province": "黑龙江省",
            "city": "鹤岗市",
            "district": "兴山区"
        }
    },
    {
        "id": "10557546283210350586",
        "title": "公共厕所",
        "address": "黑龙江省鹤岗市绥滨县红山街与绥福路交叉口正东方向35米左右",
        "tel": "",
        "category": "基础设施:公共设施:公共厕所",
        "type": 0,
        "location": {
            "lat": 47.52416,
            "lng": 131.686187
        },
        "ad_info": {
            "adcode": 230422,
            "province": "黑龙江省",
            "city": "鹤岗市",
            "district": "绥滨县"
        }
    },
    {
        "id": "4381592235595970104",
        "title": "公共厕所",
        "address": "黑龙江省鹤岗市兴安区供销南街与兴长路交叉口正北方向440米左右",
        "tel": "",
        "category": "基础设施:公共设施:公共厕所",
        "type": 0,
        "location": {
            "lat": 47.256497,
            "lng": 130.229312
        },
        "ad_info": {
            "adcode": 230405,
            "province": "黑龙江省",
            "city": "鹤岗市",
            "district": "兴安区"
        }
    },
    {
        "id": "4039140940907822117",
        "title": "公共厕所",
        "address": "黑龙江省鹤岗市绥滨县振兴大街与育才路交叉口东北方向41米左右",
        "tel": "",
        "category": "基础设施:公共设施:公共厕所",
        "type": 0,
        "location": {
            "lat": 47.29358,
            "lng": 131.85258
        },
        "ad_info": {
            "adcode": 230422,
            "province": "黑龙江省",
            "city": "鹤岗市",
            "district": "绥滨县"
        }
    },
    {
        "id": "12113019685259486296",
        "title": "公共厕所",
        "address": "黑龙江省鹤岗市萝北县G331与鹤名公路交叉口东北方向1582米左右",
        "tel": "",
        "category": "基础设施:公共设施:公共厕所",
        "type": 0,
        "location": {
            "lat": 47.679105,
            "lng": 131.102252
        },
        "ad_info": {
            "adcode": 230421,
            "province": "黑龙江省",
            "city": "鹤岗市",
            "district": "萝北县"
        }
    },
    {
        "id": "5582633450692526268",
        "title": "公共厕所",
        "address": "黑龙江省鹤岗市工农区东解放路北四道街与站前路交叉口北50米",
        "tel": "",
        "category": "基础设施:公共设施:公共厕所",
        "type": 0,
        "location": {
            "lat": 47.339389,
            "lng": 130.273895
        },
        "ad_info": {
            "adcode": 230403,
            "province": "黑龙江省",
            "city": "鹤岗市",
            "district": "工农区"
        }
    },
    {
        "id": "4778785885866832184",
        "title": "公共厕所",
        "address": "黑龙江省鹤岗市绥滨县松滨大街与民福路交叉口正西方向145米左右",
        "tel": "",
        "category": "基础设施:公共设施:公共厕所",
        "type": 0,
        "location": {
            "lat": 47.285647,
            "lng": 131.873644
        },
        "ad_info": {
            "adcode": 230422,
            "province": "黑龙江省",
            "city": "鹤岗市",
            "district": "绥滨县"
        }
    },
    {
        "id": "8274673695360418111",
        "title": "公共厕所",
        "address": "黑龙江省鹤岗市萝北县康复路与顺和街交叉口东南方向61米左右",
        "tel": "",
        "category": "基础设施:公共设施:公共厕所",
        "type": 0,
        "location": {
            "lat": 47.551411,
            "lng": 130.452207
        },
        "ad_info": {
            "adcode": 230421,
            "province": "黑龙江省",
            "city": "鹤岗市",
            "district": "萝北县"
        }
    },
    {
        "id": "8601493372138434077",
        "title": "公共厕所",
        "address": "黑龙江省鹤岗市南山区南山路10号",
        "tel": "",
        "category": "基础设施:公共设施:公共厕所",
        "type": 0,
        "location": {
            "lat": 47.314072,
            "lng": 130.2881
        },
        "ad_info": {
            "adcode": 230404,
            "province": "黑龙江省",
            "city": "鹤岗市",
            "district": "南山区"
        }
    },
    {
        "id": "2313493313397675107",
        "title": "公共厕所",
        "address": "黑龙江省鹤岗市绥滨县Y001与Y032交叉口西北方向22米左右",
        "tel": "",
        "category": "基础设施:公共设施:公共厕所",
        "type": 0,
        "location": {
            "lat": 47.312741,
            "lng": 131.618108
        },
        "ad_info": {
            "adcode": 230422,
            "province": "黑龙江省",
            "city": "鹤岗市",
            "district": "绥滨县"
        }
    },
    {
        "id": "13326047457796453465",
        "title": "公共厕所",
        "address": "黑龙江省鹤岗市南山区南岗路与通矿街交叉口正西方向139米左右",
        "tel": "",
        "category": "基础设施:公共设施:公共厕所",
        "type": 0,
        "location": {
            "lat": 47.309454,
            "lng": 130.293758
        },
        "ad_info": {
            "adcode": 230404,
            "province": "黑龙江省",
            "city": "鹤岗市",
            "district": "南山区"
        }
    },
    {
        "id": "3456894913745718367",
        "title": "公共厕所",
        "address": "黑龙江省鹤岗市东山区山泉浴池(幸福路)东侧",
        "tel": "",
        "category": "基础设施:公共设施:公共厕所",
        "type": 0,
        "location": {
            "lat": 47.339375,
            "lng": 130.34888
        },
        "ad_info": {
            "adcode": 230406,
            "province": "黑龙江省",
            "city": "鹤岗市",
            "district": "东山区"
        }
    },
    {
        "id": "12329335377354883973",
        "title": "公共厕所",
        "address": "黑龙江省鹤岗市萝北县S312与Y405交叉口正西方向703米左右",
        "tel": "",
        "category": "基础设施:公共设施:公共厕所",
        "type": 0,
        "location": {
            "lat": 47.61763,
            "lng": 131.461607
        },
        "ad_info": {
            "adcode": 230421,
            "province": "黑龙江省",
            "city": "鹤岗市",
            "district": "萝北县"
        }
    },
    {
        "id": "15751576502820325662",
        "title": "公共厕所",
        "address": "黑龙江省鹤岗市绥滨县光明街与白桦路交叉口正西方向118米左右",
        "tel": "",
        "category": "基础设施:公共设施:公共厕所",
        "type": 0,
        "location": {
            "lat": 47.574936,
            "lng": 132.088746
        },
        "ad_info": {
            "adcode": 230422,
            "province": "黑龙江省",
            "city": "鹤岗市",
            "district": "绥滨县"
        }
    },
    {
        "id": "8533057077256869216",
        "title": "公共厕所",
        "address": "黑龙江省鹤岗市萝北县S312与Y405交叉口正北方向450米左右",
        "tel": "",
        "category": "基础设施:公共设施:公共厕所",
        "type": 0,
        "location": {
            "lat": 47.62204,
            "lng": 131.469881
        },
        "ad_info": {
            "adcode": 230421,
            "province": "黑龙江省",
            "city": "鹤岗市",
            "district": "萝北县"
        }
    },
    {
        "id": "8150191608309125064",
        "title": "公共厕所",
        "address": "黑龙江省鹤岗市萝北县共青路与名山街交叉口正北方向90米左右",
        "tel": "",
        "category": "基础设施:公共设施:公共厕所",
        "type": 0,
        "location": {
            "lat": 47.435552,
            "lng": 130.540215
        },
        "ad_info": {
            "adcode": 230421,
            "province": "黑龙江省",
            "city": "鹤岗市",
            "district": "萝北县"
        }
    },
    {
        "id": "1336701398723326116",
        "title": "公共厕所",
        "address": "黑龙江省鹤岗市东山区G332与Y401交叉口正北方向438米左右",
        "tel": "",
        "category": "基础设施:公共设施:公共厕所",
        "type": 0,
        "location": {
            "lat": 47.403565,
            "lng": 130.506211
        },
        "ad_info": {
            "adcode": 230406,
            "province": "黑龙江省",
            "city": "鹤岗市",
            "district": "东山区"
        }
    },
    {
        "id": "11800022215454192545",
        "title": "公共厕所",
        "address": "黑龙江省鹤岗市向阳区新兴路与红星路交叉口正西方向39米左右",
        "tel": "",
        "category": "基础设施:公共设施:公共厕所",
        "type": 0,
        "location": {
            "lat": 47.352385,
            "lng": 130.30032
        },
        "ad_info": {
            "adcode": 230402,
            "province": "黑龙江省",
            "city": "鹤岗市",
            "district": "向阳区"
        }
    },
    {
        "id": "5407049962079558603",
        "title": "公共厕所",
        "address": "黑龙江省鹤岗市萝北县依兰路与宝泉大街交叉口东南方向108米左右",
        "tel": "",
        "category": "基础设施:公共设施:公共厕所",
        "type": 0,
        "location": {
            "lat": 47.433286,
            "lng": 130.554269
        },
        "ad_info": {
            "adcode": 230421,
            "province": "黑龙江省",
            "city": "鹤岗市",
            "district": "萝北县"
        }
    },
    {
        "id": "13625028033581541513",
        "title": "公共厕所",
        "address": "黑龙江省鹤岗市萝北县康复路与顺和街交叉口正西方向195米左右",
        "tel": "",
        "category": "基础设施:公共设施:公共厕所",
        "type": 0,
        "location": {
            "lat": 47.551256,
            "lng": 130.449331
        },
        "ad_info": {
            "adcode": 230421,
            "province": "黑龙江省",
            "city": "鹤岗市",
            "district": "萝北县"
        }
    },
    {
        "id": "9495686407199012766",
        "title": "公共厕所",
        "address": "黑龙江省鹤岗市萝北县共青路与梧桐大街交叉口东南方向49米左右",
        "tel": "",
        "category": "基础设施:公共设施:公共厕所",
        "type": 0,
        "location": {
            "lat": 47.581357,
            "lng": 130.82009
        },
        "ad_info": {
            "adcode": 230421,
            "province": "黑龙江省",
            "city": "鹤岗市",
            "district": "萝北县"
        }
    },
    {
        "id": "17677203289896131131",
        "title": "公共厕所",
        "address": "黑龙江省鹤岗市萝北县鹤嘉西线附近",
        "tel": "",
        "category": "基础设施:公共设施:公共厕所",
        "type": 0,
        "location": {
            "lat": 48.191565,
            "lng": 130.043871
        },
        "ad_info": {
            "adcode": 230421,
            "province": "黑龙江省",
            "city": "鹤岗市",
            "district": "萝北县"
        }
    },
    {
        "id": "12010149991817128249",
        "title": "公共厕所",
        "address": "黑龙江省鹤岗市东山区三新路与自建路交叉口正南方向127米左右",
        "tel": "",
        "category": "基础设施:公共设施:公共厕所",
        "type": 0,
        "location": {
            "lat": 47.352297,
            "lng": 130.338133
        },
        "ad_info": {
            "adcode": 230406,
            "province": "黑龙江省",
            "city": "鹤岗市",
            "district": "东山区"
        }
    },
    {
        "id": "9315066262764236078",
        "title": "公共厕所",
        "address": "黑龙江省鹤岗市兴山区岭北路与广场路交叉口正东方向152米左右",
        "tel": "",
        "category": "基础设施:公共设施:公共厕所",
        "type": 0,
        "location": {
            "lat": 47.379177,
            "lng": 130.327526
        },
        "ad_info": {
            "adcode": 230407,
            "province": "黑龙江省",
            "city": "鹤岗市",
            "district": "兴山区"
        }
    },
    {
        "id": "9268317056436702747",
        "title": "公共厕所",
        "address": "黑龙江省鹤岗市东山区金顶山地质公园东南侧330米",
        "tel": "",
        "category": "基础设施:公共设施:公共厕所",
        "type": 0,
        "location": {
            "lat": 47.530262,
            "lng": 129.946079
        },
        "ad_info": {
            "adcode": 230406,
            "province": "黑龙江省",
            "city": "鹤岗市",
            "district": "东山区"
        }
    },
    {
        "id": "9947598357016219465",
        "title": "公共厕所",
        "address": "黑龙江省鹤岗市兴山区广场路与青岭路交叉口正北方向1364米左右",
        "tel": "",
        "category": "基础设施:公共设施:公共厕所",
        "type": 0,
        "location": {
            "lat": 47.391139,
            "lng": 130.332818
        },
        "ad_info": {
            "adcode": 230407,
            "province": "黑龙江省",
            "city": "鹤岗市",
            "district": "兴山区"
        }
    },
    {
        "id": "9371680214824907177",
        "title": "公共厕所",
        "address": "黑龙江省鹤岗市萝北县南二道街与红光路交叉口东北方向97米左右",
        "tel": "",
        "category": "基础设施:公共设施:公共厕所",
        "type": 0,
        "location": {
            "lat": 47.573638,
            "lng": 130.827935
        },
        "ad_info": {
            "adcode": 230421,
            "province": "黑龙江省",
            "city": "鹤岗市",
            "district": "萝北县"
        }
    },
    {
        "id": "967484007253257867",
        "title": "公共厕所",
        "address": "黑龙江省鹤岗市绥滨县X131与滨北路交叉口正东方向27米左右",
        "tel": "",
        "category": "基础设施:公共设施:公共厕所",
        "type": 0,
        "location": {
            "lat": 47.549138,
            "lng": 131.853803
        },
        "ad_info": {
            "adcode": 230422,
            "province": "黑龙江省",
            "city": "鹤岗市",
            "district": "绥滨县"
        }
    },
    {
        "id": "7576275138063671010",
        "title": "公共厕所",
        "address": "黑龙江省鹤岗市萝北县名山岛-观光滑索东侧50米",
        "tel": "",
        "category": "基础设施:公共设施:公共厕所",
        "type": 0,
        "location": {
            "lat": 47.678423,
            "lng": 131.111488
        },
        "ad_info": {
            "adcode": 230421,
            "province": "黑龙江省",
            "city": "鹤岗市",
            "district": "萝北县"
        }
    },
    {
        "id": "5746018356759689271",
        "title": "公共厕所",
        "address": "黑龙江省鹤岗市东山区东山路与沿河北三道街交叉口正南方向219米左右",
        "tel": "",
        "category": "基础设施:公共设施:公共厕所",
        "type": 0,
        "location": {
            "lat": 47.350312,
            "lng": 130.323026
        },
        "ad_info": {
            "adcode": 230406,
            "province": "黑龙江省",
            "city": "鹤岗市",
            "district": "东山区"
        }
    },
    {
        "id": "14860063423740661656",
        "title": "公共厕所",
        "address": "黑龙江省鹤岗市绥滨县光明街与公园路交叉口正北方向64米左右",
        "tel": "",
        "category": "基础设施:公共设施:公共厕所",
        "type": 0,
        "location": {
            "lat": 47.52127,
            "lng": 131.692332
        },
        "ad_info": {
            "adcode": 230422,
            "province": "黑龙江省",
            "city": "鹤岗市",
            "district": "绥滨县"
        }
    },
    {
        "id": "9840330833622358115",
        "title": "公共厕所",
        "address": "黑龙江省鹤岗市东山区中国石油东山加油站(自建路南)",
        "tel": "",
        "category": "基础设施:公共设施:公共厕所",
        "type": 0,
        "location": {
            "lat": 47.354052,
            "lng": 130.323329
        },
        "ad_info": {
            "adcode": 230406,
            "province": "黑龙江省",
            "city": "鹤岗市",
            "district": "东山区"
        }
    },
    {
        "id": "3597356163808400716",
        "title": "公共厕所",
        "address": "黑龙江省鹤岗市萝北县建设街与育红路交叉口正西方向66米左右",
        "tel": "",
        "category": "基础设施:公共设施:公共厕所",
        "type": 0,
        "location": {
            "lat": 47.578729,
            "lng": 130.827131
        },
        "ad_info": {
            "adcode": 230421,
            "province": "黑龙江省",
            "city": "鹤岗市",
            "district": "萝北县"
        }
    },
    {
        "id": "12321372900200434669",
        "title": "公共厕所",
        "address": "黑龙江省鹤岗市兴山区西兴街与长征路交叉口正北方向45米左右",
        "tel": "",
        "category": "基础设施:公共设施:公共厕所",
        "type": 0,
        "location": {
            "lat": 47.364613,
            "lng": 130.310853
        },
        "ad_info": {
            "adcode": 230407,
            "province": "黑龙江省",
            "city": "鹤岗市",
            "district": "兴山区"
        }
    },
    {
        "id": "3151450658116956486",
        "title": "公共厕所",
        "address": "黑龙江省鹤岗市绥滨县Y026与北岗乡环乡路交叉口正南方向359米左右",
        "tel": "",
        "category": "基础设施:公共设施:公共厕所",
        "type": 0,
        "location": {
            "lat": 47.350042,
            "lng": 131.771475
        },
        "ad_info": {
            "adcode": 230422,
            "province": "黑龙江省",
            "city": "鹤岗市",
            "district": "绥滨县"
        }
    },
    {
        "id": "13659034003961854122",
        "title": "公共厕所",
        "address": "黑龙江省鹤岗市萝北县Y018与鹤嘉西线交叉口正南方向158米左右",
        "tel": "",
        "category": "基础设施:公共设施:公共厕所",
        "type": 0,
        "location": {
            "lat": 47.516984,
            "lng": 130.486479
        },
        "ad_info": {
            "adcode": 230421,
            "province": "黑龙江省",
            "city": "鹤岗市",
            "district": "萝北县"
        }
    },
    {
        "id": "10157932839647725821",
        "title": "公共厕所",
        "address": "黑龙江省鹤岗市萝北县名山镇景区",
        "tel": "",
        "category": "基础设施:公共设施:公共厕所",
        "type": 0,
        "location": {
            "lat": 47.681973,
            "lng": 131.13477
        },
        "ad_info": {
            "adcode": 230421,
            "province": "黑龙江省",
            "city": "鹤岗市",
            "district": "萝北县"
        }
    },
    {
        "id": "3688032071915248987",
        "title": "公共厕所",
        "address": "黑龙江省鹤岗市萝北县",
        "tel": "",
        "category": "基础设施:公共设施:公共厕所",
        "type": 0,
        "location": {
            "lat": 47.424706,
            "lng": 130.836806
        },
        "ad_info": {
            "adcode": 230421,
            "province": "黑龙江省",
            "city": "鹤岗市",
            "district": "萝北县"
        }
    },
    {
        "id": "15130094353298109996",
        "title": "公共厕所",
        "address": "黑龙江省鹤岗市绥滨县C768与智远街交叉口西南方向321米左右",
        "tel": "",
        "category": "基础设施:公共设施:公共厕所",
        "type": 0,
        "location": {
            "lat": 47.520429,
            "lng": 131.698974
        },
        "ad_info": {
            "adcode": 230422,
            "province": "黑龙江省",
            "city": "鹤岗市",
            "district": "绥滨县"
        }
    },
    {
        "id": "12099868340810625586",
        "title": "公共厕所",
        "address": "黑龙江省鹤岗市绥滨县美食街与龙兴路交叉口东北方向23米左右",
        "tel": "",
        "category": "基础设施:公共设施:公共厕所",
        "type": 0,
        "location": {
            "lat": 47.522276,
            "lng": 131.695341
        },
        "ad_info": {
            "adcode": 230422,
            "province": "黑龙江省",
            "city": "鹤岗市",
            "district": "绥滨县"
        }
    },
    {
        "id": "2189394028194993639",
        "title": "公共厕所",
        "address": "黑龙江省鹤岗市萝北县Y018与鹤嘉西线交叉口西北方向161米左右",
        "tel": "",
        "category": "基础设施:公共设施:公共厕所",
        "type": 0,
        "location": {
            "lat": 47.519683,
            "lng": 130.485156
        },
        "ad_info": {
            "adcode": 230421,
            "province": "黑龙江省",
            "city": "鹤岗市",
            "district": "萝北县"
        }
    },
    {
        "id": "10145994718986718325",
        "title": "公共厕所",
        "address": "黑龙江省鹤岗市萝北县共建路与鹤嘉公路交叉口正北方向50米左右",
        "tel": "",
        "category": "基础设施:公共设施:公共厕所",
        "type": 0,
        "location": {
            "lat": 47.545073,
            "lng": 130.45866
        },
        "ad_info": {
            "adcode": 230421,
            "province": "黑龙江省",
            "city": "鹤岗市",
            "district": "萝北县"
        }
    },
    {
        "id": "11538819676486436316",
        "title": "公共厕所",
        "address": "黑龙江省鹤岗市萝北县南二道街与宝林路交叉口西南方向32米左右",
        "tel": "",
        "category": "基础设施:公共设施:公共厕所",
        "type": 0,
        "location": {
            "lat": 47.573284,
            "lng": 130.837482
        },
        "ad_info": {
            "adcode": 230421,
            "province": "黑龙江省",
            "city": "鹤岗市",
            "district": "萝北县"
        }
    },
    {
        "id": "17104750581640177378",
        "title": "公共厕所",
        "address": "黑龙江省鹤岗市兴安区二砖街与兴建路交叉口正南方向128米左右",
        "tel": "",
        "category": "基础设施:公共设施:公共厕所",
        "type": 0,
        "location": {
            "lat": 47.262629,
            "lng": 130.229077
        },
        "ad_info": {
            "adcode": 230405,
            "province": "黑龙江省",
            "city": "鹤岗市",
            "district": "兴安区"
        }
    },
    {
        "id": "5386614147944666414",
        "title": "公共厕所",
        "address": "黑龙江省鹤岗市东山区G201与向阳街交叉口正西方向313米左右",
        "tel": "",
        "category": "基础设施:公共设施:公共厕所",
        "type": 0,
        "location": {
            "lat": 47.111509,
            "lng": 130.295405
        },
        "ad_info": {
            "adcode": 230406,
            "province": "黑龙江省",
            "city": "鹤岗市",
            "district": "东山区"
        }
    },
    {
        "id": "13295339697695474379",
        "title": "公共厕所",
        "address": "黑龙江省鹤岗市向阳区南翼街道南翼路鹤岗第十中学",
        "tel": "",
        "category": "基础设施:公共设施:公共厕所",
        "type": 0,
        "location": {
            "lat": 47.336399,
            "lng": 130.313235
        },
        "ad_info": {
            "adcode": 230402,
            "province": "黑龙江省",
            "city": "鹤岗市",
            "district": "向阳区"
        }
    },
    {
        "id": "17379404339694027429",
        "title": "公共厕所",
        "address": "黑龙江省鹤岗市萝北县景观路与迎宾街交叉口西北方向95米左右",
        "tel": "",
        "category": "基础设施:公共设施:公共厕所",
        "type": 0,
        "location": {
            "lat": 47.577065,
            "lng": 130.834309
        },
        "ad_info": {
            "adcode": 230421,
            "province": "黑龙江省",
            "city": "鹤岗市",
            "district": "萝北县"
        }
    },
    {
        "id": "3388740668160371979",
        "title": "公共厕所",
        "address": "黑龙江省鹤岗市绥滨县上甘岭路与惠泽街交叉口正北方向69米左右",
        "tel": "",
        "category": "基础设施:公共设施:公共厕所",
        "type": 0,
        "location": {
            "lat": 47.275535,
            "lng": 131.360535
        },
        "ad_info": {
            "adcode": 230422,
            "province": "黑龙江省",
            "city": "鹤岗市",
            "district": "绥滨县"
        }
    },
    {
        "id": "14823013503630985775",
        "title": "公共厕所",
        "address": "黑龙江省鹤岗市萝北县二九零街与西环路交叉口正东方向448米左右",
        "tel": "",
        "category": "基础设施:公共设施:公共厕所",
        "type": 0,
        "location": {
            "lat": 47.418863,
            "lng": 130.530695
        },
        "ad_info": {
            "adcode": 230421,
            "province": "黑龙江省",
            "city": "鹤岗市",
            "district": "萝北县"
        }
    },
    {
        "id": "16703232477813093728",
        "title": "公共厕所",
        "address": "黑龙江省鹤岗市萝北县尚志大街与文明路交叉口正南方向71米左右",
        "tel": "",
        "category": "基础设施:公共设施:公共厕所",
        "type": 0,
        "location": {
            "lat": 47.556649,
            "lng": 130.460404
        },
        "ad_info": {
            "adcode": 230421,
            "province": "黑龙江省",
            "city": "鹤岗市",
            "district": "萝北县"
        }
    },
    {
        "id": "3668384869707278905",
        "title": "公共厕所",
        "address": "黑龙江省鹤岗市向阳区红军路与老站路交叉口西北方向18米左右",
        "tel": "",
        "category": "基础设施:公共设施:公共厕所",
        "type": 0,
        "location": {
            "lat": 47.345132,
            "lng": 130.285121
        },
        "ad_info": {
            "adcode": 230402,
            "province": "黑龙江省",
            "city": "鹤岗市",
            "district": "向阳区"
        }
    },
    {
        "id": "17454155440951528855",
        "title": "公共厕所",
        "address": "黑龙江省鹤岗市东山区X127与迎宾大道交叉口正南方向1148米左右",
        "tel": "",
        "category": "基础设施:公共设施:公共厕所",
        "type": 0,
        "location": {
            "lat": 47.1615,
            "lng": 130.254312
        },
        "ad_info": {
            "adcode": 230406,
            "province": "黑龙江省",
            "city": "鹤岗市",
            "district": "东山区"
        }
    },
    {
        "id": "12411362586077088492",
        "title": "公共厕所",
        "address": "黑龙江省鹤岗市兴安区供销南街与兴长路交叉口正南方向47米左右",
        "tel": "",
        "category": "基础设施:公共设施:公共厕所",
        "type": 0,
        "location": {
            "lat": 47.252377,
            "lng": 130.23126
        },
        "ad_info": {
            "adcode": 230405,
            "province": "黑龙江省",
            "city": "鹤岗市",
            "district": "兴安区"
        }
    },
    {
        "id": "3070220433785204345",
        "title": "公共厕所",
        "address": "黑龙江省鹤岗市绥滨县光明街与育才路交叉口西北方向41米左右",
        "tel": "",
        "category": "基础设施:公共设施:公共厕所",
        "type": 0,
        "location": {
            "lat": 47.519749,
            "lng": 131.680722
        },
        "ad_info": {
            "adcode": 230422,
            "province": "黑龙江省",
            "city": "鹤岗市",
            "district": "绥滨县"
        }
    },
    {
        "id": "5928928755009304220",
        "title": "公共厕所",
        "address": "黑龙江省鹤岗市东山区南翼路与河堤街交叉口正南方向369米左右",
        "tel": "",
        "category": "基础设施:公共设施:公共厕所",
        "type": 0,
        "location": {
            "lat": 47.33285,
            "lng": 130.314709
        },
        "ad_info": {
            "adcode": 230406,
            "province": "黑龙江省",
            "city": "鹤岗市",
            "district": "东山区"
        }
    },
    {
        "id": "15881525088498027661",
        "title": "公共厕所",
        "address": "黑龙江省鹤岗市兴山区兴山路与尚志路交叉口东北方向62米左右",
        "tel": "",
        "category": "基础设施:公共设施:公共厕所",
        "type": 0,
        "location": {
            "lat": 47.35946,
            "lng": 130.311469
        },
        "ad_info": {
            "adcode": 230407,
            "province": "黑龙江省",
            "city": "鹤岗市",
            "district": "兴山区"
        }
    },
    {
        "id": "11506376735293405254",
        "title": "公共厕所",
        "address": "黑龙江省鹤岗市兴山区兴山路与十三厂街交叉口西北方向158米左右",
        "tel": "",
        "category": "基础设施:公共设施:公共厕所",
        "type": 0,
        "location": {
            "lat": 47.36538,
            "lng": 130.312323
        },
        "ad_info": {
            "adcode": 230407,
            "province": "黑龙江省",
            "city": "鹤岗市",
            "district": "兴山区"
        }
    },
    {
        "id": "3749461730599110458",
        "title": "公共厕所",
        "address": "黑龙江省鹤岗市萝北县联营支线附近",
        "tel": "",
        "category": "基础设施:公共设施:公共厕所",
        "type": 0,
        "location": {
            "lat": 47.955671,
            "lng": 130.413862
        },
        "ad_info": {
            "adcode": 230421,
            "province": "黑龙江省",
            "city": "鹤岗市",
            "district": "萝北县"
        }
    },
    {
        "id": "16391421807754421933",
        "title": "公共厕所",
        "address": "黑龙江省鹤岗市东山区幸福路与新村路交叉口正东方向148米左右",
        "tel": "",
        "category": "基础设施:公共设施:公共厕所",
        "type": 0,
        "location": {
            "lat": 47.340837,
            "lng": 130.344001
        },
        "ad_info": {
            "adcode": 230406,
            "province": "黑龙江省",
            "city": "鹤岗市",
            "district": "东山区"
        }
    },
    {
        "id": "6194038536973346483",
        "title": "公共厕所",
        "address": "黑龙江省鹤岗市绥滨县智远街与美食街交叉口正北方向70米左右",
        "tel": "",
        "category": "基础设施:公共设施:公共厕所",
        "type": 0,
        "location": {
            "lat": 47.523564,
            "lng": 131.702005
        },
        "ad_info": {
            "adcode": 230422,
            "province": "黑龙江省",
            "city": "鹤岗市",
            "district": "绥滨县"
        }
    },
    {
        "id": "4480280521017779398",
        "title": "公共厕所",
        "address": "黑龙江省鹤岗市萝北县新城路与鹤嘉西线交叉口正东方向222米左右",
        "tel": "",
        "category": "基础设施:公共设施:公共厕所",
        "type": 0,
        "location": {
            "lat": 47.556343,
            "lng": 130.446968
        },
        "ad_info": {
            "adcode": 230421,
            "province": "黑龙江省",
            "city": "鹤岗市",
            "district": "萝北县"
        }
    },
    {
        "id": "4905790859333761055",
        "title": "公共厕所",
        "address": "黑龙江省鹤岗市萝北县鹤嘉西线附近",
        "tel": "",
        "category": "基础设施:公共设施:公共厕所",
        "type": 0,
        "location": {
            "lat": 48.191039,
            "lng": 130.044373
        },
        "ad_info": {
            "adcode": 230421,
            "province": "黑龙江省",
            "city": "鹤岗市",
            "district": "萝北县"
        }
    },
    {
        "id": "5734021999885347759",
        "title": "公共厕所",
        "address": "黑龙江省鹤岗市东山区富民食杂店(新华路)南侧130米",
        "tel": "",
        "category": "基础设施:公共设施:公共厕所",
        "type": 0,
        "location": {
            "lat": 47.1199,
            "lng": 130.305225
        },
        "ad_info": {
            "adcode": 230406,
            "province": "黑龙江省",
            "city": "鹤岗市",
            "district": "东山区"
        }
    },
    {
        "id": "5565924969477356277",
        "title": "公共厕所",
        "address": "黑龙江省鹤岗市东山区幸福路与改革路交叉口正南方向328米左右",
        "tel": "",
        "category": "基础设施:公共设施:公共厕所",
        "type": 0,
        "location": {
            "lat": 47.336349,
            "lng": 130.349896
        },
        "ad_info": {
            "adcode": 230406,
            "province": "黑龙江省",
            "city": "鹤岗市",
            "district": "东山区"
        }
    },
    {
        "id": "13542488292650105357",
        "title": "公共厕所",
        "address": "黑龙江省鹤岗市萝北县中兴路与兴林街交叉口西北方向166米左右",
        "tel": "",
        "category": "基础设施:公共设施:公共厕所",
        "type": 0,
        "location": {
            "lat": 47.561466,
            "lng": 130.454141
        },
        "ad_info": {
            "adcode": 230421,
            "province": "黑龙江省",
            "city": "鹤岗市",
            "district": "萝北县"
        }
    },
    {
        "id": "3775688548186401625",
        "title": "公共厕所",
        "address": "黑龙江省鹤岗市东山区新丰路与龙源路交叉口西北方向576米左右",
        "tel": "",
        "category": "基础设施:公共设施:公共厕所",
        "type": 0,
        "location": {
            "lat": 47.333345,
            "lng": 130.233312
        },
        "ad_info": {
            "adcode": 230406,
            "province": "黑龙江省",
            "city": "鹤岗市",
            "district": "东山区"
        }
    },
    {
        "id": "2716621592307134900",
        "title": "公共厕所",
        "address": "黑龙江省鹤岗市东山区教育路与新村路交叉口正北方向102米左右",
        "tel": "",
        "category": "基础设施:公共设施:公共厕所",
        "type": 0,
        "location": {
            "lat": 47.339444,
            "lng": 130.340751
        },
        "ad_info": {
            "adcode": 230406,
            "province": "黑龙江省",
            "city": "鹤岗市",
            "district": "东山区"
        }
    },
    {
        "id": "10161377927155153239",
        "title": "公共厕所",
        "address": "黑龙江省鹤岗市绥滨县公园路与广信街交叉口正东方向171米左右",
        "tel": "",
        "category": "基础设施:公共设施:公共厕所",
        "type": 0,
        "location": {
            "lat": 47.519934,
            "lng": 131.694681
        },
        "ad_info": {
            "adcode": 230422,
            "province": "黑龙江省",
            "city": "鹤岗市",
            "district": "绥滨县"
        }
    },
    {
        "id": "4236385203381652176",
        "title": "公共厕所",
        "address": "黑龙江省鹤岗市萝北县尚志大街与文明路交叉口正北方向86米左右",
        "tel": "",
        "category": "基础设施:公共设施:公共厕所",
        "type": 0,
        "location": {
            "lat": 47.558025,
            "lng": 130.460231
        },
        "ad_info": {
            "adcode": 230421,
            "province": "黑龙江省",
            "city": "鹤岗市",
            "district": "萝北县"
        }
    },
    {
        "id": "4784633338684404864",
        "title": "公共厕所",
        "address": "黑龙江省鹤岗市东山区G332",
        "tel": "",
        "category": "基础设施:公共设施:公共厕所",
        "type": 0,
        "location": {
            "lat": 47.347831,
            "lng": 130.445868
        },
        "ad_info": {
            "adcode": 230406,
            "province": "黑龙江省",
            "city": "鹤岗市",
            "district": "东山区"
        }
    },
    {
        "id": "8958242466802289594",
        "title": "公共厕所",
        "address": "黑龙江省鹤岗市绥滨县S312与Y020交叉口西南方向395米左右",
        "tel": "",
        "category": "基础设施:公共设施:公共厕所",
        "type": 0,
        "location": {
            "lat": 47.544055,
            "lng": 131.851158
        },
        "ad_info": {
            "adcode": 230422,
            "province": "黑龙江省",
            "city": "鹤岗市",
            "district": "绥滨县"
        }
    },
    {
        "id": "11506634031685742535",
        "title": "公共厕所",
        "address": "黑龙江省鹤岗市兴山区兴山路与运输路交叉口西南方向57米左右",
        "tel": "",
        "category": "基础设施:公共设施:公共厕所",
        "type": 0,
        "location": {
            "lat": 47.366467,
            "lng": 130.319685
        },
        "ad_info": {
            "adcode": 230407,
            "province": "黑龙江省",
            "city": "鹤岗市",
            "district": "兴山区"
        }
    },
    {
        "id": "3591527418161398490",
        "title": "公共厕所",
        "address": "黑龙江省鹤岗市东山区兴助街与幸福路交叉口东南方向529米左右",
        "tel": "",
        "category": "基础设施:公共设施:公共厕所",
        "type": 0,
        "location": {
            "lat": 47.34709,
            "lng": 130.346192
        },
        "ad_info": {
            "adcode": 230406,
            "province": "黑龙江省",
            "city": "鹤岗市",
            "district": "东山区"
        }
    },
    {
        "id": "3972388846304335174",
        "title": "公共厕所",
        "address": "黑龙江省鹤岗市萝北县联营支线西50米",
        "tel": "",
        "category": "基础设施:公共设施:公共厕所",
        "type": 0,
        "location": {
            "lat": 48.15137,
            "lng": 130.301813
        },
        "ad_info": {
            "adcode": 230421,
            "province": "黑龙江省",
            "city": "鹤岗市",
            "district": "萝北县"
        }
    },
    {
        "id": "4254105909880588218",
        "title": "公共厕所",
        "address": "黑龙江省鹤岗市兴山区兴山路与尚志路交叉口东北方向28米左右",
        "tel": "",
        "category": "基础设施:公共设施:公共厕所",
        "type": 0,
        "location": {
            "lat": 47.361011,
            "lng": 130.304656
        },
        "ad_info": {
            "adcode": 230407,
            "province": "黑龙江省",
            "city": "鹤岗市",
            "district": "兴山区"
        }
    },
    {
        "id": "11835810971277726954",
        "title": "公共厕所",
        "address": "黑龙江省鹤岗市东山区G201与镇前路交叉口正西方向228米左右",
        "tel": "",
        "category": "基础设施:公共设施:公共厕所",
        "type": 0,
        "location": {
            "lat": 47.124216,
            "lng": 130.297956
        },
        "ad_info": {
            "adcode": 230406,
            "province": "黑龙江省",
            "city": "鹤岗市",
            "district": "东山区"
        }
    },
    {
        "id": "4676664057877770093",
        "title": "公共厕所",
        "address": "黑龙江省鹤岗市绥滨县近思街与龙旺路交叉口东南方向37米左右",
        "tel": "",
        "category": "基础设施:公共设施:公共厕所",
        "type": 0,
        "location": {
            "lat": 47.524648,
            "lng": 131.688528
        },
        "ad_info": {
            "adcode": 230422,
            "province": "黑龙江省",
            "city": "鹤岗市",
            "district": "绥滨县"
        }
    },
    {
        "id": "18033537012835891957",
        "title": "公共厕所",
        "address": "黑龙江省鹤岗市向阳区矿工路与铁东路交叉口西北方向113米左右",
        "tel": "",
        "category": "基础设施:公共设施:公共厕所",
        "type": 0,
        "location": {
            "lat": 47.318349,
            "lng": 130.291579
        },
        "ad_info": {
            "adcode": 230402,
            "province": "黑龙江省",
            "city": "鹤岗市",
            "district": "向阳区"
        }
    },
    {
        "id": "17319482903354997797",
        "title": "公共厕所",
        "address": "黑龙江省鹤岗市萝北县北一街与康复路交叉口正南方向90米左右",
        "tel": "",
        "category": "基础设施:公共设施:公共厕所",
        "type": 0,
        "location": {
            "lat": 47.553131,
            "lng": 130.451602
        },
        "ad_info": {
            "adcode": 230421,
            "province": "黑龙江省",
            "city": "鹤岗市",
            "district": "萝北县"
        }
    },
    {
        "id": "14294515244896195786",
        "title": "公共厕所",
        "address": "黑龙江省鹤岗市萝北县中心路与花园街交叉口正东方向150米左右",
        "tel": "",
        "category": "基础设施:公共设施:公共厕所",
        "type": 0,
        "location": {
            "lat": 47.629171,
            "lng": 131.118001
        },
        "ad_info": {
            "adcode": 230421,
            "province": "黑龙江省",
            "city": "鹤岗市",
            "district": "萝北县"
        }
    },
    {
        "id": "14892229977195560776",
        "title": "公共厕所",
        "address": "黑龙江省鹤岗市绥滨县滨北路与红星大街交叉口正北方向191米左右",
        "tel": "",
        "category": "基础设施:公共设施:公共厕所",
        "type": 0,
        "location": {
            "lat": 47.298842,
            "lng": 131.854644
        },
        "ad_info": {
            "adcode": 230422,
            "province": "黑龙江省",
            "city": "鹤岗市",
            "district": "绥滨县"
        }
    },
    {
        "id": "11356407844057561127",
        "title": "公共厕所",
        "address": "黑龙江省鹤岗市萝北县名山岛东门东侧约30米",
        "tel": "",
        "category": "基础设施:公共设施:公共厕所",
        "type": 0,
        "location": {
            "lat": 47.677832,
            "lng": 131.111705
        },
        "ad_info": {
            "adcode": 230421,
            "province": "黑龙江省",
            "city": "鹤岗市",
            "district": "萝北县"
        }
    },
    {
        "id": "11371230348265325438",
        "title": "公共厕所",
        "address": "黑龙江省鹤岗市萝北县军川大街与创业路交叉口正南方向143米左右",
        "tel": "",
        "category": "基础设施:公共设施:公共厕所",
        "type": 0,
        "location": {
            "lat": 47.534436,
            "lng": 131.269608
        },
        "ad_info": {
            "adcode": 230421,
            "province": "黑龙江省",
            "city": "鹤岗市",
            "district": "萝北县"
        }
    },
    {
        "id": "16777576461116546096",
        "title": "公共厕所",
        "address": "黑龙江省鹤岗市萝北县G332与Y414交叉口西北方向1395米左右",
        "tel": "",
        "category": "基础设施:公共设施:公共厕所",
        "type": 0,
        "location": {
            "lat": 47.581769,
            "lng": 130.69548
        },
        "ad_info": {
            "adcode": 230421,
            "province": "黑龙江省",
            "city": "鹤岗市",
            "district": "萝北县"
        }
    },
    {
        "id": "15595533186668418216",
        "title": "公共厕所",
        "address": "黑龙江省鹤岗市兴安区供销南街与兴长路交叉口正北方向415米左右",
        "tel": "",
        "category": "基础设施:公共设施:公共厕所",
        "type": 0,
        "location": {
            "lat": 47.256273,
            "lng": 130.229381
        },
        "ad_info": {
            "adcode": 230405,
            "province": "黑龙江省",
            "city": "鹤岗市",
            "district": "兴安区"
        }
    },
    {
        "id": "17192388509568304267",
        "title": "公共厕所",
        "address": "黑龙江省鹤岗市萝北县文明路与顺和街交叉口西南方向151米左右",
        "tel": "",
        "category": "基础设施:公共设施:公共厕所",
        "type": 0,
        "location": {
            "lat": 47.55206,
            "lng": 130.460625
        },
        "ad_info": {
            "adcode": 230421,
            "province": "黑龙江省",
            "city": "鹤岗市",
            "district": "萝北县"
        }
    },
    {
        "id": "1534839517992634254",
        "title": "公共厕所",
        "address": "黑龙江省鹤岗市萝北县北一街与鹤嘉东线交叉口西南方向84米左右",
        "tel": "",
        "category": "基础设施:公共设施:公共厕所",
        "type": 0,
        "location": {
            "lat": 47.554909,
            "lng": 130.462844
        },
        "ad_info": {
            "adcode": 230421,
            "province": "黑龙江省",
            "city": "鹤岗市",
            "district": "萝北县"
        }
    },
    {
        "id": "10679539023054292301",
        "title": "公共厕所",
        "address": "黑龙江省鹤岗市萝北县梧桐大街与永泰路交叉口正北方向221米左右",
        "tel": "",
        "category": "基础设施:公共设施:公共厕所",
        "type": 0,
        "location": {
            "lat": 47.583901,
            "lng": 130.822684
        },
        "ad_info": {
            "adcode": 230421,
            "province": "黑龙江省",
            "city": "鹤岗市",
            "district": "萝北县"
        }
    },
    {
        "id": "12928339202001998998",
        "title": "公共厕所",
        "address": "黑龙江省鹤岗市东山区东岗路与哈萝公路交叉口东北方向34米左右",
        "tel": "",
        "category": "基础设施:公共设施:公共厕所",
        "type": 0,
        "location": {
            "lat": 47.32965,
            "lng": 130.348785
        },
        "ad_info": {
            "adcode": 230406,
            "province": "黑龙江省",
            "city": "鹤岗市",
            "district": "东山区"
        }
    },
    {
        "id": "4190754248544770074",
        "title": "公共厕所",
        "address": "黑龙江省鹤岗市萝北县中兴路与兴林街交叉口东南方向92米左右",
        "tel": "",
        "category": "基础设施:公共设施:公共厕所",
        "type": 0,
        "location": {
            "lat": 47.560147,
            "lng": 130.456778
        },
        "ad_info": {
            "adcode": 230421,
            "province": "黑龙江省",
            "city": "鹤岗市",
            "district": "萝北县"
        }
    },
    {
        "id": "4906522107010749388",
        "title": "公共厕所",
        "address": "黑龙江省鹤岗市工农区三宝路与南红旗路交叉口正西方向497米左右",
        "tel": "",
        "category": "基础设施:公共设施:公共厕所",
        "type": 0,
        "location": {
            "lat": 47.290733,
            "lng": 130.254329
        },
        "ad_info": {
            "adcode": 230403,
            "province": "黑龙江省",
            "city": "鹤岗市",
            "district": "工农区"
        }
    },
    {
        "id": "4590832075415005957",
        "title": "公共厕所",
        "address": "黑龙江省鹤岗市兴安区兴北路与通村路交叉口西南方向68米左右",
        "tel": "",
        "category": "基础设施:公共设施:公共厕所",
        "type": 0,
        "location": {
            "lat": 47.256925,
            "lng": 130.244728
        },
        "ad_info": {
            "adcode": 230405,
            "province": "黑龙江省",
            "city": "鹤岗市",
            "district": "兴安区"
        }
    },
    {
        "id": "15460346247481587390",
        "title": "公共厕所",
        "address": "黑龙江省鹤岗市向阳区南翼路与河堤街交叉口正南方向200米左右",
        "tel": "",
        "category": "基础设施:公共设施:公共厕所",
        "type": 0,
        "location": {
            "lat": 47.33438,
            "lng": 130.314305
        },
        "ad_info": {
            "adcode": 230402,
            "province": "黑龙江省",
            "city": "鹤岗市",
            "district": "向阳区"
        }
    },
    {
        "id": "8239160022492037202",
        "title": "公共厕所",
        "address": "黑龙江省鹤岗市东山区国防路与铁东路交叉口西南方向1066米左右",
        "tel": "",
        "category": "基础设施:公共设施:公共厕所",
        "type": 0,
        "location": {
            "lat": 47.317413,
            "lng": 130.317494
        },
        "ad_info": {
            "adcode": 230406,
            "province": "黑龙江省",
            "city": "鹤岗市",
            "district": "东山区"
        }
    },
    {
        "id": "15003785050881487576",
        "title": "公共厕所",
        "address": "黑龙江省鹤岗市萝北县G331与Y411交叉口正东方向501米左右",
        "tel": "",
        "category": "基础设施:公共设施:公共厕所",
        "type": 0,
        "location": {
            "lat": 47.746143,
            "lng": 130.949489
        },
        "ad_info": {
            "adcode": 230421,
            "province": "黑龙江省",
            "city": "鹤岗市",
            "district": "萝北县"
        }
    },
    {
        "id": "1906537219251864597",
        "title": "公共厕所",
        "address": "黑龙江省鹤岗市绥滨县富强路与文化街交叉口正东方向129米左右",
        "tel": "",
        "category": "基础设施:公共设施:公共厕所",
        "type": 0,
        "location": {
            "lat": 47.289203,
            "lng": 131.862533
        },
        "ad_info": {
            "adcode": 230422,
            "province": "黑龙江省",
            "city": "鹤岗市",
            "district": "绥滨县"
        }
    },
    {
        "id": "15387819808562518104",
        "title": "公共厕所",
        "address": "黑龙江省鹤岗市工农区团结桥与红军路交叉口正西方向132米左右",
        "tel": "",
        "category": "基础设施:公共设施:公共厕所",
        "type": 0,
        "location": {
            "lat": 47.345088,
            "lng": 130.283165
        },
        "ad_info": {
            "adcode": 230403,
            "province": "黑龙江省",
            "city": "鹤岗市",
            "district": "工农区"
        }
    },
    {
        "id": "8261941802445962540",
        "title": "公共厕所",
        "address": "黑龙江省鹤岗市萝北县伟东林场东侧290米",
        "tel": "",
        "category": "基础设施:公共设施:公共厕所",
        "type": 0,
        "location": {
            "lat": 47.953342,
            "lng": 130.564853
        },
        "ad_info": {
            "adcode": 230421,
            "province": "黑龙江省",
            "city": "鹤岗市",
            "district": "萝北县"
        }
    },
    {
        "id": "5065821161380780318",
        "title": "公共厕所",
        "address": "黑龙江省鹤岗市萝北县兴林街与康复路交叉口正南方向209米左右",
        "tel": "",
        "category": "基础设施:公共设施:公共厕所",
        "type": 0,
        "location": {
            "lat": 47.558117,
            "lng": 130.449249
        },
        "ad_info": {
            "adcode": 230421,
            "province": "黑龙江省",
            "city": "鹤岗市",
            "district": "萝北县"
        }
    },
    {
        "id": "1223011572858903215",
        "title": "公共厕所",
        "address": "黑龙江省鹤岗市东山区东岗路与改革路交叉口西北方向136米左右",
        "tel": "",
        "category": "基础设施:公共设施:公共厕所",
        "type": 0,
        "location": {
            "lat": 47.330076,
            "lng": 130.34486
        },
        "ad_info": {
            "adcode": 230406,
            "province": "黑龙江省",
            "city": "鹤岗市",
            "district": "东山区"
        }
    },
    {
        "id": "7353123111103287759",
        "title": "公共厕所",
        "address": "黑龙江省鹤岗市绥滨县共建街与龙泉路交叉口正南方向32米左右",
        "tel": "",
        "category": "基础设施:公共设施:公共厕所",
        "type": 0,
        "location": {
            "lat": 47.524259,
            "lng": 131.678542
        },
        "ad_info": {
            "adcode": 230422,
            "province": "黑龙江省",
            "city": "鹤岗市",
            "district": "绥滨县"
        }
    },
    {
        "id": "4789048527500953571",
        "title": "公共厕所",
        "address": "黑龙江省鹤岗市工农区工交路与铁西路辅路交叉口西北300米",
        "tel": "",
        "category": "基础设施:公共设施:公共厕所",
        "type": 0,
        "location": {
            "lat": 47.318906,
            "lng": 130.284059
        },
        "ad_info": {
            "adcode": 230403,
            "province": "黑龙江省",
            "city": "鹤岗市",
            "district": "工农区"
        }
    },
    {
        "id": "10716709200993332737",
        "title": "公共厕所",
        "address": "黑龙江省鹤岗市东山区",
        "tel": "",
        "category": "基础设施:公共设施:公共厕所",
        "type": 0,
        "location": {
            "lat": 47.529953,
            "lng": 129.946217
        },
        "ad_info": {
            "adcode": 230406,
            "province": "黑龙江省",
            "city": "鹤岗市",
            "district": "东山区"
        }
    },
    {
        "id": "7707842739312035191",
        "title": "公共厕所",
        "address": "黑龙江省鹤岗市萝北县C764与Y401交叉口正南方向175米左右",
        "tel": "",
        "category": "基础设施:公共设施:公共厕所",
        "type": 0,
        "location": {
            "lat": 47.542686,
            "lng": 131.254709
        },
        "ad_info": {
            "adcode": 230421,
            "province": "黑龙江省",
            "city": "鹤岗市",
            "district": "萝北县"
        }
    },
    {
        "id": "1854721584008215591",
        "title": "公共厕所",
        "address": "黑龙江省鹤岗市萝北县共建路与鹤嘉公路交叉口正北方向231米左右",
        "tel": "",
        "category": "基础设施:公共设施:公共厕所",
        "type": 0,
        "location": {
            "lat": 47.54663,
            "lng": 130.45795
        },
        "ad_info": {
            "adcode": 230421,
            "province": "黑龙江省",
            "city": "鹤岗市",
            "district": "萝北县"
        }
    },
    {
        "id": "15796630211747660083",
        "title": "公共厕所",
        "address": "黑龙江省鹤岗市萝北县新城路与鹤嘉西线交叉口东北方向86米左右",
        "tel": "",
        "category": "基础设施:公共设施:公共厕所",
        "type": 0,
        "location": {
            "lat": 47.556961,
            "lng": 130.444741
        },
        "ad_info": {
            "adcode": 230421,
            "province": "黑龙江省",
            "city": "鹤岗市",
            "district": "萝北县"
        }
    },
    {
        "id": "15967383847497592142",
        "title": "公共厕所",
        "address": "黑龙江省鹤岗市向阳区新兴路鹤岗市儿童公园(北侧)",
        "tel": "",
        "category": "基础设施:公共设施:公共厕所",
        "type": 0,
        "location": {
            "lat": 47.353698,
            "lng": 130.293807
        },
        "ad_info": {
            "adcode": 230402,
            "province": "黑龙江省",
            "city": "鹤岗市",
            "district": "向阳区"
        }
    },
    {
        "id": "895024302075570955",
        "title": "公共厕所",
        "address": "黑龙江省鹤岗市萝北县依兰路与名山街交叉口正南方向45米左右",
        "tel": "",
        "category": "基础设施:公共设施:公共厕所",
        "type": 0,
        "location": {
            "lat": 47.435926,
            "lng": 130.553079
        },
        "ad_info": {
            "adcode": 230421,
            "province": "黑龙江省",
            "city": "鹤岗市",
            "district": "萝北县"
        }
    },
    {
        "id": "17717191880232729062",
        "title": "公共厕所",
        "address": "黑龙江省鹤岗市东山区三新路与自建路交叉口正西方向179米左右",
        "tel": "",
        "category": "基础设施:公共设施:公共厕所",
        "type": 0,
        "location": {
            "lat": 47.353682,
            "lng": 130.328884
        },
        "ad_info": {
            "adcode": 230406,
            "province": "黑龙江省",
            "city": "鹤岗市",
            "district": "东山区"
        }
    },
    {
        "id": "4989529405349666743",
        "title": "公共厕所",
        "address": "黑龙江省鹤岗市萝北县G331与鹤名公路交叉口正南方向76米左右",
        "tel": "",
        "category": "基础设施:公共设施:公共厕所",
        "type": 0,
        "location": {
            "lat": 47.673858,
            "lng": 131.072963
        },
        "ad_info": {
            "adcode": 230421,
            "province": "黑龙江省",
            "city": "鹤岗市",
            "district": "萝北县"
        }
    },
    {
        "id": "11159187842866056242",
        "title": "公共厕所",
        "address": "黑龙江省鹤岗市工农区支架路与清源湖路交叉口正西方向30米左右",
        "tel": "",
        "category": "基础设施:公共设施:公共厕所",
        "type": 0,
        "location": {
            "lat": 47.317674,
            "lng": 130.257393
        },
        "ad_info": {
            "adcode": 230403,
            "province": "黑龙江省",
            "city": "鹤岗市",
            "district": "工农区"
        }
    },
    {
        "id": "11414056023965417244",
        "title": "公共厕所",
        "address": "黑龙江省鹤岗市兴安区兴建路与兴长路交叉口西北方向477米左右",
        "tel": "",
        "category": "基础设施:公共设施:公共厕所",
        "type": 0,
        "location": {
            "lat": 47.25821,
            "lng": 130.231904
        },
        "ad_info": {
            "adcode": 230405,
            "province": "黑龙江省",
            "city": "鹤岗市",
            "district": "兴安区"
        }
    },
    {
        "id": "5760357317465973701",
        "title": "公共厕所",
        "address": "黑龙江省鹤岗市萝北县鹤嘉西线附近",
        "tel": "",
        "category": "基础设施:公共设施:公共厕所",
        "type": 0,
        "location": {
            "lat": 47.792384,
            "lng": 130.207771
        },
        "ad_info": {
            "adcode": 230421,
            "province": "黑龙江省",
            "city": "鹤岗市",
            "district": "萝北县"
        }
    },
    {
        "id": "15846511831210053391",
        "title": "公共厕所",
        "address": "黑龙江省鹤岗市兴安区兴建小区西侧150米",
        "tel": "",
        "category": "基础设施:公共设施:公共厕所",
        "type": 0,
        "location": {
            "lat": 47.258943,
            "lng": 130.231386
        },
        "ad_info": {
            "adcode": 230405,
            "province": "黑龙江省",
            "city": "鹤岗市",
            "district": "兴安区"
        }
    },
    {
        "id": "17668802136110703494",
        "title": "公共厕所",
        "address": "黑龙江省鹤岗市萝北县G331与鹤名公路交叉口正东方向1295米左右",
        "tel": "",
        "category": "基础设施:公共设施:公共厕所",
        "type": 0,
        "location": {
            "lat": 47.676693,
            "lng": 131.099621
        },
        "ad_info": {
            "adcode": 230421,
            "province": "黑龙江省",
            "city": "鹤岗市",
            "district": "萝北县"
        }
    },
    {
        "id": "11268715163736015652",
        "title": "公共厕所",
        "address": "黑龙江省鹤岗市兴山区兴山路与岭北路交叉口正东方向35米左右",
        "tel": "",
        "category": "基础设施:公共设施:公共厕所",
        "type": 0,
        "location": {
            "lat": 47.366774,
            "lng": 130.317553
        },
        "ad_info": {
            "adcode": 230407,
            "province": "黑龙江省",
            "city": "鹤岗市",
            "district": "兴山区"
        }
    },
    {
        "id": "12924171338999663201",
        "title": "公共厕所",
        "address": "黑龙江省鹤岗市绥滨县振兴大街与西环路交叉口东北方向51米左右",
        "tel": "",
        "category": "基础设施:公共设施:公共厕所",
        "type": 0,
        "location": {
            "lat": 47.294284,
            "lng": 131.84688
        },
        "ad_info": {
            "adcode": 230422,
            "province": "黑龙江省",
            "city": "鹤岗市",
            "district": "绥滨县"
        }
    },
    {
        "id": "3049561122274572352",
        "title": "公共厕所",
        "address": "黑龙江省鹤岗市萝北县404乡道西50米",
        "tel": "",
        "category": "基础设施:公共设施:公共厕所",
        "type": 0,
        "location": {
            "lat": 47.577953,
            "lng": 131.326826
        },
        "ad_info": {
            "adcode": 230421,
            "province": "黑龙江省",
            "city": "鹤岗市",
            "district": "萝北县"
        }
    },
    {
        "id": "3313155248695745951",
        "title": "公共卫生间",
        "address": "黑龙江省鹤岗市向阳区光明路与水电街交叉口正东方向25米左右",
        "tel": "",
        "category": "基础设施:公共设施:公共厕所",
        "type": 0,
        "location": {
            "lat": 47.341862,
            "lng": 130.292112
        },
        "ad_info": {
            "adcode": 230402,
            "province": "黑龙江省",
            "city": "鹤岗市",
            "district": "向阳区"
        }
    },
    {
        "id": "7604002307572309316",
        "title": "公共厕所",
        "address": "黑龙江省鹤岗市向阳区公园路与新兴路交叉口正北方向749米左右",
        "tel": "",
        "category": "基础设施:公共设施:公共厕所",
        "type": 0,
        "location": {
            "lat": 47.360585,
            "lng": 130.292244
        },
        "ad_info": {
            "adcode": 230402,
            "province": "黑龙江省",
            "city": "鹤岗市",
            "district": "向阳区"
        }
    },
    {
        "id": "5473826019803562067",
        "title": "公共厕所",
        "address": "黑龙江省鹤岗市南山区奋斗路与新兴街交叉口正南方向210米左右",
        "tel": "",
        "category": "基础设施:公共设施:公共厕所",
        "type": 0,
        "location": {
            "lat": 47.284596,
            "lng": 130.271214
        },
        "ad_info": {
            "adcode": 230404,
            "province": "黑龙江省",
            "city": "鹤岗市",
            "district": "南山区"
        }
    },
    {
        "id": "12693445046397681721",
        "title": "公共厕所",
        "address": "黑龙江省鹤岗市绥滨县C768与智远街交叉口西南方向168米左右",
        "tel": "",
        "category": "基础设施:公共设施:公共厕所",
        "type": 0,
        "location": {
            "lat": 47.52071,
            "lng": 131.701347
        },
        "ad_info": {
            "adcode": 230422,
            "province": "黑龙江省",
            "city": "鹤岗市",
            "district": "绥滨县"
        }
    },
    {
        "id": "8702925963911564125",
        "title": "公共厕所",
        "address": "黑龙江省鹤岗市绥滨县火犁大街与育才路交叉口正西方向158米左右",
        "tel": "",
        "category": "基础设施:公共设施:公共厕所",
        "type": 0,
        "location": {
            "lat": 47.517068,
            "lng": 131.679309
        },
        "ad_info": {
            "adcode": 230422,
            "province": "黑龙江省",
            "city": "鹤岗市",
            "district": "绥滨县"
        }
    },
    {
        "id": "9733507815017639238",
        "title": "公共厕所",
        "address": "黑龙江省鹤岗市绥滨县火犁大街与绥福路交叉口正西方向137米左右",
        "tel": "",
        "category": "基础设施:公共设施:公共厕所",
        "type": 0,
        "location": {
            "lat": 47.517591,
            "lng": 131.685306
        },
        "ad_info": {
            "adcode": 230422,
            "province": "黑龙江省",
            "city": "鹤岗市",
            "district": "绥滨县"
        }
    },
    {
        "id": "6979959281328231789",
        "title": "公共厕所",
        "address": "黑龙江省鹤岗市绥滨县广信街与绥福路交叉口正东方向118米左右",
        "tel": "",
        "category": "基础设施:公共设施:公共厕所",
        "type": 0,
        "location": {
            "lat": 47.51924,
            "lng": 131.688331
        },
        "ad_info": {
            "adcode": 230422,
            "province": "黑龙江省",
            "city": "鹤岗市",
            "district": "绥滨县"
        }
    },
    {
        "id": "10552422227002533187",
        "title": "公共厕所",
        "address": "黑龙江省鹤岗市东山区南翼路与河堤街交叉口正南方向369米左右",
        "tel": "",
        "category": "基础设施:公共设施:公共厕所",
        "type": 0,
        "location": {
            "lat": 47.332875,
            "lng": 130.314046
        },
        "ad_info": {
            "adcode": 230406,
            "province": "黑龙江省",
            "city": "鹤岗市",
            "district": "东山区"
        }
    },
    {
        "id": "10882583744141823632",
        "title": "公共厕所",
        "address": "黑龙江省鹤岗市萝北县兴林街与康复路交叉口东南方向175米左右",
        "tel": "",
        "category": "基础设施:公共设施:公共厕所",
        "type": 0,
        "location": {
            "lat": 47.55864,
            "lng": 130.450612
        },
        "ad_info": {
            "adcode": 230421,
            "province": "黑龙江省",
            "city": "鹤岗市",
            "district": "萝北县"
        }
    },
    {
        "id": "14970815876143603336",
        "title": "公共厕所",
        "address": "黑龙江省鹤岗市向阳区市场街与煤建路交叉口正南方向54米左右",
        "tel": "",
        "category": "基础设施:公共设施:公共厕所",
        "type": 0,
        "location": {
            "lat": 47.343697,
            "lng": 130.286485
        },
        "ad_info": {
            "adcode": 230402,
            "province": "黑龙江省",
            "city": "鹤岗市",
            "district": "向阳区"
        }
    },
    {
        "id": "9453895293074046434",
        "title": "公共厕所",
        "address": "黑龙江省鹤岗市绥滨县光明街与龙岗路交叉口正南方向115米左右",
        "tel": "",
        "category": "基础设施:公共设施:公共厕所",
        "type": 0,
        "location": {
            "lat": 47.518644,
            "lng": 131.682907
        },
        "ad_info": {
            "adcode": 230422,
            "province": "黑龙江省",
            "city": "鹤岗市",
            "district": "绥滨县"
        }
    },
    {
        "id": "52759551217388102",
        "title": "公共厕所",
        "address": "黑龙江省鹤岗市工农区北山路与梧桐大道交叉口西南方向501米左右",
        "tel": "",
        "category": "基础设施:公共设施:公共厕所",
        "type": 0,
        "location": {
            "lat": 47.350829,
            "lng": 130.277999
        },
        "ad_info": {
            "adcode": 230403,
            "province": "黑龙江省",
            "city": "鹤岗市",
            "district": "工农区"
        }
    },
    {
        "id": "16170770914252972953",
        "title": "公共厕所",
        "address": "黑龙江省鹤岗市向阳区七马路与北山路交叉口东南方向179米左右",
        "tel": "",
        "category": "基础设施:公共设施:公共厕所",
        "type": 0,
        "location": {
            "lat": 47.350806,
            "lng": 130.291186
        },
        "ad_info": {
            "adcode": 230402,
            "province": "黑龙江省",
            "city": "鹤岗市",
            "district": "向阳区"
        }
    },
    {
        "id": "137810979537296185",
        "title": "公共厕所",
        "address": "黑龙江省鹤岗市兴安区兴北路兴安分院",
        "tel": "",
        "category": "基础设施:公共设施:公共厕所",
        "type": 0,
        "location": {
            "lat": 47.254345,
            "lng": 130.236121
        },
        "ad_info": {
            "adcode": 230405,
            "province": "黑龙江省",
            "city": "鹤岗市",
            "district": "兴安区"
        }
    },
    {
        "id": "8631099368720970717",
        "title": "公共厕所",
        "address": "黑龙江省鹤岗市工农区东解放路北三道街与胜利路交叉口正西方向37米左右",
        "tel": "",
        "category": "基础设施:公共设施:公共厕所",
        "type": 0,
        "location": {
            "lat": 47.335654,
            "lng": 130.275597
        },
        "ad_info": {
            "adcode": 230403,
            "province": "黑龙江省",
            "city": "鹤岗市",
            "district": "工农区"
        }
    },
    {
        "id": "7053482725025800476",
        "title": "公共厕所",
        "address": "黑龙江省鹤岗市萝北县鹤北林业局鹤嘉公路与丹青路交叉口",
        "tel": "",
        "category": "基础设施:公共设施:公共厕所",
        "type": 0,
        "location": {
            "lat": 47.56493,
            "lng": 130.45475
        },
        "ad_info": {
            "adcode": 230421,
            "province": "黑龙江省",
            "city": "鹤岗市",
            "district": "萝北县"
        }
    },
    {
        "id": "3306257614191825695",
        "title": "公共厕所",
        "address": "黑龙江省鹤岗市东山区康维生物科技有限公司西侧200米",
        "tel": "",
        "category": "基础设施:公共设施:公共厕所",
        "type": 0,
        "location": {
            "lat": 47.123167,
            "lng": 130.288838
        },
        "ad_info": {
            "adcode": 230406,
            "province": "黑龙江省",
            "city": "鹤岗市",
            "district": "东山区"
        }
    },
    {
        "id": "17405808187754054393",
        "title": "公共厕所",
        "address": "黑龙江省鹤岗市东山区东山路与敬国路交叉口东北方向227米左右",
        "tel": "",
        "category": "基础设施:公共设施:公共厕所",
        "type": 0,
        "location": {
            "lat": 47.341556,
            "lng": 130.320815
        },
        "ad_info": {
            "adcode": 230406,
            "province": "黑龙江省",
            "city": "鹤岗市",
            "district": "东山区"
        }
    }
]