[
    {
        "id": "14333153573825902168",
        "title": "公共厕所",
        "address": "河南省鹤壁市淇滨区昆仑山路与黄山路交叉口西南方向117米左右",
        "tel": "",
        "category": "基础设施:公共设施:公共厕所",
        "type": 0,
        "location": {
            "lat": 35.681017,
            "lng": 114.276365
        },
        "ad_info": {
            "adcode": 410611,
            "province": "河南省",
            "city": "鹤壁市",
            "district": "淇滨区"
        }
    },
    {
        "id": "711885094398963753",
        "title": "公共厕所",
        "address": "河南省鹤壁市淇滨区卫河路与泰山路交叉口东南方向67米左右",
        "tel": "",
        "category": "基础设施:公共设施:公共厕所",
        "type": 0,
        "location": {
            "lat": 35.760175,
            "lng": 114.314155
        },
        "ad_info": {
            "adcode": 410611,
            "province": "河南省",
            "city": "鹤壁市",
            "district": "淇滨区"
        }
    },
    {
        "id": "8027193261380829093",
        "title": "公共厕所",
        "address": "河南省鹤壁市淇滨区九州路鹤壁四季青农产品批发市场",
        "tel": "",
        "category": "基础设施:公共设施:公共厕所",
        "type": 0,
        "location": {
            "lat": 35.74905,
            "lng": 114.269646
        },
        "ad_info": {
            "adcode": 410611,
            "province": "河南省",
            "city": "鹤壁市",
            "district": "淇滨区"
        }
    },
    {
        "id": "1442358495314419871",
        "title": "公共厕所",
        "address": "河南省鹤壁市淇滨区二支渠南港南150米",
        "tel": "",
        "category": "基础设施:公共设施:公共厕所",
        "type": 0,
        "location": {
            "lat": 35.7345,
            "lng": 114.293795
        },
        "ad_info": {
            "adcode": 410611,
            "province": "河南省",
            "city": "鹤壁市",
            "district": "淇滨区"
        }
    },
    {
        "id": "10310897631903010440",
        "title": "公共厕所",
        "address": "河南省鹤壁市淇滨区中凯商业街北侧2层和合茶舍西邻",
        "tel": "",
        "category": "基础设施:公共设施:公共厕所",
        "type": 0,
        "location": {
            "lat": 35.734503,
            "lng": 114.293099
        },
        "ad_info": {
            "adcode": 410611,
            "province": "河南省",
            "city": "鹤壁市",
            "district": "淇滨区"
        }
    },
    {
        "id": "1892442276208799634",
        "title": "公共厕所",
        "address": "河南省鹤壁市淇滨区南海路与淇水大道交叉口正北方向69米左右",
        "tel": "",
        "category": "基础设施:公共设施:公共厕所",
        "type": 0,
        "location": {
            "lat": 35.702813,
            "lng": 114.268169
        },
        "ad_info": {
            "adcode": 410611,
            "province": "河南省",
            "city": "鹤壁市",
            "district": "淇滨区"
        }
    },
    {
        "id": "14870735866995338092",
        "title": "公共厕所",
        "address": "河南省鹤壁市淇县人民路6号",
        "tel": "",
        "category": "基础设施:公共设施:公共厕所",
        "type": 0,
        "location": {
            "lat": 35.62392,
            "lng": 114.202182
        },
        "ad_info": {
            "adcode": 410622,
            "province": "河南省",
            "city": "鹤壁市",
            "district": "淇县"
        }
    },
    {
        "id": "14734250105641702047",
        "title": "公共厕所",
        "address": "河南省鹤壁市淇滨区华山路与海棠巷交叉口正西方向143米左右",
        "tel": "",
        "category": "基础设施:公共设施:公共厕所",
        "type": 0,
        "location": {
            "lat": 35.751896,
            "lng": 114.284044
        },
        "ad_info": {
            "adcode": 410611,
            "province": "河南省",
            "city": "鹤壁市",
            "district": "淇滨区"
        }
    },
    {
        "id": "4010200867000075512",
        "title": "公共厕所",
        "address": "河南省鹤壁市淇滨区兴鹤大街与淇滨大道交叉口正北方向125米左右",
        "tel": "",
        "category": "基础设施:公共设施:公共厕所",
        "type": 0,
        "location": {
            "lat": 35.751248,
            "lng": 114.291488
        },
        "ad_info": {
            "adcode": 410611,
            "province": "河南省",
            "city": "鹤壁市",
            "district": "淇滨区"
        }
    },
    {
        "id": "12594027228970658037",
        "title": "公共厕所",
        "address": "河南省鹤壁市淇滨区泰山路与淇水大道交叉口西南方向163米左右",
        "tel": "",
        "category": "基础设施:公共设施:公共厕所",
        "type": 0,
        "location": {
            "lat": 35.677352,
            "lng": 114.276985
        },
        "ad_info": {
            "adcode": 410611,
            "province": "河南省",
            "city": "鹤壁市",
            "district": "淇滨区"
        }
    },
    {
        "id": "12969624925623751352",
        "title": "公共厕所",
        "address": "河南省鹤壁市淇滨区华夏南路与广场北路交叉口东南方向400米左右",
        "tel": "",
        "category": "基础设施:公共设施:公共厕所",
        "type": 0,
        "location": {
            "lat": 35.707047,
            "lng": 114.300808
        },
        "ad_info": {
            "adcode": 410611,
            "province": "河南省",
            "city": "鹤壁市",
            "district": "淇滨区"
        }
    },
    {
        "id": "11733488181073000321",
        "title": "公共厕所",
        "address": "河南省鹤壁市淇县东关西二路与同济大道交叉口东南方向78米左右",
        "tel": "",
        "category": "基础设施:公共设施:公共厕所",
        "type": 0,
        "location": {
            "lat": 35.599792,
            "lng": 114.210121
        },
        "ad_info": {
            "adcode": 410622,
            "province": "河南省",
            "city": "鹤壁市",
            "district": "淇县"
        }
    },
    {
        "id": "1585295598405011108",
        "title": "公共厕所",
        "address": "河南省鹤壁市淇滨区科技巷与通用巷交叉口东南方向59米左右",
        "tel": "",
        "category": "基础设施:公共设施:公共厕所",
        "type": 0,
        "location": {
            "lat": 35.757394,
            "lng": 114.305692
        },
        "ad_info": {
            "adcode": 410611,
            "province": "河南省",
            "city": "鹤壁市",
            "district": "淇滨区"
        }
    },
    {
        "id": "1990595198705161734",
        "title": "公共厕所",
        "address": "河南省鹤壁市淇滨区东海路与淇滨大道交叉口正西方向214米左右",
        "tel": "",
        "category": "基础设施:公共设施:公共厕所",
        "type": 0,
        "location": {
            "lat": 35.750374,
            "lng": 114.314565
        },
        "ad_info": {
            "adcode": 410611,
            "province": "河南省",
            "city": "鹤壁市",
            "district": "淇滨区"
        }
    },
    {
        "id": "4373462704578522364",
        "title": "公共厕所",
        "address": "河南省鹤壁市淇滨区九江路与黄山路交叉口正东方向61米左右",
        "tel": "",
        "category": "基础设施:公共设施:公共厕所",
        "type": 0,
        "location": {
            "lat": 35.728749,
            "lng": 114.287879
        },
        "ad_info": {
            "adcode": 410611,
            "province": "河南省",
            "city": "鹤壁市",
            "district": "淇滨区"
        }
    },
    {
        "id": "17783779863436857873",
        "title": "公共厕所",
        "address": "河南省鹤壁市淇县韶山路与黄浦江路交叉口东南方向152米左右",
        "tel": "",
        "category": "基础设施:公共设施:公共厕所",
        "type": 0,
        "location": {
            "lat": 35.680846,
            "lng": 114.252471
        },
        "ad_info": {
            "adcode": 410622,
            "province": "河南省",
            "city": "鹤壁市",
            "district": "淇县"
        }
    },
    {
        "id": "5067591052443764044",
        "title": "公共厕所",
        "address": "河南省鹤壁市淇县轩辕路与鹤淇大道交叉口东北方向46米左右",
        "tel": "",
        "category": "基础设施:公共设施:公共厕所",
        "type": 0,
        "location": {
            "lat": 35.629802,
            "lng": 114.214431
        },
        "ad_info": {
            "adcode": 410622,
            "province": "河南省",
            "city": "鹤壁市",
            "district": "淇县"
        }
    },
    {
        "id": "9365137750636887585",
        "title": "公共厕所",
        "address": "河南省鹤壁市淇滨区泰山路与谷风路交叉口东南方向61米左右",
        "tel": "",
        "category": "基础设施:公共设施:公共厕所",
        "type": 0,
        "location": {
            "lat": 35.7352,
            "lng": 114.31388
        },
        "ad_info": {
            "adcode": 410611,
            "province": "河南省",
            "city": "鹤壁市",
            "district": "淇滨区"
        }
    },
    {
        "id": "5686189101030180784",
        "title": "公共厕所",
        "address": "河南省鹤壁市淇滨区华夏南路诚城·桃花源",
        "tel": "",
        "category": "基础设施:公共设施:公共厕所",
        "type": 0,
        "location": {
            "lat": 35.712888,
            "lng": 114.297636
        },
        "ad_info": {
            "adcode": 410611,
            "province": "河南省",
            "city": "鹤壁市",
            "district": "淇滨区"
        }
    },
    {
        "id": "16399622706510552390",
        "title": "公共厕所",
        "address": "河南省鹤壁市淇滨区大粱庄小巷与梅花巷交叉口西北方向192米左右",
        "tel": "",
        "category": "基础设施:公共设施:公共厕所",
        "type": 0,
        "location": {
            "lat": 35.75635,
            "lng": 114.29325
        },
        "ad_info": {
            "adcode": 410611,
            "province": "河南省",
            "city": "鹤壁市",
            "district": "淇滨区"
        }
    },
    {
        "id": "16986158967222305156",
        "title": "公共厕所",
        "address": "河南省鹤壁市淇滨区黄河路260鹤翔西区",
        "tel": "",
        "category": "基础设施:公共设施:公共厕所",
        "type": 0,
        "location": {
            "lat": 35.741411,
            "lng": 114.285396
        },
        "ad_info": {
            "adcode": 410611,
            "province": "河南省",
            "city": "鹤壁市",
            "district": "淇滨区"
        }
    },
    {
        "id": "148605587786863284",
        "title": "公共厕所",
        "address": "河南省鹤壁市淇滨区广场西路与黄河路交叉口正北方向128米左右",
        "tel": "",
        "category": "基础设施:公共设施:公共厕所",
        "type": 0,
        "location": {
            "lat": 35.744056,
            "lng": 114.295082
        },
        "ad_info": {
            "adcode": 410611,
            "province": "河南省",
            "city": "鹤壁市",
            "district": "淇滨区"
        }
    },
    {
        "id": "14558953928980523599",
        "title": "公共厕所",
        "address": "河南省鹤壁市淇县前海巷朝歌大市场(王氏珠宝分店)",
        "tel": "",
        "category": "基础设施:公共设施:公共厕所",
        "type": 0,
        "location": {
            "lat": 35.61321,
            "lng": 114.195632
        },
        "ad_info": {
            "adcode": 410622,
            "province": "河南省",
            "city": "鹤壁市",
            "district": "淇县"
        }
    },
    {
        "id": "13923161900140866277",
        "title": "公共厕所",
        "address": "河南省鹤壁市淇滨区柳江路辅路与芝麻官小巷交叉口西北方向35米左右",
        "tel": "",
        "category": "基础设施:公共设施:公共厕所",
        "type": 0,
        "location": {
            "lat": 35.715875,
            "lng": 114.293886
        },
        "ad_info": {
            "adcode": 410611,
            "province": "河南省",
            "city": "鹤壁市",
            "district": "淇滨区"
        }
    },
    {
        "id": "15849812330105694294",
        "title": "公共厕所",
        "address": "河南省鹤壁市淇县朝歌路淇县汽车站",
        "tel": "",
        "category": "基础设施:公共设施:公共厕所",
        "type": 0,
        "location": {
            "lat": 35.609315,
            "lng": 114.192827
        },
        "ad_info": {
            "adcode": 410622,
            "province": "河南省",
            "city": "鹤壁市",
            "district": "淇县"
        }
    },
    {
        "id": "6648130916250210598",
        "title": "公共厕所",
        "address": "河南省鹤壁市淇滨区华夏北路与卫河路交叉口正北方向204米左右",
        "tel": "",
        "category": "基础设施:公共设施:公共厕所",
        "type": 0,
        "location": {
            "lat": 35.762436,
            "lng": 114.297585
        },
        "ad_info": {
            "adcode": 410611,
            "province": "河南省",
            "city": "鹤壁市",
            "district": "淇滨区"
        }
    },
    {
        "id": "14278837617337881862",
        "title": "公共厕所",
        "address": "河南省鹤壁市淇滨区海河路福源小区",
        "tel": "",
        "category": "基础设施:公共设施:公共厕所",
        "type": 0,
        "location": {
            "lat": 35.764708,
            "lng": 114.287825
        },
        "ad_info": {
            "adcode": 410611,
            "province": "河南省",
            "city": "鹤壁市",
            "district": "淇滨区"
        }
    },
    {
        "id": "6388449697877444923",
        "title": "公共厕所",
        "address": "河南省鹤壁市淇滨区湘江路与黄山路交叉口正北方向88米左右",
        "tel": "",
        "category": "基础设施:公共设施:公共厕所",
        "type": 0,
        "location": {
            "lat": 35.724705,
            "lng": 114.287055
        },
        "ad_info": {
            "adcode": 410611,
            "province": "河南省",
            "city": "鹤壁市",
            "district": "淇滨区"
        }
    },
    {
        "id": "2298368132781266792",
        "title": "公共厕所",
        "address": "河南省鹤壁市淇滨区延河路与泰山路交叉口正南方向104米左右",
        "tel": "",
        "category": "基础设施:公共设施:公共厕所",
        "type": 0,
        "location": {
            "lat": 35.767435,
            "lng": 114.313998
        },
        "ad_info": {
            "adcode": 410611,
            "province": "河南省",
            "city": "鹤壁市",
            "district": "淇滨区"
        }
    },
    {
        "id": "12845668931548624489",
        "title": "公共厕所",
        "address": "河南省鹤壁市淇滨区合欢巷与黄河路交叉口东南方向145米左右",
        "tel": "",
        "category": "基础设施:公共设施:公共厕所",
        "type": 0,
        "location": {
            "lat": 35.741939,
            "lng": 114.290564
        },
        "ad_info": {
            "adcode": 410611,
            "province": "河南省",
            "city": "鹤壁市",
            "district": "淇滨区"
        }
    },
    {
        "id": "4826444726131024680",
        "title": "公共厕所",
        "address": "河南省鹤壁市淇滨区华山路与湘江路交叉口西南方向81米左右",
        "tel": "",
        "category": "基础设施:公共设施:公共厕所",
        "type": 0,
        "location": {
            "lat": 35.72346,
            "lng": 114.28097
        },
        "ad_info": {
            "adcode": 410611,
            "province": "河南省",
            "city": "鹤壁市",
            "district": "淇滨区"
        }
    },
    {
        "id": "10650430395234155751",
        "title": "公共厕所",
        "address": "河南省鹤壁市淇滨区华山路与淇滨大道交叉口东南方向22米左右",
        "tel": "",
        "category": "基础设施:公共设施:公共厕所",
        "type": 0,
        "location": {
            "lat": 35.74884,
            "lng": 114.284904
        },
        "ad_info": {
            "adcode": 410611,
            "province": "河南省",
            "city": "鹤壁市",
            "district": "淇滨区"
        }
    },
    {
        "id": "12124691784973093170",
        "title": "公共厕所",
        "address": "河南省鹤壁市淇滨区华山路与黎阳路交叉口正西方向82米左右",
        "tel": "",
        "category": "基础设施:公共设施:公共厕所",
        "type": 0,
        "location": {
            "lat": 35.756587,
            "lng": 114.286232
        },
        "ad_info": {
            "adcode": 410611,
            "province": "河南省",
            "city": "鹤壁市",
            "district": "淇滨区"
        }
    },
    {
        "id": "1534069126471014544",
        "title": "公共厕所",
        "address": "河南省鹤壁市淇县东关街与桃园路交叉口正东方向21米左右",
        "tel": "",
        "category": "基础设施:公共设施:公共厕所",
        "type": 0,
        "location": {
            "lat": 35.596622,
            "lng": 114.215031
        },
        "ad_info": {
            "adcode": 410622,
            "province": "河南省",
            "city": "鹤壁市",
            "district": "淇县"
        }
    },
    {
        "id": "13737182029726906571",
        "title": "公共厕所",
        "address": "河南省鹤壁市淇滨区华山路与海棠巷交叉口西北方向62米左右",
        "tel": "",
        "category": "基础设施:公共设施:公共厕所",
        "type": 0,
        "location": {
            "lat": 35.75233,
            "lng": 114.285158
        },
        "ad_info": {
            "adcode": 410611,
            "province": "河南省",
            "city": "鹤壁市",
            "district": "淇滨区"
        }
    },
    {
        "id": "8460566946572710364",
        "title": "公共厕所",
        "address": "河南省鹤壁市淇滨区嵩山路与淇滨大道交叉口正北方向61米左右",
        "tel": "",
        "category": "基础设施:公共设施:公共厕所",
        "type": 0,
        "location": {
            "lat": 35.750717,
            "lng": 114.302858
        },
        "ad_info": {
            "adcode": 410611,
            "province": "河南省",
            "city": "鹤壁市",
            "district": "淇滨区"
        }
    },
    {
        "id": "10206898070008657528",
        "title": "公共厕所",
        "address": "河南省鹤壁市淇滨区衡山路与黄河路交叉口东南方向229米左右",
        "tel": "",
        "category": "基础设施:公共设施:公共厕所",
        "type": 0,
        "location": {
            "lat": 35.741128,
            "lng": 114.309283
        },
        "ad_info": {
            "adcode": 410611,
            "province": "河南省",
            "city": "鹤壁市",
            "district": "淇滨区"
        }
    },
    {
        "id": "14584370055704088351",
        "title": "公共厕所",
        "address": "河南省鹤壁市淇滨区华夏社区1栋西北(漓江路北)",
        "tel": "",
        "category": "基础设施:公共设施:公共厕所",
        "type": 0,
        "location": {
            "lat": 35.719999,
            "lng": 114.29878
        },
        "ad_info": {
            "adcode": 410611,
            "province": "河南省",
            "city": "鹤壁市",
            "district": "淇滨区"
        }
    },
    {
        "id": "14129847341887465262",
        "title": "公共厕所",
        "address": "河南省鹤壁市淇滨区二支渠北巷与嵩山路交叉口正东方向46米左右",
        "tel": "",
        "category": "基础设施:公共设施:公共厕所",
        "type": 0,
        "location": {
            "lat": 35.736104,
            "lng": 114.302975
        },
        "ad_info": {
            "adcode": 410611,
            "province": "河南省",
            "city": "鹤壁市",
            "district": "淇滨区"
        }
    },
    {
        "id": "6983862727557422809",
        "title": "公共厕所",
        "address": "河南省鹤壁市淇滨区嵩山路与鹤煤大道交叉口西南方向286米左右",
        "tel": "",
        "category": "基础设施:公共设施:公共厕所",
        "type": 0,
        "location": {
            "lat": 35.730521,
            "lng": 114.300119
        },
        "ad_info": {
            "adcode": 410611,
            "province": "河南省",
            "city": "鹤壁市",
            "district": "淇滨区"
        }
    },
    {
        "id": "11850098253256001870",
        "title": "公共厕所",
        "address": "河南省鹤壁市淇滨区泰山路与淮河路交叉口正南方向94米左右",
        "tel": "",
        "category": "基础设施:公共设施:公共厕所",
        "type": 0,
        "location": {
            "lat": 35.738529,
            "lng": 114.314056
        },
        "ad_info": {
            "adcode": 410611,
            "province": "河南省",
            "city": "鹤壁市",
            "district": "淇滨区"
        }
    },
    {
        "id": "12077222992116702433",
        "title": "公共厕所",
        "address": "河南省鹤壁市淇县云梦大道与比干路交叉口东北方向103米左右",
        "tel": "",
        "category": "基础设施:公共设施:公共厕所",
        "type": 0,
        "location": {
            "lat": 35.612725,
            "lng": 114.222833
        },
        "ad_info": {
            "adcode": 410622,
            "province": "河南省",
            "city": "鹤壁市",
            "district": "淇县"
        }
    },
    {
        "id": "1515407917944255412",
        "title": "公共厕所",
        "address": "河南省鹤壁市淇滨区淇水大道与淮河路交叉口西南方向82米左右",
        "tel": "",
        "category": "基础设施:公共设施:公共厕所",
        "type": 0,
        "location": {
            "lat": 35.740269,
            "lng": 114.273864
        },
        "ad_info": {
            "adcode": 410611,
            "province": "河南省",
            "city": "鹤壁市",
            "district": "淇滨区"
        }
    },
    {
        "id": "5933118988140518148",
        "title": "公共厕所",
        "address": "河南省鹤壁市淇滨区S222(淇河大桥)",
        "tel": "",
        "category": "基础设施:公共设施:公共厕所",
        "type": 0,
        "location": {
            "lat": 35.828701,
            "lng": 114.135906
        },
        "ad_info": {
            "adcode": 410611,
            "province": "河南省",
            "city": "鹤壁市",
            "district": "淇滨区"
        }
    },
    {
        "id": "16488939009567167868",
        "title": "公共厕所",
        "address": "河南省鹤壁市淇县泰山路与轩辕路交叉口东北方向512米左右",
        "tel": "",
        "category": "基础设施:公共设施:公共厕所",
        "type": 0,
        "location": {
            "lat": 35.630446,
            "lng": 114.237731
        },
        "ad_info": {
            "adcode": 410622,
            "province": "河南省",
            "city": "鹤壁市",
            "district": "淇县"
        }
    },
    {
        "id": "8989868388596732065",
        "title": "公共厕所",
        "address": "河南省鹤壁市淇滨区九江路与衡山路交叉口东南方向68米左右",
        "tel": "",
        "category": "基础设施:公共设施:公共厕所",
        "type": 0,
        "location": {
            "lat": 35.728198,
            "lng": 114.30873
        },
        "ad_info": {
            "adcode": 410611,
            "province": "河南省",
            "city": "鹤壁市",
            "district": "淇滨区"
        }
    },
    {
        "id": "14850113798977232293",
        "title": "公共厕所",
        "address": "河南省鹤壁市淇滨区太行路与黎阳路交叉口南120米",
        "tel": "",
        "category": "基础设施:公共设施:公共厕所",
        "type": 0,
        "location": {
            "lat": 35.755813,
            "lng": 114.282806
        },
        "ad_info": {
            "adcode": 410611,
            "province": "河南省",
            "city": "鹤壁市",
            "district": "淇滨区"
        }
    },
    {
        "id": "17961585494595907078",
        "title": "公共厕所",
        "address": "河南省鹤壁市淇滨区天山路与闽江路交叉口东南方向47米左右",
        "tel": "",
        "category": "基础设施:公共设施:公共厕所",
        "type": 0,
        "location": {
            "lat": 35.711811,
            "lng": 114.276654
        },
        "ad_info": {
            "adcode": 410611,
            "province": "河南省",
            "city": "鹤壁市",
            "district": "淇滨区"
        }
    },
    {
        "id": "1628001238320494689",
        "title": "公共厕所",
        "address": "河南省鹤壁市淇滨区华夏南路与黄河路交叉口东南方向107米左右",
        "tel": "",
        "category": "基础设施:公共设施:公共厕所",
        "type": 0,
        "location": {
            "lat": 35.742145,
            "lng": 114.297698
        },
        "ad_info": {
            "adcode": 410611,
            "province": "河南省",
            "city": "鹤壁市",
            "district": "淇滨区"
        }
    },
    {
        "id": "7103734918846052217",
        "title": "公共厕所",
        "address": "河南省鹤壁市淇滨区海棠巷39号",
        "tel": "",
        "category": "基础设施:公共设施:公共厕所",
        "type": 0,
        "location": {
            "lat": 35.75202,
            "lng": 114.294649
        },
        "ad_info": {
            "adcode": 410611,
            "province": "河南省",
            "city": "鹤壁市",
            "district": "淇滨区"
        }
    },
    {
        "id": "3332416727534758249",
        "title": "公共厕所",
        "address": "河南省鹤壁市淇县前一胡同与稻前路交叉口正北方向16米左右",
        "tel": "",
        "category": "基础设施:公共设施:公共厕所",
        "type": 0,
        "location": {
            "lat": 35.598271,
            "lng": 114.193481
        },
        "ad_info": {
            "adcode": 410622,
            "province": "河南省",
            "city": "鹤壁市",
            "district": "淇县"
        }
    },
    {
        "id": "7197720578125312927",
        "title": "公共厕所",
        "address": "河南省鹤壁市淇滨区华夏北路与延河路交叉口正南方向124米左右",
        "tel": "",
        "category": "基础设施:公共设施:公共厕所",
        "type": 0,
        "location": {
            "lat": 35.76722,
            "lng": 114.297079
        },
        "ad_info": {
            "adcode": 410611,
            "province": "河南省",
            "city": "鹤壁市",
            "district": "淇滨区"
        }
    },
    {
        "id": "16786572952728626257",
        "title": "公共厕所",
        "address": "河南省鹤壁市淇滨区庐山路与漓江路交叉口西南方向108米左右",
        "tel": "",
        "category": "基础设施:公共设施:公共厕所",
        "type": 0,
        "location": {
            "lat": 35.718832,
            "lng": 114.274013
        },
        "ad_info": {
            "adcode": 410611,
            "province": "河南省",
            "city": "鹤壁市",
            "district": "淇滨区"
        }
    },
    {
        "id": "2051830785952731310",
        "title": "公共厕所",
        "address": "河南省鹤壁市鹤山区S221与蜀大线交叉口正北方向410米左右",
        "tel": "",
        "category": "基础设施:公共设施:公共厕所",
        "type": 0,
        "location": {
            "lat": 36.033333,
            "lng": 114.14294
        },
        "ad_info": {
            "adcode": 410602,
            "province": "河南省",
            "city": "鹤壁市",
            "district": "鹤山区"
        }
    },
    {
        "id": "12956200879164357292",
        "title": "公共厕所",
        "address": "河南省鹤壁市淇滨区淇水大道与鹤煤大道交叉口正北方向181米左右",
        "tel": "",
        "category": "基础设施:公共设施:公共厕所",
        "type": 0,
        "location": {
            "lat": 35.733818,
            "lng": 114.275024
        },
        "ad_info": {
            "adcode": 410611,
            "province": "河南省",
            "city": "鹤壁市",
            "district": "淇滨区"
        }
    },
    {
        "id": "10672391200391688129",
        "title": "卫生间(裕隆爱之城)",
        "address": "河南省鹤壁市淇滨区兴鹤大街与鹤煤大道交汇处裕隆·爱之城F4",
        "tel": "",
        "category": "基础设施:公共设施:公共厕所",
        "type": 0,
        "location": {
            "lat": 35.733446,
            "lng": 114.293936
        },
        "ad_info": {
            "adcode": 410611,
            "province": "河南省",
            "city": "鹤壁市",
            "district": "淇滨区"
        }
    },
    {
        "id": "6544939284083140510",
        "title": "公共厕所",
        "address": "河南省鹤壁市淇滨区淇滨大道171号",
        "tel": "",
        "category": "基础设施:公共设施:公共厕所",
        "type": 0,
        "location": {
            "lat": 35.750578,
            "lng": 114.289323
        },
        "ad_info": {
            "adcode": 410611,
            "province": "河南省",
            "city": "鹤壁市",
            "district": "淇滨区"
        }
    },
    {
        "id": "17093676838972530473",
        "title": "公共厕所",
        "address": "河南省鹤壁市淇县大海线与朝歌路交叉口东南方向80米左右",
        "tel": "",
        "category": "基础设施:公共设施:公共厕所",
        "type": 0,
        "location": {
            "lat": 35.595947,
            "lng": 114.190476
        },
        "ad_info": {
            "adcode": 410622,
            "province": "河南省",
            "city": "鹤壁市",
            "district": "淇县"
        }
    },
    {
        "id": "2310101097513411602",
        "title": "公共厕所",
        "address": "河南省鹤壁市淇县张家胡同与邮电东巷交叉口东北方向14米左右",
        "tel": "",
        "category": "基础设施:公共设施:公共厕所",
        "type": 0,
        "location": {
            "lat": 35.610873,
            "lng": 114.195549
        },
        "ad_info": {
            "adcode": 410622,
            "province": "河南省",
            "city": "鹤壁市",
            "district": "淇县"
        }
    },
    {
        "id": "1990610520457459895",
        "title": "公共厕所",
        "address": "河南省鹤壁市淇县云梦大道与朝歌路交叉口东北方向105米左右",
        "tel": "",
        "category": "基础设施:公共设施:公共厕所",
        "type": 0,
        "location": {
            "lat": 35.615457,
            "lng": 114.1942
        },
        "ad_info": {
            "adcode": 410622,
            "province": "河南省",
            "city": "鹤壁市",
            "district": "淇县"
        }
    },
    {
        "id": "3328674709606569151",
        "title": "公共厕所",
        "address": "河南省鹤壁市浚县建设路浚县职业中等专业学校",
        "tel": "",
        "category": "基础设施:公共设施:公共厕所",
        "type": 0,
        "location": {
            "lat": 35.68051,
            "lng": 114.546535
        },
        "ad_info": {
            "adcode": 410621,
            "province": "河南省",
            "city": "鹤壁市",
            "district": "浚县"
        }
    },
    {
        "id": "5286354626565469685",
        "title": "公共厕所",
        "address": "河南省鹤壁市淇县G342与Y036交叉口西北方向200米左右",
        "tel": "",
        "category": "基础设施:公共设施:公共厕所",
        "type": 0,
        "location": {
            "lat": 35.723172,
            "lng": 114.119816
        },
        "ad_info": {
            "adcode": 410622,
            "province": "河南省",
            "city": "鹤壁市",
            "district": "淇县"
        }
    },
    {
        "id": "14919656077055016023",
        "title": "公共厕所",
        "address": "河南省鹤壁市淇县站前路与红旗路交叉口东北方向56米左右",
        "tel": "",
        "category": "基础设施:公共设施:公共厕所",
        "type": 0,
        "location": {
            "lat": 35.609485,
            "lng": 114.188011
        },
        "ad_info": {
            "adcode": 410622,
            "province": "河南省",
            "city": "鹤壁市",
            "district": "淇县"
        }
    },
    {
        "id": "1736605090074110305",
        "title": "公共厕所",
        "address": "河南省鹤壁市山城区春雷路与红旗街交叉口正南方向152米左右",
        "tel": "",
        "category": "基础设施:公共设施:公共厕所",
        "type": 0,
        "location": {
            "lat": 35.896201,
            "lng": 114.1808
        },
        "ad_info": {
            "adcode": 410603,
            "province": "河南省",
            "city": "鹤壁市",
            "district": "山城区"
        }
    },
    {
        "id": "13355626598481719886",
        "title": "公共厕所",
        "address": "河南省鹤壁市浚县八一路与芙蓉路交叉口东北方向52米左右",
        "tel": "",
        "category": "基础设施:公共设施:公共厕所",
        "type": 0,
        "location": {
            "lat": 35.660877,
            "lng": 114.526647
        },
        "ad_info": {
            "adcode": 410621,
            "province": "河南省",
            "city": "鹤壁市",
            "district": "浚县"
        }
    },
    {
        "id": "13599487650721463342",
        "title": "公共厕所",
        "address": "河南省鹤壁市浚县黎阳中学南侧黄河路青坛路交叉口往东65米",
        "tel": "",
        "category": "基础设施:公共设施:公共厕所",
        "type": 0,
        "location": {
            "lat": 35.666673,
            "lng": 114.554757
        },
        "ad_info": {
            "adcode": 410621,
            "province": "河南省",
            "city": "鹤壁市",
            "district": "浚县"
        }
    },
    {
        "id": "4772232782475986204",
        "title": "公共厕所",
        "address": "河南省鹤壁市山城区朝阳街30号",
        "tel": "",
        "category": "基础设施:公共设施:公共厕所",
        "type": 0,
        "location": {
            "lat": 35.890401,
            "lng": 114.188206
        },
        "ad_info": {
            "adcode": 410603,
            "province": "河南省",
            "city": "鹤壁市",
            "district": "山城区"
        }
    },
    {
        "id": "12448373678287877801",
        "title": "公共厕所",
        "address": "河南省鹤壁市浚县黄河路与黎阳路交叉口东南方向83米左右",
        "tel": "",
        "category": "基础设施:公共设施:公共厕所",
        "type": 0,
        "location": {
            "lat": 35.675581,
            "lng": 114.556562
        },
        "ad_info": {
            "adcode": 410621,
            "province": "河南省",
            "city": "鹤壁市",
            "district": "浚县"
        }
    },
    {
        "id": "13680004983559067167",
        "title": "公共厕所",
        "address": "河南省鹤壁市浚县云溪路与菜园街交叉口正东方向49米左右",
        "tel": "",
        "category": "基础设施:公共设施:公共厕所",
        "type": 0,
        "location": {
            "lat": 35.66829,
            "lng": 114.54364
        },
        "ad_info": {
            "adcode": 410621,
            "province": "河南省",
            "city": "鹤壁市",
            "district": "浚县"
        }
    },
    {
        "id": "11073239567537995567",
        "title": "公共厕所",
        "address": "河南省鹤壁市山城区卫星街与春雷路交叉口正南方向108米左右",
        "tel": "",
        "category": "基础设施:公共设施:公共厕所",
        "type": 0,
        "location": {
            "lat": 35.903064,
            "lng": 114.18151
        },
        "ad_info": {
            "adcode": 410603,
            "province": "河南省",
            "city": "鹤壁市",
            "district": "山城区"
        }
    },
    {
        "id": "6537226740569117377",
        "title": "公共厕所",
        "address": "河南省鹤壁市山城区恒力巷与红旗街交叉口正南方向30米左右",
        "tel": "",
        "category": "基础设施:公共设施:公共厕所",
        "type": 0,
        "location": {
            "lat": 35.897281,
            "lng": 114.17246
        },
        "ad_info": {
            "adcode": 410603,
            "province": "河南省",
            "city": "鹤壁市",
            "district": "山城区"
        }
    },
    {
        "id": "10929056190203576623",
        "title": "公共厕所",
        "address": "河南省鹤壁市浚县宏盛运输有限公司西北侧100米",
        "tel": "",
        "category": "基础设施:公共设施:公共厕所",
        "type": 0,
        "location": {
            "lat": 35.795851,
            "lng": 114.492124
        },
        "ad_info": {
            "adcode": 410621,
            "province": "河南省",
            "city": "鹤壁市",
            "district": "浚县"
        }
    },
    {
        "id": "17269159562053054850",
        "title": "公共厕所",
        "address": "河南省鹤壁市山城区牟山大道与长风路交叉口东北方向412米左右",
        "tel": "",
        "category": "基础设施:公共设施:公共厕所",
        "type": 0,
        "location": {
            "lat": 35.866033,
            "lng": 114.193301
        },
        "ad_info": {
            "adcode": 410603,
            "province": "河南省",
            "city": "鹤壁市",
            "district": "山城区"
        }
    },
    {
        "id": "10380336869218272132",
        "title": "公共厕所",
        "address": "河南省鹤壁市山城区春雷路与朝阳街交叉口东北方向46米左右",
        "tel": "",
        "category": "基础设施:公共设施:公共厕所",
        "type": 0,
        "location": {
            "lat": 35.890487,
            "lng": 114.18148
        },
        "ad_info": {
            "adcode": 410603,
            "province": "河南省",
            "city": "鹤壁市",
            "district": "山城区"
        }
    },
    {
        "id": "2711731774249437575",
        "title": "桃园公园公共厕所",
        "address": "河南省鹤壁市淇滨区朝歌路桃园公园(西侧)",
        "tel": "",
        "category": "基础设施:公共设施:公共厕所",
        "type": 0,
        "location": {
            "lat": 35.709144,
            "lng": 114.29285
        },
        "ad_info": {
            "adcode": 410611,
            "province": "河南省",
            "city": "鹤壁市",
            "district": "淇滨区"
        }
    },
    {
        "id": "710489769978669375",
        "title": "公共厕所",
        "address": "河南省鹤壁市浚县S101与S224交叉口西北方向1001米左右",
        "tel": "",
        "category": "基础设施:公共设施:公共厕所",
        "type": 0,
        "location": {
            "lat": 35.472607,
            "lng": 114.362761
        },
        "ad_info": {
            "adcode": 410621,
            "province": "河南省",
            "city": "鹤壁市",
            "district": "浚县"
        }
    },
    {
        "id": "13934218169399744295",
        "title": "公共厕所",
        "address": "河南省鹤壁市山城区奔流街与春雷路交叉口正西方向113米左右",
        "tel": "",
        "category": "基础设施:公共设施:公共厕所",
        "type": 0,
        "location": {
            "lat": 35.901295,
            "lng": 114.179931
        },
        "ad_info": {
            "adcode": 410603,
            "province": "河南省",
            "city": "鹤壁市",
            "district": "山城区"
        }
    },
    {
        "id": "14706446016412186579",
        "title": "公共厕所",
        "address": "河南省鹤壁市浚县民生路与金城路交叉口东北方向35米左右",
        "tel": "",
        "category": "基础设施:公共设施:公共厕所",
        "type": 0,
        "location": {
            "lat": 35.685076,
            "lng": 114.561344
        },
        "ad_info": {
            "adcode": 410621,
            "province": "河南省",
            "city": "鹤壁市",
            "district": "浚县"
        }
    },
    {
        "id": "3208941665908654409",
        "title": "公共厕所",
        "address": "河南省鹤壁市山城区春雷路与汤河街交叉口正西方向94米左右",
        "tel": "",
        "category": "基础设施:公共设施:公共厕所",
        "type": 0,
        "location": {
            "lat": 35.906491,
            "lng": 114.180031
        },
        "ad_info": {
            "adcode": 410603,
            "province": "河南省",
            "city": "鹤壁市",
            "district": "山城区"
        }
    },
    {
        "id": "13104121346146147010",
        "title": "公共厕所",
        "address": "河南省鹤壁市淇滨区淇河路与金山路交叉口东南方向154米左右",
        "tel": "",
        "category": "基础设施:公共设施:公共厕所",
        "type": 0,
        "location": {
            "lat": 35.753341,
            "lng": 114.278163
        },
        "ad_info": {
            "adcode": 410611,
            "province": "河南省",
            "city": "鹤壁市",
            "district": "淇滨区"
        }
    },
    {
        "id": "7776653339630423746",
        "title": "公共厕所",
        "address": "河南省鹤壁市山城区牟山大道与长风路交叉口正北方向303米左右",
        "tel": "",
        "category": "基础设施:公共设施:公共厕所",
        "type": 0,
        "location": {
            "lat": 35.866161,
            "lng": 114.190188
        },
        "ad_info": {
            "adcode": 410603,
            "province": "河南省",
            "city": "鹤壁市",
            "district": "山城区"
        }
    },
    {
        "id": "17479071019031354554",
        "title": "公共厕所",
        "address": "河南省鹤壁市山城区牟兴大道与牟平路交叉口西南方向1242米左右",
        "tel": "",
        "category": "基础设施:公共设施:公共厕所",
        "type": 0,
        "location": {
            "lat": 35.846536,
            "lng": 114.191645
        },
        "ad_info": {
            "adcode": 410603,
            "province": "河南省",
            "city": "鹤壁市",
            "district": "山城区"
        }
    },
    {
        "id": "3745016286158512585",
        "title": "公共厕所",
        "address": "河南省鹤壁市山城区奔流街与山城路交叉口正东方向153米左右",
        "tel": "",
        "category": "基础设施:公共设施:公共厕所",
        "type": 0,
        "location": {
            "lat": 35.901344,
            "lng": 114.17868
        },
        "ad_info": {
            "adcode": 410603,
            "province": "河南省",
            "city": "鹤壁市",
            "district": "山城区"
        }
    },
    {
        "id": "16968152211187191284",
        "title": "公共厕所",
        "address": "河南省鹤壁市山城区三教堂东侧150米",
        "tel": "",
        "category": "基础设施:公共设施:公共厕所",
        "type": 0,
        "location": {
            "lat": 35.885362,
            "lng": 114.194009
        },
        "ad_info": {
            "adcode": 410603,
            "province": "河南省",
            "city": "鹤壁市",
            "district": "山城区"
        }
    },
    {
        "id": "8551130846388612523",
        "title": "公共厕所",
        "address": "河南省鹤壁市淇县人民路与竹园南路交叉口正南方向193米左右",
        "tel": "",
        "category": "基础设施:公共设施:公共厕所",
        "type": 0,
        "location": {
            "lat": 35.61961,
            "lng": 114.206882
        },
        "ad_info": {
            "adcode": 410622,
            "province": "河南省",
            "city": "鹤壁市",
            "district": "淇县"
        }
    },
    {
        "id": "12447367412215161695",
        "title": "公共厕所",
        "address": "河南省鹤壁市山城区奔流街与山城路交叉口正西方向238米左右",
        "tel": "",
        "category": "基础设施:公共设施:公共厕所",
        "type": 0,
        "location": {
            "lat": 35.900831,
            "lng": 114.174411
        },
        "ad_info": {
            "adcode": 410603,
            "province": "河南省",
            "city": "鹤壁市",
            "district": "山城区"
        }
    },
    {
        "id": "14110711056637029787",
        "title": "公共厕所",
        "address": "河南省鹤壁市浚县象山农家院西北侧220米",
        "tel": "",
        "category": "基础设施:公共设施:公共厕所",
        "type": 0,
        "location": {
            "lat": 35.752539,
            "lng": 114.444353
        },
        "ad_info": {
            "adcode": 410621,
            "province": "河南省",
            "city": "鹤壁市",
            "district": "浚县"
        }
    },
    {
        "id": "12367813986534823673",
        "title": "公共厕所",
        "address": "河南省鹤壁市山城区春雷路与泗河街交叉口正南方向501米左右",
        "tel": "",
        "category": "基础设施:公共设施:公共厕所",
        "type": 0,
        "location": {
            "lat": 35.879807,
            "lng": 114.180062
        },
        "ad_info": {
            "adcode": 410603,
            "province": "河南省",
            "city": "鹤壁市",
            "district": "山城区"
        }
    },
    {
        "id": "8498878209719643051",
        "title": "公共厕所",
        "address": "河南省鹤壁市淇县兴坛街与小西街交叉口正北方向64米左右",
        "tel": "",
        "category": "基础设施:公共设施:公共厕所",
        "type": 0,
        "location": {
            "lat": 35.608157,
            "lng": 114.201288
        },
        "ad_info": {
            "adcode": 410622,
            "province": "河南省",
            "city": "鹤壁市",
            "district": "淇县"
        }
    },
    {
        "id": "8897304470082175507",
        "title": "无障碍公共厕所",
        "address": "河南省鹤壁市淇滨区九州路与商业街西巷交叉口东南方向113米左右",
        "tel": "",
        "category": "基础设施:公共设施:公共厕所",
        "type": 0,
        "location": {
            "lat": 35.74556,
            "lng": 114.295158
        },
        "ad_info": {
            "adcode": 410611,
            "province": "河南省",
            "city": "鹤壁市",
            "district": "淇滨区"
        }
    },
    {
        "id": "10343985285940798532",
        "title": "公共卫生间",
        "address": "河南省鹤壁市淇滨区淇上路与黄山路交叉口正北方向145米左右",
        "tel": "",
        "category": "基础设施:公共设施:公共厕所",
        "type": 0,
        "location": {
            "lat": 35.710092,
            "lng": 114.286626
        },
        "ad_info": {
            "adcode": 410611,
            "province": "河南省",
            "city": "鹤壁市",
            "district": "淇滨区"
        }
    },
    {
        "id": "6744193962997690017",
        "title": "公共厕所",
        "address": "河南省鹤壁市浚县建设路与科技路交叉口正北方向150米左右",
        "tel": "",
        "category": "基础设施:公共设施:公共厕所",
        "type": 0,
        "location": {
            "lat": 35.681885,
            "lng": 114.552286
        },
        "ad_info": {
            "adcode": 410621,
            "province": "河南省",
            "city": "鹤壁市",
            "district": "浚县"
        }
    },
    {
        "id": "7553815069863686671",
        "title": "公共厕所",
        "address": "河南省鹤壁市山城区牟山大道与长风路交叉口正西方向13米左右",
        "tel": "",
        "category": "基础设施:公共设施:公共厕所",
        "type": 0,
        "location": {
            "lat": 35.863388,
            "lng": 114.189903
        },
        "ad_info": {
            "adcode": 410603,
            "province": "河南省",
            "city": "鹤壁市",
            "district": "山城区"
        }
    },
    {
        "id": "11975085488298281596",
        "title": "公共厕所",
        "address": "河南省鹤壁市山城区中山南路与汤河街交叉口正北方向388米左右",
        "tel": "",
        "category": "基础设施:公共设施:公共厕所",
        "type": 0,
        "location": {
            "lat": 35.910119,
            "lng": 114.166294
        },
        "ad_info": {
            "adcode": 410603,
            "province": "河南省",
            "city": "鹤壁市",
            "district": "山城区"
        }
    },
    {
        "id": "18097446290433856512",
        "title": "公共厕所",
        "address": "河南省鹤壁市淇滨区华山路与卫河路交叉口正南方向87米左右",
        "tel": "",
        "category": "基础设施:公共设施:公共厕所",
        "type": 0,
        "location": {
            "lat": 35.759888,
            "lng": 114.288399
        },
        "ad_info": {
            "adcode": 410611,
            "province": "河南省",
            "city": "鹤壁市",
            "district": "淇滨区"
        }
    },
    {
        "id": "10508018107512648274",
        "title": "公共厕所",
        "address": "河南省鹤壁市浚县云溪路与卫河路交叉口正北方向86米左右",
        "tel": "",
        "category": "基础设施:公共设施:公共厕所",
        "type": 0,
        "location": {
            "lat": 35.670836,
            "lng": 114.53317
        },
        "ad_info": {
            "adcode": 410621,
            "province": "河南省",
            "city": "鹤壁市",
            "district": "浚县"
        }
    },
    {
        "id": "5286035581949204974",
        "title": "鹤壁服务区第三公共厕所",
        "address": "河南省鹤壁市淇县Y018与小王线交叉口正西方向1070米左右",
        "tel": "",
        "category": "基础设施:公共设施:公共厕所",
        "type": 0,
        "location": {
            "lat": 35.552131,
            "lng": 114.161699
        },
        "ad_info": {
            "adcode": 410622,
            "province": "河南省",
            "city": "鹤壁市",
            "district": "淇县"
        }
    },
    {
        "id": "22916433007202179",
        "title": "公共厕所",
        "address": "河南省鹤壁市淇滨区衡山路福源中学",
        "tel": "",
        "category": "基础设施:公共设施:公共厕所",
        "type": 0,
        "location": {
            "lat": 35.724518,
            "lng": 114.308228
        },
        "ad_info": {
            "adcode": 410611,
            "province": "河南省",
            "city": "鹤壁市",
            "district": "淇滨区"
        }
    },
    {
        "id": "353666386718634020",
        "title": "公共厕所",
        "address": "河南省鹤壁市淇滨区九州路与太行路交叉口正北方向101米左右",
        "tel": "",
        "category": "基础设施:公共设施:公共厕所",
        "type": 0,
        "location": {
            "lat": 35.747496,
            "lng": 114.277363
        },
        "ad_info": {
            "adcode": 410611,
            "province": "河南省",
            "city": "鹤壁市",
            "district": "淇滨区"
        }
    },
    {
        "id": "17731047120200678541",
        "title": "公共厕所",
        "address": "河南省鹤壁市淇滨区黄河路君悦国际",
        "tel": "",
        "category": "基础设施:公共设施:公共厕所",
        "type": 0,
        "location": {
            "lat": 35.743131,
            "lng": 114.30208
        },
        "ad_info": {
            "adcode": 410611,
            "province": "河南省",
            "city": "鹤壁市",
            "district": "淇滨区"
        }
    },
    {
        "id": "12893251452620761670",
        "title": "公共厕所",
        "address": "河南省鹤壁市淇滨区庐山路与月季巷交叉口正北方向91米左右",
        "tel": "",
        "category": "基础设施:公共设施:公共厕所",
        "type": 0,
        "location": {
            "lat": 35.70622,
            "lng": 114.275187
        },
        "ad_info": {
            "adcode": 410611,
            "province": "河南省",
            "city": "鹤壁市",
            "district": "淇滨区"
        }
    },
    {
        "id": "4759741993209759743",
        "title": "公共厕所",
        "address": "河南省鹤壁市淇滨区东海路与淇滨大道交叉口正西方向217米左右",
        "tel": "",
        "category": "基础设施:公共设施:公共厕所",
        "type": 0,
        "location": {
            "lat": 35.750598,
            "lng": 114.3146
        },
        "ad_info": {
            "adcode": 410611,
            "province": "河南省",
            "city": "鹤壁市",
            "district": "淇滨区"
        }
    },
    {
        "id": "6804273744531503119",
        "title": "鹤壁服务区第四公共厕所",
        "address": "河南省鹤壁市淇县G107与小王线交叉口东南方向1078米左右",
        "tel": "",
        "category": "基础设施:公共设施:公共厕所",
        "type": 0,
        "location": {
            "lat": 35.551976,
            "lng": 114.159136
        },
        "ad_info": {
            "adcode": 410622,
            "province": "河南省",
            "city": "鹤壁市",
            "district": "淇县"
        }
    },
    {
        "id": "4516039036051547276",
        "title": "公共厕所",
        "address": "河南省鹤壁市淇滨区九州路与泰山路交叉口正南方向113米左右",
        "tel": "",
        "category": "基础设施:公共设施:公共厕所",
        "type": 0,
        "location": {
            "lat": 35.745581,
            "lng": 114.31396
        },
        "ad_info": {
            "adcode": 410611,
            "province": "河南省",
            "city": "鹤壁市",
            "district": "淇滨区"
        }
    },
    {
        "id": "10290579989439229020",
        "title": "公共厕所",
        "address": "河南省鹤壁市浚县黎阳路21号东80米",
        "tel": "",
        "category": "基础设施:公共设施:公共厕所",
        "type": 0,
        "location": {
            "lat": 35.676225,
            "lng": 114.544571
        },
        "ad_info": {
            "adcode": 410621,
            "province": "河南省",
            "city": "鹤壁市",
            "district": "浚县"
        }
    },
    {
        "id": "913520097263176292",
        "title": "公共厕所",
        "address": "河南省鹤壁市淇滨区淇河路185号",
        "tel": "",
        "category": "基础设施:公共设施:公共厕所",
        "type": 0,
        "location": {
            "lat": 35.753684,
            "lng": 114.289819
        },
        "ad_info": {
            "adcode": 410611,
            "province": "河南省",
            "city": "鹤壁市",
            "district": "淇滨区"
        }
    },
    {
        "id": "9961603137416551430",
        "title": "公共厕所",
        "address": "河南省鹤壁市浚县浚州大道与黄河路交叉口正东方向123米左右",
        "tel": "",
        "category": "基础设施:公共设施:公共厕所",
        "type": 0,
        "location": {
            "lat": 35.689324,
            "lng": 114.557573
        },
        "ad_info": {
            "adcode": 410621,
            "province": "河南省",
            "city": "鹤壁市",
            "district": "浚县"
        }
    },
    {
        "id": "18338366458801152576",
        "title": "公共厕所",
        "address": "河南省鹤壁市淇滨区庐山路与湘江路交叉口正南方向93米左右",
        "tel": "",
        "category": "基础设施:公共设施:公共厕所",
        "type": 0,
        "location": {
            "lat": 35.723333,
            "lng": 114.275269
        },
        "ad_info": {
            "adcode": 410611,
            "province": "河南省",
            "city": "鹤壁市",
            "district": "淇滨区"
        }
    },
    {
        "id": "13023384580044217503",
        "title": "公共厕所",
        "address": "河南省鹤壁市山城区长风路地王广场",
        "tel": "",
        "category": "基础设施:公共设施:公共厕所",
        "type": 0,
        "location": {
            "lat": 35.899571,
            "lng": 114.186245
        },
        "ad_info": {
            "adcode": 410603,
            "province": "河南省",
            "city": "鹤壁市",
            "district": "山城区"
        }
    },
    {
        "id": "5421999920250802184",
        "title": "公共厕所",
        "address": "河南省鹤壁市淇滨区庐山路与闽江路交叉口正北方向85米左右",
        "tel": "",
        "category": "基础设施:公共设施:公共厕所",
        "type": 0,
        "location": {
            "lat": 35.712792,
            "lng": 114.273652
        },
        "ad_info": {
            "adcode": 410611,
            "province": "河南省",
            "city": "鹤壁市",
            "district": "淇滨区"
        }
    },
    {
        "id": "15448291023662538515",
        "title": "公共厕所",
        "address": "河南省鹤壁市浚县怀禹路与黄河路交叉口正北方向96米左右",
        "tel": "",
        "category": "基础设施:公共设施:公共厕所",
        "type": 0,
        "location": {
            "lat": 35.658871,
            "lng": 114.551176
        },
        "ad_info": {
            "adcode": 410621,
            "province": "河南省",
            "city": "鹤壁市",
            "district": "浚县"
        }
    },
    {
        "id": "11945415638511316181",
        "title": "公共厕所",
        "address": "河南省鹤壁市浚县建设路与民生路交叉口正西方向198米左右",
        "tel": "",
        "category": "基础设施:公共设施:公共厕所",
        "type": 0,
        "location": {
            "lat": 35.680635,
            "lng": 114.559115
        },
        "ad_info": {
            "adcode": 410621,
            "province": "河南省",
            "city": "鹤壁市",
            "district": "浚县"
        }
    },
    {
        "id": "12166998708271850929",
        "title": "公共厕所",
        "address": "河南省鹤壁市山城区朝阳街与长风路交叉口正北方向181米左右",
        "tel": "",
        "category": "基础设施:公共设施:公共厕所",
        "type": 0,
        "location": {
            "lat": 35.891853,
            "lng": 114.1869
        },
        "ad_info": {
            "adcode": 410603,
            "province": "河南省",
            "city": "鹤壁市",
            "district": "山城区"
        }
    },
    {
        "id": "11544911954278546988",
        "title": "公共卫生间",
        "address": "河南省鹤壁市山城区车站路与长风北路交叉口正东方向137米左右",
        "tel": "",
        "category": "基础设施:公共设施:公共厕所",
        "type": 0,
        "location": {
            "lat": 35.905886,
            "lng": 114.189251
        },
        "ad_info": {
            "adcode": 410603,
            "province": "河南省",
            "city": "鹤壁市",
            "district": "山城区"
        }
    },
    {
        "id": "2884074624998242472",
        "title": "公共厕所",
        "address": "河南省鹤壁市山城区红旗街与春雷路交叉口西180米",
        "tel": "",
        "category": "基础设施:公共设施:公共厕所",
        "type": 0,
        "location": {
            "lat": 35.8979,
            "lng": 114.178947
        },
        "ad_info": {
            "adcode": 410603,
            "province": "河南省",
            "city": "鹤壁市",
            "district": "山城区"
        }
    },
    {
        "id": "8614728267353399495",
        "title": "公共厕所",
        "address": "河南省鹤壁市山城区卫星街与山城路交叉口正北方向143米左右",
        "tel": "",
        "category": "基础设施:公共设施:公共厕所",
        "type": 0,
        "location": {
            "lat": 35.905161,
            "lng": 114.17688
        },
        "ad_info": {
            "adcode": 410603,
            "province": "河南省",
            "city": "鹤壁市",
            "district": "山城区"
        }
    },
    {
        "id": "10313972954887070423",
        "title": "公共厕所",
        "address": "河南省鹤壁市山城区春雷路与朝阳街交叉口正南方向95米左右",
        "tel": "",
        "category": "基础设施:公共设施:公共厕所",
        "type": 0,
        "location": {
            "lat": 35.889383,
            "lng": 114.181322
        },
        "ad_info": {
            "adcode": 410603,
            "province": "河南省",
            "city": "鹤壁市",
            "district": "山城区"
        }
    },
    {
        "id": "7924890903117254988",
        "title": "公共厕所",
        "address": "河南省鹤壁市淇县康庄大道与立德路交叉口东南方向91米左右",
        "tel": "",
        "category": "基础设施:公共设施:公共厕所",
        "type": 0,
        "location": {
            "lat": 35.630615,
            "lng": 114.196837
        },
        "ad_info": {
            "adcode": 410622,
            "province": "河南省",
            "city": "鹤壁市",
            "district": "淇县"
        }
    },
    {
        "id": "11710177349858644160",
        "title": "公共厕所",
        "address": "河南省鹤壁市淇滨区淇水大道与漓江路交叉口正西方向109米左右",
        "tel": "",
        "category": "基础设施:公共设施:公共厕所",
        "type": 0,
        "location": {
            "lat": 35.719534,
            "lng": 114.271678
        },
        "ad_info": {
            "adcode": 410611,
            "province": "河南省",
            "city": "鹤壁市",
            "district": "淇滨区"
        }
    },
    {
        "id": "124442788238853868",
        "title": "公共厕所",
        "address": "河南省鹤壁市淇县商贸路与文化路交叉口正北方向118米左右",
        "tel": "",
        "category": "基础设施:公共设施:公共厕所",
        "type": 0,
        "location": {
            "lat": 35.695394,
            "lng": 114.23307
        },
        "ad_info": {
            "adcode": 410622,
            "province": "河南省",
            "city": "鹤壁市",
            "district": "淇县"
        }
    },
    {
        "id": "9920453720256905145",
        "title": "公共厕所",
        "address": "河南省鹤壁市淇滨区淇滨大道与金山路交叉口西北方向71米左右",
        "tel": "",
        "category": "基础设施:公共设施:公共厕所",
        "type": 0,
        "location": {
            "lat": 35.750847,
            "lng": 114.274525
        },
        "ad_info": {
            "adcode": 410611,
            "province": "河南省",
            "city": "鹤壁市",
            "district": "淇滨区"
        }
    },
    {
        "id": "13490134175300984681",
        "title": "公共厕所",
        "address": "河南省鹤壁市鹤山区中山路与鹤源路交叉口正北方向687米左右",
        "tel": "",
        "category": "基础设施:公共设施:公共厕所",
        "type": 0,
        "location": {
            "lat": 35.962517,
            "lng": 114.160596
        },
        "ad_info": {
            "adcode": 410602,
            "province": "河南省",
            "city": "鹤壁市",
            "district": "鹤山区"
        }
    },
    {
        "id": "13973565176035990293",
        "title": "公共厕所",
        "address": "河南省鹤壁市浚县定浚线与永定线交叉口西北方向739米左右",
        "tel": "",
        "category": "基础设施:公共设施:公共厕所",
        "type": 0,
        "location": {
            "lat": 35.705195,
            "lng": 114.510702
        },
        "ad_info": {
            "adcode": 410621,
            "province": "河南省",
            "city": "鹤壁市",
            "district": "浚县"
        }
    },
    {
        "id": "15516781961282451092",
        "title": "鹤壁服务区第一公共厕所",
        "address": "河南省鹤壁市淇县Y018与小王线交叉口正西方向1120米左右",
        "tel": "",
        "category": "基础设施:公共设施:公共厕所",
        "type": 0,
        "location": {
            "lat": 35.551217,
            "lng": 114.161485
        },
        "ad_info": {
            "adcode": 410622,
            "province": "河南省",
            "city": "鹤壁市",
            "district": "淇县"
        }
    },
    {
        "id": "38887559469910051",
        "title": "公共厕所",
        "address": "河南省鹤壁市淇县同济大道与西三路交叉口西北方向42米左右",
        "tel": "",
        "category": "基础设施:公共设施:公共厕所",
        "type": 0,
        "location": {
            "lat": 35.602503,
            "lng": 114.196173
        },
        "ad_info": {
            "adcode": 410622,
            "province": "河南省",
            "city": "鹤壁市",
            "district": "淇县"
        }
    },
    {
        "id": "17220696461593335583",
        "title": "公共厕所",
        "address": "河南省鹤壁市淇滨区金山路与黎阳路交叉口正南方向214米左右",
        "tel": "",
        "category": "基础设施:公共设施:公共厕所",
        "type": 0,
        "location": {
            "lat": 35.756275,
            "lng": 114.279685
        },
        "ad_info": {
            "adcode": 410611,
            "province": "河南省",
            "city": "鹤壁市",
            "district": "淇滨区"
        }
    },
    {
        "id": "5285949677217661445",
        "title": "公共厕所",
        "address": "河南省鹤壁市浚县卫溪街道北大街易达百货(浚县迎宾馆西南)",
        "tel": "",
        "category": "基础设施:公共设施:公共厕所",
        "type": 0,
        "location": {
            "lat": 35.67458,
            "lng": 114.54596
        },
        "ad_info": {
            "adcode": 410621,
            "province": "河南省",
            "city": "鹤壁市",
            "district": "浚县"
        }
    },
    {
        "id": "1846966090678977034",
        "title": "公共厕所",
        "address": "河南省鹤壁市淇滨区华夏南路与淮河路交叉口正东方向161米左右",
        "tel": "",
        "category": "基础设施:公共设施:公共厕所",
        "type": 0,
        "location": {
            "lat": 35.738868,
            "lng": 114.298599
        },
        "ad_info": {
            "adcode": 410611,
            "province": "河南省",
            "city": "鹤壁市",
            "district": "淇滨区"
        }
    },
    {
        "id": "17476734226252677318",
        "title": "公共厕所",
        "address": "河南省鹤壁市淇县上街路与东仓巷交叉口正北方向69米左右",
        "tel": "",
        "category": "基础设施:公共设施:公共厕所",
        "type": 0,
        "location": {
            "lat": 35.605398,
            "lng": 114.205443
        },
        "ad_info": {
            "adcode": 410622,
            "province": "河南省",
            "city": "鹤壁市",
            "district": "淇县"
        }
    },
    {
        "id": "7725346140646387582",
        "title": "云蒙山景区公共厕所",
        "address": "河南省鹤壁市淇县009县道东50米",
        "tel": "",
        "category": "基础设施:公共设施:公共厕所",
        "type": 0,
        "location": {
            "lat": 35.60492,
            "lng": 114.0692
        },
        "ad_info": {
            "adcode": 410622,
            "province": "河南省",
            "city": "鹤壁市",
            "district": "淇县"
        }
    },
    {
        "id": "7325670461351241927",
        "title": "公共厕所",
        "address": "河南省鹤壁市淇滨区Y016与Y027交叉口正北方向1212米左右",
        "tel": "",
        "category": "基础设施:公共设施:公共厕所",
        "type": 0,
        "location": {
            "lat": 35.676138,
            "lng": 114.325184
        },
        "ad_info": {
            "adcode": 410611,
            "province": "河南省",
            "city": "鹤壁市",
            "district": "淇滨区"
        }
    },
    {
        "id": "15808168609450394968",
        "title": "公共厕所",
        "address": "河南省鹤壁市淇县红旗路房产局(裕隆朝歌生活广场附近)",
        "tel": "",
        "category": "基础设施:公共设施:公共厕所",
        "type": 0,
        "location": {
            "lat": 35.6071,
            "lng": 114.203609
        },
        "ad_info": {
            "adcode": 410622,
            "province": "河南省",
            "city": "鹤壁市",
            "district": "淇县"
        }
    },
    {
        "id": "13988153192529503856",
        "title": "公共厕所",
        "address": "河南省鹤壁市淇滨区兴鹤大街与黄河路交叉口西南方向41米左右",
        "tel": "",
        "category": "基础设施:公共设施:公共厕所",
        "type": 0,
        "location": {
            "lat": 35.74415,
            "lng": 114.29169
        },
        "ad_info": {
            "adcode": 410611,
            "province": "河南省",
            "city": "鹤壁市",
            "district": "淇滨区"
        }
    },
    {
        "id": "11643714496005906141",
        "title": "公共厕所",
        "address": "河南省鹤壁市淇滨区雪松巷万豪花园酒店东侧约70米",
        "tel": "",
        "category": "基础设施:公共设施:公共厕所",
        "type": 0,
        "location": {
            "lat": 35.745488,
            "lng": 114.285486
        },
        "ad_info": {
            "adcode": 410611,
            "province": "河南省",
            "city": "鹤壁市",
            "district": "淇滨区"
        }
    },
    {
        "id": "6075121420738312991",
        "title": "公共厕所",
        "address": "河南省鹤壁市淇滨区兴鹤大街与渤海路交叉口东北方向70米左右",
        "tel": "",
        "category": "基础设施:公共设施:公共厕所",
        "type": 0,
        "location": {
            "lat": 35.773036,
            "lng": 114.292406
        },
        "ad_info": {
            "adcode": 410611,
            "province": "河南省",
            "city": "鹤壁市",
            "district": "淇滨区"
        }
    },
    {
        "id": "12598231763523867457",
        "title": "公共厕所",
        "address": "河南省鹤壁市淇滨区同心巷与泰山路交叉口东北方向50米左右",
        "tel": "",
        "category": "基础设施:公共设施:公共厕所",
        "type": 0,
        "location": {
            "lat": 35.755411,
            "lng": 114.31407
        },
        "ad_info": {
            "adcode": 410611,
            "province": "河南省",
            "city": "鹤壁市",
            "district": "淇滨区"
        }
    },
    {
        "id": "3273023027291936457",
        "title": "公共厕所",
        "address": "河南省鹤壁市山城区春雷路与泗河街交叉口正东方向258米左右",
        "tel": "",
        "category": "基础设施:公共设施:公共厕所",
        "type": 0,
        "location": {
            "lat": 35.883893,
            "lng": 114.18393
        },
        "ad_info": {
            "adcode": 410603,
            "province": "河南省",
            "city": "鹤壁市",
            "district": "山城区"
        }
    },
    {
        "id": "13096760307568177376",
        "title": "公共厕所",
        "address": "河南省鹤壁市山城区南窑村卫生所东北侧240米",
        "tel": "",
        "category": "基础设施:公共设施:公共厕所",
        "type": 0,
        "location": {
            "lat": 35.850342,
            "lng": 114.192873
        },
        "ad_info": {
            "adcode": 410603,
            "province": "河南省",
            "city": "鹤壁市",
            "district": "山城区"
        }
    },
    {
        "id": "14980393302347495436",
        "title": "公共厕所",
        "address": "河南省鹤壁市浚县卫河路与浚州大道交叉口东北方向78米左右",
        "tel": "",
        "category": "基础设施:公共设施:公共厕所",
        "type": 0,
        "location": {
            "lat": 35.688463,
            "lng": 114.534629
        },
        "ad_info": {
            "adcode": 410621,
            "province": "河南省",
            "city": "鹤壁市",
            "district": "浚县"
        }
    },
    {
        "id": "9828454451849969166",
        "title": "公共厕所",
        "address": "河南省鹤壁市淇滨区兴鹤大街与南海路交叉口正西方向63米左右",
        "tel": "",
        "category": "基础设施:公共设施:公共厕所",
        "type": 0,
        "location": {
            "lat": 35.699398,
            "lng": 114.291085
        },
        "ad_info": {
            "adcode": 410611,
            "province": "河南省",
            "city": "鹤壁市",
            "district": "淇滨区"
        }
    },
    {
        "id": "7524945341942467745",
        "title": "公共厕所",
        "address": "河南省鹤壁市山城区中山南路与汤河街交叉口西南方向108米左右",
        "tel": "",
        "category": "基础设施:公共设施:公共厕所",
        "type": 0,
        "location": {
            "lat": 35.905892,
            "lng": 114.16579
        },
        "ad_info": {
            "adcode": 410603,
            "province": "河南省",
            "city": "鹤壁市",
            "district": "山城区"
        }
    },
    {
        "id": "6862340241666151262",
        "title": "公共厕所",
        "address": "河南省鹤壁市淇滨区九州路与兴鹤大街交叉口东南方向101米左右",
        "tel": "",
        "category": "基础设施:公共设施:公共厕所",
        "type": 0,
        "location": {
            "lat": 35.745829,
            "lng": 114.29253
        },
        "ad_info": {
            "adcode": 410611,
            "province": "河南省",
            "city": "鹤壁市",
            "district": "淇滨区"
        }
    },
    {
        "id": "18045932235906625932",
        "title": "公共厕所",
        "address": "河南省鹤壁市山城区S221与环城路交叉口西北方向158米左右",
        "tel": "",
        "category": "基础设施:公共设施:公共厕所",
        "type": 0,
        "location": {
            "lat": 35.925805,
            "lng": 114.174563
        },
        "ad_info": {
            "adcode": 410603,
            "province": "河南省",
            "city": "鹤壁市",
            "district": "山城区"
        }
    },
    {
        "id": "4135526952543775997",
        "title": "公共厕所",
        "address": "河南省鹤壁市鹤山区拥军路与鹤源路交叉口正东方向622米左右",
        "tel": "",
        "category": "基础设施:公共设施:公共厕所",
        "type": 0,
        "location": {
            "lat": 35.969536,
            "lng": 114.16445
        },
        "ad_info": {
            "adcode": 410602,
            "province": "河南省",
            "city": "鹤壁市",
            "district": "鹤山区"
        }
    },
    {
        "id": "5962834989641576302",
        "title": "公共厕所",
        "address": "河南省鹤壁市淇县卫城路与红旗路交叉口东北方向23米左右",
        "tel": "",
        "category": "基础设施:公共设施:公共厕所",
        "type": 0,
        "location": {
            "lat": 35.608886,
            "lng": 114.1905
        },
        "ad_info": {
            "adcode": 410622,
            "province": "河南省",
            "city": "鹤壁市",
            "district": "淇县"
        }
    },
    {
        "id": "4259806778297970160",
        "title": "公共厕所",
        "address": "河南省鹤壁市淇县奋斗路与幸福路交叉口正西方向1067米左右",
        "tel": "",
        "category": "基础设施:公共设施:公共厕所",
        "type": 0,
        "location": {
            "lat": 35.560345,
            "lng": 114.250866
        },
        "ad_info": {
            "adcode": 410622,
            "province": "河南省",
            "city": "鹤壁市",
            "district": "淇县"
        }
    },
    {
        "id": "11512739110122837160",
        "title": "公共厕所",
        "address": "河南省鹤壁市浚县S224",
        "tel": "",
        "category": "基础设施:公共设施:公共厕所",
        "type": 0,
        "location": {
            "lat": 35.561007,
            "lng": 114.40128
        },
        "ad_info": {
            "adcode": 410621,
            "province": "河南省",
            "city": "鹤壁市",
            "district": "浚县"
        }
    },
    {
        "id": "4857352634658021330",
        "title": "公共厕所",
        "address": "河南省鹤壁市淇滨区庐山路与漓江路交叉口正南方向88米左右",
        "tel": "",
        "category": "基础设施:公共设施:公共厕所",
        "type": 0,
        "location": {
            "lat": 35.718956,
            "lng": 114.274247
        },
        "ad_info": {
            "adcode": 410611,
            "province": "河南省",
            "city": "鹤壁市",
            "district": "淇滨区"
        }
    },
    {
        "id": "14328141884423745996",
        "title": "公共厕所",
        "address": "河南省鹤壁市淇滨区庐山路与珠江路交叉口东北方向130米左右",
        "tel": "",
        "category": "基础设施:公共设施:公共厕所",
        "type": 0,
        "location": {
            "lat": 35.704346,
            "lng": 114.273493
        },
        "ad_info": {
            "adcode": 410611,
            "province": "河南省",
            "city": "鹤壁市",
            "district": "淇滨区"
        }
    },
    {
        "id": "2201641432054391600",
        "title": "公共厕所",
        "address": "河南省鹤壁市山城区惠民路与西宁路交叉口东南方向241米左右",
        "tel": "",
        "category": "基础设施:公共设施:公共厕所",
        "type": 0,
        "location": {
            "lat": 35.89473,
            "lng": 114.161341
        },
        "ad_info": {
            "adcode": 410603,
            "province": "河南省",
            "city": "鹤壁市",
            "district": "山城区"
        }
    },
    {
        "id": "1048917688900440303",
        "title": "公共厕所",
        "address": "河南省鹤壁市淇滨区兴鹤大街与泰山路交叉口正东方向44米左右",
        "tel": "",
        "category": "基础设施:公共设施:公共厕所",
        "type": 0,
        "location": {
            "lat": 35.694862,
            "lng": 114.292301
        },
        "ad_info": {
            "adcode": 410611,
            "province": "河南省",
            "city": "鹤壁市",
            "district": "淇滨区"
        }
    },
    {
        "id": "12465856682846301637",
        "title": "公共厕所",
        "address": "河南省鹤壁市淇滨区嵩山路与延河路交叉口西北方向49米左右",
        "tel": "",
        "category": "基础设施:公共设施:公共厕所",
        "type": 0,
        "location": {
            "lat": 35.768711,
            "lng": 114.30234
        },
        "ad_info": {
            "adcode": 410611,
            "province": "河南省",
            "city": "鹤壁市",
            "district": "淇滨区"
        }
    },
    {
        "id": "702365084978607917",
        "title": "公共厕所",
        "address": "河南省鹤壁市鹤山区教场街与鹤源路交叉口正西方向64米左右",
        "tel": "",
        "category": "基础设施:公共设施:公共厕所",
        "type": 0,
        "location": {
            "lat": 35.935286,
            "lng": 114.168557
        },
        "ad_info": {
            "adcode": 410602,
            "province": "河南省",
            "city": "鹤壁市",
            "district": "鹤山区"
        }
    },
    {
        "id": "14892543097620449886",
        "title": "公共厕所",
        "address": "河南省鹤壁市浚县建设路与科技路交叉口正北方向221米左右",
        "tel": "",
        "category": "基础设施:公共设施:公共厕所",
        "type": 0,
        "location": {
            "lat": 35.682522,
            "lng": 114.552219
        },
        "ad_info": {
            "adcode": 410621,
            "province": "河南省",
            "city": "鹤壁市",
            "district": "浚县"
        }
    },
    {
        "id": "11587020187267129883",
        "title": "公共厕所",
        "address": "河南省鹤壁市鹤山区中山路与康新街交叉口正南方向42米左右",
        "tel": "",
        "category": "基础设施:公共设施:公共厕所",
        "type": 0,
        "location": {
            "lat": 35.947692,
            "lng": 114.160161
        },
        "ad_info": {
            "adcode": 410602,
            "province": "河南省",
            "city": "鹤壁市",
            "district": "鹤山区"
        }
    },
    {
        "id": "885538870226496732",
        "title": "公共厕所",
        "address": "河南省鹤壁市山城区杨邑路与汤河街交叉口正西方向190米左右",
        "tel": "",
        "category": "基础设施:公共设施:公共厕所",
        "type": 0,
        "location": {
            "lat": 35.906872,
            "lng": 114.160247
        },
        "ad_info": {
            "adcode": 410603,
            "province": "河南省",
            "city": "鹤壁市",
            "district": "山城区"
        }
    },
    {
        "id": "8213941313187297516",
        "title": "公共厕所",
        "address": "河南省鹤壁市淇滨区海棠巷与玉兰巷交叉口西北方向24米左右",
        "tel": "",
        "category": "基础设施:公共设施:公共厕所",
        "type": 0,
        "location": {
            "lat": 35.752087,
            "lng": 114.287694
        },
        "ad_info": {
            "adcode": 410611,
            "province": "河南省",
            "city": "鹤壁市",
            "district": "淇滨区"
        }
    },
    {
        "id": "4303086711992853335",
        "title": "公共厕所",
        "address": "河南省鹤壁市山城区中山南路与汤河街交叉口正东方向346米左右",
        "tel": "",
        "category": "基础设施:公共设施:公共厕所",
        "type": 0,
        "location": {
            "lat": 35.906938,
            "lng": 114.170408
        },
        "ad_info": {
            "adcode": 410603,
            "province": "河南省",
            "city": "鹤壁市",
            "district": "山城区"
        }
    },
    {
        "id": "12200407458493528259",
        "title": "公共厕所",
        "address": "河南省鹤壁市淇滨区泰山路与闽江东路交叉口正南方向67米左右",
        "tel": "",
        "category": "基础设施:公共设施:公共厕所",
        "type": 0,
        "location": {
            "lat": 35.710755,
            "lng": 114.30412
        },
        "ad_info": {
            "adcode": 410611,
            "province": "河南省",
            "city": "鹤壁市",
            "district": "淇滨区"
        }
    },
    {
        "id": "16940777983826252032",
        "title": "公共厕所",
        "address": "河南省鹤壁市山城区馨苑八区(长风南路东)",
        "tel": "",
        "category": "基础设施:公共设施:公共厕所",
        "type": 0,
        "location": {
            "lat": 35.874426,
            "lng": 114.190571
        },
        "ad_info": {
            "adcode": 410603,
            "province": "河南省",
            "city": "鹤壁市",
            "district": "山城区"
        }
    },
    {
        "id": "12672110912029631234",
        "title": "公共厕所",
        "address": "河南省鹤壁市淇县G107与南北街交叉口西南方向382米左右",
        "tel": "",
        "category": "基础设施:公共设施:公共厕所",
        "type": 0,
        "location": {
            "lat": 35.552877,
            "lng": 114.135244
        },
        "ad_info": {
            "adcode": 410622,
            "province": "河南省",
            "city": "鹤壁市",
            "district": "淇县"
        }
    },
    {
        "id": "13191245763455531092",
        "title": "公共厕所",
        "address": "河南省鹤壁市浚县G342与定浚线交叉口西北方向168米左右",
        "tel": "",
        "category": "基础设施:公共设施:公共厕所",
        "type": 0,
        "location": {
            "lat": 35.689317,
            "lng": 114.52154
        },
        "ad_info": {
            "adcode": 410621,
            "province": "河南省",
            "city": "鹤壁市",
            "district": "浚县"
        }
    },
    {
        "id": "3548816501841278260",
        "title": "公共厕所",
        "address": "河南省鹤壁市淇县上街路与摘星路交叉口正南方向25米左右",
        "tel": "",
        "category": "基础设施:公共设施:公共厕所",
        "type": 0,
        "location": {
            "lat": 35.60573,
            "lng": 114.194131
        },
        "ad_info": {
            "adcode": 410622,
            "province": "河南省",
            "city": "鹤壁市",
            "district": "淇县"
        }
    },
    {
        "id": "9956253509970410287",
        "title": "公共厕所",
        "address": "河南省鹤壁市浚县平价餐馆东侧160米",
        "tel": "",
        "category": "基础设施:公共设施:公共厕所",
        "type": 0,
        "location": {
            "lat": 35.593058,
            "lng": 114.387552
        },
        "ad_info": {
            "adcode": 410621,
            "province": "河南省",
            "city": "鹤壁市",
            "district": "浚县"
        }
    },
    {
        "id": "15989795668247676097",
        "title": "公共厕所",
        "address": "河南省鹤壁市山城区红旗街与铁西路交叉口东南方向266米左右",
        "tel": "",
        "category": "基础设施:公共设施:公共厕所",
        "type": 0,
        "location": {
            "lat": 35.896404,
            "lng": 114.199142
        },
        "ad_info": {
            "adcode": 410603,
            "province": "河南省",
            "city": "鹤壁市",
            "district": "山城区"
        }
    },
    {
        "id": "7192359176471565827",
        "title": "公共厕所",
        "address": "河南省鹤壁市浚县科技路与黎阳路交叉口正北方向162米左右",
        "tel": "",
        "category": "基础设施:公共设施:公共厕所",
        "type": 0,
        "location": {
            "lat": 35.677511,
            "lng": 114.55248
        },
        "ad_info": {
            "adcode": 410621,
            "province": "河南省",
            "city": "鹤壁市",
            "district": "浚县"
        }
    },
    {
        "id": "15355692255059779755",
        "title": "公共厕所",
        "address": "河南省鹤壁市山城区沿河路与红旗街交叉口西南方向36米左右",
        "tel": "",
        "category": "基础设施:公共设施:公共厕所",
        "type": 0,
        "location": {
            "lat": 35.897234,
            "lng": 114.20587
        },
        "ad_info": {
            "adcode": 410603,
            "province": "河南省",
            "city": "鹤壁市",
            "district": "山城区"
        }
    },
    {
        "id": "13086408630882176531",
        "title": "公共厕所",
        "address": "河南省鹤壁市浚县建设路与科技路交叉口正东方向76米左右",
        "tel": "",
        "category": "基础设施:公共设施:公共厕所",
        "type": 0,
        "location": {
            "lat": 35.680719,
            "lng": 114.553393
        },
        "ad_info": {
            "adcode": 410621,
            "province": "河南省",
            "city": "鹤壁市",
            "district": "浚县"
        }
    },
    {
        "id": "16313881799941958038",
        "title": "公共厕所",
        "address": "河南省鹤壁市淇县新安小区东侧140米",
        "tel": "",
        "category": "基础设施:公共设施:公共厕所",
        "type": 0,
        "location": {
            "lat": 35.604593,
            "lng": 114.183461
        },
        "ad_info": {
            "adcode": 410622,
            "province": "河南省",
            "city": "鹤壁市",
            "district": "淇县"
        }
    },
    {
        "id": "18259686291837349651",
        "title": "公共厕所",
        "address": "河南省鹤壁市鹤山区中山路与教场街交叉口东北方向50米左右",
        "tel": "",
        "category": "基础设施:公共设施:公共厕所",
        "type": 0,
        "location": {
            "lat": 35.935511,
            "lng": 114.164317
        },
        "ad_info": {
            "adcode": 410602,
            "province": "河南省",
            "city": "鹤壁市",
            "district": "鹤山区"
        }
    },
    {
        "id": "6950535287090814473",
        "title": "公共厕所",
        "address": "河南省鹤壁市山城区S302与Y006交叉口东北方向41米左右",
        "tel": "",
        "category": "基础设施:公共设施:公共厕所",
        "type": 0,
        "location": {
            "lat": 35.917607,
            "lng": 114.219513
        },
        "ad_info": {
            "adcode": 410603,
            "province": "河南省",
            "city": "鹤壁市",
            "district": "山城区"
        }
    },
    {
        "id": "10840001088907049140",
        "title": "鹤壁服务区第一公共厕所",
        "address": "河南省鹤壁市淇县G107与小王线交叉口东南方向1033米左右",
        "tel": "",
        "category": "基础设施:公共设施:公共厕所",
        "type": 0,
        "location": {
            "lat": 35.55275,
            "lng": 114.159851
        },
        "ad_info": {
            "adcode": 410622,
            "province": "河南省",
            "city": "鹤壁市",
            "district": "淇县"
        }
    },
    {
        "id": "12260228889852826180",
        "title": "公共厕所",
        "address": "河南省鹤壁市山城区春雷路与朝霞街交叉口正东方向81米左右",
        "tel": "",
        "category": "基础设施:公共设施:公共厕所",
        "type": 0,
        "location": {
            "lat": 35.894514,
            "lng": 114.181951
        },
        "ad_info": {
            "adcode": 410603,
            "province": "河南省",
            "city": "鹤壁市",
            "district": "山城区"
        }
    },
    {
        "id": "5127024366550465966",
        "title": "公共厕所",
        "address": "河南省鹤壁市山城区奔流街与山城路交叉口正南方向151米左右",
        "tel": "",
        "category": "基础设施:公共设施:公共厕所",
        "type": 0,
        "location": {
            "lat": 35.899571,
            "lng": 114.17719
        },
        "ad_info": {
            "adcode": 410603,
            "province": "河南省",
            "city": "鹤壁市",
            "district": "山城区"
        }
    },
    {
        "id": "168750511913992177",
        "title": "公共厕所",
        "address": "河南省鹤壁市山城区春雷路与朝霞街交叉口西北方向168米左右",
        "tel": "",
        "category": "基础设施:公共设施:公共厕所",
        "type": 0,
        "location": {
            "lat": 35.895393,
            "lng": 114.179801
        },
        "ad_info": {
            "adcode": 410603,
            "province": "河南省",
            "city": "鹤壁市",
            "district": "山城区"
        }
    },
    {
        "id": "12981672635092194918",
        "title": "公共厕所",
        "address": "河南省鹤壁市淇县G342与鹤电大道交叉口正东方向141米左右",
        "tel": "",
        "category": "基础设施:公共设施:公共厕所",
        "type": 0,
        "location": {
            "lat": 35.69854,
            "lng": 114.221055
        },
        "ad_info": {
            "adcode": 410622,
            "province": "河南省",
            "city": "鹤壁市",
            "district": "淇县"
        }
    },
    {
        "id": "15936713349404568841",
        "title": "公共厕所",
        "address": "河南省鹤壁市淇滨区柳江路与黄山路交叉口正东方向60米左右",
        "tel": "",
        "category": "基础设施:公共设施:公共厕所",
        "type": 0,
        "location": {
            "lat": 35.715877,
            "lng": 114.287097
        },
        "ad_info": {
            "adcode": 410611,
            "province": "河南省",
            "city": "鹤壁市",
            "district": "淇滨区"
        }
    },
    {
        "id": "17703336493277713520",
        "title": "男洗手间",
        "address": "河南省鹤壁市淇滨区兴鹤大街与鹤煤大道交汇处裕隆·爱之城F2",
        "tel": "",
        "category": "基础设施:公共设施:男洗手间",
        "type": 0,
        "location": {
            "lat": 35.7331,
            "lng": 114.2939
        },
        "ad_info": {
            "adcode": 410611,
            "province": "河南省",
            "city": "鹤壁市",
            "district": "淇滨区"
        }
    },
    {
        "id": "14178724287148157420",
        "title": "公共厕所",
        "address": "河南省鹤壁市浚县浚州大道与002县道交叉口东80米",
        "tel": "",
        "category": "基础设施:公共设施:公共厕所",
        "type": 0,
        "location": {
            "lat": 35.688839,
            "lng": 114.551292
        },
        "ad_info": {
            "adcode": 410621,
            "province": "河南省",
            "city": "鹤壁市",
            "district": "浚县"
        }
    },
    {
        "id": "15412099734089177248",
        "title": "公共厕所",
        "address": "河南省鹤壁市淇县同济大道与西二路交叉口正北方向77米左右",
        "tel": "",
        "category": "基础设施:公共设施:公共厕所",
        "type": 0,
        "location": {
            "lat": 35.602597,
            "lng": 114.197949
        },
        "ad_info": {
            "adcode": 410622,
            "province": "河南省",
            "city": "鹤壁市",
            "district": "淇县"
        }
    },
    {
        "id": "9439778409634825230",
        "title": "公共厕所",
        "address": "河南省鹤壁市淇滨区嵩山路与湘江路交叉口东南方向74米左右",
        "tel": "",
        "category": "基础设施:公共设施:公共厕所",
        "type": 0,
        "location": {
            "lat": 35.723622,
            "lng": 114.303178
        },
        "ad_info": {
            "adcode": 410611,
            "province": "河南省",
            "city": "鹤壁市",
            "district": "淇滨区"
        }
    },
    {
        "id": "517024135039976142",
        "title": "公共厕所",
        "address": "河南省鹤壁市浚县S222与阳光步行街交叉口正东方向85米左右",
        "tel": "",
        "category": "基础设施:公共设施:公共厕所",
        "type": 0,
        "location": {
            "lat": 35.590653,
            "lng": 114.438446
        },
        "ad_info": {
            "adcode": 410621,
            "province": "河南省",
            "city": "鹤壁市",
            "district": "浚县"
        }
    },
    {
        "id": "7699729789962816318",
        "title": "体育场公共厕所",
        "address": "河南省鹤壁市浚县新华路与金城路交叉口西南方向227米左右",
        "tel": "",
        "category": "基础设施:公共设施:公共厕所",
        "type": 0,
        "location": {
            "lat": 35.682832,
            "lng": 114.546677
        },
        "ad_info": {
            "adcode": 410621,
            "province": "河南省",
            "city": "鹤壁市",
            "district": "浚县"
        }
    },
    {
        "id": "15207670316327863268",
        "title": "公共厕所",
        "address": "河南省鹤壁市淇县淇水路淇县第一中学",
        "tel": "",
        "category": "基础设施:公共设施:公共厕所",
        "type": 0,
        "location": {
            "lat": 35.608793,
            "lng": 114.216749
        },
        "ad_info": {
            "adcode": 410622,
            "province": "河南省",
            "city": "鹤壁市",
            "district": "淇县"
        }
    },
    {
        "id": "6334339104157270096",
        "title": "赵庄村公共卫生间",
        "address": "河南省鹤壁市淇县S26",
        "tel": "",
        "category": "基础设施:公共设施:公共厕所",
        "type": 0,
        "location": {
            "lat": 35.668491,
            "lng": 114.106056
        },
        "ad_info": {
            "adcode": 410622,
            "province": "河南省",
            "city": "鹤壁市",
            "district": "淇县"
        }
    },
    {
        "id": "15685257296352749351",
        "title": "公共厕所",
        "address": "河南省鹤壁市鹤山区中山北路与中山路交叉口正西方向59米左右",
        "tel": "",
        "category": "基础设施:公共设施:公共厕所",
        "type": 0,
        "location": {
            "lat": 35.944249,
            "lng": 114.161436
        },
        "ad_info": {
            "adcode": 410602,
            "province": "河南省",
            "city": "鹤壁市",
            "district": "鹤山区"
        }
    },
    {
        "id": "16604052735778153204",
        "title": "无障碍-洗手间",
        "address": "河南省鹤壁市淇滨区兴鹤大街与鹤煤大道交汇处裕隆·爱之城F5",
        "tel": "",
        "category": "基础设施:公共设施:无障碍洗手间",
        "type": 0,
        "location": {
            "lat": 35.733446,
            "lng": 114.293898
        },
        "ad_info": {
            "adcode": 410611,
            "province": "河南省",
            "city": "鹤壁市",
            "district": "淇滨区"
        }
    },
    {
        "id": "8898450498111572541",
        "title": "公共厕所",
        "address": "河南省鹤壁市浚县云溪路与菜园街交叉口东南方向114米左右",
        "tel": "",
        "category": "基础设施:公共设施:公共厕所",
        "type": 0,
        "location": {
            "lat": 35.667785,
            "lng": 114.544136
        },
        "ad_info": {
            "adcode": 410621,
            "province": "河南省",
            "city": "鹤壁市",
            "district": "浚县"
        }
    },
    {
        "id": "14080141414830972532",
        "title": "公共厕所",
        "address": "河南省鹤壁市淇滨区大白线与渤海路交叉口正东方向121米左右",
        "tel": "",
        "category": "基础设施:公共设施:公共厕所",
        "type": 0,
        "location": {
            "lat": 35.7723,
            "lng": 114.247837
        },
        "ad_info": {
            "adcode": 410611,
            "province": "河南省",
            "city": "鹤壁市",
            "district": "淇滨区"
        }
    },
    {
        "id": "7968990000499033459",
        "title": "男卫生间(裕隆爱之城)",
        "address": "河南省鹤壁市淇滨区兴鹤大街与鹤煤大道交汇处裕隆·爱之城F4",
        "tel": "",
        "category": "基础设施:公共设施:男洗手间",
        "type": 0,
        "location": {
            "lat": 35.733661,
            "lng": 114.29296
        },
        "ad_info": {
            "adcode": 410611,
            "province": "河南省",
            "city": "鹤壁市",
            "district": "淇滨区"
        }
    },
    {
        "id": "11763063641957130140",
        "title": "公共厕所",
        "address": "河南省鹤壁市鹤山区X003与施东线交叉口正北方向1947米左右",
        "tel": "",
        "category": "基础设施:公共设施:公共厕所",
        "type": 0,
        "location": {
            "lat": 35.948428,
            "lng": 114.054285
        },
        "ad_info": {
            "adcode": 410602,
            "province": "河南省",
            "city": "鹤壁市",
            "district": "鹤山区"
        }
    },
    {
        "id": "9831144863389423843",
        "title": "公共厕所",
        "address": "河南省鹤壁市淇滨区华夏南路淇滨区政府",
        "tel": "",
        "category": "基础设施:公共设施:公共厕所",
        "type": 0,
        "location": {
            "lat": 35.742442,
            "lng": 114.297999
        },
        "ad_info": {
            "adcode": 410611,
            "province": "河南省",
            "city": "鹤壁市",
            "district": "淇滨区"
        }
    },
    {
        "id": "7290642860061813443",
        "title": "男洗手间",
        "address": "河南省鹤壁市淇滨区兴鹤大街与鹤煤大道交汇处裕隆·爱之城F4",
        "tel": "",
        "category": "基础设施:公共设施:男洗手间",
        "type": 0,
        "location": {
            "lat": 35.733346,
            "lng": 114.293902
        },
        "ad_info": {
            "adcode": 410611,
            "province": "河南省",
            "city": "鹤壁市",
            "district": "淇滨区"
        }
    },
    {
        "id": "141605755069643918",
        "title": "女卫生间",
        "address": "河南省鹤壁市淇滨区兴鹤大街与鹤煤大道交汇处裕隆·爱之城F5",
        "tel": "",
        "category": "基础设施:公共设施:女洗手间",
        "type": 0,
        "location": {
            "lat": 35.733705,
            "lng": 114.292975
        },
        "ad_info": {
            "adcode": 410611,
            "province": "河南省",
            "city": "鹤壁市",
            "district": "淇滨区"
        }
    },
    {
        "id": "17335059921957142796",
        "title": "公共卫生间",
        "address": "河南省鹤壁市淇县朝歌文化老街上关三利苑",
        "tel": "",
        "category": "基础设施:公共设施:公共厕所",
        "type": 0,
        "location": {
            "lat": 35.609174,
            "lng": 114.204516
        },
        "ad_info": {
            "adcode": 410622,
            "province": "河南省",
            "city": "鹤壁市",
            "district": "淇县"
        }
    },
    {
        "id": "11437502074061384000",
        "title": "公共厕所",
        "address": "河南省鹤壁市淇滨区卫河路与泰山路交叉口正南方向86米左右",
        "tel": "",
        "category": "基础设施:公共设施:公共厕所",
        "type": 0,
        "location": {
            "lat": 35.759898,
            "lng": 114.313932
        },
        "ad_info": {
            "adcode": 410611,
            "province": "河南省",
            "city": "鹤壁市",
            "district": "淇滨区"
        }
    },
    {
        "id": "11527980511901141035",
        "title": "赵庄村东赵庄公共卫生间",
        "address": "河南省鹤壁市淇县S26",
        "tel": "",
        "category": "基础设施:公共设施:公共厕所",
        "type": 0,
        "location": {
            "lat": 35.667304,
            "lng": 114.109357
        },
        "ad_info": {
            "adcode": 410622,
            "province": "河南省",
            "city": "鹤壁市",
            "district": "淇县"
        }
    },
    {
        "id": "3471273323390652386",
        "title": "公共卫生间",
        "address": "河南省鹤壁市淇县中华路与太和北路交叉口东北方向19米左右",
        "tel": "",
        "category": "基础设施:公共设施:公共厕所",
        "type": 0,
        "location": {
            "lat": 35.617466,
            "lng": 114.177862
        },
        "ad_info": {
            "adcode": 410622,
            "province": "河南省",
            "city": "鹤壁市",
            "district": "淇县"
        }
    },
    {
        "id": "12673694201079158716",
        "title": "公共厕所",
        "address": "河南省鹤壁市淇县政安街与淇水路交叉口西北方向39米左右",
        "tel": "",
        "category": "基础设施:公共设施:公共厕所",
        "type": 0,
        "location": {
            "lat": 35.622307,
            "lng": 114.217074
        },
        "ad_info": {
            "adcode": 410622,
            "province": "河南省",
            "city": "鹤壁市",
            "district": "淇县"
        }
    },
    {
        "id": "11017190545700245114",
        "title": "无障碍公共厕所",
        "address": "河南省鹤壁市淇县东关前街与淇河路交叉口西南方向37米左右",
        "tel": "",
        "category": "基础设施:公共设施:公共厕所",
        "type": 0,
        "location": {
            "lat": 35.598925,
            "lng": 114.208442
        },
        "ad_info": {
            "adcode": 410622,
            "province": "河南省",
            "city": "鹤壁市",
            "district": "淇县"
        }
    },
    {
        "id": "9439778409634825230",
        "title": "公共厕所",
        "address": "河南省鹤壁市淇滨区嵩山路与湘江路交叉口东南方向74米左右",
        "tel": "",
        "category": "基础设施:公共设施:公共厕所",
        "type": 0,
        "location": {
            "lat": 35.723622,
            "lng": 114.303178
        },
        "ad_info": {
            "adcode": 410611,
            "province": "河南省",
            "city": "鹤壁市",
            "district": "淇滨区"
        }
    },
    {
        "id": "517024135039976142",
        "title": "公共厕所",
        "address": "河南省鹤壁市浚县S222与阳光步行街交叉口正东方向85米左右",
        "tel": "",
        "category": "基础设施:公共设施:公共厕所",
        "type": 0,
        "location": {
            "lat": 35.590653,
            "lng": 114.438446
        },
        "ad_info": {
            "adcode": 410621,
            "province": "河南省",
            "city": "鹤壁市",
            "district": "浚县"
        }
    },
    {
        "id": "7699729789962816318",
        "title": "体育场公共厕所",
        "address": "河南省鹤壁市浚县新华路与金城路交叉口西南方向227米左右",
        "tel": "",
        "category": "基础设施:公共设施:公共厕所",
        "type": 0,
        "location": {
            "lat": 35.682832,
            "lng": 114.546677
        },
        "ad_info": {
            "adcode": 410621,
            "province": "河南省",
            "city": "鹤壁市",
            "district": "浚县"
        }
    },
    {
        "id": "15207670316327863268",
        "title": "公共厕所",
        "address": "河南省鹤壁市淇县淇水路淇县第一中学",
        "tel": "",
        "category": "基础设施:公共设施:公共厕所",
        "type": 0,
        "location": {
            "lat": 35.608793,
            "lng": 114.216749
        },
        "ad_info": {
            "adcode": 410622,
            "province": "河南省",
            "city": "鹤壁市",
            "district": "淇县"
        }
    },
    {
        "id": "6334339104157270096",
        "title": "赵庄村公共卫生间",
        "address": "河南省鹤壁市淇县S26",
        "tel": "",
        "category": "基础设施:公共设施:公共厕所",
        "type": 0,
        "location": {
            "lat": 35.668491,
            "lng": 114.106056
        },
        "ad_info": {
            "adcode": 410622,
            "province": "河南省",
            "city": "鹤壁市",
            "district": "淇县"
        }
    },
    {
        "id": "15685257296352749351",
        "title": "公共厕所",
        "address": "河南省鹤壁市鹤山区中山北路与中山路交叉口正西方向59米左右",
        "tel": "",
        "category": "基础设施:公共设施:公共厕所",
        "type": 0,
        "location": {
            "lat": 35.944249,
            "lng": 114.161436
        },
        "ad_info": {
            "adcode": 410602,
            "province": "河南省",
            "city": "鹤壁市",
            "district": "鹤山区"
        }
    },
    {
        "id": "16604052735778153204",
        "title": "无障碍-洗手间",
        "address": "河南省鹤壁市淇滨区兴鹤大街与鹤煤大道交汇处裕隆·爱之城F5",
        "tel": "",
        "category": "基础设施:公共设施:无障碍洗手间",
        "type": 0,
        "location": {
            "lat": 35.733446,
            "lng": 114.293898
        },
        "ad_info": {
            "adcode": 410611,
            "province": "河南省",
            "city": "鹤壁市",
            "district": "淇滨区"
        }
    },
    {
        "id": "8898450498111572541",
        "title": "公共厕所",
        "address": "河南省鹤壁市浚县云溪路与菜园街交叉口东南方向114米左右",
        "tel": "",
        "category": "基础设施:公共设施:公共厕所",
        "type": 0,
        "location": {
            "lat": 35.667785,
            "lng": 114.544136
        },
        "ad_info": {
            "adcode": 410621,
            "province": "河南省",
            "city": "鹤壁市",
            "district": "浚县"
        }
    },
    {
        "id": "14080141414830972532",
        "title": "公共厕所",
        "address": "河南省鹤壁市淇滨区大白线与渤海路交叉口正东方向121米左右",
        "tel": "",
        "category": "基础设施:公共设施:公共厕所",
        "type": 0,
        "location": {
            "lat": 35.7723,
            "lng": 114.247837
        },
        "ad_info": {
            "adcode": 410611,
            "province": "河南省",
            "city": "鹤壁市",
            "district": "淇滨区"
        }
    },
    {
        "id": "7968990000499033459",
        "title": "男卫生间(裕隆爱之城)",
        "address": "河南省鹤壁市淇滨区兴鹤大街与鹤煤大道交汇处裕隆·爱之城F4",
        "tel": "",
        "category": "基础设施:公共设施:男洗手间",
        "type": 0,
        "location": {
            "lat": 35.733661,
            "lng": 114.29296
        },
        "ad_info": {
            "adcode": 410611,
            "province": "河南省",
            "city": "鹤壁市",
            "district": "淇滨区"
        }
    },
    {
        "id": "11763063641957130140",
        "title": "公共厕所",
        "address": "河南省鹤壁市鹤山区X003与施东线交叉口正北方向1947米左右",
        "tel": "",
        "category": "基础设施:公共设施:公共厕所",
        "type": 0,
        "location": {
            "lat": 35.948428,
            "lng": 114.054285
        },
        "ad_info": {
            "adcode": 410602,
            "province": "河南省",
            "city": "鹤壁市",
            "district": "鹤山区"
        }
    },
    {
        "id": "9831144863389423843",
        "title": "公共厕所",
        "address": "河南省鹤壁市淇滨区华夏南路淇滨区政府",
        "tel": "",
        "category": "基础设施:公共设施:公共厕所",
        "type": 0,
        "location": {
            "lat": 35.742442,
            "lng": 114.297999
        },
        "ad_info": {
            "adcode": 410611,
            "province": "河南省",
            "city": "鹤壁市",
            "district": "淇滨区"
        }
    },
    {
        "id": "7290642860061813443",
        "title": "男洗手间",
        "address": "河南省鹤壁市淇滨区兴鹤大街与鹤煤大道交汇处裕隆·爱之城F4",
        "tel": "",
        "category": "基础设施:公共设施:男洗手间",
        "type": 0,
        "location": {
            "lat": 35.733346,
            "lng": 114.293902
        },
        "ad_info": {
            "adcode": 410611,
            "province": "河南省",
            "city": "鹤壁市",
            "district": "淇滨区"
        }
    },
    {
        "id": "141605755069643918",
        "title": "女卫生间",
        "address": "河南省鹤壁市淇滨区兴鹤大街与鹤煤大道交汇处裕隆·爱之城F5",
        "tel": "",
        "category": "基础设施:公共设施:女洗手间",
        "type": 0,
        "location": {
            "lat": 35.733705,
            "lng": 114.292975
        },
        "ad_info": {
            "adcode": 410611,
            "province": "河南省",
            "city": "鹤壁市",
            "district": "淇滨区"
        }
    },
    {
        "id": "17335059921957142796",
        "title": "公共卫生间",
        "address": "河南省鹤壁市淇县朝歌文化老街上关三利苑",
        "tel": "",
        "category": "基础设施:公共设施:公共厕所",
        "type": 0,
        "location": {
            "lat": 35.609174,
            "lng": 114.204516
        },
        "ad_info": {
            "adcode": 410622,
            "province": "河南省",
            "city": "鹤壁市",
            "district": "淇县"
        }
    },
    {
        "id": "11437502074061384000",
        "title": "公共厕所",
        "address": "河南省鹤壁市淇滨区卫河路与泰山路交叉口正南方向86米左右",
        "tel": "",
        "category": "基础设施:公共设施:公共厕所",
        "type": 0,
        "location": {
            "lat": 35.759898,
            "lng": 114.313932
        },
        "ad_info": {
            "adcode": 410611,
            "province": "河南省",
            "city": "鹤壁市",
            "district": "淇滨区"
        }
    },
    {
        "id": "11527980511901141035",
        "title": "赵庄村东赵庄公共卫生间",
        "address": "河南省鹤壁市淇县S26",
        "tel": "",
        "category": "基础设施:公共设施:公共厕所",
        "type": 0,
        "location": {
            "lat": 35.667304,
            "lng": 114.109357
        },
        "ad_info": {
            "adcode": 410622,
            "province": "河南省",
            "city": "鹤壁市",
            "district": "淇县"
        }
    },
    {
        "id": "3471273323390652386",
        "title": "公共卫生间",
        "address": "河南省鹤壁市淇县中华路与太和北路交叉口东北方向19米左右",
        "tel": "",
        "category": "基础设施:公共设施:公共厕所",
        "type": 0,
        "location": {
            "lat": 35.617466,
            "lng": 114.177862
        },
        "ad_info": {
            "adcode": 410622,
            "province": "河南省",
            "city": "鹤壁市",
            "district": "淇县"
        }
    },
    {
        "id": "12673694201079158716",
        "title": "公共厕所",
        "address": "河南省鹤壁市淇县政安街与淇水路交叉口西北方向39米左右",
        "tel": "",
        "category": "基础设施:公共设施:公共厕所",
        "type": 0,
        "location": {
            "lat": 35.622307,
            "lng": 114.217074
        },
        "ad_info": {
            "adcode": 410622,
            "province": "河南省",
            "city": "鹤壁市",
            "district": "淇县"
        }
    },
    {
        "id": "11017190545700245114",
        "title": "无障碍公共厕所",
        "address": "河南省鹤壁市淇县东关前街与淇河路交叉口西南方向37米左右",
        "tel": "",
        "category": "基础设施:公共设施:公共厕所",
        "type": 0,
        "location": {
            "lat": 35.598925,
            "lng": 114.208442
        },
        "ad_info": {
            "adcode": 410622,
            "province": "河南省",
            "city": "鹤壁市",
            "district": "淇县"
        }
    },
    {
        "id": "9439778409634825230",
        "title": "公共厕所",
        "address": "河南省鹤壁市淇滨区嵩山路与湘江路交叉口东南方向74米左右",
        "tel": "",
        "category": "基础设施:公共设施:公共厕所",
        "type": 0,
        "location": {
            "lat": 35.723622,
            "lng": 114.303178
        },
        "ad_info": {
            "adcode": 410611,
            "province": "河南省",
            "city": "鹤壁市",
            "district": "淇滨区"
        }
    },
    {
        "id": "517024135039976142",
        "title": "公共厕所",
        "address": "河南省鹤壁市浚县S222与阳光步行街交叉口正东方向85米左右",
        "tel": "",
        "category": "基础设施:公共设施:公共厕所",
        "type": 0,
        "location": {
            "lat": 35.590653,
            "lng": 114.438446
        },
        "ad_info": {
            "adcode": 410621,
            "province": "河南省",
            "city": "鹤壁市",
            "district": "浚县"
        }
    },
    {
        "id": "7699729789962816318",
        "title": "体育场公共厕所",
        "address": "河南省鹤壁市浚县新华路与金城路交叉口西南方向227米左右",
        "tel": "",
        "category": "基础设施:公共设施:公共厕所",
        "type": 0,
        "location": {
            "lat": 35.682832,
            "lng": 114.546677
        },
        "ad_info": {
            "adcode": 410621,
            "province": "河南省",
            "city": "鹤壁市",
            "district": "浚县"
        }
    },
    {
        "id": "15207670316327863268",
        "title": "公共厕所",
        "address": "河南省鹤壁市淇县淇水路淇县第一中学",
        "tel": "",
        "category": "基础设施:公共设施:公共厕所",
        "type": 0,
        "location": {
            "lat": 35.608793,
            "lng": 114.216749
        },
        "ad_info": {
            "adcode": 410622,
            "province": "河南省",
            "city": "鹤壁市",
            "district": "淇县"
        }
    },
    {
        "id": "6334339104157270096",
        "title": "赵庄村公共卫生间",
        "address": "河南省鹤壁市淇县S26",
        "tel": "",
        "category": "基础设施:公共设施:公共厕所",
        "type": 0,
        "location": {
            "lat": 35.668491,
            "lng": 114.106056
        },
        "ad_info": {
            "adcode": 410622,
            "province": "河南省",
            "city": "鹤壁市",
            "district": "淇县"
        }
    },
    {
        "id": "15685257296352749351",
        "title": "公共厕所",
        "address": "河南省鹤壁市鹤山区中山北路与中山路交叉口正西方向59米左右",
        "tel": "",
        "category": "基础设施:公共设施:公共厕所",
        "type": 0,
        "location": {
            "lat": 35.944249,
            "lng": 114.161436
        },
        "ad_info": {
            "adcode": 410602,
            "province": "河南省",
            "city": "鹤壁市",
            "district": "鹤山区"
        }
    },
    {
        "id": "16604052735778153204",
        "title": "无障碍-洗手间",
        "address": "河南省鹤壁市淇滨区兴鹤大街与鹤煤大道交汇处裕隆·爱之城F5",
        "tel": "",
        "category": "基础设施:公共设施:无障碍洗手间",
        "type": 0,
        "location": {
            "lat": 35.733446,
            "lng": 114.293898
        },
        "ad_info": {
            "adcode": 410611,
            "province": "河南省",
            "city": "鹤壁市",
            "district": "淇滨区"
        }
    },
    {
        "id": "8898450498111572541",
        "title": "公共厕所",
        "address": "河南省鹤壁市浚县云溪路与菜园街交叉口东南方向114米左右",
        "tel": "",
        "category": "基础设施:公共设施:公共厕所",
        "type": 0,
        "location": {
            "lat": 35.667785,
            "lng": 114.544136
        },
        "ad_info": {
            "adcode": 410621,
            "province": "河南省",
            "city": "鹤壁市",
            "district": "浚县"
        }
    },
    {
        "id": "14080141414830972532",
        "title": "公共厕所",
        "address": "河南省鹤壁市淇滨区大白线与渤海路交叉口正东方向121米左右",
        "tel": "",
        "category": "基础设施:公共设施:公共厕所",
        "type": 0,
        "location": {
            "lat": 35.7723,
            "lng": 114.247837
        },
        "ad_info": {
            "adcode": 410611,
            "province": "河南省",
            "city": "鹤壁市",
            "district": "淇滨区"
        }
    },
    {
        "id": "7968990000499033459",
        "title": "男卫生间(裕隆爱之城)",
        "address": "河南省鹤壁市淇滨区兴鹤大街与鹤煤大道交汇处裕隆·爱之城F4",
        "tel": "",
        "category": "基础设施:公共设施:男洗手间",
        "type": 0,
        "location": {
            "lat": 35.733661,
            "lng": 114.29296
        },
        "ad_info": {
            "adcode": 410611,
            "province": "河南省",
            "city": "鹤壁市",
            "district": "淇滨区"
        }
    },
    {
        "id": "11763063641957130140",
        "title": "公共厕所",
        "address": "河南省鹤壁市鹤山区X003与施东线交叉口正北方向1947米左右",
        "tel": "",
        "category": "基础设施:公共设施:公共厕所",
        "type": 0,
        "location": {
            "lat": 35.948428,
            "lng": 114.054285
        },
        "ad_info": {
            "adcode": 410602,
            "province": "河南省",
            "city": "鹤壁市",
            "district": "鹤山区"
        }
    },
    {
        "id": "9831144863389423843",
        "title": "公共厕所",
        "address": "河南省鹤壁市淇滨区华夏南路淇滨区政府",
        "tel": "",
        "category": "基础设施:公共设施:公共厕所",
        "type": 0,
        "location": {
            "lat": 35.742442,
            "lng": 114.297999
        },
        "ad_info": {
            "adcode": 410611,
            "province": "河南省",
            "city": "鹤壁市",
            "district": "淇滨区"
        }
    },
    {
        "id": "7290642860061813443",
        "title": "男洗手间",
        "address": "河南省鹤壁市淇滨区兴鹤大街与鹤煤大道交汇处裕隆·爱之城F4",
        "tel": "",
        "category": "基础设施:公共设施:男洗手间",
        "type": 0,
        "location": {
            "lat": 35.733346,
            "lng": 114.293902
        },
        "ad_info": {
            "adcode": 410611,
            "province": "河南省",
            "city": "鹤壁市",
            "district": "淇滨区"
        }
    },
    {
        "id": "141605755069643918",
        "title": "女卫生间",
        "address": "河南省鹤壁市淇滨区兴鹤大街与鹤煤大道交汇处裕隆·爱之城F5",
        "tel": "",
        "category": "基础设施:公共设施:女洗手间",
        "type": 0,
        "location": {
            "lat": 35.733705,
            "lng": 114.292975
        },
        "ad_info": {
            "adcode": 410611,
            "province": "河南省",
            "city": "鹤壁市",
            "district": "淇滨区"
        }
    },
    {
        "id": "17335059921957142796",
        "title": "公共卫生间",
        "address": "河南省鹤壁市淇县朝歌文化老街上关三利苑",
        "tel": "",
        "category": "基础设施:公共设施:公共厕所",
        "type": 0,
        "location": {
            "lat": 35.609174,
            "lng": 114.204516
        },
        "ad_info": {
            "adcode": 410622,
            "province": "河南省",
            "city": "鹤壁市",
            "district": "淇县"
        }
    },
    {
        "id": "11437502074061384000",
        "title": "公共厕所",
        "address": "河南省鹤壁市淇滨区卫河路与泰山路交叉口正南方向86米左右",
        "tel": "",
        "category": "基础设施:公共设施:公共厕所",
        "type": 0,
        "location": {
            "lat": 35.759898,
            "lng": 114.313932
        },
        "ad_info": {
            "adcode": 410611,
            "province": "河南省",
            "city": "鹤壁市",
            "district": "淇滨区"
        }
    },
    {
        "id": "11527980511901141035",
        "title": "赵庄村东赵庄公共卫生间",
        "address": "河南省鹤壁市淇县S26",
        "tel": "",
        "category": "基础设施:公共设施:公共厕所",
        "type": 0,
        "location": {
            "lat": 35.667304,
            "lng": 114.109357
        },
        "ad_info": {
            "adcode": 410622,
            "province": "河南省",
            "city": "鹤壁市",
            "district": "淇县"
        }
    },
    {
        "id": "3471273323390652386",
        "title": "公共卫生间",
        "address": "河南省鹤壁市淇县中华路与太和北路交叉口东北方向19米左右",
        "tel": "",
        "category": "基础设施:公共设施:公共厕所",
        "type": 0,
        "location": {
            "lat": 35.617466,
            "lng": 114.177862
        },
        "ad_info": {
            "adcode": 410622,
            "province": "河南省",
            "city": "鹤壁市",
            "district": "淇县"
        }
    },
    {
        "id": "12673694201079158716",
        "title": "公共厕所",
        "address": "河南省鹤壁市淇县政安街与淇水路交叉口西北方向39米左右",
        "tel": "",
        "category": "基础设施:公共设施:公共厕所",
        "type": 0,
        "location": {
            "lat": 35.622307,
            "lng": 114.217074
        },
        "ad_info": {
            "adcode": 410622,
            "province": "河南省",
            "city": "鹤壁市",
            "district": "淇县"
        }
    },
    {
        "id": "11017190545700245114",
        "title": "无障碍公共厕所",
        "address": "河南省鹤壁市淇县东关前街与淇河路交叉口西南方向37米左右",
        "tel": "",
        "category": "基础设施:公共设施:公共厕所",
        "type": 0,
        "location": {
            "lat": 35.598925,
            "lng": 114.208442
        },
        "ad_info": {
            "adcode": 410622,
            "province": "河南省",
            "city": "鹤壁市",
            "district": "淇县"
        }
    },
    {
        "id": "9439778409634825230",
        "title": "公共厕所",
        "address": "河南省鹤壁市淇滨区嵩山路与湘江路交叉口东南方向74米左右",
        "tel": "",
        "category": "基础设施:公共设施:公共厕所",
        "type": 0,
        "location": {
            "lat": 35.723622,
            "lng": 114.303178
        },
        "ad_info": {
            "adcode": 410611,
            "province": "河南省",
            "city": "鹤壁市",
            "district": "淇滨区"
        }
    },
    {
        "id": "517024135039976142",
        "title": "公共厕所",
        "address": "河南省鹤壁市浚县S222与阳光步行街交叉口正东方向85米左右",
        "tel": "",
        "category": "基础设施:公共设施:公共厕所",
        "type": 0,
        "location": {
            "lat": 35.590653,
            "lng": 114.438446
        },
        "ad_info": {
            "adcode": 410621,
            "province": "河南省",
            "city": "鹤壁市",
            "district": "浚县"
        }
    },
    {
        "id": "7699729789962816318",
        "title": "体育场公共厕所",
        "address": "河南省鹤壁市浚县新华路与金城路交叉口西南方向227米左右",
        "tel": "",
        "category": "基础设施:公共设施:公共厕所",
        "type": 0,
        "location": {
            "lat": 35.682832,
            "lng": 114.546677
        },
        "ad_info": {
            "adcode": 410621,
            "province": "河南省",
            "city": "鹤壁市",
            "district": "浚县"
        }
    },
    {
        "id": "15207670316327863268",
        "title": "公共厕所",
        "address": "河南省鹤壁市淇县淇水路淇县第一中学",
        "tel": "",
        "category": "基础设施:公共设施:公共厕所",
        "type": 0,
        "location": {
            "lat": 35.608793,
            "lng": 114.216749
        },
        "ad_info": {
            "adcode": 410622,
            "province": "河南省",
            "city": "鹤壁市",
            "district": "淇县"
        }
    },
    {
        "id": "6334339104157270096",
        "title": "赵庄村公共卫生间",
        "address": "河南省鹤壁市淇县S26",
        "tel": "",
        "category": "基础设施:公共设施:公共厕所",
        "type": 0,
        "location": {
            "lat": 35.668491,
            "lng": 114.106056
        },
        "ad_info": {
            "adcode": 410622,
            "province": "河南省",
            "city": "鹤壁市",
            "district": "淇县"
        }
    },
    {
        "id": "15685257296352749351",
        "title": "公共厕所",
        "address": "河南省鹤壁市鹤山区中山北路与中山路交叉口正西方向59米左右",
        "tel": "",
        "category": "基础设施:公共设施:公共厕所",
        "type": 0,
        "location": {
            "lat": 35.944249,
            "lng": 114.161436
        },
        "ad_info": {
            "adcode": 410602,
            "province": "河南省",
            "city": "鹤壁市",
            "district": "鹤山区"
        }
    },
    {
        "id": "16604052735778153204",
        "title": "无障碍-洗手间",
        "address": "河南省鹤壁市淇滨区兴鹤大街与鹤煤大道交汇处裕隆·爱之城F5",
        "tel": "",
        "category": "基础设施:公共设施:无障碍洗手间",
        "type": 0,
        "location": {
            "lat": 35.733446,
            "lng": 114.293898
        },
        "ad_info": {
            "adcode": 410611,
            "province": "河南省",
            "city": "鹤壁市",
            "district": "淇滨区"
        }
    },
    {
        "id": "8898450498111572541",
        "title": "公共厕所",
        "address": "河南省鹤壁市浚县云溪路与菜园街交叉口东南方向114米左右",
        "tel": "",
        "category": "基础设施:公共设施:公共厕所",
        "type": 0,
        "location": {
            "lat": 35.667785,
            "lng": 114.544136
        },
        "ad_info": {
            "adcode": 410621,
            "province": "河南省",
            "city": "鹤壁市",
            "district": "浚县"
        }
    },
    {
        "id": "14080141414830972532",
        "title": "公共厕所",
        "address": "河南省鹤壁市淇滨区大白线与渤海路交叉口正东方向121米左右",
        "tel": "",
        "category": "基础设施:公共设施:公共厕所",
        "type": 0,
        "location": {
            "lat": 35.7723,
            "lng": 114.247837
        },
        "ad_info": {
            "adcode": 410611,
            "province": "河南省",
            "city": "鹤壁市",
            "district": "淇滨区"
        }
    },
    {
        "id": "7968990000499033459",
        "title": "男卫生间(裕隆爱之城)",
        "address": "河南省鹤壁市淇滨区兴鹤大街与鹤煤大道交汇处裕隆·爱之城F4",
        "tel": "",
        "category": "基础设施:公共设施:男洗手间",
        "type": 0,
        "location": {
            "lat": 35.733661,
            "lng": 114.29296
        },
        "ad_info": {
            "adcode": 410611,
            "province": "河南省",
            "city": "鹤壁市",
            "district": "淇滨区"
        }
    },
    {
        "id": "11763063641957130140",
        "title": "公共厕所",
        "address": "河南省鹤壁市鹤山区X003与施东线交叉口正北方向1947米左右",
        "tel": "",
        "category": "基础设施:公共设施:公共厕所",
        "type": 0,
        "location": {
            "lat": 35.948428,
            "lng": 114.054285
        },
        "ad_info": {
            "adcode": 410602,
            "province": "河南省",
            "city": "鹤壁市",
            "district": "鹤山区"
        }
    },
    {
        "id": "9831144863389423843",
        "title": "公共厕所",
        "address": "河南省鹤壁市淇滨区华夏南路淇滨区政府",
        "tel": "",
        "category": "基础设施:公共设施:公共厕所",
        "type": 0,
        "location": {
            "lat": 35.742442,
            "lng": 114.297999
        },
        "ad_info": {
            "adcode": 410611,
            "province": "河南省",
            "city": "鹤壁市",
            "district": "淇滨区"
        }
    },
    {
        "id": "7290642860061813443",
        "title": "男洗手间",
        "address": "河南省鹤壁市淇滨区兴鹤大街与鹤煤大道交汇处裕隆·爱之城F4",
        "tel": "",
        "category": "基础设施:公共设施:男洗手间",
        "type": 0,
        "location": {
            "lat": 35.733346,
            "lng": 114.293902
        },
        "ad_info": {
            "adcode": 410611,
            "province": "河南省",
            "city": "鹤壁市",
            "district": "淇滨区"
        }
    },
    {
        "id": "141605755069643918",
        "title": "女卫生间",
        "address": "河南省鹤壁市淇滨区兴鹤大街与鹤煤大道交汇处裕隆·爱之城F5",
        "tel": "",
        "category": "基础设施:公共设施:女洗手间",
        "type": 0,
        "location": {
            "lat": 35.733705,
            "lng": 114.292975
        },
        "ad_info": {
            "adcode": 410611,
            "province": "河南省",
            "city": "鹤壁市",
            "district": "淇滨区"
        }
    },
    {
        "id": "17335059921957142796",
        "title": "公共卫生间",
        "address": "河南省鹤壁市淇县朝歌文化老街上关三利苑",
        "tel": "",
        "category": "基础设施:公共设施:公共厕所",
        "type": 0,
        "location": {
            "lat": 35.609174,
            "lng": 114.204516
        },
        "ad_info": {
            "adcode": 410622,
            "province": "河南省",
            "city": "鹤壁市",
            "district": "淇县"
        }
    },
    {
        "id": "11437502074061384000",
        "title": "公共厕所",
        "address": "河南省鹤壁市淇滨区卫河路与泰山路交叉口正南方向86米左右",
        "tel": "",
        "category": "基础设施:公共设施:公共厕所",
        "type": 0,
        "location": {
            "lat": 35.759898,
            "lng": 114.313932
        },
        "ad_info": {
            "adcode": 410611,
            "province": "河南省",
            "city": "鹤壁市",
            "district": "淇滨区"
        }
    },
    {
        "id": "11527980511901141035",
        "title": "赵庄村东赵庄公共卫生间",
        "address": "河南省鹤壁市淇县S26",
        "tel": "",
        "category": "基础设施:公共设施:公共厕所",
        "type": 0,
        "location": {
            "lat": 35.667304,
            "lng": 114.109357
        },
        "ad_info": {
            "adcode": 410622,
            "province": "河南省",
            "city": "鹤壁市",
            "district": "淇县"
        }
    },
    {
        "id": "3471273323390652386",
        "title": "公共卫生间",
        "address": "河南省鹤壁市淇县中华路与太和北路交叉口东北方向19米左右",
        "tel": "",
        "category": "基础设施:公共设施:公共厕所",
        "type": 0,
        "location": {
            "lat": 35.617466,
            "lng": 114.177862
        },
        "ad_info": {
            "adcode": 410622,
            "province": "河南省",
            "city": "鹤壁市",
            "district": "淇县"
        }
    },
    {
        "id": "12673694201079158716",
        "title": "公共厕所",
        "address": "河南省鹤壁市淇县政安街与淇水路交叉口西北方向39米左右",
        "tel": "",
        "category": "基础设施:公共设施:公共厕所",
        "type": 0,
        "location": {
            "lat": 35.622307,
            "lng": 114.217074
        },
        "ad_info": {
            "adcode": 410622,
            "province": "河南省",
            "city": "鹤壁市",
            "district": "淇县"
        }
    },
    {
        "id": "11017190545700245114",
        "title": "无障碍公共厕所",
        "address": "河南省鹤壁市淇县东关前街与淇河路交叉口西南方向37米左右",
        "tel": "",
        "category": "基础设施:公共设施:公共厕所",
        "type": 0,
        "location": {
            "lat": 35.598925,
            "lng": 114.208442
        },
        "ad_info": {
            "adcode": 410622,
            "province": "河南省",
            "city": "鹤壁市",
            "district": "淇县"
        }
    },
    {
        "id": "9439778409634825230",
        "title": "公共厕所",
        "address": "河南省鹤壁市淇滨区嵩山路与湘江路交叉口东南方向74米左右",
        "tel": "",
        "category": "基础设施:公共设施:公共厕所",
        "type": 0,
        "location": {
            "lat": 35.723622,
            "lng": 114.303178
        },
        "ad_info": {
            "adcode": 410611,
            "province": "河南省",
            "city": "鹤壁市",
            "district": "淇滨区"
        }
    },
    {
        "id": "517024135039976142",
        "title": "公共厕所",
        "address": "河南省鹤壁市浚县S222与阳光步行街交叉口正东方向85米左右",
        "tel": "",
        "category": "基础设施:公共设施:公共厕所",
        "type": 0,
        "location": {
            "lat": 35.590653,
            "lng": 114.438446
        },
        "ad_info": {
            "adcode": 410621,
            "province": "河南省",
            "city": "鹤壁市",
            "district": "浚县"
        }
    },
    {
        "id": "7699729789962816318",
        "title": "体育场公共厕所",
        "address": "河南省鹤壁市浚县新华路与金城路交叉口西南方向227米左右",
        "tel": "",
        "category": "基础设施:公共设施:公共厕所",
        "type": 0,
        "location": {
            "lat": 35.682832,
            "lng": 114.546677
        },
        "ad_info": {
            "adcode": 410621,
            "province": "河南省",
            "city": "鹤壁市",
            "district": "浚县"
        }
    },
    {
        "id": "15207670316327863268",
        "title": "公共厕所",
        "address": "河南省鹤壁市淇县淇水路淇县第一中学",
        "tel": "",
        "category": "基础设施:公共设施:公共厕所",
        "type": 0,
        "location": {
            "lat": 35.608793,
            "lng": 114.216749
        },
        "ad_info": {
            "adcode": 410622,
            "province": "河南省",
            "city": "鹤壁市",
            "district": "淇县"
        }
    },
    {
        "id": "6334339104157270096",
        "title": "赵庄村公共卫生间",
        "address": "河南省鹤壁市淇县S26",
        "tel": "",
        "category": "基础设施:公共设施:公共厕所",
        "type": 0,
        "location": {
            "lat": 35.668491,
            "lng": 114.106056
        },
        "ad_info": {
            "adcode": 410622,
            "province": "河南省",
            "city": "鹤壁市",
            "district": "淇县"
        }
    },
    {
        "id": "15685257296352749351",
        "title": "公共厕所",
        "address": "河南省鹤壁市鹤山区中山北路与中山路交叉口正西方向59米左右",
        "tel": "",
        "category": "基础设施:公共设施:公共厕所",
        "type": 0,
        "location": {
            "lat": 35.944249,
            "lng": 114.161436
        },
        "ad_info": {
            "adcode": 410602,
            "province": "河南省",
            "city": "鹤壁市",
            "district": "鹤山区"
        }
    },
    {
        "id": "16604052735778153204",
        "title": "无障碍-洗手间",
        "address": "河南省鹤壁市淇滨区兴鹤大街与鹤煤大道交汇处裕隆·爱之城F5",
        "tel": "",
        "category": "基础设施:公共设施:无障碍洗手间",
        "type": 0,
        "location": {
            "lat": 35.733446,
            "lng": 114.293898
        },
        "ad_info": {
            "adcode": 410611,
            "province": "河南省",
            "city": "鹤壁市",
            "district": "淇滨区"
        }
    },
    {
        "id": "8898450498111572541",
        "title": "公共厕所",
        "address": "河南省鹤壁市浚县云溪路与菜园街交叉口东南方向114米左右",
        "tel": "",
        "category": "基础设施:公共设施:公共厕所",
        "type": 0,
        "location": {
            "lat": 35.667785,
            "lng": 114.544136
        },
        "ad_info": {
            "adcode": 410621,
            "province": "河南省",
            "city": "鹤壁市",
            "district": "浚县"
        }
    },
    {
        "id": "14080141414830972532",
        "title": "公共厕所",
        "address": "河南省鹤壁市淇滨区大白线与渤海路交叉口正东方向121米左右",
        "tel": "",
        "category": "基础设施:公共设施:公共厕所",
        "type": 0,
        "location": {
            "lat": 35.7723,
            "lng": 114.247837
        },
        "ad_info": {
            "adcode": 410611,
            "province": "河南省",
            "city": "鹤壁市",
            "district": "淇滨区"
        }
    },
    {
        "id": "7968990000499033459",
        "title": "男卫生间(裕隆爱之城)",
        "address": "河南省鹤壁市淇滨区兴鹤大街与鹤煤大道交汇处裕隆·爱之城F4",
        "tel": "",
        "category": "基础设施:公共设施:男洗手间",
        "type": 0,
        "location": {
            "lat": 35.733661,
            "lng": 114.29296
        },
        "ad_info": {
            "adcode": 410611,
            "province": "河南省",
            "city": "鹤壁市",
            "district": "淇滨区"
        }
    },
    {
        "id": "11763063641957130140",
        "title": "公共厕所",
        "address": "河南省鹤壁市鹤山区X003与施东线交叉口正北方向1947米左右",
        "tel": "",
        "category": "基础设施:公共设施:公共厕所",
        "type": 0,
        "location": {
            "lat": 35.948428,
            "lng": 114.054285
        },
        "ad_info": {
            "adcode": 410602,
            "province": "河南省",
            "city": "鹤壁市",
            "district": "鹤山区"
        }
    },
    {
        "id": "9831144863389423843",
        "title": "公共厕所",
        "address": "河南省鹤壁市淇滨区华夏南路淇滨区政府",
        "tel": "",
        "category": "基础设施:公共设施:公共厕所",
        "type": 0,
        "location": {
            "lat": 35.742442,
            "lng": 114.297999
        },
        "ad_info": {
            "adcode": 410611,
            "province": "河南省",
            "city": "鹤壁市",
            "district": "淇滨区"
        }
    },
    {
        "id": "7290642860061813443",
        "title": "男洗手间",
        "address": "河南省鹤壁市淇滨区兴鹤大街与鹤煤大道交汇处裕隆·爱之城F4",
        "tel": "",
        "category": "基础设施:公共设施:男洗手间",
        "type": 0,
        "location": {
            "lat": 35.733346,
            "lng": 114.293902
        },
        "ad_info": {
            "adcode": 410611,
            "province": "河南省",
            "city": "鹤壁市",
            "district": "淇滨区"
        }
    },
    {
        "id": "141605755069643918",
        "title": "女卫生间",
        "address": "河南省鹤壁市淇滨区兴鹤大街与鹤煤大道交汇处裕隆·爱之城F5",
        "tel": "",
        "category": "基础设施:公共设施:女洗手间",
        "type": 0,
        "location": {
            "lat": 35.733705,
            "lng": 114.292975
        },
        "ad_info": {
            "adcode": 410611,
            "province": "河南省",
            "city": "鹤壁市",
            "district": "淇滨区"
        }
    },
    {
        "id": "17335059921957142796",
        "title": "公共卫生间",
        "address": "河南省鹤壁市淇县朝歌文化老街上关三利苑",
        "tel": "",
        "category": "基础设施:公共设施:公共厕所",
        "type": 0,
        "location": {
            "lat": 35.609174,
            "lng": 114.204516
        },
        "ad_info": {
            "adcode": 410622,
            "province": "河南省",
            "city": "鹤壁市",
            "district": "淇县"
        }
    },
    {
        "id": "11437502074061384000",
        "title": "公共厕所",
        "address": "河南省鹤壁市淇滨区卫河路与泰山路交叉口正南方向86米左右",
        "tel": "",
        "category": "基础设施:公共设施:公共厕所",
        "type": 0,
        "location": {
            "lat": 35.759898,
            "lng": 114.313932
        },
        "ad_info": {
            "adcode": 410611,
            "province": "河南省",
            "city": "鹤壁市",
            "district": "淇滨区"
        }
    },
    {
        "id": "11527980511901141035",
        "title": "赵庄村东赵庄公共卫生间",
        "address": "河南省鹤壁市淇县S26",
        "tel": "",
        "category": "基础设施:公共设施:公共厕所",
        "type": 0,
        "location": {
            "lat": 35.667304,
            "lng": 114.109357
        },
        "ad_info": {
            "adcode": 410622,
            "province": "河南省",
            "city": "鹤壁市",
            "district": "淇县"
        }
    },
    {
        "id": "3471273323390652386",
        "title": "公共卫生间",
        "address": "河南省鹤壁市淇县中华路与太和北路交叉口东北方向19米左右",
        "tel": "",
        "category": "基础设施:公共设施:公共厕所",
        "type": 0,
        "location": {
            "lat": 35.617466,
            "lng": 114.177862
        },
        "ad_info": {
            "adcode": 410622,
            "province": "河南省",
            "city": "鹤壁市",
            "district": "淇县"
        }
    },
    {
        "id": "12673694201079158716",
        "title": "公共厕所",
        "address": "河南省鹤壁市淇县政安街与淇水路交叉口西北方向39米左右",
        "tel": "",
        "category": "基础设施:公共设施:公共厕所",
        "type": 0,
        "location": {
            "lat": 35.622307,
            "lng": 114.217074
        },
        "ad_info": {
            "adcode": 410622,
            "province": "河南省",
            "city": "鹤壁市",
            "district": "淇县"
        }
    },
    {
        "id": "11017190545700245114",
        "title": "无障碍公共厕所",
        "address": "河南省鹤壁市淇县东关前街与淇河路交叉口西南方向37米左右",
        "tel": "",
        "category": "基础设施:公共设施:公共厕所",
        "type": 0,
        "location": {
            "lat": 35.598925,
            "lng": 114.208442
        },
        "ad_info": {
            "adcode": 410622,
            "province": "河南省",
            "city": "鹤壁市",
            "district": "淇县"
        }
    },
    {
        "id": "9439778409634825230",
        "title": "公共厕所",
        "address": "河南省鹤壁市淇滨区嵩山路与湘江路交叉口东南方向74米左右",
        "tel": "",
        "category": "基础设施:公共设施:公共厕所",
        "type": 0,
        "location": {
            "lat": 35.723622,
            "lng": 114.303178
        },
        "ad_info": {
            "adcode": 410611,
            "province": "河南省",
            "city": "鹤壁市",
            "district": "淇滨区"
        }
    },
    {
        "id": "517024135039976142",
        "title": "公共厕所",
        "address": "河南省鹤壁市浚县S222与阳光步行街交叉口正东方向85米左右",
        "tel": "",
        "category": "基础设施:公共设施:公共厕所",
        "type": 0,
        "location": {
            "lat": 35.590653,
            "lng": 114.438446
        },
        "ad_info": {
            "adcode": 410621,
            "province": "河南省",
            "city": "鹤壁市",
            "district": "浚县"
        }
    },
    {
        "id": "7699729789962816318",
        "title": "体育场公共厕所",
        "address": "河南省鹤壁市浚县新华路与金城路交叉口西南方向227米左右",
        "tel": "",
        "category": "基础设施:公共设施:公共厕所",
        "type": 0,
        "location": {
            "lat": 35.682832,
            "lng": 114.546677
        },
        "ad_info": {
            "adcode": 410621,
            "province": "河南省",
            "city": "鹤壁市",
            "district": "浚县"
        }
    },
    {
        "id": "15207670316327863268",
        "title": "公共厕所",
        "address": "河南省鹤壁市淇县淇水路淇县第一中学",
        "tel": "",
        "category": "基础设施:公共设施:公共厕所",
        "type": 0,
        "location": {
            "lat": 35.608793,
            "lng": 114.216749
        },
        "ad_info": {
            "adcode": 410622,
            "province": "河南省",
            "city": "鹤壁市",
            "district": "淇县"
        }
    },
    {
        "id": "6334339104157270096",
        "title": "赵庄村公共卫生间",
        "address": "河南省鹤壁市淇县S26",
        "tel": "",
        "category": "基础设施:公共设施:公共厕所",
        "type": 0,
        "location": {
            "lat": 35.668491,
            "lng": 114.106056
        },
        "ad_info": {
            "adcode": 410622,
            "province": "河南省",
            "city": "鹤壁市",
            "district": "淇县"
        }
    },
    {
        "id": "15685257296352749351",
        "title": "公共厕所",
        "address": "河南省鹤壁市鹤山区中山北路与中山路交叉口正西方向59米左右",
        "tel": "",
        "category": "基础设施:公共设施:公共厕所",
        "type": 0,
        "location": {
            "lat": 35.944249,
            "lng": 114.161436
        },
        "ad_info": {
            "adcode": 410602,
            "province": "河南省",
            "city": "鹤壁市",
            "district": "鹤山区"
        }
    },
    {
        "id": "16604052735778153204",
        "title": "无障碍-洗手间",
        "address": "河南省鹤壁市淇滨区兴鹤大街与鹤煤大道交汇处裕隆·爱之城F5",
        "tel": "",
        "category": "基础设施:公共设施:无障碍洗手间",
        "type": 0,
        "location": {
            "lat": 35.733446,
            "lng": 114.293898
        },
        "ad_info": {
            "adcode": 410611,
            "province": "河南省",
            "city": "鹤壁市",
            "district": "淇滨区"
        }
    },
    {
        "id": "8898450498111572541",
        "title": "公共厕所",
        "address": "河南省鹤壁市浚县云溪路与菜园街交叉口东南方向114米左右",
        "tel": "",
        "category": "基础设施:公共设施:公共厕所",
        "type": 0,
        "location": {
            "lat": 35.667785,
            "lng": 114.544136
        },
        "ad_info": {
            "adcode": 410621,
            "province": "河南省",
            "city": "鹤壁市",
            "district": "浚县"
        }
    },
    {
        "id": "14080141414830972532",
        "title": "公共厕所",
        "address": "河南省鹤壁市淇滨区大白线与渤海路交叉口正东方向121米左右",
        "tel": "",
        "category": "基础设施:公共设施:公共厕所",
        "type": 0,
        "location": {
            "lat": 35.7723,
            "lng": 114.247837
        },
        "ad_info": {
            "adcode": 410611,
            "province": "河南省",
            "city": "鹤壁市",
            "district": "淇滨区"
        }
    },
    {
        "id": "7968990000499033459",
        "title": "男卫生间(裕隆爱之城)",
        "address": "河南省鹤壁市淇滨区兴鹤大街与鹤煤大道交汇处裕隆·爱之城F4",
        "tel": "",
        "category": "基础设施:公共设施:男洗手间",
        "type": 0,
        "location": {
            "lat": 35.733661,
            "lng": 114.29296
        },
        "ad_info": {
            "adcode": 410611,
            "province": "河南省",
            "city": "鹤壁市",
            "district": "淇滨区"
        }
    },
    {
        "id": "11763063641957130140",
        "title": "公共厕所",
        "address": "河南省鹤壁市鹤山区X003与施东线交叉口正北方向1947米左右",
        "tel": "",
        "category": "基础设施:公共设施:公共厕所",
        "type": 0,
        "location": {
            "lat": 35.948428,
            "lng": 114.054285
        },
        "ad_info": {
            "adcode": 410602,
            "province": "河南省",
            "city": "鹤壁市",
            "district": "鹤山区"
        }
    },
    {
        "id": "9831144863389423843",
        "title": "公共厕所",
        "address": "河南省鹤壁市淇滨区华夏南路淇滨区政府",
        "tel": "",
        "category": "基础设施:公共设施:公共厕所",
        "type": 0,
        "location": {
            "lat": 35.742442,
            "lng": 114.297999
        },
        "ad_info": {
            "adcode": 410611,
            "province": "河南省",
            "city": "鹤壁市",
            "district": "淇滨区"
        }
    },
    {
        "id": "7290642860061813443",
        "title": "男洗手间",
        "address": "河南省鹤壁市淇滨区兴鹤大街与鹤煤大道交汇处裕隆·爱之城F4",
        "tel": "",
        "category": "基础设施:公共设施:男洗手间",
        "type": 0,
        "location": {
            "lat": 35.733346,
            "lng": 114.293902
        },
        "ad_info": {
            "adcode": 410611,
            "province": "河南省",
            "city": "鹤壁市",
            "district": "淇滨区"
        }
    },
    {
        "id": "141605755069643918",
        "title": "女卫生间",
        "address": "河南省鹤壁市淇滨区兴鹤大街与鹤煤大道交汇处裕隆·爱之城F5",
        "tel": "",
        "category": "基础设施:公共设施:女洗手间",
        "type": 0,
        "location": {
            "lat": 35.733705,
            "lng": 114.292975
        },
        "ad_info": {
            "adcode": 410611,
            "province": "河南省",
            "city": "鹤壁市",
            "district": "淇滨区"
        }
    },
    {
        "id": "17335059921957142796",
        "title": "公共卫生间",
        "address": "河南省鹤壁市淇县朝歌文化老街上关三利苑",
        "tel": "",
        "category": "基础设施:公共设施:公共厕所",
        "type": 0,
        "location": {
            "lat": 35.609174,
            "lng": 114.204516
        },
        "ad_info": {
            "adcode": 410622,
            "province": "河南省",
            "city": "鹤壁市",
            "district": "淇县"
        }
    },
    {
        "id": "11437502074061384000",
        "title": "公共厕所",
        "address": "河南省鹤壁市淇滨区卫河路与泰山路交叉口正南方向86米左右",
        "tel": "",
        "category": "基础设施:公共设施:公共厕所",
        "type": 0,
        "location": {
            "lat": 35.759898,
            "lng": 114.313932
        },
        "ad_info": {
            "adcode": 410611,
            "province": "河南省",
            "city": "鹤壁市",
            "district": "淇滨区"
        }
    },
    {
        "id": "11527980511901141035",
        "title": "赵庄村东赵庄公共卫生间",
        "address": "河南省鹤壁市淇县S26",
        "tel": "",
        "category": "基础设施:公共设施:公共厕所",
        "type": 0,
        "location": {
            "lat": 35.667304,
            "lng": 114.109357
        },
        "ad_info": {
            "adcode": 410622,
            "province": "河南省",
            "city": "鹤壁市",
            "district": "淇县"
        }
    },
    {
        "id": "3471273323390652386",
        "title": "公共卫生间",
        "address": "河南省鹤壁市淇县中华路与太和北路交叉口东北方向19米左右",
        "tel": "",
        "category": "基础设施:公共设施:公共厕所",
        "type": 0,
        "location": {
            "lat": 35.617466,
            "lng": 114.177862
        },
        "ad_info": {
            "adcode": 410622,
            "province": "河南省",
            "city": "鹤壁市",
            "district": "淇县"
        }
    },
    {
        "id": "12673694201079158716",
        "title": "公共厕所",
        "address": "河南省鹤壁市淇县政安街与淇水路交叉口西北方向39米左右",
        "tel": "",
        "category": "基础设施:公共设施:公共厕所",
        "type": 0,
        "location": {
            "lat": 35.622307,
            "lng": 114.217074
        },
        "ad_info": {
            "adcode": 410622,
            "province": "河南省",
            "city": "鹤壁市",
            "district": "淇县"
        }
    },
    {
        "id": "11017190545700245114",
        "title": "无障碍公共厕所",
        "address": "河南省鹤壁市淇县东关前街与淇河路交叉口西南方向37米左右",
        "tel": "",
        "category": "基础设施:公共设施:公共厕所",
        "type": 0,
        "location": {
            "lat": 35.598925,
            "lng": 114.208442
        },
        "ad_info": {
            "adcode": 410622,
            "province": "河南省",
            "city": "鹤壁市",
            "district": "淇县"
        }
    },
    {
        "id": "9439778409634825230",
        "title": "公共厕所",
        "address": "河南省鹤壁市淇滨区嵩山路与湘江路交叉口东南方向74米左右",
        "tel": "",
        "category": "基础设施:公共设施:公共厕所",
        "type": 0,
        "location": {
            "lat": 35.723622,
            "lng": 114.303178
        },
        "ad_info": {
            "adcode": 410611,
            "province": "河南省",
            "city": "鹤壁市",
            "district": "淇滨区"
        }
    },
    {
        "id": "517024135039976142",
        "title": "公共厕所",
        "address": "河南省鹤壁市浚县S222与阳光步行街交叉口正东方向85米左右",
        "tel": "",
        "category": "基础设施:公共设施:公共厕所",
        "type": 0,
        "location": {
            "lat": 35.590653,
            "lng": 114.438446
        },
        "ad_info": {
            "adcode": 410621,
            "province": "河南省",
            "city": "鹤壁市",
            "district": "浚县"
        }
    },
    {
        "id": "7699729789962816318",
        "title": "体育场公共厕所",
        "address": "河南省鹤壁市浚县新华路与金城路交叉口西南方向227米左右",
        "tel": "",
        "category": "基础设施:公共设施:公共厕所",
        "type": 0,
        "location": {
            "lat": 35.682832,
            "lng": 114.546677
        },
        "ad_info": {
            "adcode": 410621,
            "province": "河南省",
            "city": "鹤壁市",
            "district": "浚县"
        }
    },
    {
        "id": "15207670316327863268",
        "title": "公共厕所",
        "address": "河南省鹤壁市淇县淇水路淇县第一中学",
        "tel": "",
        "category": "基础设施:公共设施:公共厕所",
        "type": 0,
        "location": {
            "lat": 35.608793,
            "lng": 114.216749
        },
        "ad_info": {
            "adcode": 410622,
            "province": "河南省",
            "city": "鹤壁市",
            "district": "淇县"
        }
    },
    {
        "id": "6334339104157270096",
        "title": "赵庄村公共卫生间",
        "address": "河南省鹤壁市淇县S26",
        "tel": "",
        "category": "基础设施:公共设施:公共厕所",
        "type": 0,
        "location": {
            "lat": 35.668491,
            "lng": 114.106056
        },
        "ad_info": {
            "adcode": 410622,
            "province": "河南省",
            "city": "鹤壁市",
            "district": "淇县"
        }
    },
    {
        "id": "15685257296352749351",
        "title": "公共厕所",
        "address": "河南省鹤壁市鹤山区中山北路与中山路交叉口正西方向59米左右",
        "tel": "",
        "category": "基础设施:公共设施:公共厕所",
        "type": 0,
        "location": {
            "lat": 35.944249,
            "lng": 114.161436
        },
        "ad_info": {
            "adcode": 410602,
            "province": "河南省",
            "city": "鹤壁市",
            "district": "鹤山区"
        }
    },
    {
        "id": "16604052735778153204",
        "title": "无障碍-洗手间",
        "address": "河南省鹤壁市淇滨区兴鹤大街与鹤煤大道交汇处裕隆·爱之城F5",
        "tel": "",
        "category": "基础设施:公共设施:无障碍洗手间",
        "type": 0,
        "location": {
            "lat": 35.733446,
            "lng": 114.293898
        },
        "ad_info": {
            "adcode": 410611,
            "province": "河南省",
            "city": "鹤壁市",
            "district": "淇滨区"
        }
    },
    {
        "id": "8898450498111572541",
        "title": "公共厕所",
        "address": "河南省鹤壁市浚县云溪路与菜园街交叉口东南方向114米左右",
        "tel": "",
        "category": "基础设施:公共设施:公共厕所",
        "type": 0,
        "location": {
            "lat": 35.667785,
            "lng": 114.544136
        },
        "ad_info": {
            "adcode": 410621,
            "province": "河南省",
            "city": "鹤壁市",
            "district": "浚县"
        }
    },
    {
        "id": "14080141414830972532",
        "title": "公共厕所",
        "address": "河南省鹤壁市淇滨区大白线与渤海路交叉口正东方向121米左右",
        "tel": "",
        "category": "基础设施:公共设施:公共厕所",
        "type": 0,
        "location": {
            "lat": 35.7723,
            "lng": 114.247837
        },
        "ad_info": {
            "adcode": 410611,
            "province": "河南省",
            "city": "鹤壁市",
            "district": "淇滨区"
        }
    },
    {
        "id": "7968990000499033459",
        "title": "男卫生间(裕隆爱之城)",
        "address": "河南省鹤壁市淇滨区兴鹤大街与鹤煤大道交汇处裕隆·爱之城F4",
        "tel": "",
        "category": "基础设施:公共设施:男洗手间",
        "type": 0,
        "location": {
            "lat": 35.733661,
            "lng": 114.29296
        },
        "ad_info": {
            "adcode": 410611,
            "province": "河南省",
            "city": "鹤壁市",
            "district": "淇滨区"
        }
    },
    {
        "id": "11763063641957130140",
        "title": "公共厕所",
        "address": "河南省鹤壁市鹤山区X003与施东线交叉口正北方向1947米左右",
        "tel": "",
        "category": "基础设施:公共设施:公共厕所",
        "type": 0,
        "location": {
            "lat": 35.948428,
            "lng": 114.054285
        },
        "ad_info": {
            "adcode": 410602,
            "province": "河南省",
            "city": "鹤壁市",
            "district": "鹤山区"
        }
    },
    {
        "id": "9831144863389423843",
        "title": "公共厕所",
        "address": "河南省鹤壁市淇滨区华夏南路淇滨区政府",
        "tel": "",
        "category": "基础设施:公共设施:公共厕所",
        "type": 0,
        "location": {
            "lat": 35.742442,
            "lng": 114.297999
        },
        "ad_info": {
            "adcode": 410611,
            "province": "河南省",
            "city": "鹤壁市",
            "district": "淇滨区"
        }
    },
    {
        "id": "7290642860061813443",
        "title": "男洗手间",
        "address": "河南省鹤壁市淇滨区兴鹤大街与鹤煤大道交汇处裕隆·爱之城F4",
        "tel": "",
        "category": "基础设施:公共设施:男洗手间",
        "type": 0,
        "location": {
            "lat": 35.733346,
            "lng": 114.293902
        },
        "ad_info": {
            "adcode": 410611,
            "province": "河南省",
            "city": "鹤壁市",
            "district": "淇滨区"
        }
    },
    {
        "id": "141605755069643918",
        "title": "女卫生间",
        "address": "河南省鹤壁市淇滨区兴鹤大街与鹤煤大道交汇处裕隆·爱之城F5",
        "tel": "",
        "category": "基础设施:公共设施:女洗手间",
        "type": 0,
        "location": {
            "lat": 35.733705,
            "lng": 114.292975
        },
        "ad_info": {
            "adcode": 410611,
            "province": "河南省",
            "city": "鹤壁市",
            "district": "淇滨区"
        }
    },
    {
        "id": "17335059921957142796",
        "title": "公共卫生间",
        "address": "河南省鹤壁市淇县朝歌文化老街上关三利苑",
        "tel": "",
        "category": "基础设施:公共设施:公共厕所",
        "type": 0,
        "location": {
            "lat": 35.609174,
            "lng": 114.204516
        },
        "ad_info": {
            "adcode": 410622,
            "province": "河南省",
            "city": "鹤壁市",
            "district": "淇县"
        }
    },
    {
        "id": "11437502074061384000",
        "title": "公共厕所",
        "address": "河南省鹤壁市淇滨区卫河路与泰山路交叉口正南方向86米左右",
        "tel": "",
        "category": "基础设施:公共设施:公共厕所",
        "type": 0,
        "location": {
            "lat": 35.759898,
            "lng": 114.313932
        },
        "ad_info": {
            "adcode": 410611,
            "province": "河南省",
            "city": "鹤壁市",
            "district": "淇滨区"
        }
    },
    {
        "id": "11527980511901141035",
        "title": "赵庄村东赵庄公共卫生间",
        "address": "河南省鹤壁市淇县S26",
        "tel": "",
        "category": "基础设施:公共设施:公共厕所",
        "type": 0,
        "location": {
            "lat": 35.667304,
            "lng": 114.109357
        },
        "ad_info": {
            "adcode": 410622,
            "province": "河南省",
            "city": "鹤壁市",
            "district": "淇县"
        }
    },
    {
        "id": "3471273323390652386",
        "title": "公共卫生间",
        "address": "河南省鹤壁市淇县中华路与太和北路交叉口东北方向19米左右",
        "tel": "",
        "category": "基础设施:公共设施:公共厕所",
        "type": 0,
        "location": {
            "lat": 35.617466,
            "lng": 114.177862
        },
        "ad_info": {
            "adcode": 410622,
            "province": "河南省",
            "city": "鹤壁市",
            "district": "淇县"
        }
    },
    {
        "id": "12673694201079158716",
        "title": "公共厕所",
        "address": "河南省鹤壁市淇县政安街与淇水路交叉口西北方向39米左右",
        "tel": "",
        "category": "基础设施:公共设施:公共厕所",
        "type": 0,
        "location": {
            "lat": 35.622307,
            "lng": 114.217074
        },
        "ad_info": {
            "adcode": 410622,
            "province": "河南省",
            "city": "鹤壁市",
            "district": "淇县"
        }
    },
    {
        "id": "11017190545700245114",
        "title": "无障碍公共厕所",
        "address": "河南省鹤壁市淇县东关前街与淇河路交叉口西南方向37米左右",
        "tel": "",
        "category": "基础设施:公共设施:公共厕所",
        "type": 0,
        "location": {
            "lat": 35.598925,
            "lng": 114.208442
        },
        "ad_info": {
            "adcode": 410622,
            "province": "河南省",
            "city": "鹤壁市",
            "district": "淇县"
        }
    }
]