[
    {
        "id": "17518691341768267890",
        "title": "公共厕所",
        "address": "江西省鹰潭市月湖区严管街与四海西路交叉口正西方向77米左右",
        "tel": "",
        "category": "基础设施:公共设施:公共厕所",
        "type": 0,
        "location": {
            "lat": 28.236266,
            "lng": 117.027265
        },
        "ad_info": {
            "adcode": 360602,
            "province": "江西省",
            "city": "鹰潭市",
            "district": "月湖区"
        }
    },
    {
        "id": "3994648324405266569",
        "title": "公共厕所",
        "address": "江西省鹰潭市月湖区信江北大道与铜兴路交叉口正北方向156米左右",
        "tel": "",
        "category": "基础设施:公共设施:公共厕所",
        "type": 0,
        "location": {
            "lat": 28.26265,
            "lng": 117.042114
        },
        "ad_info": {
            "adcode": 360602,
            "province": "江西省",
            "city": "鹰潭市",
            "district": "月湖区"
        }
    },
    {
        "id": "4282030635136496558",
        "title": "公共厕所",
        "address": "江西省鹰潭市月湖区信江北大道与和平路交叉口西南方向158米左右",
        "tel": "",
        "category": "基础设施:公共设施:公共厕所",
        "type": 0,
        "location": {
            "lat": 28.269157,
            "lng": 117.041702
        },
        "ad_info": {
            "adcode": 360602,
            "province": "江西省",
            "city": "鹰潭市",
            "district": "月湖区"
        }
    },
    {
        "id": "14916550279659211613",
        "title": "公共厕所",
        "address": "江西省鹰潭市月湖区天洁西路与瑞和路交叉口正西方向154米左右",
        "tel": "",
        "category": "基础设施:公共设施:公共厕所",
        "type": 0,
        "location": {
            "lat": 28.22763,
            "lng": 117.012199
        },
        "ad_info": {
            "adcode": 360602,
            "province": "江西省",
            "city": "鹰潭市",
            "district": "月湖区"
        }
    },
    {
        "id": "1030271523505181133",
        "title": "公共厕所(鹰潭站)",
        "address": "江西省鹰潭市月湖区四海东路鹰潭站F1",
        "tel": "",
        "category": "基础设施:公共设施:公共厕所",
        "type": 0,
        "location": {
            "lat": 28.235382,
            "lng": 117.027925
        },
        "ad_info": {
            "adcode": 360602,
            "province": "江西省",
            "city": "鹰潭市",
            "district": "月湖区"
        }
    },
    {
        "id": "11041905885163356772",
        "title": "公共厕所",
        "address": "江西省鹰潭市月湖区体育馆东路与体育馆北路交叉口正西方向282米左右",
        "tel": "",
        "category": "基础设施:公共设施:公共厕所",
        "type": 0,
        "location": {
            "lat": 28.222422,
            "lng": 117.026039
        },
        "ad_info": {
            "adcode": 360602,
            "province": "江西省",
            "city": "鹰潭市",
            "district": "月湖区"
        }
    },
    {
        "id": "9873207134891143010",
        "title": "公共厕所",
        "address": "江西省鹰潭市月湖区率土路与金桥南路交叉口正东方向166米左右",
        "tel": "",
        "category": "基础设施:公共设施:公共厕所",
        "type": 0,
        "location": {
            "lat": 28.22346,
            "lng": 117.011856
        },
        "ad_info": {
            "adcode": 360602,
            "province": "江西省",
            "city": "鹰潭市",
            "district": "月湖区"
        }
    },
    {
        "id": "18260654370810021595",
        "title": "公共厕所",
        "address": "江西省鹰潭市月湖区胜利西路29-8号",
        "tel": "",
        "category": "基础设施:公共设施:公共厕所",
        "type": 0,
        "location": {
            "lat": 28.241213,
            "lng": 117.031475
        },
        "ad_info": {
            "adcode": 360602,
            "province": "江西省",
            "city": "鹰潭市",
            "district": "月湖区"
        }
    },
    {
        "id": "6719358395721825919",
        "title": "公共厕所",
        "address": "江西省鹰潭市月湖区信江北大道御景一号二栋二单元旁",
        "tel": "",
        "category": "基础设施:公共设施:公共厕所",
        "type": 0,
        "location": {
            "lat": 28.263899,
            "lng": 117.042323
        },
        "ad_info": {
            "adcode": 360602,
            "province": "江西省",
            "city": "鹰潭市",
            "district": "月湖区"
        }
    },
    {
        "id": "17001817411023251265",
        "title": "公共厕所",
        "address": "江西省鹰潭市月湖区梅园菜场(梅园二路东)",
        "tel": "",
        "category": "基础设施:公共设施:公共厕所",
        "type": 0,
        "location": {
            "lat": 28.2632,
            "lng": 117.070233
        },
        "ad_info": {
            "adcode": 360602,
            "province": "江西省",
            "city": "鹰潭市",
            "district": "月湖区"
        }
    },
    {
        "id": "419582999560505114",
        "title": "公共厕所",
        "address": "江西省鹰潭市月湖区梅花巷与沿江路交叉口正西方向76米左右",
        "tel": "",
        "category": "基础设施:公共设施:公共厕所",
        "type": 0,
        "location": {
            "lat": 28.249516,
            "lng": 117.053127
        },
        "ad_info": {
            "adcode": 360602,
            "province": "江西省",
            "city": "鹰潭市",
            "district": "月湖区"
        }
    },
    {
        "id": "10164433622151344295",
        "title": "公共厕所",
        "address": "江西省鹰潭市月湖区胜利西路20号时代广场",
        "tel": "",
        "category": "基础设施:公共设施:公共厕所",
        "type": 0,
        "location": {
            "lat": 28.239846,
            "lng": 117.030584
        },
        "ad_info": {
            "adcode": 360602,
            "province": "江西省",
            "city": "鹰潭市",
            "district": "月湖区"
        }
    },
    {
        "id": "15678020428664410600",
        "title": "公共厕所",
        "address": "江西省鹰潭市月湖区滨江中路与滨江西路交叉口正北方向58米左右",
        "tel": "",
        "category": "基础设施:公共设施:公共厕所",
        "type": 0,
        "location": {
            "lat": 28.251337,
            "lng": 117.025042
        },
        "ad_info": {
            "adcode": 360602,
            "province": "江西省",
            "city": "鹰潭市",
            "district": "月湖区"
        }
    },
    {
        "id": "16325194678957010381",
        "title": "公共厕所",
        "address": "江西省鹰潭市月湖区双水坑北巷与四海东路交叉口西北方向173米左右",
        "tel": "",
        "category": "基础设施:公共设施:公共厕所",
        "type": 0,
        "location": {
            "lat": 28.233686,
            "lng": 117.038062
        },
        "ad_info": {
            "adcode": 360602,
            "province": "江西省",
            "city": "鹰潭市",
            "district": "月湖区"
        }
    },
    {
        "id": "2041378019010070518",
        "title": "公共厕所",
        "address": "江西省鹰潭市月湖区五洲路7-19号",
        "tel": "",
        "category": "基础设施:公共设施:公共厕所",
        "type": 0,
        "location": {
            "lat": 28.241994,
            "lng": 117.02222
        },
        "ad_info": {
            "adcode": 360602,
            "province": "江西省",
            "city": "鹰潭市",
            "district": "月湖区"
        }
    },
    {
        "id": "6703449595558245968",
        "title": "公共厕所",
        "address": "江西省鹰潭市月湖区东巷与天洁东路交叉口东北方向355米左右",
        "tel": "",
        "category": "基础设施:公共设施:公共厕所",
        "type": 0,
        "location": {
            "lat": 28.228486,
            "lng": 117.0364
        },
        "ad_info": {
            "adcode": 360602,
            "province": "江西省",
            "city": "鹰潭市",
            "district": "月湖区"
        }
    },
    {
        "id": "6256489321323368485",
        "title": "公共厕所",
        "address": "江西省鹰潭市贵溪市龙虎山风景名胜区内",
        "tel": "",
        "category": "基础设施:公共设施:公共厕所",
        "type": 0,
        "location": {
            "lat": 28.116684,
            "lng": 116.979431
        },
        "ad_info": {
            "adcode": 360681,
            "province": "江西省",
            "city": "鹰潭市",
            "district": "贵溪市"
        }
    },
    {
        "id": "18260276365834371575",
        "title": "公共厕所",
        "address": "江西省鹰潭市月湖区胜利东路1号-8号",
        "tel": "",
        "category": "基础设施:公共设施:公共厕所",
        "type": 0,
        "location": {
            "lat": 28.240253,
            "lng": 117.036683
        },
        "ad_info": {
            "adcode": 360602,
            "province": "江西省",
            "city": "鹰潭市",
            "district": "月湖区"
        }
    },
    {
        "id": "17072837622439347029",
        "title": "公共厕所",
        "address": "江西省鹰潭市贵溪市望江街与阳际峰路交叉口西南方向212米左右",
        "tel": "",
        "category": "基础设施:公共设施:公共厕所",
        "type": 0,
        "location": {
            "lat": 28.292125,
            "lng": 117.254291
        },
        "ad_info": {
            "adcode": 360681,
            "province": "江西省",
            "city": "鹰潭市",
            "district": "贵溪市"
        }
    },
    {
        "id": "16279621862635861891",
        "title": "公共厕所",
        "address": "江西省鹰潭市月湖区玉清路百盛名仕府",
        "tel": "",
        "category": "基础设施:公共设施:公共厕所",
        "type": 0,
        "location": {
            "lat": 28.255822,
            "lng": 117.035404
        },
        "ad_info": {
            "adcode": 360602,
            "province": "江西省",
            "city": "鹰潭市",
            "district": "月湖区"
        }
    },
    {
        "id": "4419756136012779698",
        "title": "公共厕所",
        "address": "江西省鹰潭市余江区G320与站东巷交叉口西北方向769米左右",
        "tel": "",
        "category": "基础设施:公共设施:公共厕所",
        "type": 0,
        "location": {
            "lat": 28.225736,
            "lng": 116.818598
        },
        "ad_info": {
            "adcode": 360603,
            "province": "江西省",
            "city": "鹰潭市",
            "district": "余江区"
        }
    },
    {
        "id": "1697107061259531239",
        "title": "公共厕所",
        "address": "江西省鹰潭市余江区九峰路与沿河南路交叉口东南方向198米左右",
        "tel": "",
        "category": "基础设施:公共设施:公共厕所",
        "type": 0,
        "location": {
            "lat": 28.198607,
            "lng": 116.825532
        },
        "ad_info": {
            "adcode": 360603,
            "province": "江西省",
            "city": "鹰潭市",
            "district": "余江区"
        }
    },
    {
        "id": "14123920812107312016",
        "title": "公共厕所",
        "address": "江西省鹰潭市月湖区和谐路与率土路交叉口正南方向109米左右",
        "tel": "",
        "category": "基础设施:公共设施:公共厕所",
        "type": 0,
        "location": {
            "lat": 28.222568,
            "lng": 117.005774
        },
        "ad_info": {
            "adcode": 360602,
            "province": "江西省",
            "city": "鹰潭市",
            "district": "月湖区"
        }
    },
    {
        "id": "1545308751199242788",
        "title": "公共厕所",
        "address": "江西省鹰潭市余江区同乐园健走步道",
        "tel": "",
        "category": "基础设施:公共设施:公共厕所",
        "type": 0,
        "location": {
            "lat": 28.206743,
            "lng": 116.824219
        },
        "ad_info": {
            "adcode": 360603,
            "province": "江西省",
            "city": "鹰潭市",
            "district": "余江区"
        }
    },
    {
        "id": "2032190699070565914",
        "title": "公共厕所",
        "address": "江西省鹰潭市余江区常安路与常青路交叉口西北方向247米左右",
        "tel": "",
        "category": "基础设施:公共设施:公共厕所",
        "type": 0,
        "location": {
            "lat": 28.511993,
            "lng": 117.043236
        },
        "ad_info": {
            "adcode": 360603,
            "province": "江西省",
            "city": "鹰潭市",
            "district": "余江区"
        }
    },
    {
        "id": "15478108531445152512",
        "title": "公共厕所",
        "address": "江西省鹰潭市月湖区太清路与安仁街交叉口正东方向89米左右",
        "tel": "",
        "category": "基础设施:公共设施:公共厕所",
        "type": 0,
        "location": {
            "lat": 28.252269,
            "lng": 117.033369
        },
        "ad_info": {
            "adcode": 360602,
            "province": "江西省",
            "city": "鹰潭市",
            "district": "月湖区"
        }
    },
    {
        "id": "14489489453187378941",
        "title": "公共厕所",
        "address": "江西省鹰潭市贵溪市叶家塘路与菜市弄交叉口西北方向104米左右",
        "tel": "",
        "category": "基础设施:公共设施:公共厕所",
        "type": 0,
        "location": {
            "lat": 28.281856,
            "lng": 117.208673
        },
        "ad_info": {
            "adcode": 360681,
            "province": "江西省",
            "city": "鹰潭市",
            "district": "贵溪市"
        }
    },
    {
        "id": "6691309599716619862",
        "title": "公共厕所",
        "address": "江西省鹰潭市贵溪市交通路与建设路交叉口东北方向106米左右",
        "tel": "",
        "category": "基础设施:公共设施:公共厕所",
        "type": 0,
        "location": {
            "lat": 28.289015,
            "lng": 117.212808
        },
        "ad_info": {
            "adcode": 360681,
            "province": "江西省",
            "city": "鹰潭市",
            "district": "贵溪市"
        }
    },
    {
        "id": "14513695560020974889",
        "title": "公共厕所",
        "address": "江西省鹰潭市余江区俊九路与鞍岭南路交叉口东南方向138米左右",
        "tel": "",
        "category": "基础设施:公共设施:公共厕所",
        "type": 0,
        "location": {
            "lat": 28.196739,
            "lng": 116.845198
        },
        "ad_info": {
            "adcode": 360603,
            "province": "江西省",
            "city": "鹰潭市",
            "district": "余江区"
        }
    },
    {
        "id": "5246130236653618222",
        "title": "公共厕所",
        "address": "江西省鹰潭市月湖区山背路与解放路交叉口正南方向72米左右",
        "tel": "",
        "category": "基础设施:公共设施:公共厕所",
        "type": 0,
        "location": {
            "lat": 28.236137,
            "lng": 117.043483
        },
        "ad_info": {
            "adcode": 360602,
            "province": "江西省",
            "city": "鹰潭市",
            "district": "月湖区"
        }
    },
    {
        "id": "6637326873656523540",
        "title": "公共厕所",
        "address": "江西省鹰潭市月湖区体育馆路与和谐路交叉口正西方向219米左右",
        "tel": "",
        "category": "基础设施:公共设施:公共厕所",
        "type": 0,
        "location": {
            "lat": 28.219593,
            "lng": 117.003787
        },
        "ad_info": {
            "adcode": 360602,
            "province": "江西省",
            "city": "鹰潭市",
            "district": "月湖区"
        }
    },
    {
        "id": "14321677613376410931",
        "title": "公共厕所",
        "address": "江西省鹰潭市月湖区同心路与高新大道交叉口正西方向193米左右",
        "tel": "",
        "category": "基础设施:公共设施:公共厕所",
        "type": 0,
        "location": {
            "lat": 28.218888,
            "lng": 116.9872
        },
        "ad_info": {
            "adcode": 360602,
            "province": "江西省",
            "city": "鹰潭市",
            "district": "月湖区"
        }
    },
    {
        "id": "16467974602021898547",
        "title": "公共厕所",
        "address": "江西省鹰潭市余江区灵溪小镇健走步道",
        "tel": "",
        "category": "基础设施:公共设施:公共厕所",
        "type": 0,
        "location": {
            "lat": 28.25104,
            "lng": 116.714261
        },
        "ad_info": {
            "adcode": 360603,
            "province": "江西省",
            "city": "鹰潭市",
            "district": "余江区"
        }
    },
    {
        "id": "15995711473168932801",
        "title": "公共厕所",
        "address": "江西省鹰潭市月湖区象山路幸福时光",
        "tel": "",
        "category": "基础设施:公共设施:公共厕所",
        "type": 0,
        "location": {
            "lat": 28.252907,
            "lng": 117.029963
        },
        "ad_info": {
            "adcode": 360602,
            "province": "江西省",
            "city": "鹰潭市",
            "district": "月湖区"
        }
    },
    {
        "id": "2673381340203212803",
        "title": "公共厕所",
        "address": "江西省鹰潭市月湖区G206与双凤街交叉口西北方向145米左右",
        "tel": "",
        "category": "基础设施:公共设施:公共厕所",
        "type": 0,
        "location": {
            "lat": 28.26627,
            "lng": 116.997357
        },
        "ad_info": {
            "adcode": 360602,
            "province": "江西省",
            "city": "鹰潭市",
            "district": "月湖区"
        }
    },
    {
        "id": "17435352579847883336",
        "title": "公共厕所",
        "address": "江西省鹰潭市余江区G206与鹰潭西互通交叉口正北方向89米左右",
        "tel": "",
        "category": "基础设施:公共设施:公共厕所",
        "type": 0,
        "location": {
            "lat": 28.301512,
            "lng": 116.975011
        },
        "ad_info": {
            "adcode": 360603,
            "province": "江西省",
            "city": "鹰潭市",
            "district": "余江区"
        }
    },
    {
        "id": "11525293226572915582",
        "title": "公共厕所",
        "address": "江西省鹰潭市月湖区体育馆路与金桥南路交叉口正东方向125米左右",
        "tel": "",
        "category": "基础设施:公共设施:公共厕所",
        "type": 0,
        "location": {
            "lat": 28.219518,
            "lng": 117.011506
        },
        "ad_info": {
            "adcode": 360602,
            "province": "江西省",
            "city": "鹰潭市",
            "district": "月湖区"
        }
    },
    {
        "id": "12925273512290841145",
        "title": "公共厕所",
        "address": "江西省鹰潭市月湖区林荫东路与正大路交叉口正西方向121米左右",
        "tel": "",
        "category": "基础设施:公共设施:公共厕所",
        "type": 0,
        "location": {
            "lat": 28.24104,
            "lng": 117.039312
        },
        "ad_info": {
            "adcode": 360602,
            "province": "江西省",
            "city": "鹰潭市",
            "district": "月湖区"
        }
    },
    {
        "id": "933442865416113974",
        "title": "公共厕所",
        "address": "江西省鹰潭市月湖区北六路与龙虎山北大道交叉口东南方向54米左右",
        "tel": "",
        "category": "基础设施:公共设施:公共厕所",
        "type": 0,
        "location": {
            "lat": 28.279693,
            "lng": 117.028858
        },
        "ad_info": {
            "adcode": 360602,
            "province": "江西省",
            "city": "鹰潭市",
            "district": "月湖区"
        }
    },
    {
        "id": "4692812311106061997",
        "title": "公共厕所",
        "address": "江西省鹰潭市月湖区安仁街与顺福街交叉口正东方向122米左右",
        "tel": "",
        "category": "基础设施:公共设施:公共厕所",
        "type": 0,
        "location": {
            "lat": 28.252339,
            "lng": 117.031108
        },
        "ad_info": {
            "adcode": 360602,
            "province": "江西省",
            "city": "鹰潭市",
            "district": "月湖区"
        }
    },
    {
        "id": "6648105085918145150",
        "title": "公共厕所",
        "address": "江西省鹰潭市月湖区东风巷与山背路交叉口正南方向55米左右",
        "tel": "",
        "category": "基础设施:公共设施:公共厕所",
        "type": 0,
        "location": {
            "lat": 28.235382,
            "lng": 117.041874
        },
        "ad_info": {
            "adcode": 360602,
            "province": "江西省",
            "city": "鹰潭市",
            "district": "月湖区"
        }
    },
    {
        "id": "5159966669701363565",
        "title": "公共厕所",
        "address": "江西省鹰潭市月湖区金桥路99东北方向100米",
        "tel": "",
        "category": "基础设施:公共设施:公共厕所",
        "type": 0,
        "location": {
            "lat": 28.203658,
            "lng": 117.009268
        },
        "ad_info": {
            "adcode": 360602,
            "province": "江西省",
            "city": "鹰潭市",
            "district": "月湖区"
        }
    },
    {
        "id": "17699732555907041684",
        "title": "公共厕所",
        "address": "江西省鹰潭市贵溪市烧箕山西路与筲箕山西路交叉口西北方向98米左右",
        "tel": "",
        "category": "基础设施:公共设施:公共厕所",
        "type": 0,
        "location": {
            "lat": 28.285915,
            "lng": 117.218662
        },
        "ad_info": {
            "adcode": 360681,
            "province": "江西省",
            "city": "鹰潭市",
            "district": "贵溪市"
        }
    },
    {
        "id": "17211472658662230929",
        "title": "公共厕所",
        "address": "江西省鹰潭市贵溪市沿河西路与解元坊弄交叉口西北方向107米左右",
        "tel": "",
        "category": "基础设施:公共设施:公共厕所",
        "type": 0,
        "location": {
            "lat": 28.280212,
            "lng": 117.205022
        },
        "ad_info": {
            "adcode": 360681,
            "province": "江西省",
            "city": "鹰潭市",
            "district": "贵溪市"
        }
    },
    {
        "id": "14317711118783866726",
        "title": "公共厕所",
        "address": "江西省鹰潭市贵溪市周家园路与沿河西路交叉口正南方向148米左右",
        "tel": "",
        "category": "基础设施:公共设施:公共厕所",
        "type": 0,
        "location": {
            "lat": 28.280287,
            "lng": 117.199244
        },
        "ad_info": {
            "adcode": 360681,
            "province": "江西省",
            "city": "鹰潭市",
            "district": "贵溪市"
        }
    },
    {
        "id": "17420936296582892740",
        "title": "公共厕所",
        "address": "江西省鹰潭市余江区Y144与鹰南大道交叉口东北方向287米左右",
        "tel": "",
        "category": "基础设施:公共设施:公共厕所",
        "type": 0,
        "location": {
            "lat": 28.210144,
            "lng": 116.93208
        },
        "ad_info": {
            "adcode": 360603,
            "province": "江西省",
            "city": "鹰潭市",
            "district": "余江区"
        }
    },
    {
        "id": "4032715298912457760",
        "title": "公共厕所",
        "address": "江西省鹰潭市月湖区万宝至路与金桥路交叉口东南方向28米左右",
        "tel": "",
        "category": "基础设施:公共设施:公共厕所",
        "type": 0,
        "location": {
            "lat": 28.209846,
            "lng": 117.009777
        },
        "ad_info": {
            "adcode": 360602,
            "province": "江西省",
            "city": "鹰潭市",
            "district": "月湖区"
        }
    },
    {
        "id": "17227764863837734853",
        "title": "公共厕所",
        "address": "江西省鹰潭市月湖区同心路与高新大道交叉口正西方向407米左右",
        "tel": "",
        "category": "基础设施:公共设施:公共厕所",
        "type": 0,
        "location": {
            "lat": 28.219699,
            "lng": 116.985206
        },
        "ad_info": {
            "adcode": 360602,
            "province": "江西省",
            "city": "鹰潭市",
            "district": "月湖区"
        }
    },
    {
        "id": "10129950268249601460",
        "title": "公共厕所",
        "address": "江西省鹰潭市余江区G320",
        "tel": "",
        "category": "基础设施:公共设施:公共厕所",
        "type": 0,
        "location": {
            "lat": 28.229532,
            "lng": 116.76295
        },
        "ad_info": {
            "adcode": 360603,
            "province": "江西省",
            "city": "鹰潭市",
            "district": "余江区"
        }
    },
    {
        "id": "17062700016538726004",
        "title": "公共厕所",
        "address": "江西省鹰潭市余江区G206与Y118交叉口东南方向36米左右",
        "tel": "",
        "category": "基础设施:公共设施:公共厕所",
        "type": 0,
        "location": {
            "lat": 28.397993,
            "lng": 116.915958
        },
        "ad_info": {
            "adcode": 360603,
            "province": "江西省",
            "city": "鹰潭市",
            "district": "余江区"
        }
    },
    {
        "id": "12876155153274179637",
        "title": "公共厕所(鹰潭站)",
        "address": "江西省鹰潭市月湖区四海东路鹰潭站F2",
        "tel": "",
        "category": "基础设施:公共设施:公共厕所",
        "type": 0,
        "location": {
            "lat": 28.23544,
            "lng": 117.027816
        },
        "ad_info": {
            "adcode": 360602,
            "province": "江西省",
            "city": "鹰潭市",
            "district": "月湖区"
        }
    },
    {
        "id": "3753281546922960860",
        "title": "公共厕所",
        "address": "江西省鹰潭市余江区河东路与白塔东路交叉口西南方向105米左右",
        "tel": "",
        "category": "基础设施:公共设施:公共厕所",
        "type": 0,
        "location": {
            "lat": 28.200136,
            "lng": 116.831849
        },
        "ad_info": {
            "adcode": 360603,
            "province": "江西省",
            "city": "鹰潭市",
            "district": "余江区"
        }
    },
    {
        "id": "6460177647289762998",
        "title": "公共厕所",
        "address": "江西省鹰潭市贵溪市冷水路与银海路交叉口东北方向114米左右",
        "tel": "",
        "category": "基础设施:公共设施:公共厕所",
        "type": 0,
        "location": {
            "lat": 27.908405,
            "lng": 117.1892
        },
        "ad_info": {
            "adcode": 360681,
            "province": "江西省",
            "city": "鹰潭市",
            "district": "贵溪市"
        }
    },
    {
        "id": "1150660317860381202",
        "title": "公共厕所",
        "address": "江西省鹰潭市贵溪市G206与龙虎山南大道交叉口正西方向902米左右",
        "tel": "",
        "category": "基础设施:公共设施:公共厕所",
        "type": 0,
        "location": {
            "lat": 28.165682,
            "lng": 116.998037
        },
        "ad_info": {
            "adcode": 360681,
            "province": "江西省",
            "city": "鹰潭市",
            "district": "贵溪市"
        }
    },
    {
        "id": "14831926016485405320",
        "title": "公共厕所",
        "address": "江西省鹰潭市贵溪市江四路与龙虎山北大道交叉口东南方向66米左右",
        "tel": "",
        "category": "基础设施:公共设施:公共厕所",
        "type": 0,
        "location": {
            "lat": 28.301066,
            "lng": 117.034725
        },
        "ad_info": {
            "adcode": 360681,
            "province": "江西省",
            "city": "鹰潭市",
            "district": "贵溪市"
        }
    },
    {
        "id": "8488039904282702528",
        "title": "公共厕所",
        "address": "江西省鹰潭市余江区白塔东路与胜利路交叉口西北方向72米左右",
        "tel": "",
        "category": "基础设施:公共设施:公共厕所",
        "type": 0,
        "location": {
            "lat": 28.203319,
            "lng": 116.822672
        },
        "ad_info": {
            "adcode": 360603,
            "province": "江西省",
            "city": "鹰潭市",
            "district": "余江区"
        }
    },
    {
        "id": "16029202314086436191",
        "title": "公共厕所",
        "address": "江西省鹰潭市余江区中洲三路与白塔东路交叉口正北方向215米左右",
        "tel": "",
        "category": "基础设施:公共设施:公共厕所",
        "type": 0,
        "location": {
            "lat": 28.203803,
            "lng": 116.828215
        },
        "ad_info": {
            "adcode": 360603,
            "province": "江西省",
            "city": "鹰潭市",
            "district": "余江区"
        }
    },
    {
        "id": "13883918354004599047",
        "title": "公共厕所",
        "address": "江西省鹰潭市余江区G206与石港大桥交叉口正西方向309米左右",
        "tel": "",
        "category": "基础设施:公共设施:公共厕所",
        "type": 0,
        "location": {
            "lat": 28.365187,
            "lng": 116.939085
        },
        "ad_info": {
            "adcode": 360603,
            "province": "江西省",
            "city": "鹰潭市",
            "district": "余江区"
        }
    },
    {
        "id": "9584692412286792727",
        "title": "公共厕所",
        "address": "江西省鹰潭市贵溪市江家山路与沿江中路交叉口正西方向223米左右",
        "tel": "",
        "category": "基础设施:公共设施:公共厕所",
        "type": 0,
        "location": {
            "lat": 28.279364,
            "lng": 117.234009
        },
        "ad_info": {
            "adcode": 360681,
            "province": "江西省",
            "city": "鹰潭市",
            "district": "贵溪市"
        }
    },
    {
        "id": "16729428604030416288",
        "title": "公共厕所",
        "address": "江西省鹰潭市余江区鞍岭南路与马鞍岭大道交叉口正东方向68米左右",
        "tel": "",
        "category": "基础设施:公共设施:公共厕所",
        "type": 0,
        "location": {
            "lat": 28.198089,
            "lng": 116.838279
        },
        "ad_info": {
            "adcode": 360603,
            "province": "江西省",
            "city": "鹰潭市",
            "district": "余江区"
        }
    },
    {
        "id": "12149024424848081587",
        "title": "公共厕所",
        "address": "江西省鹰潭市贵溪市府前路与集贸路交叉口西北方向101米左右",
        "tel": "",
        "category": "基础设施:公共设施:公共厕所",
        "type": 0,
        "location": {
            "lat": 28.216969,
            "lng": 117.165632
        },
        "ad_info": {
            "adcode": 360681,
            "province": "江西省",
            "city": "鹰潭市",
            "district": "贵溪市"
        }
    },
    {
        "id": "10950020096315266336",
        "title": "公共厕所",
        "address": "江西省鹰潭市贵溪市交通路与北大街交叉口西南方向45米左右",
        "tel": "",
        "category": "基础设施:公共设施:公共厕所",
        "type": 0,
        "location": {
            "lat": 28.284387,
            "lng": 117.207941
        },
        "ad_info": {
            "adcode": 360681,
            "province": "江西省",
            "city": "鹰潭市",
            "district": "贵溪市"
        }
    },
    {
        "id": "660469910827076227",
        "title": "新建村公共厕所",
        "address": "江西省鹰潭市月湖区正一观路35号",
        "tel": "",
        "category": "基础设施:公共设施:公共厕所",
        "type": 0,
        "location": {
            "lat": 28.239549,
            "lng": 117.032787
        },
        "ad_info": {
            "adcode": 360602,
            "province": "江西省",
            "city": "鹰潭市",
            "district": "月湖区"
        }
    },
    {
        "id": "17202068852286560256",
        "title": "公共厕所",
        "address": "江西省鹰潭市余江区X801与Y103交叉口东南方向106米左右",
        "tel": "",
        "category": "基础设施:公共设施:公共厕所",
        "type": 0,
        "location": {
            "lat": 28.509834,
            "lng": 117.104445
        },
        "ad_info": {
            "adcode": 360603,
            "province": "江西省",
            "city": "鹰潭市",
            "district": "余江区"
        }
    },
    {
        "id": "3349995777233064087",
        "title": "公共厕所",
        "address": "江西省鹰潭市余江区马荃镇岩前村委会倪家",
        "tel": "",
        "category": "基础设施:公共设施:公共厕所",
        "type": 0,
        "location": {
            "lat": 28.127416,
            "lng": 116.935769
        },
        "ad_info": {
            "adcode": 360603,
            "province": "江西省",
            "city": "鹰潭市",
            "district": "余江区"
        }
    },
    {
        "id": "10022631740730994667",
        "title": "公共厕所",
        "address": "江西省鹰潭市贵溪市贵塘公路与雷府路交叉口正北方向695米左右",
        "tel": "",
        "category": "基础设施:公共设施:公共厕所",
        "type": 0,
        "location": {
            "lat": 28.207317,
            "lng": 117.209261
        },
        "ad_info": {
            "adcode": 360681,
            "province": "江西省",
            "city": "鹰潭市",
            "district": "贵溪市"
        }
    },
    {
        "id": "7353882993189287693",
        "title": "公共厕所",
        "address": "江西省鹰潭市贵溪市X329与天师路交叉口西北方向525米左右",
        "tel": "",
        "category": "基础设施:公共设施:公共厕所",
        "type": 0,
        "location": {
            "lat": 28.049043,
            "lng": 117.029872
        },
        "ad_info": {
            "adcode": 360681,
            "province": "江西省",
            "city": "鹰潭市",
            "district": "贵溪市"
        }
    },
    {
        "id": "18277489172410411559",
        "title": "公共厕所",
        "address": "江西省鹰潭市余江区灵溪小镇综合道",
        "tel": "",
        "category": "基础设施:公共设施:公共厕所",
        "type": 0,
        "location": {
            "lat": 28.245747,
            "lng": 116.718982
        },
        "ad_info": {
            "adcode": 360603,
            "province": "江西省",
            "city": "鹰潭市",
            "district": "余江区"
        }
    },
    {
        "id": "13905408455818320368",
        "title": "公共卫生间",
        "address": "江西省鹰潭市贵溪市安平路与贵塘公路交叉口西南方向102米左右",
        "tel": "",
        "category": "基础设施:公共设施:公共厕所",
        "type": 0,
        "location": {
            "lat": 28.077507,
            "lng": 117.22742
        },
        "ad_info": {
            "adcode": 360681,
            "province": "江西省",
            "city": "鹰潭市",
            "district": "贵溪市"
        }
    },
    {
        "id": "6514431099037917068",
        "title": "公共厕所",
        "address": "江西省鹰潭市余江区春风路余江博爱医院南侧约260米",
        "tel": "",
        "category": "基础设施:公共设施:公共厕所",
        "type": 0,
        "location": {
            "lat": 28.199553,
            "lng": 116.8273
        },
        "ad_info": {
            "adcode": 360603,
            "province": "江西省",
            "city": "鹰潭市",
            "district": "余江区"
        }
    },
    {
        "id": "1297816224764195066",
        "title": "公共厕所",
        "address": "江西省鹰潭市余江区G320(沪瑞线)",
        "tel": "",
        "category": "基础设施:公共设施:公共厕所",
        "type": 0,
        "location": {
            "lat": 28.240807,
            "lng": 116.718409
        },
        "ad_info": {
            "adcode": 360603,
            "province": "江西省",
            "city": "鹰潭市",
            "district": "余江区"
        }
    },
    {
        "id": "11318759297994022161",
        "title": "公共厕所",
        "address": "江西省鹰潭市贵溪市水塔底路与沿江中路交叉口正西方向92米左右",
        "tel": "",
        "category": "基础设施:公共设施:公共厕所",
        "type": 0,
        "location": {
            "lat": 28.279488,
            "lng": 117.21409
        },
        "ad_info": {
            "adcode": 360681,
            "province": "江西省",
            "city": "鹰潭市",
            "district": "贵溪市"
        }
    },
    {
        "id": "1835702139766552774",
        "title": "公共厕所",
        "address": "江西省鹰潭市贵溪市S207与府前路交叉口东南方向20米左右",
        "tel": "",
        "category": "基础设施:公共设施:公共厕所",
        "type": 0,
        "location": {
            "lat": 28.356669,
            "lng": 117.019932
        },
        "ad_info": {
            "adcode": 360681,
            "province": "江西省",
            "city": "鹰潭市",
            "district": "贵溪市"
        }
    },
    {
        "id": "8556528830792073284",
        "title": "公共厕所",
        "address": "江西省鹰潭市贵溪市S206",
        "tel": "",
        "category": "基础设施:公共设施:公共厕所",
        "type": 0,
        "location": {
            "lat": 28.061358,
            "lng": 117.321639
        },
        "ad_info": {
            "adcode": 360681,
            "province": "江西省",
            "city": "鹰潭市",
            "district": "贵溪市"
        }
    },
    {
        "id": "14501570016357513728",
        "title": "公共厕所",
        "address": "江西省鹰潭市贵溪市华强路与鹰东大道交叉口正南方向442米左右",
        "tel": "",
        "category": "基础设施:公共设施:公共厕所",
        "type": 0,
        "location": {
            "lat": 28.280556,
            "lng": 117.053341
        },
        "ad_info": {
            "adcode": 360681,
            "province": "江西省",
            "city": "鹰潭市",
            "district": "贵溪市"
        }
    },
    {
        "id": "3746789832621939538",
        "title": "公共厕所",
        "address": "江西省鹰潭市贵溪市望桥路与滨水生态路交叉口西南方向258米左右",
        "tel": "",
        "category": "基础设施:公共设施:公共厕所",
        "type": 0,
        "location": {
            "lat": 28.27131,
            "lng": 117.23877
        },
        "ad_info": {
            "adcode": 360681,
            "province": "江西省",
            "city": "鹰潭市",
            "district": "贵溪市"
        }
    },
    {
        "id": "3560074897235068548",
        "title": "公共厕所",
        "address": "江西省鹰潭市贵溪市上清镇952乡道天门山生态游览区附近",
        "tel": "",
        "category": "基础设施:公共设施:公共厕所",
        "type": 0,
        "location": {
            "lat": 27.997417,
            "lng": 117.028333
        },
        "ad_info": {
            "adcode": 360681,
            "province": "江西省",
            "city": "鹰潭市",
            "district": "贵溪市"
        }
    },
    {
        "id": "16134453574133322457",
        "title": "公共厕所",
        "address": "江西省鹰潭市贵溪市S207与X332交叉口正南方向377米左右",
        "tel": "",
        "category": "基础设施:公共设施:公共厕所",
        "type": 0,
        "location": {
            "lat": 28.419828,
            "lng": 117.046787
        },
        "ad_info": {
            "adcode": 360681,
            "province": "江西省",
            "city": "鹰潭市",
            "district": "贵溪市"
        }
    },
    {
        "id": "16591128012643990176",
        "title": "月湖新城雄鹰大道加油站公共厕所",
        "address": "江西省鹰潭市月湖区童家四路与鹰雄大道交叉口正东方向289米左右",
        "tel": "",
        "category": "基础设施:公共设施:公共厕所",
        "type": 0,
        "location": {
            "lat": 28.269156,
            "lng": 117.12695
        },
        "ad_info": {
            "adcode": 360602,
            "province": "江西省",
            "city": "鹰潭市",
            "district": "月湖区"
        }
    },
    {
        "id": "7893885182731732162",
        "title": "公共厕所",
        "address": "江西省鹰潭市月湖区上清路与象山路交叉口正北方向130米左右",
        "tel": "",
        "category": "基础设施:公共设施:公共厕所",
        "type": 0,
        "location": {
            "lat": 28.255115,
            "lng": 117.039381
        },
        "ad_info": {
            "adcode": 360602,
            "province": "江西省",
            "city": "鹰潭市",
            "district": "月湖区"
        }
    },
    {
        "id": "5493733538202991453",
        "title": "无障碍公共厕所",
        "address": "江西省鹰潭市月湖区工农巷与建设路交叉口东北方向112米左右",
        "tel": "",
        "category": "基础设施:公共设施:公共厕所",
        "type": 0,
        "location": {
            "lat": 28.239635,
            "lng": 117.044867
        },
        "ad_info": {
            "adcode": 360602,
            "province": "江西省",
            "city": "鹰潭市",
            "district": "月湖区"
        }
    },
    {
        "id": "7122602377688499414",
        "title": "白露加油站公共厕所",
        "address": "江西省鹰潭市月湖区龙虎山北大道19号",
        "tel": "",
        "category": "基础设施:公共设施:公共厕所",
        "type": 0,
        "location": {
            "lat": 28.232718,
            "lng": 117.021247
        },
        "ad_info": {
            "adcode": 360602,
            "province": "江西省",
            "city": "鹰潭市",
            "district": "月湖区"
        }
    },
    {
        "id": "3578356061032370485",
        "title": "公共厕所",
        "address": "江西省鹰潭市月湖区交通路与环城东路交叉口西南方向61米左右",
        "tel": "",
        "category": "基础设施:公共设施:公共厕所",
        "type": 0,
        "location": {
            "lat": 28.237371,
            "lng": 117.033772
        },
        "ad_info": {
            "adcode": 360602,
            "province": "江西省",
            "city": "鹰潭市",
            "district": "月湖区"
        }
    },
    {
        "id": "15402250040447325034",
        "title": "公共厕所",
        "address": "江西省鹰潭市月湖区南站路与山背三号路交叉口正西方向25米左右",
        "tel": "",
        "category": "基础设施:公共设施:公共厕所",
        "type": 0,
        "location": {
            "lat": 28.237096,
            "lng": 117.039774
        },
        "ad_info": {
            "adcode": 360602,
            "province": "江西省",
            "city": "鹰潭市",
            "district": "月湖区"
        }
    },
    {
        "id": "8411316996607238525",
        "title": "公共厕所",
        "address": "江西省鹰潭市月湖区滨江东路与滨江中路交叉口西南方向60米左右",
        "tel": "",
        "category": "基础设施:公共设施:公共厕所",
        "type": 0,
        "location": {
            "lat": 28.251699,
            "lng": 117.047446
        },
        "ad_info": {
            "adcode": 360602,
            "province": "江西省",
            "city": "鹰潭市",
            "district": "月湖区"
        }
    },
    {
        "id": "9932063425091142335",
        "title": "东湖加油站公共厕所",
        "address": "江西省鹰潭市月湖区湖东路与环城东路交叉口西北方向45米左右",
        "tel": "",
        "category": "基础设施:公共设施:公共厕所",
        "type": 0,
        "location": {
            "lat": 28.240862,
            "lng": 117.055387
        },
        "ad_info": {
            "adcode": 360602,
            "province": "江西省",
            "city": "鹰潭市",
            "district": "月湖区"
        }
    },
    {
        "id": "11493591627703745629",
        "title": "公共厕所",
        "address": "江西省鹰潭市月湖区林荫西路与浮头桥巷交叉口正北方向90米左右",
        "tel": "",
        "category": "基础设施:公共设施:公共厕所",
        "type": 0,
        "location": {
            "lat": 28.243595,
            "lng": 117.033995
        },
        "ad_info": {
            "adcode": 360602,
            "province": "江西省",
            "city": "鹰潭市",
            "district": "月湖区"
        }
    },
    {
        "id": "7839047131544262183",
        "title": "公共厕所",
        "address": "江西省鹰潭市月湖区拥政路与胜利东路交叉口西南方向33米左右",
        "tel": "",
        "category": "基础设施:公共设施:公共厕所",
        "type": 0,
        "location": {
            "lat": 28.23888,
            "lng": 117.0379
        },
        "ad_info": {
            "adcode": 360602,
            "province": "江西省",
            "city": "鹰潭市",
            "district": "月湖区"
        }
    },
    {
        "id": "5359270748093821594",
        "title": "龙虎山服务区第一公共厕所",
        "address": "江西省鹰潭市余江区沪昆高速与鹰潭西互通交叉口正西方向501米左右",
        "tel": "",
        "category": "基础设施:公共设施:公共厕所",
        "type": 0,
        "location": {
            "lat": 28.299151,
            "lng": 116.95922
        },
        "ad_info": {
            "adcode": 360603,
            "province": "江西省",
            "city": "鹰潭市",
            "district": "余江区"
        }
    },
    {
        "id": "8064431864398797103",
        "title": "龙虎山服务区第一公共厕所",
        "address": "江西省鹰潭市余江区龙虎山服务区与G60沪昆高速交叉口东南150米",
        "tel": "",
        "category": "基础设施:公共设施:公共厕所",
        "type": 0,
        "location": {
            "lat": 28.295841,
            "lng": 116.957513
        },
        "ad_info": {
            "adcode": 360603,
            "province": "江西省",
            "city": "鹰潭市",
            "district": "余江区"
        }
    },
    {
        "id": "7979047505378595645",
        "title": "公共厕所",
        "address": "江西省鹰潭市余江区果喜大道与白塔东路交叉口东北方向65米左右",
        "tel": "",
        "category": "基础设施:公共设施:公共厕所",
        "type": 0,
        "location": {
            "lat": 28.20345,
            "lng": 116.82234
        },
        "ad_info": {
            "adcode": 360603,
            "province": "江西省",
            "city": "鹰潭市",
            "district": "余江区"
        }
    },
    {
        "id": "10415318919990711352",
        "title": "男洗手间(永盛百货B座)",
        "address": "江西省鹰潭市月湖区环城西路18号-2区-3时代广场F3",
        "tel": "",
        "category": "基础设施:公共设施:公共厕所",
        "type": 0,
        "location": {
            "lat": 28.240024,
            "lng": 117.032108
        },
        "ad_info": {
            "adcode": 360602,
            "province": "江西省",
            "city": "鹰潭市",
            "district": "月湖区"
        }
    },
    {
        "id": "15879254143673345618",
        "title": "龙虎山服务区第二公共厕所",
        "address": "江西省鹰潭市余江区沪昆高速与鹰潭西互通交叉口西南方向526米左右",
        "tel": "",
        "category": "基础设施:公共设施:公共厕所",
        "type": 0,
        "location": {
            "lat": 28.2974,
            "lng": 116.959992
        },
        "ad_info": {
            "adcode": 360603,
            "province": "江西省",
            "city": "鹰潭市",
            "district": "余江区"
        }
    },
    {
        "id": "8261880882456053181",
        "title": "公共厕所",
        "address": "江西省鹰潭市贵溪市东门货场路世纪富贵花园西侧约40米",
        "tel": "",
        "category": "基础设施:公共设施:公共厕所",
        "type": 0,
        "location": {
            "lat": 28.283111,
            "lng": 117.21903
        },
        "ad_info": {
            "adcode": 360681,
            "province": "江西省",
            "city": "鹰潭市",
            "district": "贵溪市"
        }
    },
    {
        "id": "15915521941624964681",
        "title": "麦当劳(鹰潭火车站店)-洗手间",
        "address": "江西省鹰潭市月湖区四海东路鹰潭站F2",
        "tel": "",
        "category": "基础设施:公共设施:公共厕所",
        "type": 0,
        "location": {
            "lat": 28.235345,
            "lng": 117.028554
        },
        "ad_info": {
            "adcode": 360602,
            "province": "江西省",
            "city": "鹰潭市",
            "district": "月湖区"
        }
    },
    {
        "id": "2415324373791985039",
        "title": "男洗手间(永盛百货A座)",
        "address": "江西省鹰潭市月湖区环城西路18号永盛百货A座F3层",
        "tel": "",
        "category": "基础设施:公共设施:公共厕所",
        "type": 0,
        "location": {
            "lat": 28.239786,
            "lng": 117.03147
        },
        "ad_info": {
            "adcode": 360602,
            "province": "江西省",
            "city": "鹰潭市",
            "district": "月湖区"
        }
    },
    {
        "id": "10404455109820351070",
        "title": "女洗手间(永盛百货B座)",
        "address": "江西省鹰潭市月湖区环城西路18号永盛百货B座F2层",
        "tel": "",
        "category": "基础设施:公共设施:公共厕所",
        "type": 0,
        "location": {
            "lat": 28.240045,
            "lng": 117.032061
        },
        "ad_info": {
            "adcode": 360602,
            "province": "江西省",
            "city": "鹰潭市",
            "district": "月湖区"
        }
    },
    {
        "id": "908977460821342405",
        "title": "龙虎山服务区第二公共厕所",
        "address": "江西省鹰潭市余江区沪昆高速与鹰潭西互通交叉口正西方向676米左右",
        "tel": "",
        "category": "基础设施:公共设施:公共厕所",
        "type": 0,
        "location": {
            "lat": 28.298292,
            "lng": 116.95767
        },
        "ad_info": {
            "adcode": 360603,
            "province": "江西省",
            "city": "鹰潭市",
            "district": "余江区"
        }
    },
    {
        "id": "12043118327928447762",
        "title": "女洗手间(永盛百货B座)",
        "address": "江西省鹰潭市月湖区环城西路18号永盛百货B座F4层",
        "tel": "",
        "category": "基础设施:公共设施:公共厕所",
        "type": 0,
        "location": {
            "lat": 28.240045,
            "lng": 117.032061
        },
        "ad_info": {
            "adcode": 360602,
            "province": "江西省",
            "city": "鹰潭市",
            "district": "月湖区"
        }
    },
    {
        "id": "15899769981561663951",
        "title": "公共厕所",
        "address": "江西省鹰潭市月湖区智慧大道与西湖路交叉口正北方向732米左右",
        "tel": "",
        "category": "基础设施:公共设施:公共厕所",
        "type": 0,
        "location": {
            "lat": 28.249149,
            "lng": 117.001808
        },
        "ad_info": {
            "adcode": 360602,
            "province": "江西省",
            "city": "鹰潭市",
            "district": "月湖区"
        }
    },
    {
        "id": "10043681404994276184",
        "title": "余江服务区第一公共厕所",
        "address": "江西省鹰潭市余江区Y127与新万段交叉口正东方向1244米左右",
        "tel": "",
        "category": "基础设施:公共设施:公共厕所",
        "type": 0,
        "location": {
            "lat": 28.375709,
            "lng": 116.867475
        },
        "ad_info": {
            "adcode": 360603,
            "province": "江西省",
            "city": "鹰潭市",
            "district": "余江区"
        }
    },
    {
        "id": "17720502588325478899",
        "title": "余江服务区第二公共厕所",
        "address": "江西省鹰潭市余江区Y127与新万段交叉口正东方向1500米左右",
        "tel": "",
        "category": "基础设施:公共设施:公共厕所",
        "type": 0,
        "location": {
            "lat": 28.377087,
            "lng": 116.869705
        },
        "ad_info": {
            "adcode": 360603,
            "province": "江西省",
            "city": "鹰潭市",
            "district": "余江区"
        }
    },
    {
        "id": "14854768466129422496",
        "title": "鹰潭服务区公共厕所",
        "address": "江西省鹰潭市贵溪市志光镇沪昆高速公路鹰潭服务区",
        "tel": "",
        "category": "基础设施:公共设施:公共厕所",
        "type": 0,
        "location": {
            "lat": 28.334857,
            "lng": 117.054635
        },
        "ad_info": {
            "adcode": 360681,
            "province": "江西省",
            "city": "鹰潭市",
            "district": "贵溪市"
        }
    },
    {
        "id": "1922330425572294730",
        "title": "余江服务区第二公共厕所",
        "address": "江西省鹰潭市余江区Y127与新万段交叉口正东方向1317米左右",
        "tel": "",
        "category": "基础设施:公共设施:公共厕所",
        "type": 0,
        "location": {
            "lat": 28.374457,
            "lng": 116.868567
        },
        "ad_info": {
            "adcode": 360603,
            "province": "江西省",
            "city": "鹰潭市",
            "district": "余江区"
        }
    },
    {
        "id": "10421295596079573663",
        "title": "滨江公园公共厕所",
        "address": "江西省鹰潭市月湖区沿江路与院里路交叉口正北方向141米左右",
        "tel": "",
        "category": "基础设施:公共设施:公共厕所",
        "type": 0,
        "location": {
            "lat": 28.25852,
            "lng": 117.057702
        },
        "ad_info": {
            "adcode": 360602,
            "province": "江西省",
            "city": "鹰潭市",
            "district": "月湖区"
        }
    },
    {
        "id": "16622670626792064929",
        "title": "鹰潭服务区第一公共厕所",
        "address": "江西省鹰潭市贵溪市沪昆高速与鹰潭东互通交叉口正西方向1036米左右",
        "tel": "",
        "category": "基础设施:公共设施:公共厕所",
        "type": 0,
        "location": {
            "lat": 28.33471,
            "lng": 117.053526
        },
        "ad_info": {
            "adcode": 360681,
            "province": "江西省",
            "city": "鹰潭市",
            "district": "贵溪市"
        }
    },
    {
        "id": "7811137201875223574",
        "title": "鹰潭服务区第一公共厕所",
        "address": "江西省鹰潭市贵溪市志光镇沪昆高速公路鹰潭服务区",
        "tel": "",
        "category": "基础设施:公共设施:公共厕所",
        "type": 0,
        "location": {
            "lat": 28.336395,
            "lng": 117.054454
        },
        "ad_info": {
            "adcode": 360681,
            "province": "江西省",
            "city": "鹰潭市",
            "district": "贵溪市"
        }
    },
    {
        "id": "13803463678614272870",
        "title": "鹰潭服务区第二公共厕所",
        "address": "江西省鹰潭市贵溪市沪昆高速与鹰潭东互通交叉口正西方向947米左右",
        "tel": "",
        "category": "基础设施:公共设施:公共厕所",
        "type": 0,
        "location": {
            "lat": 28.336147,
            "lng": 117.054081
        },
        "ad_info": {
            "adcode": 360681,
            "province": "江西省",
            "city": "鹰潭市",
            "district": "贵溪市"
        }
    },
    {
        "id": "13142565350146395292",
        "title": "余江服务区第一公共厕所",
        "address": "江西省鹰潭市余江区Y127与新万段交叉口正东方向1569米左右",
        "tel": "",
        "category": "基础设施:公共设施:公共厕所",
        "type": 0,
        "location": {
            "lat": 28.375782,
            "lng": 116.870883
        },
        "ad_info": {
            "adcode": 360603,
            "province": "江西省",
            "city": "鹰潭市",
            "district": "余江区"
        }
    },
    {
        "id": "6227514626541533182",
        "title": "男洗手间",
        "address": "江西省鹰潭市月湖区环城西路18号-2区-3时代广场F2",
        "tel": "",
        "category": "基础设施:公共设施:男洗手间",
        "type": 0,
        "location": {
            "lat": 28.24004,
            "lng": 117.03212
        },
        "ad_info": {
            "adcode": 360602,
            "province": "江西省",
            "city": "鹰潭市",
            "district": "月湖区"
        }
    },
    {
        "id": "14001703504901747991",
        "title": "男洗手间",
        "address": "江西省鹰潭市月湖区环城西路18号-2区-3时代广场F3",
        "tel": "",
        "category": "基础设施:公共设施:男洗手间",
        "type": 0,
        "location": {
            "lat": 28.239736,
            "lng": 117.031509
        },
        "ad_info": {
            "adcode": 360602,
            "province": "江西省",
            "city": "鹰潭市",
            "district": "月湖区"
        }
    },
    {
        "id": "15249282273774779874",
        "title": "女洗手间",
        "address": "江西省鹰潭市月湖区环城西路18号-2区-3时代广场F4",
        "tel": "",
        "category": "基础设施:公共设施:女洗手间",
        "type": 0,
        "location": {
            "lat": 28.239745,
            "lng": 117.031471
        },
        "ad_info": {
            "adcode": 360602,
            "province": "江西省",
            "city": "鹰潭市",
            "district": "月湖区"
        }
    },
    {
        "id": "113342858541809225",
        "title": "女洗手间",
        "address": "江西省鹰潭市月湖区环城西路18号-2区-3时代广场F2",
        "tel": "",
        "category": "基础设施:公共设施:女洗手间",
        "type": 0,
        "location": {
            "lat": 28.239993,
            "lng": 117.032093
        },
        "ad_info": {
            "adcode": 360602,
            "province": "江西省",
            "city": "鹰潭市",
            "district": "月湖区"
        }
    },
    {
        "id": "2345501241546703596",
        "title": "女洗手间",
        "address": "江西省鹰潭市月湖区环城西路18号-2区-3时代广场F4",
        "tel": "",
        "category": "基础设施:公共设施:女洗手间",
        "type": 0,
        "location": {
            "lat": 28.239994,
            "lng": 117.032089
        },
        "ad_info": {
            "adcode": 360602,
            "province": "江西省",
            "city": "鹰潭市",
            "district": "月湖区"
        }
    },
    {
        "id": "5518734269192819868",
        "title": "残障-洗手间",
        "address": "江西省鹰潭市月湖区四海东路鹰潭站F1",
        "tel": "",
        "category": "基础设施:公共设施:无障碍洗手间",
        "type": 0,
        "location": {
            "lat": 28.235365,
            "lng": 117.028012
        },
        "ad_info": {
            "adcode": 360602,
            "province": "江西省",
            "city": "鹰潭市",
            "district": "月湖区"
        }
    },
    {
        "id": "17956651232284065283",
        "title": "女洗手间",
        "address": "江西省鹰潭市月湖区环城西路18号-2区-3时代广场F3",
        "tel": "",
        "category": "基础设施:公共设施:女洗手间",
        "type": 0,
        "location": {
            "lat": 28.239748,
            "lng": 117.031483
        },
        "ad_info": {
            "adcode": 360602,
            "province": "江西省",
            "city": "鹰潭市",
            "district": "月湖区"
        }
    },
    {
        "id": "4769432140926224674",
        "title": "女洗手间",
        "address": "江西省鹰潭市月湖区环城西路18号-2区-3时代广场F3",
        "tel": "",
        "category": "基础设施:公共设施:女洗手间",
        "type": 0,
        "location": {
            "lat": 28.239998,
            "lng": 117.032094
        },
        "ad_info": {
            "adcode": 360602,
            "province": "江西省",
            "city": "鹰潭市",
            "district": "月湖区"
        }
    },
    {
        "id": "6377420995863756138",
        "title": "女洗手间",
        "address": "江西省鹰潭市月湖区环城西路18号-2区-3时代广场F2",
        "tel": "",
        "category": "基础设施:公共设施:女洗手间",
        "type": 0,
        "location": {
            "lat": 28.23975,
            "lng": 117.031408
        },
        "ad_info": {
            "adcode": 360602,
            "province": "江西省",
            "city": "鹰潭市",
            "district": "月湖区"
        }
    },
    {
        "id": "7327294427740973194",
        "title": "男洗手间",
        "address": "江西省鹰潭市月湖区环城西路18号-2区-3时代广场F4",
        "tel": "",
        "category": "基础设施:公共设施:男洗手间",
        "type": 0,
        "location": {
            "lat": 28.239733,
            "lng": 117.031507
        },
        "ad_info": {
            "adcode": 360602,
            "province": "江西省",
            "city": "鹰潭市",
            "district": "月湖区"
        }
    },
    {
        "id": "840725315755578878",
        "title": "残障-洗手间",
        "address": "江西省鹰潭市月湖区四海东路鹰潭站F2",
        "tel": "",
        "category": "基础设施:公共设施:无障碍洗手间",
        "type": 0,
        "location": {
            "lat": 28.235399,
            "lng": 117.028024
        },
        "ad_info": {
            "adcode": 360602,
            "province": "江西省",
            "city": "鹰潭市",
            "district": "月湖区"
        }
    },
    {
        "id": "4631742534490148029",
        "title": "公共厕所",
        "address": "江西省鹰潭市月湖区林荫东路鹰潭公园(东南角)",
        "tel": "",
        "category": "基础设施:公共设施:公共厕所",
        "type": 0,
        "location": {
            "lat": 28.241026,
            "lng": 117.039628
        },
        "ad_info": {
            "adcode": 360602,
            "province": "江西省",
            "city": "鹰潭市",
            "district": "月湖区"
        }
    },
    {
        "id": "18325946530139454039",
        "title": "公共厕所",
        "address": "江西省鹰潭市贵溪市沿河东路与芗溪大道交叉口正南方向237米左右",
        "tel": "",
        "category": "基础设施:公共设施:公共厕所",
        "type": 0,
        "location": {
            "lat": 28.279585,
            "lng": 117.252304
        },
        "ad_info": {
            "adcode": 360681,
            "province": "江西省",
            "city": "鹰潭市",
            "district": "贵溪市"
        }
    },
    {
        "id": "17164469368837018205",
        "title": "公共厕所",
        "address": "江西省鹰潭市贵溪市仙水岩大道与天师路交叉口东南方向96米左右",
        "tel": "",
        "category": "基础设施:公共设施:公共厕所",
        "type": 0,
        "location": {
            "lat": 28.123494,
            "lng": 116.983625
        },
        "ad_info": {
            "adcode": 360681,
            "province": "江西省",
            "city": "鹰潭市",
            "district": "贵溪市"
        }
    },
    {
        "id": "6023435483872900921",
        "title": "公共厕所",
        "address": "江西省鹰潭市贵溪市S207与云台山路交叉口东北方向614米左右",
        "tel": "",
        "category": "基础设施:公共设施:公共厕所",
        "type": 0,
        "location": {
            "lat": 27.95723,
            "lng": 117.157268
        },
        "ad_info": {
            "adcode": 360681,
            "province": "江西省",
            "city": "鹰潭市",
            "district": "贵溪市"
        }
    },
    {
        "id": "14860845647956069181",
        "title": "余江服务区-公共厕所",
        "address": "江西省鹰潭市余江区中国石化江西鹰潭余江服务区东加油站东南侧200米",
        "tel": "",
        "category": "基础设施:公共设施:公共厕所",
        "type": 0,
        "location": {
            "lat": 28.375369,
            "lng": 116.87106
        },
        "ad_info": {
            "adcode": 360603,
            "province": "江西省",
            "city": "鹰潭市",
            "district": "余江区"
        }
    },
    {
        "id": "11825464502953588522",
        "title": "公共厕所",
        "address": "江西省鹰潭市余江区中洲菜市场(中洲三路东)",
        "tel": "",
        "category": "基础设施:公共设施:公共厕所",
        "type": 0,
        "location": {
            "lat": 28.203613,
            "lng": 116.82806
        },
        "ad_info": {
            "adcode": 360603,
            "province": "江西省",
            "city": "鹰潭市",
            "district": "余江区"
        }
    },
    {
        "id": "15232889950749248680",
        "title": "公共厕所",
        "address": "江西省鹰潭市月湖区西湖路52号赣东商城9区",
        "tel": "",
        "category": "基础设施:公共设施:公共厕所",
        "type": 0,
        "location": {
            "lat": 28.237988,
            "lng": 117.024685
        },
        "ad_info": {
            "adcode": 360602,
            "province": "江西省",
            "city": "鹰潭市",
            "district": "月湖区"
        }
    },
    {
        "id": "12295121771368595855",
        "title": "公共厕所",
        "address": "江西省鹰潭市月湖区南站路与平安路交叉口西南方向83米左右",
        "tel": "",
        "category": "基础设施:公共设施:公共厕所",
        "type": 0,
        "location": {
            "lat": 28.2227,
            "lng": 117.037662
        },
        "ad_info": {
            "adcode": 360602,
            "province": "江西省",
            "city": "鹰潭市",
            "district": "月湖区"
        }
    },
    {
        "id": "5500952689036256948",
        "title": "公共厕所",
        "address": "江西省鹰潭市余江区杨柳路与沿河北路交叉口正南方向35米左右",
        "tel": "",
        "category": "基础设施:公共设施:公共厕所",
        "type": 0,
        "location": {
            "lat": 28.203781,
            "lng": 116.82492
        },
        "ad_info": {
            "adcode": 360603,
            "province": "江西省",
            "city": "鹰潭市",
            "district": "余江区"
        }
    }
]